DopplerPredictor/satellites_20260211_210203/SAT-57071.csv

timestamp,satellite,azimuth_deg,elevation_deg,distance_km,relative_velocity_kms,doppler_shift_hz,tx_freq_ghz,rx_freq_hz,ue_lat,ue_lon,ue_alt_m,time_minutes
2026-02-06T22:02:25+00:00,SAT-57071,202.46919900456604,40.13208148612187,827.2445730083858,-2.297432323576713,80465.79810074971,10.5,10500080465.798101,47.655,-122.3035,60.0,2.7
2026-02-06T22:02:26+00:00,SAT-57071,201.8847710961864,40.29361028273805,824.953299783823,-2.2452865942811417,78639.43408460259,10.5,10500078639.434084,47.655,-122.3035,60.0,2.716666666666667
2026-02-06T22:02:27+00:00,SAT-57071,201.29430105868403,40.45265105780517,822.7140324930515,-2.1927115004657356,76798.03190676073,10.5,10500076798.031906,47.655,-122.3035,60.0,2.7333333333333334
2026-02-06T22:02:28+00:00,SAT-57071,200.6978230628115,40.609107757353186,820.5271993495244,-2.139712565945874,74941.78503460443,10.5,10500074941.785034,47.655,-122.3035,60.0,2.75
2026-02-06T22:02:29+00:00,SAT-57071,200.09537720727107,40.7628838796356,818.3932230576875,-2.0862956677740674,73070.89930737253,10.5,10500073070.899307,47.655,-122.3035,60.0,2.7666666666666666
2026-02-06T22:02:30+00:00,SAT-57071,199.48700969356682,40.91388260376267,816.3125204606903,-2.0324670297475813,71185.5927087719,10.5,10500071185.592709,47.655,-122.3035,60.0,2.783333333333333
2026-02-06T22:02:31+00:00,SAT-57071,198.87277299533542,41.06200692394411,814.2855021945685,-1.9782332265043039,69286.09551043206,10.5,10500069286.09551,47.655,-122.3035,60.0,2.8
2026-02-06T22:02:32+00:00,SAT-57071,198.2527260178665,41.2071597899575,812.3125723383483,-1.9236011707133218,67372.64982326499,10.5,10500067372.649824,47.655,-122.3035,60.0,2.816666666666667
2026-02-06T22:02:33+00:00,SAT-57071,197.62693425201,41.34924425244983,810.394128076917,-1.8685781557775758,65445.51109309276,10.5,10500065445.511093,47.655,-122.3035,60.0,2.8333333333333335
2026-02-06T22:02:34+00:00,SAT-57071,196.99546990276338,41.48816361697344,808.5305593213112,-1.813171797861237,63504.94607020097,10.5,10500063504.94607,47.655,-122.3035,60.0,2.85
2026-02-06T22:02:35+00:00,SAT-57071,196.3584120238491,41.62382159909496,806.7222483868222,-1.7573900803224642,61551.23436556191,10.5,10500061551.234365,47.655,-122.3035,60.0,2.8666666666666667
2026-02-06T22:02:36+00:00,SAT-57071,195.71584662344037,41.75612248784742,804.9695696267854,-1.701241326076294,59584.66748286605,10.5,10500059584.667482,47.655,-122.3035,60.0,2.8833333333333333
2026-02-06T22:02:37+00:00,SAT-57071,195.0678667634751,41.88497131187734,803.272889093933,-1.6447342107534602,57605.54927939959,10.5,10500057605.54928,47.655,-122.3035,60.0,2.9
2026-02-06T22:02:38+00:00,SAT-57071,194.4145726370328,42.01027401095692,801.6325641886252,-1.5878777602370566,55614.19587976792,10.5,10500055614.195879,47.655,-122.3035,60.0,2.9166666666666665
2026-02-06T22:02:39+00:00,SAT-57071,193.75607162716761,42.13193761129668,800.0489433095362,-1.530681317939155,53610.93452978436,10.5,10500053610.93453,47.655,-122.3035,60.0,2.933333333333333
2026-02-06T22:02:40+00:00,SAT-57071,193.09247835918387,42.249870401882696,798.5223655369765,-1.4731545866335154,51596.10506162871,10.5,10500051596.105062,47.655,-122.3035,60.0,2.95
2026-02-06T22:02:41+00:00,SAT-57071,192.42391471377172,42.36398211703625,797.0531602744945,-1.4153075880588515,49570.058478982624,10.5,10500049570.05848,47.655,-122.3035,60.0,2.966666666666667
2026-02-06T22:02:42+00:00,SAT-57071,191.75050983364574,42.47418411840218,795.6416469307668,-1.3571506679221261,47533.15713226623,10.5,10500047533.157133,47.655,-122.3035,60.0,2.9833333333333334
2026-02-06T22:02:43+00:00,SAT-57071,191.0724001039512,42.58038957923468,794.2881345964986,-1.2986944925819073,45485.77460247525,10.5,10500045485.774603,47.655,-122.3035,60.0,3.0
2026-02-06T22:02:44+00:00,SAT-57071,190.38972910825964,42.68251366975761,792.9929217246314,-1.2399500436447242,43428.29551192247,10.5,10500043428.295511,47.655,-122.3035,60.0,3.0166666666666666
2026-02-06T22:02:45+00:00,SAT-57071,189.70264755928798,42.78047374280968,791.7562958159407,-1.1809285937271758,41361.114675324316,10.5,10500041361.114676,47.655,-122.3035,60.0,3.033333333333333
2026-02-06T22:02:46+00:00,SAT-57071,189.01131321447923,42.87418951759579,790.5785331288054,-1.1216417257581175,39284.637775845025,10.5,10500039284.637775,47.655,-122.3035,60.0,3.05
2026-02-06T22:02:47+00:00,SAT-57071,188.315890750796,42.96358326429324,789.4598983697273,-1.0621012913859549,37199.279908344215,10.5,10500037199.27991,47.655,-122.3035,60.0,3.066666666666667
2026-02-06T22:02:48+00:00,SAT-57071,187.6165516330985,43.04857998397326,788.4006444253336,-1.0023194311812706,35105.46628695823,10.5,10500035105.466288,47.655,-122.3035,60.0,3.0833333333333335
2026-02-06T22:02:49+00:00,SAT-57071,186.91347393837108,43.12910758800039,787.4010120742271,-0.9423085429086626,33003.63113384579,10.5,10500033003.631134,47.655,-122.3035,60.0,3.1
2026-02-06T22:02:50+00:00,SAT-57071,186.20684216735637,43.205097072025346,786.4612297304833,-0.8820812776549989,30894.21754358306,10.5,10500030894.217543,47.655,-122.3035,60.0,3.1166666666666667
2026-02-06T22:02:51+00:00,SAT-57071,185.4968470260215,43.27648268603125,785.5815131910067,-0.8216505258725609,28777.676994335492,10.5,10500028777.676994,47.655,-122.3035,60.0,3.1333333333333333
2026-02-06T22:02:52+00:00,SAT-57071,184.78368518353514,43.343202098855606,784.7620653968061,-0.7610294142895736,26654.46923965153,10.5,10500026654.46924,47.655,-122.3035,60.0,3.15
2026-02-06T22:02:53+00:00,SAT-57071,184.06755899659555,43.40519655732786,784.0030761973543,-0.7002312797513726,24525.06139226962,10.5,10500024525.061392,47.655,-122.3035,60.0,3.1666666666666665
2026-02-06T22:02:54+00:00,SAT-57071,183.34867621974607,43.462411037391426,783.304722141032,-0.6392696542304618,22389.927399107048,10.5,10500022389.927399,47.655,-122.3035,60.0,3.183333333333333
2026-02-06T22:02:55+00:00,SAT-57071,182.62724969615425,43.51479438736997,782.6671662805254,-0.57815827016028,20249.54822807097,10.5,10500020249.548227,47.655,-122.3035,60.0,3.2
2026-02-06T22:02:56+00:00,SAT-57071,181.90349700409277,43.56229946435412,782.0905579729014,-0.5169110226640539,18104.410545153096,10.5,10500018104.410545,47.655,-122.3035,60.0,3.216666666666667
2026-02-06T22:02:57+00:00,SAT-57071,181.17764010680622,43.60488325948708,781.5750327173555,-0.45554196948987236,15955.006712155715,10.5,10500015955.006712,47.655,-122.3035,60.0,3.2333333333333334
2026-02-06T22:02:58+00:00,SAT-57071,180.44990496478354,43.64250701459348,781.1207119930214,-0.3940653066353233,13801.833932963365,10.5,10500013801.833933,47.655,-122.3035,60.0,3.25
2026-02-06T22:02:59+00:00,SAT-57071,179.7205211412232,43.675136327556295,780.7277031210921,-0.3324953589873559,11645.393925711223,10.5,10500011645.393927,47.655,-122.3035,60.0,3.2666666666666666
2026-02-06T22:03:00+00:00,SAT-57071,178.98972138002796,43.702741247114496,780.3960991362776,-0.2708465584211851,9486.192155716084,10.5,10500009486.192156,47.655,-122.3035,60.0,3.283333333333333
2026-02-06T22:03:01+00:00,SAT-57071,178.2577411782613,43.72529635554775,780.1259786801028,-0.2091334310925105,7324.737390396126,10.5,10500007324.73739,47.655,-122.3035,60.0,3.3
2026-02-06T22:03:02+00:00,SAT-57071,177.5248183375916,43.74278083955665,779.9174059068788,-0.14737057806303477,5161.541020694606,10.5,10500005161.541021,47.655,-122.3035,60.0,3.316666666666667
2026-02-06T22:03:03+00:00,SAT-57071,176.79119251190122,43.755178548397005,779.7704304089983,-0.08557266048103002,2997.1165420406114,10.5,10500002997.116543,47.655,-122.3035,60.0,3.3333333333333335
2026-02-06T22:03:04+00:00,SAT-57071,176.0571047358277,43.76247803934221,779.6850871570109,-0.023754379892903476,831.9788647767999,10.5,10500000831.978865,47.655,-122.3035,60.0,3.35
2026-02-06T22:03:05+00:00,SAT-57071,175.32279695651346,43.76467260979753,779.6613964593323,0.038069537778557566,-1333.3562469902242,10.5,10499998666.643753,47.655,-122.3035,60.0,3.3666666666666667
2026-02-06T22:03:06+00:00,SAT-57071,174.58851155725523,43.76176031620752,779.6993639379338,0.09988435963448718,-3498.372784822077,10.5,10499996501.627214,47.655,-122.3035,60.0,3.3833333333333333
2026-02-06T22:03:07+00:00,SAT-57071,173.85449087693547,43.75374397953346,779.7989805213842,0.16167536341305921,-5662.555112834499,10.5,10499994337.444887,47.655,-122.3035,60.0,3.4
2026-02-06T22:03:08+00:00,SAT-57071,173.1209767329966,43.7406311772499,779.9602224554591,0.22342785679637495,-7825.388643906235,10.5,10499992174.611357,47.655,-122.3035,60.0,3.4166666666666665
2026-02-06T22:03:09+00:00,SAT-57071,172.38820993906722,43.72243422176606,780.1830513330044,0.28512718882838295,-9986.360239582882,10.5,10499990013.639761,47.655,-122.3035,60.0,3.433333333333333
2026-02-06T22:03:10+00:00,SAT-57071,171.65642984782014,43.69917012604194,780.4674141351874,0.3467587775648292,-12144.959178495099,10.5,10499987855.040821,47.655,-122.3035,60.0,3.45
2026-02-06T22:03:11+00:00,SAT-57071,170.92587386841782,43.67086055526051,780.8132433003223,0.40830811385593707,-14300.677288844066,10.5,10499985699.322712,47.655,-122.3035,60.0,3.466666666666667
2026-02-06T22:03:12+00:00,SAT-57071,170.19677702983125,43.63753176677064,781.2204567964715,0.46976079307342394,-16453.01005961581,10.5,10499983546.98994,47.655,-122.3035,60.0,3.4833333333333334
2026-02-06T22:03:13+00:00,SAT-57071,169.46937152188102,43.59921453635141,781.6889582256858,0.5311025153656275,-18601.45664951681,10.5,10499981398.54335,47.655,-122.3035,60.0,3.5
2026-02-06T22:03:14+00:00,SAT-57071,168.743886280626,43.5559440737625,782.2186369284998,0.5923191178063449,-20745.521012962316,10.5,10499979254.478987,47.655,-122.3035,60.0,3.5166666666666666
2026-02-06T22:03:15+00:00,SAT-57071,168.02054656286703,43.507759925447274,782.8093681204913,0.6533965795467834,-22884.712080519468,10.5,10499977115.28792,47.655,-122.3035,60.0,3.533333333333333
2026-02-06T22:03:16+00:00,SAT-57071,167.29957355500272,43.454705867087995,783.461013033977,0.7143210395350239,-25018.544379517883,10.5,10499974981.45562,47.655,-122.3035,60.0,3.55
2026-02-06T22:03:17+00:00,SAT-57071,166.58118399637615,43.39682978557011,784.1734190773814,0.7750788166912024,-27146.538740669803,10.5,10499972853.46126,47.655,-122.3035,60.0,3.566666666666667
2026-02-06T22:03:18+00:00,SAT-57071,165.86558981797063,43.33418355076828,784.9464200147258,0.8356564159302949,-29268.22250901354,10.5,10499970731.77749,47.655,-122.3035,60.0,3.5833333333333335
2026-02-06T22:03:19+00:00,SAT-57071,165.15299781169435,43.266822878949625,785.7798361511258,0.8960405537757589,-31383.130441011523,10.5,10499968616.869558,47.655,-122.3035,60.0,3.6
2026-02-06T22:03:20+00:00,SAT-57071,164.4436093117588,43.19480718689603,786.6734745438305,0.9562181523547899,-33490.80449423879,10.5,10499966509.195505,47.655,-122.3035,60.0,3.6166666666666667
2026-02-06T22:03:21+00:00,SAT-57071,163.73761991609604,43.11819944002092,787.6271292072768,1.016176384210599,-35590.79539689852,10.5,10499964409.204603,47.655,-122.3035,60.0,3.6333333333333333
2026-02-06T22:03:22+00:00,SAT-57071,163.03521920738322,43.037065991115405,788.6405813628335,1.0759026479152338,-37682.6617936798,10.5,10499962317.338207,47.655,-122.3035,60.0,3.65
2026-02-06T22:03:23+00:00,SAT-57071,162.33659052723863,42.95147641604196,789.7135996642244,1.1353846098582014,-39765.971709372076,10.5,10499960234.02829,47.655,-122.3035,60.0,3.6666666666666665
2026-02-06T22:03:24+00:00,SAT-57071,161.64191075384446,42.86150334183073,790.8459404646269,1.1946101947313272,-41840.302215604555,10.5,10499958159.697784,47.655,-122.3035,60.0,3.683333333333333
2026-02-06T22:03:25+00:00,SAT-57071,160.95135011943657,42.76722227203288,792.0373480742824,1.2535676128717366,-43905.24038851316,10.5,10499956094.759611,47.655,-122.3035,60.0,3.7
2026-02-06T22:03:26+00:00,SAT-57071,160.2650720430028,42.66871140717025,793.2875550453762,1.3122453533682379,-45960.38306729684,10.5,10499954039.616932,47.655,-122.3035,60.0,3.716666666666667
2026-02-06T22:03:27+00:00,SAT-57071,159.58323299840106,42.56605146373946,794.596282450042,1.3706322095249097,-48005.337746060155,10.5,10499951994.662254,47.655,-122.3035,60.0,3.7333333333333334
2026-02-06T22:03:28+00:00,SAT-57071,158.90598239860464,42.4593254899455,795.9632401837606,1.428717277425256,-50039.72252352387,10.5,10499949960.277477,47.655,-122.3035,60.0,3.75
2026-02-06T22:03:29+00:00,SAT-57071,158.23346251048346,42.34861868101964,797.388127267328,1.4864899559493532,-52063.16610362562,10.5,10499947936.833897,47.655,-122.3035,60.0,3.7666666666666666
2026-02-06T22:03:30+00:00,SAT-57071,157.56580839692023,42.23401819466351,798.870632148841,1.5439399834997218,-54075.309081815125,10.5,10499945924.690918,47.655,-122.3035,60.0,3.783333333333333
2026-02-06T22:03:31+00:00,SAT-57071,156.9031478689398,42.115612964466884,800.4104330423088,1.601057410284162,-56075.80297428196,10.5,10499943924.197025,47.655,-122.3035,60.0,3.8
2026-02-06T22:03:32+00:00,SAT-57071,156.24560147654756,41.9934935169206,802.0071982386219,1.6578326151598062,-58064.31080790553,10.5,10499941935.689192,47.655,-122.3035,60.0,3.816666666666667
2026-02-06T22:03:33+00:00,SAT-57071,155.59328251541683,41.86775178915459,803.6605864333213,1.7142563227992615,-60040.50772148593,10.5,10499939959.49228,47.655,-122.3035,60.0,3.8333333333333335
2026-02-06T22:03:34+00:00,SAT-57071,154.94629704980753,41.73848094797211,805.3702470714863,1.7703196061198985,-62004.08105082795,10.5,10499937995.91895,47.655,-122.3035,60.0,3.85
2026-02-06T22:03:35+00:00,SAT-57071,154.30474395669785,41.60577521185709,807.1358206950467,1.8260138507324803,-63954.72908358169,10.5,10499936045.270916,47.655,-122.3035,60.0,3.8666666666666667
2026-02-06T22:03:36+00:00,SAT-57071,153.6687150024496,41.46972967924084,808.9569392546351,1.8813308306167391,-65892.16370972135,10.5,10499934107.83629,47.655,-122.3035,60.0,3.8833333333333333
2026-02-06T22:03:37+00:00,SAT-57071,153.0382949105318,41.33044015514872,810.8332264969188,1.9362626416049382,-67816.10809185817,10.5,10499932183.891909,47.655,-122.3035,60.0,3.9
2026-02-06T22:03:38+00:00,SAT-57071,152.4135614703613,41.18800298728717,812.7642982855858,1.9908017361036972,-69726.2978813457,10.5,10499930273.702118,47.655,-122.3035,60.0,3.9166666666666665
2026-02-06T22:03:39+00:00,SAT-57071,151.7945856489611,41.042514904326545,814.7497629569654,2.0449409196893042,-71622.48109903318,10.5,10499928377.518902,47.655,-122.3035,60.0,3.933333333333333
2026-02-06T22:03:40+00:00,SAT-57071,151.1814317180684,40.894072859570976,816.7892216722512,2.0986733556161346,-73504.41829316936,10.5,10499926495.581707,47.655,-122.3035,60.0,3.95
2026-02-06T22:03:41+00:00,SAT-57071,150.57415739263155,40.74277387969567,818.8822687742178,2.151992545382955,-75371.88185875252,10.5,10499924628.118141,47.655,-122.3035,60.0,3.966666666666667
2026-02-06T22:03:42+00:00,SAT-57071,149.9728139860895,40.58871492051682,821.0284921245614,2.204892354588359,-77224.65694309685,10.5,10499922775.343058,47.655,-122.3035,60.0,3.9833333333333334
2026-02-06T22:03:43+00:00,SAT-57071,149.37744656783502,40.43199272670533,823.2274734670226,2.2573669913793215,-79062.5406910099,10.5,10499920937.459309,47.655,-122.3035,60.0,4.0
2026-02-06T22:03:44+00:00,SAT-57071,148.78809413531934,40.27270369901959,825.4787887690145,2.3094110055432653,-80885.34221299285,10.5,10499919114.657787,47.655,-122.3035,60.0,4.016666666666667
2026-02-06T22:03:45+00:00,SAT-57071,148.2047897931982,40.11094376767499,827.7820085623507,2.3610193042832015,-82692.88313775264,10.5,10499917307.116861,47.655,-122.3035,60.0,4.033333333333333
