DopplerPredictor/satellites_20260211_210203/SAT-58998.csv

timestamp,satellite,azimuth_deg,elevation_deg,distance_km,relative_velocity_kms,doppler_shift_hz,tx_freq_ghz,rx_freq_hz,ue_lat,ue_lon,ue_alt_m,time_minutes
2026-02-06T22:08:24+00:00,SAT-58998,294.18008082168,40.02339057165693,714.7069117583932,-5.202429683023599,182211.09375522647,10.5,10500182211.093756,47.655,-122.3035,60.0,8.683333333333334
2026-02-06T22:08:25+00:00,SAT-58998,294.1114275998322,40.43691611101197,709.5184290714144,-5.169767642688968,181067.13094241408,10.5,10500181067.130943,47.655,-122.3035,60.0,8.7
2026-02-06T22:08:26+00:00,SAT-58998,294.04081066971037,40.85601715116707,704.3625208623477,-5.136376851407649,179897.64418883514,10.5,10500179897.644188,47.655,-122.3035,60.0,8.716666666666667
2026-02-06T22:08:27+00:00,SAT-58998,293.96814852898075,41.28077804919496,699.2399139284583,-5.102240635134987,178702.04949891492,10.5,10500178702.0495,47.655,-122.3035,60.0,8.733333333333333
2026-02-06T22:08:28+00:00,SAT-58998,293.8933551139565,41.71128332695931,694.1513516963571,-5.067342031608425,177479.75278246813,10.5,10500177479.752783,47.655,-122.3035,60.0,8.75
2026-02-06T22:08:29+00:00,SAT-58998,293.8163394773405,42.14761756389864,689.0975945094423,-5.031663880969295,176230.1530286582,10.5,10500176230.153028,47.655,-122.3035,60.0,8.766666666666667
2026-02-06T22:08:30+00:00,SAT-58998,293.7370054375457,42.58986528791254,684.079419824968,-4.995188695726804,174952.63775158563,10.5,10500174952.637753,47.655,-122.3035,60.0,8.783333333333333
2026-02-06T22:08:31+00:00,SAT-58998,293.6552511990924,43.038110844701585,679.0976225407986,-4.957898874138161,173646.5904637624,10.5,10500173646.590464,47.655,-122.3035,60.0,8.8
2026-02-06T22:08:32+00:00,SAT-58998,293.5709689371171,43.492438274855694,674.1530151093519,-4.9197765140526295,172311.38415614385,10.5,10500172311.384155,47.655,-122.3035,60.0,8.816666666666666
2026-02-06T22:08:33+00:00,SAT-58998,293.4840443471498,43.95293116286525,669.2464278372041,-4.880803592890196,170946.38760174232,10.5,10500170946.387602,47.655,-122.3035,60.0,8.833333333333334
2026-02-06T22:08:34+00:00,SAT-58998,293.39435615188603,44.4196724899525,664.3787090051958,-4.840961848867298,169550.96119565034,10.5,10500169550.961195,47.655,-122.3035,60.0,8.85
2026-02-06T22:08:35+00:00,SAT-58998,293.30177556437854,44.89274446274341,659.5507251069924,-4.800232906048374,168124.4613348743,10.5,10500168124.461334,47.655,-122.3035,60.0,8.866666666666667
2026-02-06T22:08:36+00:00,SAT-58998,293.20616569941916,45.37222833958028,654.763360962933,-4.758598253726744,166666.2396961661,10.5,10500166666.239697,47.655,-122.3035,60.0,8.883333333333333
2026-02-06T22:08:37+00:00,SAT-58998,293.1073809296326,45.858204240141255,650.0175198544379,-4.716039234634038,165175.6428230673,10.5,10500165175.642822,47.655,-122.3035,60.0,8.9
2026-02-06T22:08:38+00:00,SAT-58998,293.00526618009917,46.35075093775946,645.3141236701783,-4.672537146857835,163652.0156954958,10.5,10500163652.015696,47.655,-122.3035,60.0,8.916666666666666
2026-02-06T22:08:39+00:00,SAT-58998,292.8996561523464,46.849945645146484,640.6541129506014,-4.628073213518209,162094.70066769057,10.5,10500162094.700668,47.655,-122.3035,60.0,8.933333333333334
2026-02-06T22:08:40+00:00,SAT-58998,292.79037447227284,47.355863779169624,636.0384469626944,-4.58262863687307,160503.03936320922,10.5,10500160503.039364,47.655,-122.3035,60.0,8.95
2026-02-06T22:08:41+00:00,SAT-58998,292.67723275125655,47.868578712150196,631.4681037207939,-4.536184632551212,158876.37387391418,10.5,10500158876.373875,47.655,-122.3035,60.0,8.966666666666667
2026-02-06T22:08:42+00:00,SAT-58998,292.560029550645,48.388161506655706,626.9440799732489,-4.488722447161229,157214.04737671188,10.5,10500157214.047377,47.655,-122.3035,60.0,8.983333333333333
2026-02-06T22:08:43+00:00,SAT-58998,292.43854923834033,48.914680630634585,622.4673911715252,-4.440223432298235,155515.40672558037,10.5,10500155515.406725,47.655,-122.3035,60.0,9.0
2026-02-06T22:08:44+00:00,SAT-58998,292.31256072284697,49.448201658098746,618.0390713654979,-4.390669070866846,153779.80337351208,10.5,10500153779.803373,47.655,-122.3035,60.0,9.016666666666667
2026-02-06T22:08:45+00:00,SAT-58998,292.18181605054104,49.98878694876168,613.6601730724979,-4.340040985859281,152006.59367995994,10.5,10500152006.59368,47.655,-122.3035,60.0,9.033333333333333
2026-02-06T22:08:46+00:00,SAT-58998,292.04604884936435,50.53649530263698,609.331767137596,-4.288321056699826,150195.1429857124,10.5,10500150195.142986,47.655,-122.3035,60.0,9.05
2026-02-06T22:08:47+00:00,SAT-58998,291.9049725961506,51.09138160131919,605.0549424778607,-4.235491429736144,148344.82598034374,10.5,10500148344.825981,47.655,-122.3035,60.0,9.066666666666666
2026-02-06T22:08:48+00:00,SAT-58998,291.7582786871394,51.653496421553754,600.8308058161499,-4.181534580859823,146455.02889545052,10.5,10500146455.028896,47.655,-122.3035,60.0,9.083333333333334
2026-02-06T22:08:49+00:00,SAT-58998,291.6056342837804,52.22288562555408,596.6604813524494,-4.126433352739197,144525.15080870237,10.5,10500144525.150808,47.655,-122.3035,60.0,9.1
2026-02-06T22:08:50+00:00,SAT-58998,291.4466799038633,52.79958992264336,592.5451103980813,-4.070171071546242,142554.6077321116,10.5,10500142554.607733,47.655,-122.3035,60.0,9.116666666666667
2026-02-06T22:08:51+00:00,SAT-58998,291.28102672000983,53.38364441104602,588.485850893494,-4.012731560190493,140542.83307554113,10.5,10500140542.833076,47.655,-122.3035,60.0,9.133333333333333
2026-02-06T22:08:52+00:00,SAT-58998,291.1082535269104,53.975078083372935,584.4838769128595,-3.95409923387046,138489.28099331915,10.5,10500138489.280993,47.655,-122.3035,60.0,9.15
2026-02-06T22:08:53+00:00,SAT-58998,290.9279033269779,54.573913304339634,580.5403780733694,-3.894259150333512,136393.42814455283,10.5,10500136393.428144,47.655,-122.3035,60.0,9.166666666666666
2026-02-06T22:08:54+00:00,SAT-58998,290.7394794791727,55.180165251239444,576.6565588944102,-3.833197119802291,134254.77754321642,10.5,10500134254.777544,47.655,-122.3035,60.0,9.183333333333334
2026-02-06T22:08:55+00:00,SAT-58998,290.5424413429382,55.793841322700224,572.8336380471047,-3.7708997515690594,132072.8601900823,10.5,10500132072.86019,47.655,-122.3035,60.0,9.2
2026-02-06T22:08:56+00:00,SAT-58998,290.33619934175937,56.414940502205255,569.0728475573856,-3.7073545351291775,129847.2379143586,10.5,10500129847.237915,47.655,-122.3035,60.0,9.216666666666667
2026-02-06T22:08:57+00:00,SAT-58998,290.1201093541909,57.0434526766314,565.3754319281501,-3.6425499660811744,127577.50778324225,10.5,10500127577.507784,47.655,-122.3035,60.0,9.233333333333333
2026-02-06T22:08:58+00:00,SAT-58998,289.89346632100387,57.67935791220142,561.742647135856,-3.576475568807269,125263.30289628677,10.5,10500125263.302896,47.655,-122.3035,60.0,9.25
2026-02-06T22:08:59+00:00,SAT-58998,289.6554969462249,58.32262566405704,558.1757596044952,-3.5091220500999456,122904.29776605465,10.5,10500122904.297766,47.655,-122.3035,60.0,9.266666666666667
2026-02-06T22:09:00+00:00,SAT-58998,289.4053513319796,58.97321393401624,554.6760450263525,-3.440481323033857,120500.20915421261,10.5,10500120500.209154,47.655,-122.3035,60.0,9.283333333333333
2026-02-06T22:09:01+00:00,SAT-58998,289.14209337230255,59.631068344580015,551.2447871589594,-3.3705466787268334,118050.80208732853,10.5,10500118050.802088,47.655,-122.3035,60.0,9.3
2026-02-06T22:09:02+00:00,SAT-58998,288.86468967872173,60.29612114492978,547.8832764507429,-3.2993128050059646,115555.89051063663,10.5,10500115555.89051,47.655,-122.3035,60.0,9.316666666666666
2026-02-06T22:09:03+00:00,SAT-58998,288.57199678429146,60.96829010707142,544.5928086480619,-3.2267759328800967,113015.34241812387,10.5,10500113015.342419,47.655,-122.3035,60.0,9.333333333333334
2026-02-06T22:09:04+00:00,SAT-58998,288.2627463012179,61.6474773195426,541.3746832561627,-3.152933898794212,110429.08203294169,10.5,10500110429.082033,47.655,-122.3035,60.0,9.35
2026-02-06T22:09:05+00:00,SAT-58998,287.9355276533079,62.33356784211025,538.2302019380463,-3.0777862719055733,107797.094265155,10.5,10500107797.094265,47.655,-122.3035,60.0,9.366666666666667
2026-02-06T22:09:06+00:00,SAT-58998,287.5887679116688,63.02642820955082,535.1606667864012,-3.001334419376561,105119.42699857343,10.5,10500105119.426998,47.655,-122.3035,60.0,9.383333333333333
2026-02-06T22:09:07+00:00,SAT-58998,287.2207081678365,63.72590474031248,532.1673785304188,-2.9235816146037563,102396.19488139171,10.5,10500102396.194881,47.655,-122.3035,60.0,9.4
2026-02-06T22:09:08+00:00,SAT-58998,286.82937574209046,64.43182162004464,529.2516346346695,-2.8445331234160163,99627.58234521087,10.5,10500099627.582346,47.655,-122.3035,60.0,9.416666666666666
2026-02-06T22:09:09+00:00,SAT-58998,286.4125513671639,65.14397870639694,526.4147273120118,-2.764196293792734,96813.84674735114,10.5,10500096813.846746,47.655,-122.3035,60.0,9.433333333333334
2026-02-06T22:09:10+00:00,SAT-58998,285.9677302838304,65.86214899413257,523.6579414470236,-2.6825806382434014,93955.32125613287,10.5,10500093955.321257,47.655,-122.3035,60.0,9.45
2026-02-06T22:09:11+00:00,SAT-58998,285.492075927171,66.58607566069593,520.982552437275,-2.5996979152308377,91052.41770266215,10.5,10500091052.417702,47.655,-122.3035,60.0,9.466666666666667
2026-02-06T22:09:12+00:00,SAT-58998,284.98236455833216,67.3154685925229,518.3898239533967,-2.515562206121692,88105.62927596319,10.5,10500088105.629276,47.655,-122.3035,60.0,9.483333333333333
2026-02-06T22:09:13+00:00,SAT-58998,284.4349187807854,68.05000026389911,515.881005622402,-2.430189959351062,85115.53206980995,10.5,10500085115.53207,47.655,-122.3035,60.0,9.5
2026-02-06T22:09:14+00:00,SAT-58998,283.8455273611239,68.78930079508271,513.4573306669658,-2.343600116243477,82082.78948950913,10.5,10500082082.78949,47.655,-122.3035,60.0,9.516666666666667
2026-02-06T22:09:15+00:00,SAT-58998,283.2093480745508,69.53295200277805,511.120013419217,-2.2558140699561107,79008.15081391795,10.5,10500079008.150814,47.655,-122.3035,60.0,9.533333333333333
2026-02-06T22:09:16+00:00,SAT-58998,282.52078948825147,70.2804801180591,508.87024687548023,-2.166855793238053,75892.45567011416,10.5,10500075892.45567,47.655,-122.3035,60.0,9.55
2026-02-06T22:09:17+00:00,SAT-58998,281.77336642285604,71.03134686335574,506.70920012359767,-2.0767518240485776,72736.63352968694,10.5,10500072736.63353,47.655,-122.3035,60.0,9.566666666666666
2026-02-06T22:09:18+00:00,SAT-58998,280.9595225009802,71.78493837266424,504.63801578459777,-1.9855313238551595,69541.70575058021,10.5,10500069541.705751,47.655,-122.3035,60.0,9.583333333333334
2026-02-06T22:09:19+00:00,SAT-58998,280.0704113690594,72.54055135446761,502.6578073962183,-1.8932260443999704,66308.78441311452,10.5,10500066308.784412,47.655,-122.3035,60.0,9.6
2026-02-06T22:09:20+00:00,SAT-58998,279.0956260179219,73.29737563596821,500.76965682957814,-1.7998703831441754,63039.074261880996,10.5,10500063039.074263,47.655,-122.3035,60.0,9.616666666666667
2026-02-06T22:09:21+00:00,SAT-58998,278.0228628625482,74.05447201539698,498.97461165054915,-1.705501327685016,59733.87075899244,10.5,10500059733.870758,47.655,-122.3035,60.0,9.633333333333333
2026-02-06T22:09:22+00:00,SAT-58998,276.8375041500075,74.81074389962927,497.2736825365645,-1.6101584670289537,56394.56047891643,10.5,10500056394.560478,47.655,-122.3035,60.0,9.65
2026-02-06T22:09:23+00:00,SAT-58998,275.5220987381585,75.56490076589938,495.6678406821838,-1.5138839146888043,53022.618415011784,10.5,10500053022.618416,47.655,-122.3035,60.0,9.666666666666666
2026-02-06T22:09:24+00:00,SAT-58998,274.0557182043529,76.31541074383813,494.1580152813541,-1.4167222928591112,49619.60742528308,10.5,10500049619.607426,47.655,-122.3035,60.0,9.683333333333334
2026-02-06T22:09:25+00:00,SAT-58998,272.413163615216,77.06043878323912,492.7450910254545,-1.318720643692342,46187.175124897876,10.5,10500046187.175125,47.655,-122.3035,60.0,9.7
2026-02-06T22:09:26+00:00,SAT-58998,270.56400138478864,77.79776566797511,491.4299056898244,-1.2199283506624286,42727.05113200513,10.5,10500042727.051132,47.655,-122.3035,60.0,9.716666666666667
2026-02-06T22:09:27+00:00,SAT-58998,268.4714201223584,78.52468179254129,490.21324779872003,-1.1203970570947213,39241.044214309666,10.5,10500039241.044214,47.655,-122.3035,60.0,9.733333333333333
2026-02-06T22:09:28+00:00,SAT-58998,266.0909360839857,79.23784815217111,489.0958543715205,-1.0201805407318885,35731.037895839356,10.5,10500035731.037895,47.655,-122.3035,60.0,9.75
2026-02-06T22:09:29+00:00,SAT-58998,263.3690547047305,79.93311591230527,488.07840879403346,-0.9193345929086673,32198.98622513381,10.5,10500032198.986225,47.655,-122.3035,60.0,9.766666666666667
2026-02-06T22:09:30+00:00,SAT-58998,260.24215793062916,80.60529650830351,487.16153881030016,-0.8179168939035347,28646.90940953263,10.5,10500028646.90941,47.655,-122.3035,60.0,9.783333333333333
2026-02-06T22:09:31+00:00,SAT-58998,256.6361925467641,81.24787910283047,486.34581463871655,-0.715986851076046,25076.88814606031,10.5,10500025076.888145,47.655,-122.3035,60.0,9.8
2026-02-06T22:09:32+00:00,SAT-58998,252.4682597132324,81.85270675515123,485.6317472495822,-0.6136054429924656,21491.05816204652,10.5,10500021491.058163,47.655,-122.3035,60.0,9.816666666666666
2026-02-06T22:09:33+00:00,SAT-58998,247.65198639152877,82.40965610950006,485.01978679810475,-0.5108350469991868,17891.60417601787,10.5,10500017891.604176,47.655,-122.3035,60.0,9.833333333333334
2026-02-06T22:09:34+00:00,SAT-58998,242.10940848606626,82.90642962779361,484.51032122937136,-0.40773925425583085,14280.753419374627,10.5,10500014280.75342,47.655,-122.3035,60.0,9.85
2026-02-06T22:09:35+00:00,SAT-58998,235.79220068015138,83.32866907699021,484.1036750677881,-0.3043826851507784,10660.769171461856,10.5,10500010660.76917,47.655,-122.3035,60.0,9.866666666666667
2026-02-06T22:09:36+00:00,SAT-58998,228.71256673361776,83.66070150246625,483.8001083906114,-0.20083078275805205,7033.943525555757,10.5,10500007033.943525,47.655,-122.3035,60.0,9.883333333333333
2026-02-06T22:09:37+00:00,SAT-58998,220.97668339736137,83.88721753433894,483.59981600746715,-0.09714961368879509,3402.5904138400588,10.5,10500003402.590414,47.655,-122.3035,60.0,9.9
2026-02-06T22:09:38+00:00,SAT-58998,212.80258959823573,83.99586493001965,483.50292683848613,0.006594341484902413,-230.9617328381067,10.5,10499999769.038267,47.655,-122.3035,60.0,9.916666666666666
2026-02-06T22:09:39+00:00,SAT-58998,204.50040317713967,83.98006766910362,483.50950350145143,0.11033440269385433,-3864.3774963994274,10.5,10499996135.622503,47.655,-122.3035,60.0,9.933333333333334
2026-02-06T22:09:40+00:00,SAT-58998,196.40991553024523,83.84079879378346,483.61954211283785,0.21400390206881714,-7495.321886058188,10.5,10499992504.678114,47.655,-122.3035,60.0,9.95
2026-02-06T22:09:41+00:00,SAT-58998,188.82255763935913,83.5863050348336,483.8329722999777,0.3175363985975911,-11121.467856521947,10.5,10499988878.532143,47.655,-122.3035,60.0,9.966666666666667
2026-02-06T22:09:42+00:00,SAT-58998,181.92838398463613,83.22994785997157,484.1496574273106,0.42086588776459477,-14740.503650456227,10.5,10499985259.49635,47.655,-122.3035,60.0,9.983333333333333
