DopplerPredictor/satellites_20260211_210203/SAT-61068.csv

timestamp,satellite,azimuth_deg,elevation_deg,distance_km,relative_velocity_kms,doppler_shift_hz,tx_freq_ghz,rx_freq_hz,ue_lat,ue_lon,ue_alt_m,time_minutes
2026-02-06T22:09:39+00:00,SAT-61068,331.8360825907857,40.08506518146079,714.2451772630104,-3.811360782668512,133489.976649177,10.5,10500133489.976648,47.655,-122.3035,60.0,9.933333333333334
2026-02-06T22:09:40+00:00,SAT-61068,332.36406987636013,40.388053708786536,710.4440342126326,-3.76159168748711,131746.85241286043,10.5,10500131746.852413,47.655,-122.3035,60.0,9.95
2026-02-06T22:09:41+00:00,SAT-61068,332.9024607482189,40.69140158573003,706.6925268333597,-3.711021191973835,129975.65974700161,10.5,10500129975.659746,47.655,-122.3035,60.0,9.966666666666667
2026-02-06T22:09:42+00:00,SAT-61068,333.4514728454355,40.994984679227805,702.9914543770808,-3.659643238220326,128176.18647802481,10.5,10500128176.186478,47.655,-122.3035,60.0,9.983333333333333
