DopplerPredictor/satellites_20260211_210203/SAT-48431.csv

timestamp,satellite,azimuth_deg,elevation_deg,distance_km,relative_velocity_kms,doppler_shift_hz,tx_freq_ghz,rx_freq_hz,ue_lat,ue_lon,ue_alt_m,time_minutes
2026-02-06T21:59:43+00:00,SAT-48431,65.60337864474533,67.2964188233989,598.257795584303,2.629840056513168,-92108.12299150055,10.5,10499907891.877008,47.655,-122.3035,60.0,0.0
2026-02-06T21:59:44+00:00,SAT-48431,65.47630640229956,66.64862530719229,600.8805854025425,2.6995260512436805,-94548.82129842855,10.5,10499905451.178701,47.655,-122.3035,60.0,0.016666666666666666
2026-02-06T21:59:45+00:00,SAT-48431,65.3569430545611,66.00617055515056,603.5728743969773,2.7682804447967406,-96956.89099145308,10.5,10499903043.109009,47.655,-122.3035,60.0,0.03333333333333333
2026-02-06T21:59:46+00:00,SAT-48431,65.24462457985986,65.36913201905105,606.3337334639244,2.8360966011525672,-99332.09964909108,10.5,10499900667.90035,47.655,-122.3035,60.0,0.05
2026-02-06T21:59:47+00:00,SAT-48431,65.13876099123583,64.7375798187598,609.1622268814706,2.9029690940465316,-101674.2572206022,10.5,10499898325.742779,47.655,-122.3035,60.0,0.06666666666666667
2026-02-06T21:59:48+00:00,SAT-48431,65.03882631161899,64.11157702036664,612.0574135159857,2.9688936336657057,-103983.21345859178,10.5,10499896016.786541,47.655,-122.3035,60.0,0.08333333333333333
2026-02-06T21:59:49+00:00,SAT-48431,64.94435013396861,63.491179907611055,615.0183479555267,3.0338670633774436,-106258.85780443203,10.5,10499893741.142195,47.655,-122.3035,60.0,0.1
2026-02-06T21:59:50+00:00,SAT-48431,64.8549104798763,62.87643823404794,618.0440816399808,3.0978872909544206,-108501.1169794719,10.5,10499891498.88302,47.655,-122.3035,60.0,0.11666666666666667
2026-02-06T21:59:51+00:00,SAT-48431,64.77012773108086,62.26739547248227,621.133663922617,3.1609532631309856,-110709.95409389301,10.5,10499889290.045906,47.655,-122.3035,60.0,0.13333333333333333
2026-02-06T21:59:52+00:00,SAT-48431,64.68965945016109,61.664089053930454,624.2861431062611,3.2230649044086785,-112885.36650341992,10.5,10499887114.633497,47.655,-122.3035,60.0,0.15
2026-02-06T21:59:53+00:00,SAT-48431,64.61319594211422,61.06655060451682,627.5005674184437,3.2842231053111415,-115027.38539795749,10.5,10499884972.614601,47.655,-122.3035,60.0,0.16666666666666666
2026-02-06T21:59:54+00:00,SAT-48431,64.54045643610851,60.47480617162669,630.7759859748323,3.344429635643076,-117136.07276355263,10.5,10499882863.927237,47.655,-122.3035,60.0,0.18333333333333332
2026-02-06T21:59:55+00:00,SAT-48431,64.4711857892518,59.88887645397764,634.1114496561535,3.403687140007615,-119211.5212253937,10.5,10499880788.478775,47.655,-122.3035,60.0,0.2
2026-02-06T21:59:56+00:00,SAT-48431,64.4051516302794,59.30877702065246,637.5060119806476,3.4619990735316444,-121253.85179663947,10.5,10499878746.148203,47.655,-122.3035,60.0,0.21666666666666667
2026-02-06T21:59:57+00:00,SAT-48431,64.34214187672988,58.734518530437875,640.9587299124188,3.519369658357616,-123263.21235457821,10.5,10499876736.787645,47.655,-122.3035,60.0,0.23333333333333334
2026-02-06T21:59:58+00:00,SAT-48431,64.28196256989017,58.16610694759554,644.4686646263954,3.575803835312991,-125239.77594788728,10.5,10499874760.224052,47.655,-122.3035,60.0,0.25
2026-02-06T21:59:59+00:00,SAT-48431,64.22443598083669,57.60354375489199,648.034882225087,3.6313072369171646,-127183.73985122143,10.5,10499872816.260149,47.655,-122.3035,60.0,0.26666666666666666
2026-02-06T22:00:00+00:00,SAT-48431,64.16939894892147,57.04682616053496,651.6564544284222,3.6858861289939986,-129095.32352023674,10.5,10499870904.67648,47.655,-122.3035,60.0,0.2833333333333333
2026-02-06T22:00:01+00:00,SAT-48431,64.11670142020355,56.495947304058085,655.3324592053565,3.7395473882827117,-130974.76780742922,10.5,10499869025.232193,47.655,-122.3035,60.0,0.3
2026-02-06T22:00:02+00:00,SAT-48431,64.06620515814326,55.95089645550707,659.0619813831489,3.792298422060639,-132822.33214698386,10.5,10499867177.667852,47.655,-122.3035,60.0,0.31666666666666665
2026-02-06T22:00:03+00:00,SAT-48431,64.01778260363658,55.411659216506386,662.8441131764771,3.8441471910081533,-134638.295355601,10.5,10499865361.704645,47.655,-122.3035,60.0,0.3333333333333333
2026-02-06T22:00:04+00:00,SAT-48431,63.971315864162634,54.87821770802738,666.6779547393585,3.895102103932865,-136422.95194529239,10.5,10499863577.048056,47.655,-122.3035,60.0,0.35
2026-02-06T22:00:05+00:00,SAT-48431,63.92669581583046,54.350550763490936,670.5626146120748,3.9451720126788965,-138176.6119450824,10.5,10499861823.388056,47.655,-122.3035,60.0,0.36666666666666664
2026-02-06T22:00:06+00:00,SAT-48431,63.883821303498955,53.828634112516696,674.4972101630215,3.994366186432059,-139899.6000010668,10.5,10499860100.4,47.655,-122.3035,60.0,0.38333333333333336
2026-02-06T22:00:07+00:00,SAT-48431,63.842598426805196,53.31244055871259,678.48086800493,4.042694266166081,-141592.25378092684,10.5,10499858407.74622,47.655,-122.3035,60.0,0.4
2026-02-06T22:00:08+00:00,SAT-48431,63.8029399015499,52.80194015420323,682.5127243656603,4.090166192352542,-143254.92144202537,10.5,10499856745.078558,47.655,-122.3035,60.0,0.4166666666666667
2026-02-06T22:00:09+00:00,SAT-48431,63.76476448760132,52.29710037395422,686.5919253868941,4.136792251821395,-144887.9632726606,10.5,10499855112.036728,47.655,-122.3035,60.0,0.43333333333333335
2026-02-06T22:00:10+00:00,SAT-48431,63.72799647465889,51.79788627499781,690.7176274695657,4.182582977488836,-146491.7481801119,10.5,10499853508.25182,47.655,-122.3035,60.0,0.45
2026-02-06T22:00:11+00:00,SAT-48431,63.69256522001686,51.304260659312085,694.8889975192884,4.227549134105161,-148066.6531914695,10.5,10499851933.34681,47.655,-122.3035,60.0,0.4666666666666667
2026-02-06T22:00:12+00:00,SAT-48431,63.658404731746025,50.816184229317045,699.105213177567,4.271701719692143,-149613.0635039775,10.5,10499850386.936497,47.655,-122.3035,60.0,0.48333333333333334
2026-02-06T22:00:13+00:00,SAT-48431,63.625453292303355,50.33361573464703,703.3654630544432,4.315051900835983,-151131.3702187192,10.5,10499848868.629782,47.655,-122.3035,60.0,0.5
2026-02-06T22:00:14+00:00,SAT-48431,63.59365311812503,49.856512118065936,707.66894689661,4.357611010144558,-152621.97025155937,10.5,10499847378.029749,47.655,-122.3035,60.0,0.5166666666666667
2026-02-06T22:00:15+00:00,SAT-48431,63.56295005130036,49.38482865335633,712.0148757529869,4.39939050430722,-154085.26486422087,10.5,10499845914.735136,47.655,-122.3035,60.0,0.5333333333333333
2026-02-06T22:00:16+00:00,SAT-48431,63.53329327963634,48.918519079856466,716.4024720984678,4.44040193533413,-155521.65865696452,10.5,10499844478.341343,47.655,-122.3035,60.0,0.55
2026-02-06T22:00:17+00:00,SAT-48431,63.50463508249468,48.45753573216973,720.8309699289887,4.480656998700683,-156931.56125481037,10.5,10499843068.438745,47.655,-122.3035,60.0,0.5666666666666667
2026-02-06T22:00:18+00:00,SAT-48431,63.47693059902689,48.0018296574052,725.2996149046066,4.520167395803029,-158315.38249014862,10.5,10499841684.61751,47.655,-122.3035,60.0,0.5833333333333334
2026-02-06T22:00:19+00:00,SAT-48431,63.450137617409204,47.551350739462436,729.8076643554044,4.558944917370039,-159673.53532417887,10.5,10499840326.464676,47.655,-122.3035,60.0,0.6
2026-02-06T22:00:20+00:00,SAT-48431,63.42421638213259,47.10604780749611,734.3543873705855,4.597001310909151,-161006.43120430366,10.5,10499838993.568796,47.655,-122.3035,60.0,0.6166666666666667
2026-02-06T22:00:21+00:00,SAT-48431,63.39912941810102,46.66586875067581,738.9390647553663,4.634348449533562,-162314.48597717023,10.5,10499837685.514023,47.655,-122.3035,60.0,0.6333333333333333
2026-02-06T22:00:22+00:00,SAT-48431,63.3748413692459,46.230760609900116,743.5609891562466,4.670998098185064,-163598.11170080592,10.5,10499836401.8883,47.655,-122.3035,60.0,0.65
2026-02-06T22:00:23+00:00,SAT-48431,63.351318851115046,45.80066968577446,748.2194649531281,4.70696205755096,-164857.7216851969,10.5,10499835142.278315,47.655,-122.3035,60.0,0.6666666666666666
2026-02-06T22:00:24+00:00,SAT-48431,63.32853031530127,45.375541626509225,752.9138082949636,4.742252072478165,-166093.72728456274,10.5,10499833906.272715,47.655,-122.3035,60.0,0.6833333333333333
2026-02-06T22:00:25+00:00,SAT-48431,63.30644592492309,44.95532151858934,757.6433470440662,4.776879850001402,-167306.5385287802,10.5,10499832693.461472,47.655,-122.3035,60.0,0.7
2026-02-06T22:00:26+00:00,SAT-48431,63.28503744024033,44.539953970041665,762.4074207383991,4.810857019363213,-168496.5627231147,10.5,10499831503.437277,47.655,-122.3035,60.0,0.7166666666666667
2026-02-06T22:00:27+00:00,SAT-48431,63.26427811316412,44.12938319176505,767.2053805139918,4.844195165218621,-169664.20561118826,10.5,10499830335.79439,47.655,-122.3035,60.0,0.7333333333333333
2026-02-06T22:00:28+00:00,SAT-48431,63.24414259013306,43.723553070752125,772.0365890604714,4.876905768809331,-170809.8693146509,10.5,10499829190.130686,47.655,-122.3035,60.0,0.75
2026-02-06T22:00:29+00:00,SAT-48431,63.224606822367534,43.322407243381825,776.9004205179274,4.909000243463255,-171933.9535765245,10.5,10499828066.046423,47.655,-122.3035,60.0,0.7666666666666667
2026-02-06T22:00:30+00:00,SAT-48431,63.205647983096135,42.92588916091707,781.7962604091798,4.940489876341607,-173036.8537209394,10.5,10499826963.146278,47.655,-122.3035,60.0,0.7833333333333333
2026-02-06T22:00:31+00:00,SAT-48431,63.18724439087363,42.53394215523716,786.7235055139507,4.971385856958032,-174118.96165199508,10.5,10499825881.038347,47.655,-122.3035,60.0,0.8
2026-02-06T22:00:32+00:00,SAT-48431,63.16937543871431,42.146509497809255,791.6815637714772,5.001699294019361,-175180.66644359444,10.5,10499824819.333557,47.655,-122.3035,60.0,0.8166666666666667
2026-02-06T22:00:33+00:00,SAT-48431,63.15202152827023,41.76353445332433,796.6698541999241,5.031441103109421,-176222.350405656,10.5,10499823777.649595,47.655,-122.3035,60.0,0.8333333333333334
2026-02-06T22:00:34+00:00,SAT-48431,63.135164009009074,41.384960338041644,801.6878067037748,5.0606221506748055,-177244.3941271046,10.5,10499822755.605873,47.655,-122.3035,60.0,0.85
2026-02-06T22:00:35+00:00,SAT-48431,63.11878512151761,41.01073056326741,806.7348620248296,5.089253114852841,-178247.17160147784,10.5,10499821752.828398,47.655,-122.3035,60.0,0.8666666666666667
2026-02-06T22:00:36+00:00,SAT-48431,63.102867944969,40.6407886858895,811.8104715543984,5.11734457275464,-179231.05328394796,10.5,10499820768.946716,47.655,-122.3035,60.0,0.8833333333333333
2026-02-06T22:00:37+00:00,SAT-48431,63.087396348205985,40.275078448927566,816.9140972325469,5.144906942622831,-180196.40406544093,10.5,10499819803.595934,47.655,-122.3035,60.0,0.9
