DopplerPredictor/satellites_20260211_210203/SAT-57076.csv

timestamp,satellite,azimuth_deg,elevation_deg,distance_km,relative_velocity_kms,doppler_shift_hz,tx_freq_ghz,rx_freq_hz,ue_lat,ue_lon,ue_alt_m,time_minutes
2026-02-06T22:04:55+00:00,SAT-57076,204.06958281959595,40.00321812630849,828.932389328062,-2.3937823622503553,83840.38401536015,10.5,10500083840.384016,47.655,-122.3035,60.0,5.2
2026-02-06T22:04:56+00:00,SAT-57076,203.49353207372522,40.170541594236084,826.545024365983,-2.3422815909125467,82036.60915506333,10.5,10500082036.609156,47.655,-122.3035,60.0,5.216666666666667
2026-02-06T22:04:57+00:00,SAT-57076,202.9113059110255,40.335532298583466,824.2090221087807,-2.290339166667967,80217.36574178144,10.5,10500080217.365742,47.655,-122.3035,60.0,5.233333333333333
2026-02-06T22:04:58+00:00,SAT-57076,202.3229276637227,40.49809372003656,821.9248230253518,-2.237960016599273,78382.82634279066,10.5,10500078382.826344,47.655,-122.3035,60.0,5.25
2026-02-06T22:04:59+00:00,SAT-57076,201.728426371903,40.65812864503818,819.6928626707187,-2.1851494215691614,76533.17591624068,10.5,10500076533.175917,47.655,-122.3035,60.0,5.266666666666667
2026-02-06T22:05:00+00:00,SAT-57076,201.1278369770001,40.815539285364316,817.5135713331981,-2.131913015271268,74668.61177791309,10.5,10500074668.611778,47.655,-122.3035,60.0,5.283333333333333
2026-02-06T22:05:01+00:00,SAT-57076,200.52120051033353,40.97022740406279,815.3873736825166,-2.0782567818577986,72789.34351813109,10.5,10500072789.343517,47.655,-122.3035,60.0,5.3
2026-02-06T22:05:02+00:00,SAT-57076,199.90856427584075,41.122094447580125,813.3146884202915,-2.0241870472050065,70895.5926958395,10.5,10500070895.592695,47.655,-122.3035,60.0,5.316666666666666
2026-02-06T22:05:03+00:00,SAT-57076,199.28998202811115,41.27104168350047,811.2959279392225,-1.9697105144937903,68987.59408478781,10.5,10500068987.594086,47.655,-122.3035,60.0,5.333333333333333
2026-02-06T22:05:04+00:00,SAT-57076,198.6655141306265,41.416970347029086,809.331497946798,-1.9148342301034427,67065.59447898502,10.5,10500067065.594479,47.655,-122.3035,60.0,5.35
2026-02-06T22:05:05+00:00,SAT-57076,198.0352277136795,41.55978179095427,807.4217971230185,-1.8595655943112035,65129.8530674432,10.5,10500065129.853067,47.655,-122.3035,60.0,5.366666666666666
2026-02-06T22:05:06+00:00,SAT-57076,197.3991968174192,41.69937764214428,805.5672167674453,-1.8039123747440737,63180.64190531696,10.5,10500063180.641905,47.655,-122.3035,60.0,5.383333333333334
2026-02-06T22:05:07+00:00,SAT-57076,196.757502516794,41.83565996455937,803.7681404328381,-1.7478826842022641,61218.24513718679,10.5,10500061218.245136,47.655,-122.3035,60.0,5.4
2026-02-06T22:05:08+00:00,SAT-57076,196.11023303889925,41.96853142582916,802.0249435809045,-1.6914849862416095,59242.95919257882,10.5,10500059242.959192,47.655,-122.3035,60.0,5.416666666666667
2026-02-06T22:05:09+00:00,SAT-57076,195.4574838623654,42.097895469105424,800.337993232486,-1.6347281140597774,57255.09344743977,10.5,10500057255.093447,47.655,-122.3035,60.0,5.433333333333334
2026-02-06T22:05:10+00:00,SAT-57076,194.79935779087378,42.22365649086735,798.7076475989073,-1.577621226288898,55254.96867580782,10.5,10500055254.968676,47.655,-122.3035,60.0,5.45
2026-02-06T22:05:11+00:00,SAT-57076,194.1359650240434,42.345720019414685,797.1342557574145,-1.5201738304499064,53242.91787128286,10.5,10500053242.917871,47.655,-122.3035,60.0,5.466666666666667
2026-02-06T22:05:12+00:00,SAT-57076,193.46742319857847,42.46399289873191,795.6181573032201,-1.4623957877202796,51219.28641401291,10.5,10500051219.286413,47.655,-122.3035,60.0,5.483333333333333
2026-02-06T22:05:13+00:00,SAT-57076,192.79385740349707,42.578383475825525,794.159681996796,-1.4042972789226993,49184.4308794731,10.5,10500049184.43088,47.655,-122.3035,60.0,5.5
2026-02-06T22:05:14+00:00,SAT-57076,192.11540018588593,42.68880178794835,792.7591494450852,-1.3458888068324966,47138.71911928223,10.5,10500047138.71912,47.655,-122.3035,60.0,5.516666666666667
2026-02-06T22:05:15+00:00,SAT-57076,191.43219153099605,42.79515975189764,791.4168687804114,-1.287181215307425,45082.53093120829,10.5,10500045082.530931,47.655,-122.3035,60.0,5.533333333333333
2026-02-06T22:05:16+00:00,SAT-57076,190.74437880520983,42.89737135612452,790.133138320311,-1.228185647337549,43016.25658989815,10.5,10500043016.25659,47.655,-122.3035,60.0,5.55
2026-02-06T22:05:17+00:00,SAT-57076,190.05211669096826,42.99535285016877,788.9082452692043,-1.16891355684471,40940.29726014473,10.5,10500040940.29726,47.655,-122.3035,60.0,5.566666666666666
2026-02-06T22:05:18+00:00,SAT-57076,189.35556708640877,43.08902293493081,787.7424654082956,-1.1093766872830426,38855.064247386596,10.5,10500038855.064247,47.655,-122.3035,60.0,5.583333333333333
2026-02-06T22:05:19+00:00,SAT-57076,188.6548989860371,43.17830295043824,786.636062806817,-1.0495870771333395,36760.979190143815,10.5,10500036760.97919,47.655,-122.3035,60.0,5.6
2026-02-06T22:05:20+00:00,SAT-57076,187.95028832601554,43.26311706249146,785.5892895277944,-0.989557038288973,34658.47330300156,10.5,10500034658.473303,47.655,-122.3035,60.0,5.616666666666666
2026-02-06T22:05:21+00:00,SAT-57076,187.24191780917621,43.34339244525114,784.6023853553663,-0.9292991518400835,32547.987228954495,10.5,10500032547.987228,47.655,-122.3035,60.0,5.633333333333334
2026-02-06T22:05:22+00:00,SAT-57076,186.5299766986278,43.419059460378875,783.6755775263089,-0.8688262400835053,30429.97005907602,10.5,10500030429.970058,47.655,-122.3035,60.0,5.65
2026-02-06T22:05:23+00:00,SAT-57076,185.81466059745614,43.490051830000475,782.8090804894774,-0.8081513809792018,28304.879838843775,10.5,10500028304.879839,47.655,-122.3035,60.0,5.666666666666667
2026-02-06T22:05:24+00:00,SAT-57076,185.09617118173597,43.5563068061583,782.0030956508257,-0.7472878777343323,26173.18250284498,10.5,10500026173.182503,47.655,-122.3035,60.0,5.683333333333334
2026-02-06T22:05:25+00:00,SAT-57076,184.37471591983817,43.61776533231655,781.2578111487659,-0.6862492456688174,24035.351414753008,10.5,10500024035.351416,47.655,-122.3035,60.0,5.7
2026-02-06T22:05:26+00:00,SAT-57076,183.6505077672089,43.67437219753712,780.5734016426223,-0.6250491978466971,21891.866864076746,10.5,10500021891.866863,47.655,-122.3035,60.0,5.716666666666667
2026-02-06T22:05:27+00:00,SAT-57076,182.92376483879957,43.72607618246552,779.9500281154181,-0.5637016436712842,19743.216016956914,10.5,10500019743.216017,47.655,-122.3035,60.0,5.733333333333333
2026-02-06T22:05:28+00:00,SAT-57076,182.194710042607,43.7728301974726,779.387837678063,-0.5022206570326168,17589.891800555153,10.5,10500017589.8918,47.655,-122.3035,60.0,5.75
2026-02-06T22:05:29+00:00,SAT-57076,181.4635707093188,43.81459140973242,778.8869634053052,-0.44062046822536644,15432.392619984948,10.5,10500015432.39262,47.655,-122.3035,60.0,5.766666666666667
2026-02-06T22:05:30+00:00,SAT-57076,180.73057819388885,43.851321360531806,778.4475241797497,-0.378915448736424,13271.221825508539,10.5,10500013271.221825,47.655,-122.3035,60.0,5.783333333333333
2026-02-06T22:05:31+00:00,SAT-57076,179.99596745643555,43.882986071609196,778.0696245510409,-0.3171200927957582,11106.887066369965,10.5,10500011106.887066,47.655,-122.3035,60.0,5.8
2026-02-06T22:05:32+00:00,SAT-57076,179.2599766288229,43.90955613967824,777.7533546134513,-0.2552490023985445,8939.89976620665,10.5,10500008939.899767,47.655,-122.3035,60.0,5.816666666666666
2026-02-06T22:05:33+00:00,SAT-57076,178.52284656221684,43.931006818916465,777.4987898984039,-0.1933168677446756,6770.774437958322,10.5,10500006770.774439,47.655,-122.3035,60.0,5.833333333333333
2026-02-06T22:05:34+00:00,SAT-57076,177.78482036754005,43.94731809058306,777.3059912865036,-0.13133845268004385,4600.028173959135,10.5,10500004600.028173,47.655,-122.3035,60.0,5.85
2026-02-06T22:05:35+00:00,SAT-57076,177.04614293864378,43.958474719801806,777.1750049340908,-0.06932857587843363,2428.179986847945,10.5,10500002428.179987,47.655,-122.3035,60.0,5.866666666666666
2026-02-06T22:05:36+00:00,SAT-57076,176.3070604696286,43.96446629882925,777.1058622185568,-0.007302093560397621,255.75020431025993,10.5,10500000255.750204,47.655,-122.3035,60.0,5.883333333333334
2026-02-06T22:05:37+00:00,SAT-57076,175.56781996580443,43.965287276702426,777.098579700902,0.054726118412215106,-1916.7401580471337,10.5,10499998083.259842,47.655,-122.3035,60.0,5.9
2026-02-06T22:05:38+00:00,SAT-57076,174.8286687466647,43.96093697504441,777.1531591061428,0.11674118161307849,-4088.7699947986157,10.5,10499995911.230005,47.655,-122.3035,60.0,5.916666666666667
2026-02-06T22:05:39+00:00,SAT-57076,174.08985395770583,43.95141959000547,777.2695873207582,0.1787282337096619,-6259.818764191359,10.5,10499993740.181236,47.655,-122.3035,60.0,5.933333333333334
2026-02-06T22:05:40+00:00,SAT-57076,173.3516220682513,43.93674418019937,777.4478364087378,0.24067244701299748,-8429.367137836649,10.5,10499991570.632862,47.655,-122.3035,60.0,5.95
2026-02-06T22:05:41+00:00,SAT-57076,172.6142183808294,43.916924640714164,777.6878636461332,0.302559041168055,-10596.897445180482,10.5,10499989403.102554,47.655,-122.3035,60.0,5.966666666666667
2026-02-06T22:05:42+00:00,SAT-57076,171.8778865558285,43.891979663820294,777.9896115682652,0.364373307605211,-12761.894529897467,10.5,10499987238.10547,47.655,-122.3035,60.0,5.983333333333333
2026-02-06T22:05:43+00:00,SAT-57076,171.1428681232198,43.8619326856396,778.3530080413163,0.4261006250201154,-14923.846292061196,10.5,10499985076.153708,47.655,-122.3035,60.0,6.0
2026-02-06T22:05:44+00:00,SAT-57076,170.40940201610064,43.82681181979283,778.7779663493624,0.4877264682685529,-17082.24399967996,10.5,10499982917.756,47.655,-122.3035,60.0,6.016666666666667
2026-02-06T22:05:45+00:00,SAT-57076,169.67772412826423,43.786649778956246,779.264385290276,0.549236437846748,-19236.583321221693,10.5,10499980763.41668,47.655,-122.3035,60.0,6.033333333333333
2026-02-06T22:05:46+00:00,SAT-57076,168.94806686361713,43.74148378304947,779.8121493010273,0.6106162708497261,-21386.364709422156,10.5,10499978613.63529,47.655,-122.3035,60.0,6.05
2026-02-06T22:05:47+00:00,SAT-57076,168.22065871509523,43.69135545608776,780.4211285939201,0.6718518511585791,-23531.093758086074,10.5,10499976468.906242,47.655,-122.3035,60.0,6.066666666666666
2026-02-06T22:05:48+00:00,SAT-57076,167.49572386738572,43.636310712303484,781.0911793029812,0.73292923439863,-25670.2820762276,10.5,10499974329.717924,47.655,-122.3035,60.0,6.083333333333333
2026-02-06T22:05:49+00:00,SAT-57076,166.77348180822796,43.57639963094653,781.8221436552466,0.7938346580982373,-27803.447643874653,10.5,10499972196.552357,47.655,-122.3035,60.0,6.1
2026-02-06T22:05:50+00:00,SAT-57076,166.05414696800761,43.511676321616775,782.6138501521757,0.8545545568444175,-29930.115342882917,10.5,10499970069.884657,47.655,-122.3035,60.0,6.116666666666666
2026-02-06T22:05:51+00:00,SAT-57076,165.33792838152522,43.44219878042036,783.4661137661819,0.9150755800222556,-32049.817578245027,10.5,10499967950.182423,47.655,-122.3035,60.0,6.133333333333334
2026-02-06T22:05:52+00:00,SAT-57076,164.62502937096843,43.36802873745995,784.3787361548543,0.9753845991237411,-34162.09453407691,10.5,10499965837.905466,47.655,-122.3035,60.0,6.15
2026-02-06T22:05:53+00:00,SAT-57076,163.91564725932457,43.289231497269114,785.3515058824712,1.0354687225362003,-36266.494691571264,10.5,10499963733.505308,47.655,-122.3035,60.0,6.166666666666667
2026-02-06T22:05:54+00:00,SAT-57076,163.20997310728887,43.205875772345884,786.3841986562568,1.0953153159917892,-38362.575545225314,10.5,10499961637.424456,47.655,-122.3035,60.0,6.183333333333334
2026-02-06T22:05:55+00:00,SAT-57076,162.50819147131546,43.118033510123304,787.47657758304,1.1549120091380143,-40449.90383296817,10.5,10499959550.096167,47.655,-122.3035,60.0,6.2
2026-02-06T22:05:56+00:00,SAT-57076,161.8104801927631,43.02577971529358,788.6283934324593,1.2142466889971957,-42528.05530708366,10.5,10499957471.944693,47.655,-122.3035,60.0,6.216666666666667
2026-02-06T22:05:57+00:00,SAT-57076,161.11701022358227,42.92919226931989,789.8393848936495,1.2733075506032008,-44596.61650772284,10.5,10499955403.383492,47.655,-122.3035,60.0,6.233333333333333
2026-02-06T22:05:58+00:00,SAT-57076,160.42794545477508,42.82835174334983,791.1092788824257,1.3320830664839876,-46655.18369405367,10.5,10499953344.816305,47.655,-122.3035,60.0,6.25
2026-02-06T22:05:59+00:00,SAT-57076,159.7434425954882,42.72334121179979,792.4377908180363,1.3905620194034116,-48703.36399101749,10.5,10499951296.63601,47.655,-122.3035,60.0,6.266666666666667
2026-02-06T22:06:00+00:00,SAT-57076,159.0636510643659,42.614246062316184,793.8246249325632,1.4487335021593344,-50740.77538225799,10.5,10499949259.224617,47.655,-122.3035,60.0,6.283333333333333
2026-02-06T22:06:01+00:00,SAT-57076,158.38871291141297,42.501153805479824,795.2694745801285,1.5065869259664553,-52767.047003723426,10.5,10499947232.952997,47.655,-122.3035,60.0,6.3
2026-02-06T22:06:02+00:00,SAT-57076,157.71876276432786,42.38415388427239,796.7720225544555,1.5641120348850506,-54781.819649022094,10.5,10499945218.180351,47.655,-122.3035,60.0,6.316666666666666
2026-02-06T22:06:03+00:00,SAT-57076,157.05392779583198,42.263337483538095,798.3319414208224,1.621298890697879,-56784.745239747586,10.5,10499943215.25476,47.655,-122.3035,60.0,6.333333333333333
2026-02-06T22:06:04+00:00,SAT-57076,156.3943277234298,42.13879734235505,799.9488938329335,1.6781379135424788,-58775.48824859373,10.5,10499941224.511751,47.655,-122.3035,60.0,6.35
2026-02-06T22:06:05+00:00,SAT-57076,155.7400748165911,42.01062756563485,801.6225328903129,1.7346198440222405,-60753.72437232402,10.5,10499939246.275627,47.655,-122.3035,60.0,6.366666666666666
2026-02-06T22:06:06+00:00,SAT-57076,155.0912739427299,41.87892344156241,803.3525024579109,1.79073578928123,-62719.14214550692,10.5,10499937280.857855,47.655,-122.3035,60.0,6.383333333333334
2026-02-06T22:06:07+00:00,SAT-57076,154.4480226164164,41.74378125896231,805.1384375316627,1.8464771969034188,-64671.44202635644,10.5,10499935328.557974,47.655,-122.3035,60.0,6.4
2026-02-06T22:06:08+00:00,SAT-57076,153.81041107912475,41.60529813060163,806.979964578015,1.9018358664392363,-66610.33680044072,10.5,10499933389.6632,47.655,-122.3035,60.0,6.416666666666667
2026-02-06T22:06:09+00:00,SAT-57076,153.17852239283602,41.46357181999259,808.8767018849496,1.9568039487174378,-68535.55155658085,10.5,10499931464.448444,47.655,-122.3035,60.0,6.433333333333334
2026-02-06T22:06:10+00:00,SAT-57076,152.552432550747,41.318700573009394,810.8282599123198,2.011373967382445,-70446.82444117947,10.5,10499929553.175558,47.655,-122.3035,60.0,6.45
2026-02-06T22:06:11+00:00,SAT-57076,151.93221059664415,41.1707829530447,812.8342416636649,2.0655387786293615,-72343.90524797089,10.5,10499927656.094751,47.655,-122.3035,60.0,6.466666666666667
2026-02-06T22:06:12+00:00,SAT-57076,151.31791877098513,41.01991768457807,814.8942430178732,2.1192916122586034,-74226.55685592776,10.5,10499925773.443144,47.655,-122.3035,60.0,6.483333333333333
2026-02-06T22:06:13+00:00,SAT-57076,150.70961265626312,40.86620349940243,817.0078531017817,2.172626054438226,-76094.55462552489,10.5,10499923905.445374,47.655,-122.3035,60.0,6.5
2026-02-06T22:06:14+00:00,SAT-57076,150.10734133901175,40.709738990054234,819.1746546455904,2.2255360271424975,-77947.6856785911,10.5,10499922052.314322,47.655,-122.3035,60.0,6.516666666666667
2026-02-06T22:06:15+00:00,SAT-57076,149.5111475866827,40.55062247080892,821.3942243177681,2.2780158295016744,-79785.75034655335,10.5,10499920214.249653,47.655,-122.3035,60.0,6.533333333333333
2026-02-06T22:06:16+00:00,SAT-57076,148.92106802108907,40.38895184193235,823.6661331011971,2.3300601023454144,-81608.56092859697,10.5,10499918391.439072,47.655,-122.3035,60.0,6.55
2026-02-06T22:06:17+00:00,SAT-57076,148.33713330859032,40.2248244628292,825.9899466339565,2.3816638151393685,-83415.94123412995,10.5,10499916584.058765,47.655,-122.3035,60.0,6.566666666666666
2026-02-06T22:06:18+00:00,SAT-57076,147.75936835839752,40.0583370324856,828.365225537077,2.432822308019657,-85207.72805500797,10.5,10499914792.271944,47.655,-122.3035,60.0,6.583333333333333
