DopplerPredictor/satellites_20260211_210203/SAT-46537.csv

timestamp,satellite,azimuth_deg,elevation_deg,distance_km,relative_velocity_kms,doppler_shift_hz,tx_freq_ghz,rx_freq_hz,ue_lat,ue_lon,ue_alt_m,time_minutes
2026-02-06T22:08:41+00:00,SAT-46537,264.62066602181756,40.32053424656737,638.1080258476327,-4.934499044306519,172827.02944187625,10.5,10500172827.029442,47.655,-122.3035,60.0,8.966666666666667
2026-02-06T22:08:42+00:00,SAT-46537,264.91788971300565,40.7594011703439,633.186755514303,-4.892511484681136,171356.4474965942,10.5,10500171356.447496,47.655,-122.3035,60.0,8.983333333333333
2026-02-06T22:08:43+00:00,SAT-46537,265.22369817518813,41.20382484620023,628.3073601777457,-4.849532853254787,169851.15402461277,10.5,10500169851.154024,47.655,-122.3035,60.0,9.0
2026-02-06T22:08:44+00:00,SAT-46537,265.5384558328855,41.65383686306111,623.470828252835,-4.8055410478874565,168310.3749154967,10.5,10500168310.374916,47.655,-122.3035,60.0,9.016666666666667
2026-02-06T22:08:45+00:00,SAT-46537,265.86254690077726,42.10946376547867,618.6781701973323,-4.760513824282188,166733.33107987317,10.5,10500166733.33108,47.655,-122.3035,60.0,9.033333333333333
2026-02-06T22:08:46+00:00,SAT-46537,266.19637665233034,42.570726536805466,613.9304186536621,-4.714428812957706,165119.2390438852,10.5,10500165119.239044,47.655,-122.3035,60.0,9.05
2026-02-06T22:08:47+00:00,SAT-46537,266.54037277650514,43.03764004152045,609.2286285737606,-4.667263541526114,163467.3117294505,10.5,10500163467.31173,47.655,-122.3035,60.0,9.066666666666666
2026-02-06T22:08:48+00:00,SAT-46537,266.89498682843424,43.510212423958166,604.5738773217071,-4.618995511464058,161776.76114311258,10.5,10500161776.761143,47.655,-122.3035,60.0,9.083333333333334
2026-02-06T22:08:49+00:00,SAT-46537,267.26069578411085,43.988444465669545,599.9672646997878,-4.569602241283964,160046.79988807996,10.5,10500160046.799889,47.655,-122.3035,60.0,9.1
2026-02-06T22:08:50+00:00,SAT-46537,267.63800370361815,44.47232889491881,595.4099129315078,-4.51906127757791,158276.64155102946,10.5,10500158276.641552,47.655,-122.3035,60.0,9.116666666666667
2026-02-06T22:08:51+00:00,SAT-46537,268.0274435066541,44.96184964112723,590.9029666335845,-4.467350276836306,156465.5035677422,10.5,10500156465.503569,47.655,-122.3035,60.0,9.133333333333333
2026-02-06T22:08:52+00:00,SAT-46537,268.4295788727191,45.45698103762805,586.4475927063462,-4.414447060533323,154612.60915242872,10.5,10500154612.609152,47.655,-122.3035,60.0,9.15
2026-02-06T22:08:53+00:00,SAT-46537,268.84500627056605,45.957686966005895,582.0449801691883,-4.360329655954106,152717.1887276701,10.5,10500152717.188728,47.655,-122.3035,60.0,9.166666666666666
2026-02-06T22:08:54+00:00,SAT-46537,269.27435712271597,46.46391993588833,577.6963399553164,-4.304976400655767,150778.4835830845,10.5,10500150778.483583,47.655,-122.3035,60.0,9.183333333333334
2026-02-06T22:08:55+00:00,SAT-46537,269.71830011697574,46.97562010274805,573.4029046023039,-4.248365984530663,148795.74734856057,10.5,10500148795.747349,47.655,-122.3035,60.0,9.2
2026-02-06T22:08:56+00:00,SAT-46537,270.17754366614,47.49271421180446,569.1659279007033,-4.190477488789819,146768.24735962204,10.5,10500146768.24736,47.655,-122.3035,60.0,9.216666666666667
2026-02-06T22:08:57+00:00,SAT-46537,270.65283851968945,48.015114461807585,564.9866845037751,-4.131290591132597,144695.27184333725,10.5,10500144695.271843,47.655,-122.3035,60.0,9.233333333333333
2026-02-06T22:08:58+00:00,SAT-46537,271.14498055052235,48.54271730383139,560.8664693325992,-4.070785471817128,142576.1266285086,10.5,10500142576.126629,47.655,-122.3035,60.0,9.25
2026-02-06T22:08:59+00:00,SAT-46537,271.65481368764057,49.07540213229242,556.8065970748638,-4.008943084975915,140410.14464829236,10.5,10500140410.144648,47.655,-122.3035,60.0,9.266666666666667
2026-02-06T22:09:00+00:00,SAT-46537,272.1832330362407,49.613029907693445,552.8084014130644,-3.945745082211665,138196.68326420168,10.5,10500138196.683264,47.655,-122.3035,60.0,9.283333333333333
2026-02-06T22:09:01+00:00,SAT-46537,272.7311881447835,50.155441660404165,548.8732343289054,-3.881174073763671,135935.133413258,10.5,10500135935.133413,47.655,-122.3035,60.0,9.3
2026-02-06T22:09:02+00:00,SAT-46537,273.2996864546212,50.702456912941656,545.0024651472314,-3.8152135849178723,133624.91808128695,10.5,10500133624.918081,47.655,-122.3035,60.0,9.316666666666666
2026-02-06T22:09:03+00:00,SAT-46537,273.88979688602086,51.25387197325044,541.1974796234352,-3.74784828899226,131265.5004630528,10.5,10500131265.500463,47.655,-122.3035,60.0,9.333333333333334
2026-02-06T22:09:04+00:00,SAT-46537,274.5026535821763,51.80945812975426,537.4596787985028,-3.679064015103693,128856.38423428508,10.5,10500128856.384233,47.655,-122.3035,60.0,9.35
2026-02-06T22:09:05+00:00,SAT-46537,275.1394597598713,52.36895970970655,533.7904778463128,-3.6088479378651037,126397.12019567746,10.5,10500126397.120195,47.655,-122.3035,60.0,9.366666666666667
2026-02-06T22:09:06+00:00,SAT-46537,275.8014916623174,52.93209201978593,530.191304731748,-3.5371886560505628,123887.3090280707,10.5,10500123887.309029,47.655,-122.3035,60.0,9.383333333333333
2026-02-06T22:09:07+00:00,SAT-46537,276.4901025577258,53.49853914623493,526.6635987903524,-3.46407635320879,121326.60691781745,10.5,10500121326.606918,47.655,-122.3035,60.0,9.4
2026-02-06T22:09:08+00:00,SAT-46537,277.2067267422063,54.06795162078965,523.2088091478039,-3.3895028597785424,118714.72773232573,10.5,10500118714.727732,47.655,-122.3035,60.0,9.416666666666666
2026-02-06T22:09:09+00:00,SAT-46537,277.9528834583485,54.63994393125826,519.828393077441,-3.31346183980544,116051.44955967211,10.5,10500116051.44956,47.655,-122.3035,60.0,9.433333333333334
2026-02-06T22:09:10+00:00,SAT-46537,278.7301806597838,55.21409189244012,516.5238141715705,-3.2359488970717867,113336.6184257169,10.5,10500113336.618425,47.655,-122.3035,60.0,9.45
2026-02-06T22:09:11+00:00,SAT-46537,279.5403184914221,55.78992986219721,513.2965404069307,-3.1569616974645176,110570.15257994729,10.5,10500110570.15258,47.655,-122.3035,60.0,9.466666666666667
2026-02-06T22:09:12+00:00,SAT-46537,280.385092339351,56.36694780490318,510.14804208811637,-3.0765000951741754,107752.04691549926,10.5,10500107752.046915,47.655,-122.3035,60.0,9.483333333333333
2026-02-06T22:09:13+00:00,SAT-46537,281.2663952679844,56.944588205886866,507.07978966514037,-2.9945662720740507,104882.37785080481,10.5,10500104882.377851,47.655,-122.3035,60.0,9.5
2026-02-06T22:09:14+00:00,SAT-46537,282.1862196203754,57.52224284686132,504.0932514119915,-2.91116485773984,101961.30753318791,10.5,10500101961.307533,47.655,-122.3035,60.0,9.516666666666667
2026-02-06T22:09:15+00:00,SAT-46537,283.1466575000075,58.09924945202119,501.18989098549457,-2.826303055036976,98989.0882374641,10.5,10500098989.088238,47.655,-122.3035,60.0,9.533333333333333
2026-02-06T22:09:16+00:00,SAT-46537,284.1498997986464,58.67488822630277,498.3711648589184,-2.739990720529953,95966.06518221518,10.5,10500095966.065182,47.655,-122.3035,60.0,9.55
2026-02-06T22:09:17+00:00,SAT-46537,285.19823335001365,59.24837830624331,495.6385196753915,-2.652240533892937,92892.68246326543,10.5,10500092892.682463,47.655,-122.3035,60.0,9.566666666666666
2026-02-06T22:09:18+00:00,SAT-46537,286.29403575873255,59.81887418302351,492.9933894323607,-2.563068062648582,89769.48532110875,10.5,10500089769.485321,47.655,-122.3035,60.0,9.583333333333334
2026-02-06T22:09:19+00:00,SAT-46537,287.43976730657255,60.38546213293341,490.43719260148464,-2.4724918775431903,86597.1241818348,10.5,10500086597.124182,47.655,-122.3035,60.0,9.6
2026-02-06T22:09:20+00:00,SAT-46537,288.6379593009255,60.94715673963118,487.9713291334612,-2.380533588759086,83376.35592543961,10.5,10500083376.355925,47.655,-122.3035,60.0,9.616666666666667
2026-02-06T22:09:21+00:00,SAT-46537,289.891198086955,61.50289758646078,485.5971774267401,-2.2872180262127593,80108.05020062903,10.5,10500080108.050201,47.655,-122.3035,60.0,9.633333333333333
2026-02-06T22:09:22+00:00,SAT-46537,291.20210396345993,62.05154627366292,483.31609111641944,-2.192573177350351,76793.18724615376,10.5,10500076793.187246,47.655,-122.3035,60.0,9.65
2026-02-06T22:09:23+00:00,SAT-46537,292.57330398494724,62.59188385704746,481.12939592518256,-2.0966303333471092,73432.86301133248,10.5,10500073432.86301,47.655,-122.3035,60.0,9.666666666666666
2026-02-06T22:09:24+00:00,SAT-46537,294.0073978022426,63.12260894275507,479.03838636842397,-1.9994240688714742,70028.2884473047,10.5,10500070028.288446,47.655,-122.3035,60.0,9.683333333333334
2026-02-06T22:09:25+00:00,SAT-46537,295.5069155015991,63.64233662399883,477.04432247956066,-1.9009922941592468,66580.79133088829,10.5,10500066580.79133,47.655,-122.3035,60.0,9.7
2026-02-06T22:09:26+00:00,SAT-46537,297.0742665873558,64.14959854283877,475.1484264834051,-1.801376229653546,63091.815376363586,10.5,10500063091.815376,47.655,-122.3035,60.0,9.716666666666667
2026-02-06T22:09:27+00:00,SAT-46537,298.71167931051826,64.6428443646652,473.3518794948334,-1.7006204149561521,59562.920548987255,10.5,10500059562.92055,47.655,-122.3035,60.0,9.733333333333333
2026-02-06T22:09:28+00:00,SAT-46537,300.4211298903206,65.1204450201574,471.655818208524,-1.5987726565025275,55995.781232350215,10.5,10500055995.781233,47.655,-122.3035,60.0,9.75
2026-02-06T22:09:29+00:00,SAT-46537,302.20426152376126,65.58069807591363,470.06133164088294,-1.4958839800954296,52392.18456590395,10.5,10500052392.184566,47.655,-122.3035,60.0,9.766666666666667
2026-02-06T22:09:30+00:00,SAT-46537,304.0622937289645,66.02183563041005,468.56945791930616,-1.392008563845373,48754.028096251895,10.5,10500048754.028097,47.655,-122.3035,60.0,9.783333333333333
2026-02-06T22:09:31+00:00,SAT-46537,305.99592335547567,66.44203512272645,467.18118113832327,-1.28720361918463,45083.31560975632,10.5,10500045083.315609,47.655,-122.3035,60.0,9.8
2026-02-06T22:09:32+00:00,SAT-46537,308.0052195531276,66.83943339841257,465.8974283344075,-1.1815293126654858,41382.15439358252,10.5,10500041382.154394,47.655,-122.3035,60.0,9.816666666666666
2026-02-06T22:09:33+00:00,SAT-46537,310.08951629501803,67.21214433217162,464.7190665387782,-1.0750486002945692,37652.74943338627,10.5,10500037652.749434,47.655,-122.3035,60.0,9.833333333333334
2026-02-06T22:09:34+00:00,SAT-46537,312.24730718008317,67.55828014798256,463.64689999542423,-0.9678270860487896,33897.3984579435,10.5,10500033897.398458,47.655,-122.3035,60.0,9.85
2026-02-06T22:09:35+00:00,SAT-46537,314.47614867748257,67.87597643585848,462.68166752023296,-0.8599328411595659,30118.48560971951,10.5,10500030118.48561,47.655,-122.3035,60.0,9.866666666666667
2026-02-06T22:09:36+00:00,SAT-46537,316.7725790053998,68.16342061540793,461.82404004035004,-0.7514362183645994,26318.474939180403,10.5,10500026318.47494,47.655,-122.3035,60.0,9.883333333333333
2026-02-06T22:09:37+00:00,SAT-46537,319.13206062807296,68.41888332862314,461.07461831878845,-0.6424096361347864,22499.90284750678,10.5,10500022499.902847,47.655,-122.3035,60.0,9.9
2026-02-06T22:09:38+00:00,SAT-46537,321.54895440797526,68.6407519259602,460.4339308942357,-0.532927350451206,18665.370093258523,10.5,10500018665.370092,47.655,-122.3035,60.0,9.916666666666666
2026-02-06T22:09:39+00:00,SAT-46537,324.0165327398821,68.82756490075498,459.902432248467,-0.4230652126918266,14817.533312543104,10.5,10500014817.533312,47.655,-122.3035,60.0,9.933333333333334
2026-02-06T22:09:40+00:00,SAT-46537,326.52703725130635,68.97804584485488,459.48050121522743,-0.3129004254556048,10959.096466942643,10.5,10500010959.096466,47.655,-122.3035,60.0,9.95
2026-02-06T22:09:41+00:00,SAT-46537,329.07178398719566,69.09113529708316,459.16843963263216,-0.2025112643330605,7092.801098742569,10.5,10500007092.801098,47.655,-122.3035,60.0,9.966666666666667
2026-02-06T22:09:42+00:00,SAT-46537,331.641315251419,69.16601875774711,458.96647127305215,-0.0919768091519147,3221.416918017011,10.5,10500003221.416918,47.655,-122.3035,60.0,9.983333333333333
