DopplerPredictor/satellites_20260211_210203/SAT-48690.csv

timestamp,satellite,azimuth_deg,elevation_deg,distance_km,relative_velocity_kms,doppler_shift_hz,tx_freq_ghz,rx_freq_hz,ue_lat,ue_lon,ue_alt_m,time_minutes
2026-02-06T22:09:36+00:00,SAT-48690,289.3420246283007,40.063540545407385,814.9616838263215,-5.043044149296446,176628.73816396238,10.5,10500176628.738165,47.655,-122.3035,60.0,9.883333333333333
2026-02-06T22:09:37+00:00,SAT-48690,289.21311396277315,40.42232447665558,809.9321593824492,-5.013791148168365,175604.1743243849,10.5,10500175604.174324,47.655,-122.3035,60.0,9.9
2026-02-06T22:09:38+00:00,SAT-48690,289.08111491832096,40.7850411837548,804.9318095164458,-4.983983751844888,174560.19321997528,10.5,10500174560.19322,47.655,-122.3035,60.0,9.916666666666666
2026-02-06T22:09:39+00:00,SAT-48690,288.94591919230794,41.151733071546204,799.96118713725,-4.9536115414083435,173496.4299361647,10.5,10500173496.429935,47.655,-122.3035,60.0,9.933333333333334
2026-02-06T22:09:40+00:00,SAT-48690,288.80741343171115,41.52244204066787,795.0208555447857,-4.92266384803174,172412.51080550288,10.5,10500172412.510805,47.655,-122.3035,60.0,9.95
2026-02-06T22:09:41+00:00,SAT-48690,288.6654789435939,41.89720939571913,790.1113886792028,-4.891129988324029,171308.06165044455,10.5,10500171308.061651,47.655,-122.3035,60.0,9.966666666666667
2026-02-06T22:09:42+00:00,SAT-48690,288.5199913797346,42.2760757647746,785.2333711354016,-4.858999128252366,170182.70301733154,10.5,10500170182.703018,47.655,-122.3035,60.0,9.983333333333333
