DopplerPredictor/satellites_20260211_210203/SAT-57603.csv

timestamp,satellite,azimuth_deg,elevation_deg,distance_km,relative_velocity_kms,doppler_shift_hz,tx_freq_ghz,rx_freq_hz,ue_lat,ue_lon,ue_alt_m,time_minutes
2026-02-06T22:01:07+00:00,SAT-57603,209.45978592424922,40.13200672773214,814.9164085165563,-2.0762013626825584,72717.35404419969,10.5,10500072717.354044,47.655,-122.3035,60.0,1.4
2026-02-06T22:01:08+00:00,SAT-57603,208.8520021812545,40.27944563491941,812.8457731632117,-2.021933760250299,70816.67305529126,10.5,10500070816.673056,47.655,-122.3035,60.0,1.4166666666666667
2026-02-06T22:01:09+00:00,SAT-57603,208.2384838184801,40.42400290251289,810.8292599283456,-1.9672580659168295,68901.69896177546,10.5,10500068901.698961,47.655,-122.3035,60.0,1.4333333333333333
2026-02-06T22:01:10+00:00,SAT-57603,207.61929298654294,40.56558303620032,808.8672758098216,-1.9121814075359347,66972.68141124256,10.5,10500066972.681412,47.655,-122.3035,60.0,1.45
2026-02-06T22:01:11+00:00,SAT-57603,206.99449830710998,40.704090721480064,806.9602206967584,-1.8567112782279653,65029.88284446314,10.5,10500065029.882845,47.655,-122.3035,60.0,1.4666666666666666
2026-02-06T22:01:12+00:00,SAT-57603,206.36417499463084,40.83943097592748,805.1084870052412,-1.8008555056307667,63073.57741842542,10.5,10500063073.57742,47.655,-122.3035,60.0,1.4833333333333334
2026-02-06T22:01:13+00:00,SAT-57603,205.7284049754144,40.97150930426139,803.312459344703,-1.7446223135598222,61104.053165934325,10.5,10500061104.053165,47.655,-122.3035,60.0,1.5
2026-02-06T22:01:14+00:00,SAT-57603,205.08727697116487,41.100231862666796,801.5725141228081,-1.6880202344616806,59121.608929360205,10.5,10500059121.608929,47.655,-122.3035,60.0,1.5166666666666666
2026-02-06T22:01:15+00:00,SAT-57603,204.4408865970187,41.22550562112325,799.8890192376483,-1.6310581973349603,57126.557440004326,10.5,10500057126.55744,47.655,-122.3035,60.0,1.5333333333333334
2026-02-06T22:01:16+00:00,SAT-57603,203.78933641087002,41.347238536236524,798.262333682254,-1.5737454539768605,55119.222734939634,10.5,10500055119.222734,47.655,-122.3035,60.0,1.55
2026-02-06T22:01:17+00:00,SAT-57603,203.13273597063787,41.46533972225624,796.6928072226623,-1.5160916203568249,53099.941606091576,10.5,10500053099.941607,47.655,-122.3035,60.0,1.5666666666666667
2026-02-06T22:01:18+00:00,SAT-57603,202.4712018555741,41.57971962832266,795.1807800347193,-1.4581066284986741,51069.06191494677,10.5,10500051069.061914,47.655,-122.3035,60.0,1.5833333333333333
2026-02-06T22:01:19+00:00,SAT-57603,201.8048576858914,41.69029021477416,793.7265823888728,-1.3998007792463978,49026.944440634245,10.5,10500049026.94444,47.655,-122.3035,60.0,1.6
2026-02-06T22:01:20+00:00,SAT-57603,201.133834096621,41.79696513556055,792.3305342823431,-1.341184672319264,46973.96043015956,10.5,10500046973.96043,47.655,-122.3035,60.0,1.6166666666666667
2026-02-06T22:01:21+00:00,SAT-57603,200.45826871805474,41.89965991693315,790.9929451410469,-1.2822692562439038,44910.49334723754,10.5,10500044910.493347,47.655,-122.3035,60.0,1.6333333333333333
2026-02-06T22:01:22+00:00,SAT-57603,199.77830610775433,41.9982921408743,789.7141134717257,-1.2230657710325852,42836.93686464302,10.5,10500042836.936865,47.655,-122.3035,60.0,1.65
2026-02-06T22:01:23+00:00,SAT-57603,199.09409768358194,42.0927816244784,788.4943265712423,-1.1635857853926495,40753.69616744268,10.5,10500040753.696167,47.655,-122.3035,60.0,1.6666666666666667
2026-02-06T22:01:24+00:00,SAT-57603,198.40580160999335,42.18305060183424,787.3338601987654,-1.1038411508739083,38661.18634704292,10.5,10500038661.186348,47.655,-122.3035,60.0,1.6833333333333333
2026-02-06T22:01:25+00:00,SAT-57603,197.71358267942108,42.26902390136317,786.2329782936869,-1.043844007369868,36559.832593866035,10.5,10500036559.832594,47.655,-122.3035,60.0,1.7
2026-02-06T22:01:26+00:00,SAT-57603,197.01761216211108,42.35062912182396,785.1919326880504,-0.9836067852634338,34450.070272501835,10.5,10500034450.070272,47.655,-122.3035,60.0,1.7166666666666666
2026-02-06T22:01:27+00:00,SAT-57603,196.31806762241487,42.427796806055355,784.2109628168405,-0.9231421686527619,32332.343633721433,10.5,10500032332.343634,47.655,-122.3035,60.0,1.7333333333333334
2026-02-06T22:01:28+00:00,SAT-57603,195.61513272685136,42.50046060865374,783.2902954649484,-0.8624631007330538,30207.106002970442,10.5,10500030207.106003,47.655,-122.3035,60.0,1.75
2026-02-06T22:01:29+00:00,SAT-57603,194.90899701699402,42.568557460160214,782.4301445087684,-0.8015827623437098,28074.81902899957,10.5,10500028074.819029,47.655,-122.3035,60.0,1.7666666666666666
2026-02-06T22:01:30+00:00,SAT-57603,194.19985566501066,42.63202772490125,781.6307106791921,-0.7405145726964812,25935.952709367535,10.5,10500025935.95271,47.655,-122.3035,60.0,1.7833333333333334
2026-02-06T22:01:31+00:00,SAT-57603,193.48790919398547,42.69081535352017,780.8921813238742,-0.679272155884041,23790.984217429614,10.5,10500023790.984217,47.655,-122.3035,60.0,1.8
2026-02-06T22:01:32+00:00,SAT-57603,192.77336319202618,42.74486802676693,780.2147302029005,-0.6178693426435075,21640.397964103646,10.5,10500021640.397964,47.655,-122.3035,60.0,1.8166666666666667
2026-02-06T22:01:33+00:00,SAT-57603,192.05642799080786,42.79413729263728,779.5985172826985,-0.5563201482716265,19484.68482436632,10.5,10500019484.684824,47.655,-122.3035,60.0,1.8333333333333333
2026-02-06T22:01:34+00:00,SAT-57603,191.3373183292755,42.838578694304594,779.0436885519722,-0.49463875918680555,17324.341666598757,10.5,10500017324.341667,47.655,-122.3035,60.0,1.85
2026-02-06T22:01:35+00:00,SAT-57603,190.61625299568962,42.878151888885746,778.5503758510387,-0.43283951540772925,15159.870738913509,10.5,10500015159.870739,47.655,-122.3035,60.0,1.8666666666666667
2026-02-06T22:01:36+00:00,SAT-57603,189.89345445369088,42.91282075611001,778.1186967186401,-0.37093689853459716,12991.77924820667,10.5,10500012991.779247,47.655,-122.3035,60.0,1.8833333333333333
2026-02-06T22:01:37+00:00,SAT-57603,189.1691484450612,42.94255349676418,777.748754250741,-0.30894550623699923,10820.578466615367,10.5,10500010820.578466,47.655,-122.3035,60.0,1.9
2026-02-06T22:01:38+00:00,SAT-57603,188.44356359306633,42.96732271933298,777.4406369847719,-0.24688005127000262,8646.78369705694,10.5,10500008646.783697,47.655,-122.3035,60.0,1.9166666666666667
2026-02-06T22:01:39+00:00,SAT-57603,187.71693096173573,42.98710551631797,777.19441878485,-0.18475532581364118,6470.9130242470355,10.5,10500006470.913025,47.655,-122.3035,60.0,1.9333333333333333
2026-02-06T22:01:40+00:00,SAT-57603,186.98948363963203,43.00188352706696,777.0101587625684,-0.12258619643493257,4293.487138248128,10.5,10500004293.487139,47.655,-122.3035,60.0,1.95
2026-02-06T22:01:41+00:00,SAT-57603,186.2614562899138,43.01164298922597,776.8879012028094,-0.06038758248752203,2115.028577933676,10.5,10500002115.028578,47.655,-122.3035,60.0,1.9666666666666666
2026-02-06T22:01:42+00:00,SAT-57603,185.53308470098042,43.016374777190144,776.8276755110969,0.0018255612424983344,-63.93887682869098,10.5,10499999936.061123,47.655,-122.3035,60.0,1.9833333333333334
2026-02-06T22:01:43+00:00,SAT-57603,184.80460532530148,43.016074427709185,776.8294961782616,0.06403826360003996,-2242.890872859849,10.5,10499997757.109127,47.655,-122.3035,60.0,2.0
2026-02-06T22:01:44+00:00,SAT-57603,184.07625482916575,43.01074215234976,776.8933627641143,0.1262355526957638,-4421.303031264116,10.5,10499995578.696968,47.655,-122.3035,60.0,2.0166666666666666
2026-02-06T22:01:45+00:00,SAT-57603,183.34826962837917,43.000382837032326,777.019259896714,0.18840247610247982,-6598.65165479259,10.5,10499993401.348345,47.655,-122.3035,60.0,2.033333333333333
2026-02-06T22:01:46+00:00,SAT-57603,182.62088542489198,42.985006028270796,777.2071572917774,0.2505241172726782,-8774.414302854548,10.5,10499991225.585697,47.655,-122.3035,60.0,2.05
2026-02-06T22:01:47+00:00,SAT-57603,181.89433675680323,42.96462590650601,777.4570097884641,0.31258561378603344,-10948.07043062221,10.5,10499989051.92957,47.655,-122.3035,60.0,2.066666666666667
2026-02-06T22:01:48+00:00,SAT-57603,181.16885654651557,42.93926124651614,777.7687574033564,0.37457217494562406,-13119.102005324807,10.5,10499986880.897995,47.655,-122.3035,60.0,2.0833333333333335
2026-02-06T22:01:49+00:00,SAT-57603,180.44467565844104,42.90893536519002,778.1423254019919,0.43646909842047854,-15286.99408914091,10.5,10499984713.00591,47.655,-122.3035,60.0,2.1
2026-02-06T22:01:50+00:00,SAT-57603,179.72202246797855,42.873676057009014,778.577624386992,0.4982617903000542,-17451.23554159114,10.5,10499982548.764458,47.655,-122.3035,60.0,2.1166666666666667
2026-02-06T22:01:51+00:00,SAT-57603,179.00112243717444,42.83351551731685,779.0745504061927,0.5599357774906074,-19611.31945371147,10.5,10499980388.680546,47.655,-122.3035,60.0,2.1333333333333333
2026-02-06T22:01:52+00:00,SAT-57603,178.2821977123125,42.78849025441036,779.6329850731349,0.6214767285567769,-21766.74387801363,10.5,10499978233.256123,47.655,-122.3035,60.0,2.15
2026-02-06T22:01:53+00:00,SAT-57603,177.56546672953473,42.73864099022195,780.2527957083462,0.6828704655215586,-23917.012241770157,10.5,10499976082.987759,47.655,-122.3035,60.0,2.1666666666666665
2026-02-06T22:01:54+00:00,SAT-57603,176.8511438436932,42.68401255085797,780.9338354923858,0.744102987121806,-26061.63416152038,10.5,10499973938.365839,47.655,-122.3035,60.0,2.183333333333333
2026-02-06T22:01:55+00:00,SAT-57603,176.13943896719107,42.62465374662463,781.6759436420855,0.8051604692952326,-28200.125460127292,10.5,10499971799.87454,47.655,-122.3035,60.0,2.2
2026-02-06T22:01:56+00:00,SAT-57603,175.43055724423544,42.560617243981504,782.4789455872746,0.8660293029701082,-30332.00949033259,10.5,10499969667.990509,47.655,-122.3035,60.0,2.216666666666667
2026-02-06T22:01:57+00:00,SAT-57603,174.72469872330205,42.49195942708543,783.3426531851954,0.9266960841929641,-32456.816788987144,10.5,10499967543.18321,47.655,-122.3035,60.0,2.2333333333333334
2026-02-06T22:01:58+00:00,SAT-57603,174.0220580750182,42.41874025340177,784.2668649250709,0.9871476429468127,-34574.08608638692,10.5,10499965425.913914,47.655,-122.3035,60.0,2.25
2026-02-06T22:01:59+00:00,SAT-57603,173.32282431855324,42.34102310099736,785.2513661614134,1.047371050531643,-36683.364564769174,10.5,10499963316.635435,47.655,-122.3035,60.0,2.2666666666666666
2026-02-06T22:02:00+00:00,SAT-57603,172.62718057655903,42.25887460994269,786.2959293546959,1.1073536348939796,-38784.20839521849,10.5,10499961215.791605,47.655,-122.3035,60.0,2.283333333333333
2026-02-06T22:02:01+00:00,SAT-57603,171.93530385230687,42.1723645179203,787.4003143273094,1.1670829893934207,-40876.18304470794,10.5,10499959123.816956,47.655,-122.3035,60.0,2.3
2026-02-06T22:02:02+00:00,SAT-57603,171.24736483307643,42.081565491296345,788.5642685282656,1.226546991443503,-42958.863928981096,10.5,10499957041.13607,47.655,-122.3035,60.0,2.316666666666667
2026-02-06T22:02:03+00:00,SAT-57603,170.56352771382097,41.98655295162085,789.7875273164886,1.285733793907541,-45031.8361111979,10.5,10499954968.163889,47.655,-122.3035,60.0,2.3333333333333335
2026-02-06T22:02:04+00:00,SAT-57603,169.88395005614362,41.88740490040085,791.069814235526,1.3446318599636478,-47094.695523055154,10.5,10499952905.304478,47.655,-122.3035,60.0,2.35
2026-02-06T22:02:05+00:00,SAT-57603,169.20878265700136,41.78420173950382,792.4108413230323,1.4032299598996452,-49147.04885253075,10.5,10499950852.951147,47.655,-122.3035,60.0,2.3666666666666667
2026-02-06T22:02:06+00:00,SAT-57603,168.5381694491603,41.67702609084802,793.8103094170554,1.4615171729174996,-51188.51360708263,10.5,10499948811.486393,47.655,-122.3035,60.0,2.3833333333333333
2026-02-06T22:02:07+00:00,SAT-57603,167.8722474279944,41.56596261567308,795.2679084641213,1.5194828992671963,-53218.718538628345,10.5,10499946781.281462,47.655,-122.3035,60.0,2.4
2026-02-06T22:02:08+00:00,SAT-57603,167.21114659839702,41.45109783324283,796.7833178394244,1.5771168849947526,-55237.30451032528,10.5,10499944762.69549,47.655,-122.3035,60.0,2.4166666666666665
2026-02-06T22:02:09+00:00,SAT-57603,166.5549899363451,41.33251993869332,798.3562066916927,1.634409194251867,-57243.92352673731,10.5,10499942756.076473,47.655,-122.3035,60.0,2.433333333333333
2026-02-06T22:02:10+00:00,SAT-57603,165.90389338718893,41.21031862458827,799.9862342604433,1.6913502419255324,-59238.23987666191,10.5,10499940761.760124,47.655,-122.3035,60.0,2.45
2026-02-06T22:02:11+00:00,SAT-57603,165.25796587208728,41.08458490218424,801.6730502257765,1.7479307920802154,-61219.93007856876,10.5,10499938780.069921,47.655,-122.3035,60.0,2.466666666666667
2026-02-06T22:02:12+00:00,SAT-57603,164.6173093174799,40.95541092553888,803.4162950566175,1.8041419522960345,-63188.68268229871,10.5,10499936811.317318,47.655,-122.3035,60.0,2.4833333333333334
2026-02-06T22:02:13+00:00,SAT-57603,163.98201870656612,40.82288981924435,805.2156003533112,1.8599751875533241,-65144.19875535996,10.5,10499934855.801245,47.655,-122.3035,60.0,2.5
2026-02-06T22:02:14+00:00,SAT-57603,163.35218214428792,40.687115508790214,807.0705892040634,1.915422310917474,-67086.19155667177,10.5,10499932913.808443,47.655,-122.3035,60.0,2.5166666666666666
2026-02-06T22:02:15+00:00,SAT-57603,162.72788094275217,40.54818255568381,808.9808765320935,1.970475502404429,-69014.38719731403,10.5,10499930985.612803,47.655,-122.3035,60.0,2.533333333333333
2026-02-06T22:02:16+00:00,SAT-57603,162.10918971605065,40.40618599563747,810.9460694616015,2.0251273086011747,-70928.52462723508,10.5,10499929071.475372,47.655,-122.3035,60.0,2.55
2026-02-06T22:02:17+00:00,SAT-57603,161.49617649026308,40.261221181597264,812.965767683356,2.0793706132008087,-72828.35460326521,10.5,10499927171.645397,47.655,-122.3035,60.0,2.566666666666667
2026-02-06T22:02:18+00:00,SAT-57603,160.88890283552976,40.11338363394759,815.039563790896,2.1331986687243463,-74713.6408001486,10.5,10499925286.3592,47.655,-122.3035,60.0,2.5833333333333335
