DopplerPredictor/satellites_20260211_210203/SAT-53498.csv

timestamp,satellite,azimuth_deg,elevation_deg,distance_km,relative_velocity_kms,doppler_shift_hz,tx_freq_ghz,rx_freq_hz,ue_lat,ue_lon,ue_alt_m,time_minutes
2026-02-06T22:05:00+00:00,SAT-53498,33.175620264768256,40.217783519586774,819.8610518390979,-4.992189063018928,174847.57792572197,10.5,10500174847.577927,47.655,-122.3035,60.0,5.283333333333333
2026-02-06T22:05:01+00:00,SAT-53498,33.44184410456637,40.571988316966895,814.8822461460347,-4.956571649752393,173600.10545161922,10.5,10500173600.105452,47.655,-122.3035,60.0,5.3
2026-02-06T22:05:02+00:00,SAT-53498,33.71413550893976,40.92950201597434,809.9389623808686,-4.92029121096631,172329.4110192267,10.5,10500172329.411018,47.655,-122.3035,60.0,5.316666666666666
2026-02-06T22:05:03+00:00,SAT-53498,33.992695421654105,41.290329711228885,805.0318617916388,-4.883336438809714,171035.09857977144,10.5,10500171035.09858,47.655,-122.3035,60.0,5.333333333333333
2026-02-06T22:05:04+00:00,SAT-53498,34.277733134463695,41.65447398121342,800.1616169039208,-4.845695958736174,169716.76974852325,10.5,10500169716.769749,47.655,-122.3035,60.0,5.35
2026-02-06T22:05:05+00:00,SAT-53498,34.5694666824101,42.021934700604135,795.3289115873442,-4.807358400021081,168374.02627460813,10.5,10500168374.026274,47.655,-122.3035,60.0,5.366666666666666
2026-02-06T22:05:06+00:00,SAT-53498,34.86812326269551,42.39270884631533,790.5344410517783,-4.7683123470262805,167006.4683340898,10.5,10500167006.468334,47.655,-122.3035,60.0,5.383333333333334
2026-02-06T22:05:07+00:00,SAT-53498,35.173939669545604,42.766790287750176,785.7789118921273,-4.728546411289654,165613.6970548517,10.5,10500165613.697054,47.655,-122.3035,60.0,5.4
2026-02-06T22:05:08+00:00,SAT-53498,35.48716275425903,43.144169569773574,781.063042061227,-4.688049208024525,164195.31369350696,10.5,10500164195.313694,47.655,-122.3035,60.0,5.416666666666667
2026-02-06T22:05:09+00:00,SAT-53498,35.808049904385804,43.524833680470145,776.3875608661783,-4.6468093802725585,162750.92048133467,10.5,10500162750.92048,47.655,-122.3035,60.0,5.433333333333334
2026-02-06T22:05:10+00:00,SAT-53498,36.13686954595926,43.908765806603284,771.7532089405946,-4.6048156085467165,161280.12096201742,10.5,10500161280.120962,47.655,-122.3035,60.0,5.45
2026-02-06T22:05:11+00:00,SAT-53498,36.47390166838046,44.295945074902306,767.1607382072298,-4.562056688904228,159782.52272608673,10.5,10500159782.522726,47.655,-122.3035,60.0,5.466666666666667
2026-02-06T22:05:12+00:00,SAT-53498,36.819438377889334,44.68634628427224,762.6109117627448,-4.5185214472700235,158257.73441016735,10.5,10500158257.73441,47.655,-122.3035,60.0,5.483333333333333
2026-02-06T22:05:13+00:00,SAT-53498,37.17378446715772,45.079939614388984,758.104503847919,-4.474198828839059,156705.36882822492,10.5,10500156705.368828,47.655,-122.3035,60.0,5.5
2026-02-06T22:05:14+00:00,SAT-53498,37.53725801464152,45.47669032444103,753.6422997287006,-4.429077942111285,155125.04451385664,10.5,10500155125.044514,47.655,-122.3035,60.0,5.516666666666667
2026-02-06T22:05:15+00:00,SAT-53498,37.91019101179327,45.87655843778937,749.2250955333395,-4.3831480218773535,153516.38442389437,10.5,10500153516.384424,47.655,-122.3035,60.0,5.533333333333333
2026-02-06T22:05:16+00:00,SAT-53498,38.2929300095819,46.279498404462124,744.8536981264343,-4.336398452955534,151879.0167697718,10.5,10500151879.01677,47.655,-122.3035,60.0,5.55
2026-02-06T22:05:17+00:00,SAT-53498,38.68583679000283,46.6854587456647,740.5289249593081,-4.288818859823648,150212.57815681372,10.5,10500150212.578157,47.655,-122.3035,60.0,5.566666666666666
2026-02-06T22:05:18+00:00,SAT-53498,39.08928906807796,47.094381685738895,736.2516038309908,-4.2403990856331335,148516.7128492202,10.5,10500148516.712849,47.655,-122.3035,60.0,5.583333333333333
2026-02-06T22:05:19+00:00,SAT-53498,39.50368121359997,47.506202760609085,732.0225726701311,-4.1911292073836135,146791.07330154366,10.5,10500146791.073301,47.655,-122.3035,60.0,5.6
2026-02-06T22:05:20+00:00,SAT-53498,39.929424993834665,47.92085040483679,727.8426793017768,-4.140999611621587,145035.32280997763,10.5,10500145035.32281,47.655,-122.3035,60.0,5.616666666666666
2026-02-06T22:05:21+00:00,SAT-53498,40.366950342672745,48.33824552235451,723.7127811386559,-4.090000971177432,143249.13469758813,10.5,10500143249.134697,47.655,-122.3035,60.0,5.633333333333334
2026-02-06T22:05:22+00:00,SAT-53498,40.816706142604154,48.7583010303043,719.6337448956621,-4.03812432546972,141432.19512691032,10.5,10500141432.195127,47.655,-122.3035,60.0,5.65
2026-02-06T22:05:23+00:00,SAT-53498,41.27916102881516,49.1809213853118,715.606446224248,-3.9853610831917963,139584.20319404386,10.5,10500139584.203194,47.655,-122.3035,60.0,5.666666666666667
2026-02-06T22:05:24+00:00,SAT-53498,41.75480420235206,49.60600208360864,711.6317693441405,-3.931703039915235,137704.87154520067,10.5,10500137704.871546,47.655,-122.3035,60.0,5.683333333333334
2026-02-06T22:05:25+00:00,SAT-53498,42.24414624919931,50.03342913538861,707.7106066575003,-3.877142476283369,135793.92981585738,10.5,10500135793.929815,47.655,-122.3035,60.0,5.7
2026-02-06T22:05:26+00:00,SAT-53498,42.74771997032903,50.46307852136141,703.8438582651501,-3.821672114152174,133851.12309462376,10.5,10500133851.123095,47.655,-122.3035,60.0,5.716666666666667
2026-02-06T22:05:27+00:00,SAT-53498,43.26608119681127,50.89481561552134,700.0324315265452,-3.7652852150645812,131876.2153722296,10.5,10500131876.215372,47.655,-122.3035,60.0,5.733333333333333
2026-02-06T22:05:28+00:00,SAT-53498,43.79980960113974,51.328494588842716,696.277240521533,-3.707975584515843,129868.98969091594,10.5,10500129868.98969,47.655,-122.3035,60.0,5.75
2026-02-06T22:05:29+00:00,SAT-53498,44.34950948088213,51.7639577831869,692.5792055078584,-3.6497376091878717,127829.24944853902,10.5,10500127829.249449,47.655,-122.3035,60.0,5.766666666666667
2026-02-06T22:05:30+00:00,SAT-53498,44.91581050792872,52.201035058518656,688.9392523415372,-3.5905663261589877,125756.82082258843,10.5,10500125756.820822,47.655,-122.3035,60.0,5.783333333333333
2026-02-06T22:05:31+00:00,SAT-53498,45.49936843369377,52.63954311721676,685.3583118282003,-3.5304574230858594,123651.55277655959,10.5,10500123651.552776,47.655,-122.3035,60.0,5.8
2026-02-06T22:05:32+00:00,SAT-53498,46.100865722711525,53.07928479739872,681.8373190742628,-3.4694072914781553,121513.31892585714,10.5,10500121513.318926,47.655,-122.3035,60.0,5.816666666666666
2026-02-06T22:05:33+00:00,SAT-53498,46.72101210253167,53.520048341822104,678.377212784955,-3.407413104379043,119342.0202584948,10.5,10500119342.020258,47.655,-122.3035,60.0,5.833333333333333
2026-02-06T22:05:34+00:00,SAT-53498,47.360545013272926,53.96160664655982,674.9789344848856,-3.344472790713428,117137.58423666214,10.5,10500117137.584236,47.655,-122.3035,60.0,5.85
2026-02-06T22:05:35+00:00,SAT-53498,48.020229909134585,54.40371647759389,671.643427764187,-3.280585117407636,114899.96767290316,10.5,10500114899.967672,47.655,-122.3035,60.0,5.866666666666666
2026-02-06T22:05:36+00:00,SAT-53498,48.70086040179923,54.84611767060417,668.3716374427584,-3.2157497242593798,112629.15795141013,10.5,10500112629.157951,47.655,-122.3035,60.0,5.883333333333334
2026-02-06T22:05:37+00:00,SAT-53498,49.40325820095575,55.28853231061618,665.1645086997363,-3.1499671683153894,110325.17458231583,10.5,10500110325.174582,47.655,-122.3035,60.0,5.9
2026-02-06T22:05:38+00:00,SAT-53498,50.128272813448845,55.73066389603203,662.0229861587037,-3.083238943524518,107988.06989002852,10.5,10500107988.069891,47.655,-122.3035,60.0,5.916666666666667
2026-02-06T22:05:39+00:00,SAT-53498,50.876780947937746,56.17219648774256,658.9480129532999,-3.015567528309406,105617.93067939275,10.5,10500105617.93068,47.655,-122.3035,60.0,5.933333333333334
2026-02-06T22:05:40+00:00,SAT-53498,51.649685578612605,56.61279385236506,655.9405297453856,-2.946956455800161,103214.88069557003,10.5,10500103214.880695,47.655,-122.3035,60.0,5.95
2026-02-06T22:05:41+00:00,SAT-53498,52.44791461667496,57.05209860976645,653.0014736731634,-2.877410296581441,100779.08001976863,10.5,10500100779.080019,47.655,-122.3035,60.0,5.966666666666667
2026-02-06T22:05:42+00:00,SAT-53498,53.272419097862134,57.48973138020407,650.1317773165048,-2.8069347182486974,98310.7271551552,10.5,10500098310.727156,47.655,-122.3035,60.0,5.983333333333333
2026-02-06T22:05:43+00:00,SAT-53498,54.12417083408025,57.925289951809475,647.3323676028785,-2.735536537978683,95810.06086809619,10.5,10500095810.060867,47.655,-122.3035,60.0,6.0
2026-02-06T22:05:44+00:00,SAT-53498,55.00415944729604,58.358348479585715,644.6041646608543,-2.6632237307626094,93277.36047651806,10.5,10500093277.360477,47.655,-122.3035,60.0,6.016666666666667
2026-02-06T22:05:45+00:00,SAT-53498,55.91338868498645,58.78845672313528,641.948080665389,-2.590005473178482,90712.94738299941,10.5,10500090712.947384,47.655,-122.3035,60.0,6.033333333333333
2026-02-06T22:05:46+00:00,SAT-53498,56.85287193346236,59.21513934506598,639.3650186394633,-2.515892147924293,88117.18523354271,10.5,10500088117.185234,47.655,-122.3035,60.0,6.05
2026-02-06T22:05:47+00:00,SAT-53498,57.823626815649384,59.63789528308154,636.8558712511947,-2.4408953989456355,85490.4818483765,10.5,10500085490.481848,47.655,-122.3035,60.0,6.066666666666666
2026-02-06T22:05:48+00:00,SAT-53498,58.82666878837489,60.0561972263952,634.42151955597,-2.365028141564652,82833.28957671393,10.5,10500082833.289577,47.655,-122.3035,60.0,6.083333333333333
2026-02-06T22:05:49+00:00,SAT-53498,59.86300361872933,60.46949121499335,632.0628317284787,-2.288304576688207,80146.10579438317,10.5,10500080146.105795,47.655,-122.3035,60.0,6.1
2026-02-06T22:05:50+00:00,SAT-53498,60.933618635305834,60.87719639146819,629.7806617805749,-2.2107402064356427,77429.47345117752,10.5,10500077429.473452,47.655,-122.3035,60.0,6.116666666666666
2026-02-06T22:05:51+00:00,SAT-53498,62.039472657406655,61.27870493852653,627.5758482635505,-2.132351855956784,74683.98183501413,10.5,10500074683.981834,47.655,-122.3035,60.0,6.133333333333334
2026-02-06T22:05:52+00:00,SAT-53498,63.18148451810828,61.67338223996572,625.449212948655,-2.053157671733594,71910.26651245088,10.5,10500071910.266512,47.655,-122.3035,60.0,6.15
2026-02-06T22:05:53+00:00,SAT-53498,64.36052010085365,62.060567301090714,623.4015595093038,-1.9731771364786328,69109.00985049346,10.5,10500069109.00985,47.655,-122.3035,60.0,6.166666666666667
2026-02-06T22:05:54+00:00,SAT-53498,65.5773778533174,62.439573475088764,621.4336721884293,-1.8924310522675052,66280.9404258222,10.5,10500066280.940426,47.655,-122.3035,60.0,6.183333333333334
2026-02-06T22:05:55+00:00,SAT-53498,66.83277275097495,62.80968953558793,619.5463144826575,-1.8109415493611671,63426.833333786715,10.5,10500063426.833334,47.655,-122.3035,60.0,6.2
2026-02-06T22:05:56+00:00,SAT-53498,68.12731876090263,63.170181148308714,617.7402278176804,-1.728732082930199,60547.510073676,10.5,10500060547.510075,47.655,-122.3035,60.0,6.216666666666667
2026-02-06T22:05:57+00:00,SAT-53498,69.46150989356765,63.520292788539784,616.0161302268995,-1.6458273920995345,57643.83711429162,10.5,10500057643.837114,47.655,-122.3035,60.0,6.233333333333333
2026-02-06T22:05:58+00:00,SAT-53498,70.83569997369477,63.85925014475511,614.3747150709139,-1.562253508934039,54716.72620866069,10.5,10500054716.726208,47.655,-122.3035,60.0,6.25
2026-02-06T22:05:59+00:00,SAT-53498,72.25008141014945,64.1862630633354,612.8166497480463,-1.4780377231368025,51767.13315762075,10.5,10500051767.133158,47.655,-122.3035,60.0,6.266666666666667
2026-02-06T22:06:00+00:00,SAT-53498,73.70466326881126,64.50052906528954,611.3425744400762,-1.3932085517317974,48796.056747978204,10.5,10500048796.056747,47.655,-122.3035,60.0,6.283333333333333
2026-02-06T22:06:01+00:00,SAT-53498,75.19924908087437,64.80123746716842,609.9531008882087,-1.3077957038306545,45804.53751849178,10.5,10500045804.537518,47.655,-122.3035,60.0,6.3
2026-02-06T22:06:02+00:00,SAT-53498,76.73341492647032,65.08757412484952,608.6488112041844,-1.2218300468106364,42793.656575282104,10.5,10500042793.656576,47.655,-122.3035,60.0,6.316666666666666
2026-02-06T22:06:03+00:00,SAT-53498,78.30648843973364,65.35872680510614,607.4302567151167,-1.1353435611892975,39764.53401135136,10.5,10500039764.534012,47.655,-122.3035,60.0,6.333333333333333
2026-02-06T22:06:04+00:00,SAT-53498,79.91752947136817,65.61389116828656,606.2979568533377,-1.0483692843386336,36718.326935214805,10.5,10500036718.326935,47.655,-122.3035,60.0,6.35
2026-02-06T22:06:05+00:00,SAT-53498,81.56531321561037,65.8522773230395,605.2523981023753,-0.9609412635218941,33656.22782605121,10.5,10500033656.227825,47.655,-122.3035,60.0,6.366666666666666
2026-02-06T22:06:06+00:00,SAT-53498,83.24831670241271,66.07311689321963,604.294032989771,-0.8730944967650053,30579.46246277001,10.5,10500030579.462463,47.655,-122.3035,60.0,6.383333333333334
2026-02-06T22:06:07+00:00,SAT-53498,84.96470953853603,66.2756705049285,603.4232791388648,-0.7848648652236996,27489.287555222105,10.5,10500027489.287556,47.655,-122.3035,60.0,6.4
2026-02-06T22:06:08+00:00,SAT-53498,86.71234976318,66.45923557377846,602.6405183880333,-0.69628906762304,24386.988447994645,10.5,10500024386.988447,47.655,-122.3035,60.0,6.416666666666667
2026-02-06T22:06:09+00:00,SAT-53498,88.48878561246896,66.62315424713624,601.9460959753129,-0.6074045503007137,21273.87667023129,10.5,10500021273.87667,47.655,-122.3035,60.0,6.433333333333334
2026-02-06T22:06:10+00:00,SAT-53498,90.29126384885144,66.76682132924772,601.3403197927898,-0.518249429334423,18151.287208204023,10.5,10500018151.287209,47.655,-122.3035,60.0,6.45
2026-02-06T22:06:11+00:00,SAT-53498,92.11674508489367,66.88969199566105,600.8234597186569,-0.4288624169752952,15020.57592869998,10.5,10500015020.57593,47.655,-122.3035,60.0,6.466666666666667
2026-02-06T22:06:12+00:00,SAT-53498,93.96192632771512,66.99128909221326,600.3957470226384,-0.33928272921922376,11883.11634177885,10.5,10500011883.116343,47.655,-122.3035,60.0,6.483333333333333
2026-02-06T22:06:13+00:00,SAT-53498,95.82327055221836,67.07120980318571,600.0573738635953,-0.2495500149825051,8740.297120204084,10.5,10500008740.297121,47.655,-122.3035,60.0,6.5
2026-02-06T22:06:14+00:00,SAT-53498,97.69704298561159,67.12913148747626,599.8084928577649,-0.15970425964884147,5593.518721250937,10.5,10500005593.51872,47.655,-122.3035,60.0,6.516666666666667
2026-02-06T22:06:15+00:00,SAT-53498,99.57935320648255,67.16481648638373,599.6492167431971,-0.06978570186042397,2444.190472378233,10.5,10500002444.190472,47.655,-122.3035,60.0,6.533333333333333
2026-02-06T22:06:16+00:00,SAT-53498,101.46620204862285,67.1781157423596,599.5796181271731,0.020165258203029782,-706.272641227728,10.5,10499999293.727358,47.655,-122.3035,60.0,6.55
2026-02-06T22:06:17+00:00,SAT-53498,103.3535319248549,67.1689710995552,599.5997293251017,0.11010814780961867,-3856.4530932962834,10.5,10499996143.546907,47.655,-122.3035,60.0,6.566666666666666
2026-02-06T22:06:18+00:00,SAT-53498,105.23727900147088,67.13741620435813,599.709542288162,0.20000251421712273,-7004.934057679959,10.5,10499992995.065943,47.655,-122.3035,60.0,6.583333333333333
2026-02-06T22:06:19+00:00,SAT-53498,107.11342559633329,67.08357597243307,599.9090086232387,0.2898080122141122,-10150.30247441441,10.5,10499989849.697525,47.655,-122.3035,60.0,6.6
2026-02-06T22:06:20+00:00,SAT-53498,108.97805107524243,67.00766464324519,600.1980397001656,0.3794844991527244,-13291.152378168254,10.5,10499986708.847622,47.655,-122.3035,60.0,6.616666666666666
2026-02-06T22:06:21+00:00,SAT-53498,110.82737970705317,66.90998249051182,600.5765068537451,0.46899211580147404,-16426.08773005049,10.5,10499983573.91227,47.655,-122.3035,60.0,6.633333333333334
2026-02-06T22:06:22+00:00,SAT-53498,112.6578240069533,66.79091130890151,601.044241666405,0.5582913863495621,-19553.72592018443,10.5,10499980446.27408,47.655,-122.3035,60.0,6.65
2026-02-06T22:06:23+00:00,SAT-53498,114.46602248843985,66.65090882749153,601.6010363505918,0.647343291769798,-22672.700337187536,10.5,10499977327.299664,47.655,-122.3035,60.0,6.666666666666667
2026-02-06T22:06:24+00:00,SAT-53498,116.24887088273566,66.49050224146265,602.2466442043298,0.7361093556010136,-25781.663372634423,10.5,10499974218.336628,47.655,-122.3035,60.0,6.683333333333334
2026-02-06T22:06:25+00:00,SAT-53498,118.00354636445769,66.31028106193108,602.9807801523316,0.8245517337296594,-28879.28956558815,10.5,10499971120.710434,47.655,-122.3035,60.0,6.7
2026-02-06T22:06:26+00:00,SAT-53498,119.72752459872414,66.11088949364893,603.8031213766513,0.9126332806019465,-31964.277921629495,10.5,10499968035.722078,47.655,-122.3035,60.0,6.716666666666667
2026-02-06T22:06:27+00:00,SAT-53498,121.41858968706028,65.8930185541403,604.7133080133713,1.0003176259491497,-35035.35460010162,10.5,10499964964.6454,47.655,-122.3035,60.0,6.733333333333333
2026-02-06T22:06:28+00:00,SAT-53498,123.07483743809883,65.65739812735424,605.7109439258091,1.0875692469995388,-38091.27544327736,10.5,10499961908.724556,47.655,-122.3035,60.0,6.75
2026-02-06T22:06:29+00:00,SAT-53498,124.69467256447082,65.40478912958021,606.795597549742,1.1743535366636817,-41130.82836449694,10.5,10499958869.171635,47.655,-122.3035,60.0,6.766666666666667
2026-02-06T22:06:30+00:00,SAT-53498,126.27680056346402,65.13597594082114,607.9668028066347,1.2606368543410507,-44152.8351276303,10.5,10499955847.164873,47.655,-122.3035,60.0,6.783333333333333
2026-02-06T22:06:31+00:00,SAT-53498,127.82021512417391,64.85175923050701,609.224060067537,1.3463865972111821,-47156.15384399501,10.5,10499952843.846155,47.655,-122.3035,60.0,6.8
2026-02-06T22:06:32+00:00,SAT-53498,129.3241819867277,64.55294926920017,610.5668371880823,1.4315712410458874,-50139.68040177254,10.5,10499949860.3196,47.655,-122.3035,60.0,6.816666666666666
2026-02-06T22:06:33+00:00,SAT-53498,130.78822010653977,64.24035980186535,611.994570584188,1.5161603954301226,-53102.35040007674,10.5,10499946897.6496,47.655,-122.3035,60.0,6.833333333333333
2026-02-06T22:06:34+00:00,SAT-53498,132.2120809833194,63.9148025220133,613.506666362828,1.600124831037766,-56043.14010426687,10.5,10499943956.859896,47.655,-122.3035,60.0,6.85
2026-02-06T22:06:35+00:00,SAT-53498,133.59572689397606,63.57708217239269,615.1025014800113,1.6834365442874593,-58961.068710468775,10.5,10499941038.93129,47.655,-122.3035,60.0,6.866666666666666
2026-02-06T22:06:36+00:00,SAT-53498,134.9393087297525,63.227992264052894,616.7814249632376,1.766068762083541,-61855.198511622264,10.5,10499938144.801489,47.655,-122.3035,60.0,6.883333333333334
2026-02-06T22:06:37+00:00,SAT-53498,136.243143953781,62.86831141044326,618.5427591386872,1.8479959862152646,-64724.636452529696,10.5,10499935275.363548,47.655,-122.3035,60.0,6.9
2026-02-06T22:06:38+00:00,SAT-53498,137.50769516999296,62.49880023940005,620.385800902687,1.929193996771021,-67568.53424943639,10.5,10499932431.46575,47.655,-122.3035,60.0,6.916666666666667
2026-02-06T22:06:39+00:00,SAT-53498,138.73354963309578,62.120198853745286,622.3098229965815,2.009639894330998,-70386.08986779608,10.5,10499929613.910131,47.655,-122.3035,60.0,6.933333333333334
2026-02-06T22:06:40+00:00,SAT-53498,139.9213999842614,61.73322478888072,624.3140753236862,2.0893120979355704,-73176.54745111529,10.5,10499926823.452549,47.655,-122.3035,60.0,6.95
2026-02-06T22:06:41+00:00,SAT-53498,141.07202636476967,61.338571429047924,626.3977862642122,2.1681903424296,-75939.1972279396,10.5,10499924060.802773,47.655,-122.3035,60.0,6.966666666666667
2026-02-06T22:06:42+00:00,SAT-53498,142.1862800173689,60.93690683344208,628.560163987544,2.2462557050480427,-78673.37644299393,10.5,10499921326.623556,47.655,-122.3035,60.0,6.983333333333333
2026-02-06T22:06:43+00:00,SAT-53498,143.26506843646507,60.528872918429165,630.80039779103,2.3234905855321095,-81378.46866076648,10.5,10499918621.53134,47.655,-122.3035,60.0,7.0
2026-02-06T22:06:44+00:00,SAT-53498,144.30934204399756,60.11508495803834,633.117659418944,2.399878701792496,-84053.90361361661,10.5,10499915946.096386,47.655,-122.3035,60.0,7.016666666666667
2026-02-06T22:06:45+00:00,SAT-53498,145.32008236208281,59.696131355534185,635.5111043771203,2.475405085299577,-86699.15704032007,10.5,10499913300.84296,47.655,-122.3035,60.0,7.033333333333333
2026-02-06T22:06:46+00:00,SAT-53498,146.2982916178692,59.272573645249956,637.9798732429919,2.5500560861349846,-89313.75086299649,10.5,10499910686.249138,47.655,-122.3035,60.0,7.05
2026-02-06T22:06:47+00:00,SAT-53498,147.24498369790157,58.844946685805176,640.523092980668,2.623819285603215,-91897.2501263983,10.5,10499908102.749874,47.655,-122.3035,60.0,7.066666666666666
2026-02-06T22:06:48+00:00,SAT-53498,148.16117632546516,58.41375902644926,643.1398781688533,2.6966835967763085,-94449.26651941071,10.5,10499905550.73348,47.655,-122.3035,60.0,7.083333333333333
2026-02-06T22:06:49+00:00,SAT-53498,149.04788442125962,57.97949338487479,645.8293323290492,2.7686391033720423,-96969.45273188442,10.5,10499903030.547268,47.655,-122.3035,60.0,7.1
2026-02-06T22:06:50+00:00,SAT-53498,149.90611445523965,57.54260725364296,648.5905490930572,2.8396771557955276,-99457.50581841868,10.5,10499900542.49418,47.655,-122.3035,60.0,7.116666666666666
2026-02-06T22:06:51+00:00,SAT-53498,150.73685976829404,57.10353356958335,651.4226134662736,2.909790227476529,-101913.1621666865,10.5,10499898086.837833,47.655,-122.3035,60.0,7.133333333333334
2026-02-06T22:06:52+00:00,SAT-53498,151.54109669048316,56.66268146482038,654.3246029477011,2.97897200932453,-104336.20080565057,10.5,10499895663.799194,47.655,-122.3035,60.0,7.15
2026-02-06T22:06:53+00:00,SAT-53498,152.31978142686916,56.22043704476468,657.2955887441669,3.047217272610017,-106726.4386030858,10.5,10499893273.561398,47.655,-122.3035,60.0,7.166666666666667
2026-02-06T22:06:54+00:00,SAT-53498,153.07384755920694,55.77716421448119,660.3346368477849,3.114521856042614,-109083.729813001,10.5,10499890916.270187,47.655,-122.3035,60.0,7.183333333333334
2026-02-06T22:06:55+00:00,SAT-53498,153.8042041159176,55.33320552143726,663.4408091005354,3.180882701349641,-111407.9673217504,10.5,10499888592.032679,47.655,-122.3035,60.0,7.2
2026-02-06T22:06:56+00:00,SAT-53498,154.51173414268064,54.88888299811124,666.6131642943247,3.2462977196718703,-113699.07796864802,10.5,10499886300.922031,47.655,-122.3035,60.0,7.216666666666667
2026-02-06T22:06:57+00:00,SAT-53498,155.197293668477,54.44449902034108,669.8507591377992,3.310765793268861,-115957.02260569557,10.5,10499884042.977394,47.655,-122.3035,60.0,7.233333333333333
2026-02-06T22:06:58+00:00,SAT-53498,155.86171103744573,54.000337154582105,673.1526492248621,3.3742867507852954,-118181.79523130499,10.5,10499881818.20477,47.655,-122.3035,60.0,7.25
2026-02-06T22:06:59+00:00,SAT-53498,156.5057865446237,53.55666299270378,676.5178899785199,3.4368613351224755,-120373.42186502235,10.5,10499879626.578135,47.655,-122.3035,60.0,7.266666666666667
2026-02-06T22:07:00+00:00,SAT-53498,157.1302923253474,53.113724971072344,679.9455375626898,3.4984910961421978,-122531.95678956366,10.5,10499877468.043211,47.655,-122.3035,60.0,7.283333333333333
2026-02-06T22:07:01+00:00,SAT-53498,157.73597244482036,52.671755179929214,683.434649686995,3.5591784157066146,-124657.48342781677,10.5,10499875342.516573,47.655,-122.3035,60.0,7.3
2026-02-06T22:07:02+00:00,SAT-53498,158.32354317321858,52.23097014298421,686.9842864365356,3.6189264660648206,-126750.11288536357,10.5,10499873249.887115,47.655,-122.3035,60.0,7.316666666666666
2026-02-06T22:07:03+00:00,SAT-53498,158.89369340189597,51.791571574413425,690.593511060157,3.677739136822434,-128809.98139264583,10.5,10499871190.018608,47.655,-122.3035,60.0,7.333333333333333
2026-02-06T22:07:04+00:00,SAT-53498,159.4470851686874,51.35374711551184,694.2613906858815,3.7356209870238395,-130837.24862668265,10.5,10499869162.751373,47.655,-122.3035,60.0,7.35
2026-02-06T22:07:05+00:00,SAT-53498,159.9843542732301,50.91767104663655,697.9869969885549,3.792577277921312,-132832.09885878375,10.5,10499867167.901142,47.655,-122.3035,60.0,7.366666666666666
2026-02-06T22:07:06+00:00,SAT-53498,160.5061109715805,50.483504964646116,701.7694068901695,3.8486138466055357,-134794.73652855578,10.5,10499865205.263472,47.655,-122.3035,60.0,7.383333333333334
2026-02-06T22:07:07+00:00,SAT-53498,161.01294071156067,50.05139844447575,705.607703134161,3.903737097427233,-136725.3859434514,10.5,10499863274.614056,47.655,-122.3035,60.0,7.4
2026-02-06T22:07:08+00:00,SAT-53498,161.50540491024654,49.62148967069196,709.5009748511458,3.9579540108864397,-138624.29159010938,10.5,10499861375.70841,47.655,-122.3035,60.0,7.416666666666667
2026-02-06T22:07:09+00:00,SAT-53498,161.9840417619032,49.193906037920385,713.4483181335268,4.011272028331412,-140491.71409602248,10.5,10499859508.285904,47.655,-122.3035,60.0,7.433333333333334
2026-02-06T22:07:10+00:00,SAT-53498,162.44936705141322,48.76876473428531,717.4488364951056,4.0636990883810915,-142327.9315052064,10.5,10499857672.068495,47.655,-122.3035,60.0,7.45
2026-02-06T22:07:11+00:00,SAT-53498,162.90187498231248,48.34617329169377,721.5016413670214,4.115243514584389,-144133.23534355251,10.5,10499855866.764656,47.655,-122.3035,60.0,7.466666666666667
2026-02-06T22:07:12+00:00,SAT-53498,163.3420389953994,47.92623011969085,725.6058524816468,4.1659140842680875,-145907.93303017286,10.5,10499854092.066969,47.655,-122.3035,60.0,7.483333333333333
2026-02-06T22:07:13+00:00,SAT-53498,163.77031259071646,47.50902500462531,729.7605983251508,4.215719888663445,-147652.342978442,10.5,10499852347.657022,47.655,-122.3035,60.0,7.5
2026-02-06T22:07:14+00:00,SAT-53498,164.1871301276424,47.09463959661224,733.9650164505622,4.264670377905127,-149366.79617204994,10.5,10499850633.203829,47.655,-122.3035,60.0,7.516666666666667
2026-02-06T22:07:15+00:00,SAT-53498,164.59290761653375,46.68314786609855,738.2182538357087,4.312775265930454,-151051.63283417144,10.5,10499848948.367167,47.655,-122.3035,60.0,7.533333333333333
2026-02-06T22:07:16+00:00,SAT-53498,164.98804348675455,46.27461654502203,742.5194671463142,4.360044602587137,-152707.2049529843,10.5,10499847292.795048,47.655,-122.3035,60.0,7.55
2026-02-06T22:07:17+00:00,SAT-53498,165.3729193421072,45.869105537262875,746.8678230710078,4.406488600323867,-154333.8702116402,10.5,10499845666.129787,47.655,-122.3035,60.0,7.566666666666666
2026-02-06T22:07:18+00:00,SAT-53498,165.74790068206997,45.46666832269981,751.2624984834895,4.452117756471032,-155931.99627105304,10.5,10499844068.003729,47.655,-122.3035,60.0,7.583333333333333
2026-02-06T22:07:19+00:00,SAT-53498,166.11333761145326,45.0673523277929,755.7026807266477,4.4969427099947925,-157501.95575282056,10.5,10499842498.044247,47.655,-122.3035,60.0,7.6
2026-02-06T22:07:20+00:00,SAT-53498,166.46956551649987,44.671199288480544,760.1875677538151,4.540974298544491,-159044.12823726592,10.5,10499840955.871763,47.655,-122.3035,60.0,7.616666666666666
2026-02-06T22:07:21+00:00,SAT-53498,166.81690572208458,44.278245587741864,764.7163683269197,4.5842234749493445,-160558.89733879868,10.5,10499839441.102661,47.655,-122.3035,60.0,7.633333333333334
2026-02-06T22:07:22+00:00,SAT-53498,167.15566611956982,43.88852258143963,769.2883021313554,4.626701322427185,-162046.65123858934,10.5,10499837953.34876,47.655,-122.3035,60.0,7.65
2026-02-06T22:07:23+00:00,SAT-53498,167.48614177232116,43.50205690443767,773.902599906022,4.668419030183801,-163507.78182995488,10.5,10499836492.21817,47.655,-122.3035,60.0,7.666666666666667
2026-02-06T22:07:24+00:00,SAT-53498,167.80861549605052,43.11887076143679,778.5585035490277,4.709387854230604,-164942.68334602783,10.5,10499835057.316654,47.655,-122.3035,60.0,7.683333333333334
2026-02-06T22:07:25+00:00,SAT-53498,168.1233584132427,42.7389822044381,783.2552661843165,4.749619117376607,-166351.7523594752,10.5,10499833648.24764,47.655,-122.3035,60.0,7.7
2026-02-06T22:07:26+00:00,SAT-53498,168.4306304852488,42.36240539433466,787.9921522282868,4.789124168139257,-167735.38634338227,10.5,10499832264.613657,47.655,-122.3035,60.0,7.716666666666667
2026-02-06T22:07:27+00:00,SAT-53498,168.73068101926427,41.989150850722766,792.7684374154304,4.827914403741362,-169093.98447670188,10.5,10499830906.015524,47.655,-122.3035,60.0,7.733333333333333
2026-02-06T22:07:28+00:00,SAT-53498,169.02374915486956,41.61922568554112,797.5834088469077,4.866001218293398,-170427.94582938,10.5,10499829572.05417,47.655,-122.3035,60.0,7.75
2026-02-06T22:07:29+00:00,SAT-53498,169.3100643268595,41.25263382718503,802.436364987443,4.903395996428933,-171737.6691394411,10.5,10499828262.33086,47.655,-122.3035,60.0,7.766666666666667
2026-02-06T22:07:30+00:00,SAT-53498,169.58984670671842,40.889376232067754,807.3266156558742,4.940110090437927,-173023.55201209977,10.5,10499826976.447989,47.655,-122.3035,60.0,7.783333333333333
2026-02-06T22:07:31+00:00,SAT-53498,169.86330762371517,40.52945108553491,812.2534819928948,4.9761548700708635,-174285.9926641119,10.5,10499825714.007336,47.655,-122.3035,60.0,7.8
2026-02-06T22:07:32+00:00,SAT-53498,170.13064996893678,40.1728539874901,817.2162964784683,5.011541619764007,-175525.38632416853,10.5,10499824474.613676,47.655,-122.3035,60.0,7.816666666666666
