DopplerPredictor/satellites_20260211_210203/SAT-52666.csv

timestamp,satellite,azimuth_deg,elevation_deg,distance_km,relative_velocity_kms,doppler_shift_hz,tx_freq_ghz,rx_freq_hz,ue_lat,ue_lon,ue_alt_m,time_minutes
2026-02-06T22:00:29+00:00,SAT-52666,238.03245568180145,40.197826324985236,791.0618761458338,-5.133107056564615,179783.12214221366,10.5,10500179783.122143,47.655,-122.3035,60.0,0.7666666666666667
2026-02-06T22:00:30+00:00,SAT-52666,238.0063223935664,40.5755065298358,785.942530240919,-5.1038520741114,178758.488908249,10.5,10500178758.488909,47.655,-122.3035,60.0,0.7833333333333333
2026-02-06T22:00:31+00:00,SAT-52666,237.9794718674189,40.95772069671566,780.8523608898869,-5.074015769529004,177713.49531433024,10.5,10500177713.495314,47.655,-122.3035,60.0,0.8
2026-02-06T22:00:32+00:00,SAT-52666,237.9518771642329,41.34453098063207,775.7919478564218,-5.043586322672292,176647.7273689756,10.5,10500176647.72737,47.655,-122.3035,60.0,0.8166666666666667
2026-02-06T22:00:33+00:00,SAT-52666,237.92350998194854,41.73599972550705,770.7618826926656,-5.012551840528725,175560.76852857857,10.5,10500175560.768528,47.655,-122.3035,60.0,0.8333333333333334
2026-02-06T22:00:34+00:00,SAT-52666,237.89434056742354,42.1321894175258,765.7627688118893,-4.9809001619460895,174452.192858147,10.5,10500174452.192858,47.655,-122.3035,60.0,0.85
2026-02-06T22:00:35+00:00,SAT-52666,237.86433762350381,42.53316261900589,760.795221755913,-4.948619114823977,173321.5740392367,10.5,10500173321.57404,47.655,-122.3035,60.0,0.8666666666666667
2026-02-06T22:00:36+00:00,SAT-52666,237.8334682062506,42.93898191792531,755.8598692060264,-4.915696286723197,172168.4773357226,10.5,10500172168.477335,47.655,-122.3035,60.0,0.8833333333333333
2026-02-06T22:00:37+00:00,SAT-52666,237.80169761631174,43.349709854481006,750.957351222682,-4.8821192031157326,170992.46583686638,10.5,10500170992.465837,47.655,-122.3035,60.0,0.9
2026-02-06T22:00:38+00:00,SAT-52666,237.7689892798622,43.76540885690653,746.0883203074175,-4.847875202420232,169793.0960805306,10.5,10500169793.09608,47.655,-122.3035,60.0,0.9166666666666666
2026-02-06T22:00:39+00:00,SAT-52666,237.73530462099728,44.18614116161853,741.253441589408,-4.812951582186975,168569.92317319484,10.5,10500168569.923174,47.655,-122.3035,60.0,0.9333333333333333
2026-02-06T22:00:40+00:00,SAT-52666,237.70060292228825,44.611968740096806,736.4533928662256,-4.777335490667666,167322.4969922709,10.5,10500167322.496992,47.655,-122.3035,60.0,0.95
2026-02-06T22:00:41+00:00,SAT-52666,237.66484117462502,45.04295321065612,731.6888647527362,-4.74101401099759,166050.36513451816,10.5,10500166050.365135,47.655,-122.3035,60.0,0.9666666666666667
2026-02-06T22:00:42+00:00,SAT-52666,237.6279739137017,45.479155751280686,726.9605607460421,-4.7039741315697015,164753.07187841882,10.5,10500164753.071878,47.655,-122.3035,60.0,0.9833333333333333
2026-02-06T22:00:43+00:00,SAT-52666,237.58995304248364,45.920637003348205,722.2691973199708,-4.666202809815441,163430.16041805202,10.5,10500163430.160418,47.655,-122.3035,60.0,1.0
2026-02-06T22:00:44+00:00,SAT-52666,237.55072763777062,46.367456974434354,717.6155039559525,-4.627686916598387,162081.17091552404,10.5,10500162081.170916,47.655,-122.3035,60.0,1.0166666666666666
2026-02-06T22:00:45+00:00,SAT-52666,237.51024374013903,46.81967492879786,713.0002232293568,-4.58841331994752,160705.64343366158,10.5,10500160705.643435,47.655,-122.3035,60.0,1.0333333333333334
2026-02-06T22:00:46+00:00,SAT-52666,237.46844412411062,47.27734927829963,708.4241108123191,-4.548368863323329,159303.11717479886,10.5,10500159303.117174,47.655,-122.3035,60.0,1.05
2026-02-06T22:00:47+00:00,SAT-52666,237.42526804757222,47.74053746356105,703.8879354982433,-4.507540414740442,157873.1322012598,10.5,10500157873.132202,47.655,-122.3035,60.0,1.0666666666666667
2026-02-06T22:00:48+00:00,SAT-52666,237.3806509774972,48.209295831928,699.3924791773144,-4.465914833449353,156415.22826841162,10.5,10500156415.228268,47.655,-122.3035,60.0,1.0833333333333333
2026-02-06T22:00:49+00:00,SAT-52666,237.33452429030365,48.68367950354934,694.9385368452371,-4.423479053796008,154928.94776178154,10.5,10500154928.947762,47.655,-122.3035,60.0,1.1
2026-02-06T22:00:50+00:00,SAT-52666,237.286814942413,49.163742237274235,690.5269165283443,-4.38022007967419,153413.83550275635,10.5,10500153413.835503,47.655,-122.3035,60.0,1.1166666666666667
2026-02-06T22:00:51+00:00,SAT-52666,237.2374451090836,49.649536287014506,686.1584392142335,-4.336124981639981,151869.4386475186,10.5,10500151869.438648,47.655,-122.3035,60.0,1.1333333333333333
2026-02-06T22:00:52+00:00,SAT-52666,237.18633178745534,50.141112248137624,681.8339387852839,-4.291180995592793,150295.31014327361,10.5,10500150295.310143,47.655,-122.3035,60.0,1.15
2026-02-06T22:00:53+00:00,SAT-52666,237.133386358507,50.63851890497218,677.5542618537573,-4.245375484601712,148691.00739124656,10.5,10500148691.007391,47.655,-122.3035,60.0,1.1666666666666667
2026-02-06T22:00:54+00:00,SAT-52666,237.07851410473617,51.1418030640267,673.3202676349681,-4.198695972111176,147056.09340968594,10.5,10500147056.09341,47.655,-122.3035,60.0,1.1833333333333333
2026-02-06T22:00:55+00:00,SAT-52666,237.02161367744253,51.6510093801895,669.1328277873381,-4.151130227600914,145390.1398340368,10.5,10500145390.139833,47.655,-122.3035,60.0,1.2
2026-02-06T22:00:56+00:00,SAT-52666,236.96257650609374,52.16618018222407,664.9928261670215,-4.102666244333922,143692.72613758076,10.5,10500143692.726137,47.655,-122.3035,60.0,1.2166666666666666
2026-02-06T22:00:57+00:00,SAT-52666,236.90128614463794,52.68735528450677,660.9011586047205,-4.05329226105465,141963.44039139847,10.5,10500141963.440392,47.655,-122.3035,60.0,1.2333333333333334
2026-02-06T22:00:58+00:00,SAT-52666,236.8376175459012,53.21457178940452,656.8587326608633,-4.0029969093472,140201.88442547678,10.5,10500140201.884426,47.655,-122.3035,60.0,1.25
2026-02-06T22:00:59+00:00,SAT-52666,236.77143625183527,53.74786389661203,652.8664672338169,-3.951769087194823,138407.66940022766,10.5,10500138407.669401,47.655,-122.3035,60.0,1.2666666666666666
2026-02-06T22:01:00+00:00,SAT-52666,236.70259749455354,54.28726268387952,648.9252922942006,-3.899598120675619,136580.4214697556,10.5,10500136580.42147,47.655,-122.3035,60.0,1.2833333333333334
2026-02-06T22:01:01+00:00,SAT-52666,236.6309451894702,54.832795895879606,645.0361484579419,-3.846473789082584,134719.78266166768,10.5,10500134719.782661,47.655,-122.3035,60.0,1.3
2026-02-06T22:01:02+00:00,SAT-52666,236.55631080862332,55.38448772396423,641.1999865342746,-3.7923862744952395,132825.409110859,10.5,10500132825.409111,47.655,-122.3035,60.0,1.3166666666666667
2026-02-06T22:01:03+00:00,SAT-52666,236.47851211956848,55.94235856497033,637.4177671240318,-3.7373263555407075,130896.97784584505,10.5,10500130896.977846,47.655,-122.3035,60.0,1.3333333333333333
2026-02-06T22:01:04+00:00,SAT-52666,236.39735176353545,56.50642479363725,633.6904600246995,-3.6812853297268058,128934.18406853804,10.5,10500128934.184069,47.655,-122.3035,60.0,1.35
2026-02-06T22:01:05+00:00,SAT-52666,236.31261565692844,57.076698509760504,630.0190437129244,-3.6242550822651682,126936.74356472392,10.5,10500126936.743565,47.655,-122.3035,60.0,1.3666666666666667
2026-02-06T22:01:06+00:00,SAT-52666,236.22407118557075,57.653187279973125,626.4045047583874,-3.5662282278810755,124904.3976708423,10.5,10500124904.39767,47.655,-122.3035,60.0,1.3833333333333333
2026-02-06T22:01:07+00:00,SAT-52666,236.13146515692245,58.23589388637463,622.8478370962456,-3.5071980186303935,122836.91004534588,10.5,10500122836.910046,47.655,-122.3035,60.0,1.4
2026-02-06T22:01:08+00:00,SAT-52666,236.03452148036519,58.8248160446724,619.3500413915102,-3.4471584770598915,120734.07133253786,10.5,10500120734.071333,47.655,-122.3035,60.0,1.4166666666666667
2026-02-06T22:01:09+00:00,SAT-52666,235.9329385240814,59.4199461262756,615.9121242706192,-3.386104472305648,118595.7018278602,10.5,10500118595.701828,47.655,-122.3035,60.0,1.4333333333333333
2026-02-06T22:01:10+00:00,SAT-52666,235.82638609694874,60.02127087604241,612.5350974771216,-3.3240316945989776,116421.65058498325,10.5,10500116421.650585,47.655,-122.3035,60.0,1.45
2026-02-06T22:01:11+00:00,SAT-52666,235.7145019964347,60.62877110703367,609.2199770527794,-3.260936758571492,114211.79903398592,10.5,10500114211.799034,47.655,-122.3035,60.0,1.4666666666666666
2026-02-06T22:01:12+00:00,SAT-52666,235.59688804254128,61.242421393058024,605.9677824156485,-3.1968172390397513,111966.06223468565,10.5,10500111966.062235,47.655,-122.3035,60.0,1.4833333333333334
2026-02-06T22:01:13+00:00,SAT-52666,235.47310550938798,61.86218974634096,602.7795354024657,-3.131671748169535,109684.39157925753,10.5,10500109684.391579,47.655,-122.3035,60.0,1.5
2026-02-06T22:01:14+00:00,SAT-52666,235.34266984341374,62.48803728642754,599.6562592340822,-3.065499936565978,107366.77483041542,10.5,10500107366.77483,47.655,-122.3035,60.0,1.5166666666666666
2026-02-06T22:01:15+00:00,SAT-52666,235.20504453923718,63.11991788344325,596.5989774798071,-2.99830261840363,105013.24050399598,10.5,10500105013.240503,47.655,-122.3035,60.0,1.5333333333333334
2026-02-06T22:01:16+00:00,SAT-52666,235.05963400535336,63.75777779753534,593.608712896958,-2.930081743626959,102623.85689530279,10.5,10500102623.856895,47.655,-122.3035,60.0,1.55
2026-02-06T22:01:17+00:00,SAT-52666,234.9057752300277,64.40155528041247,590.6864862981342,-2.860840521244467,100198.73639738765,10.5,10500100198.736397,47.655,-122.3035,60.0,1.5666666666666667
2026-02-06T22:01:18+00:00,SAT-52666,234.74272799602522,65.05118016561019,587.8333152955313,-2.790583408136807,97738.03510906358,10.5,10500097738.035109,47.655,-122.3035,60.0,1.5833333333333333
2026-02-06T22:01:19+00:00,SAT-52666,234.56966335097516,65.70657341348563,585.050213056411,-2.7193161990641452,95241.95598734349,10.5,10500095241.955988,47.655,-122.3035,60.0,1.6
2026-02-06T22:01:20+00:00,SAT-52666,234.38564995360207,66.36764662544519,582.3381869688111,-2.647046061960129,92710.750083584,10.5,10500092710.750084,47.655,-122.3035,60.0,1.6166666666666667
2026-02-06T22:01:21+00:00,SAT-52666,234.18963783057868,67.03430150634858,579.6982372720507,-2.573781562621832,90144.71740823193,10.5,10500090144.71741,47.655,-122.3035,60.0,1.6333333333333333
2026-02-06T22:01:22+00:00,SAT-52666,233.98043895670602,67.70642925955599,577.1313556626164,-2.499532733075606,87544.20932528551,10.5,10500087544.209326,47.655,-122.3035,60.0,1.65
2026-02-06T22:01:23+00:00,SAT-52666,233.75670390788306,68.38390990947028,574.6385238318628,-2.424311078325731,84909.62878866078,10.5,10500084909.628788,47.655,-122.3035,60.0,1.6666666666666667
2026-02-06T22:01:24+00:00,SAT-52666,233.51689363985486,69.06661151501993,572.220711996983,-2.3481296447449163,82241.43273751611,10.5,10500082241.432737,47.655,-122.3035,60.0,1.6833333333333333
2026-02-06T22:01:25+00:00,SAT-52666,233.25924516223444,69.75438926284679,569.8788773637738,-2.271003032192924,79540.13252069772,10.5,10500079540.13252,47.655,-122.3035,60.0,1.7
2026-02-06T22:01:26+00:00,SAT-52666,232.98172952630674,70.44708438927795,567.6139625773118,-2.19294740643918,76806.29433183202,10.5,10500076806.294333,47.655,-122.3035,60.0,1.7166666666666666
2026-02-06T22:01:27+00:00,SAT-52666,232.68200005571197,71.14452288181897,565.4268941602425,-2.113980541242603,74040.5406831393,10.5,10500074040.540684,47.655,-122.3035,60.0,1.7333333333333334
2026-02-06T22:01:28+00:00,SAT-52666,232.35732808464664,71.84651390462987,563.3185809091017,-2.0341218365103026,71243.55104142806,10.5,10500071243.55104,47.655,-122.3035,60.0,1.75
2026-02-06T22:01:29+00:00,SAT-52666,232.0045225733241,72.55284785492518,561.2899122725262,-1.9533923075113087,68416.06145031421,10.5,10500068416.061451,47.655,-122.3035,60.0,1.7666666666666666
2026-02-06T22:01:30+00:00,SAT-52666,231.6198287264633,73.26329392209857,559.3417567402232,-1.871814608410899,65558.86535449281,10.5,10500065558.865355,47.655,-122.3035,60.0,1.7833333333333334
2026-02-06T22:01:31+00:00,SAT-52666,231.19879898428258,73.97759699876755,557.4749602084672,-1.7894130332339901,62672.81363348005,10.5,10500062672.813633,47.655,-122.3035,60.0,1.8
2026-02-06T22:01:32+00:00,SAT-52666,230.7361272935496,74.6954737121279,555.6903443446362,-1.7062134778344802,59758.81326961882,10.5,10500059758.81327,47.655,-122.3035,60.0,1.8166666666666667
2026-02-06T22:01:33+00:00,SAT-52666,230.2254340340465,75.41660724386868,553.9887049896782,-1.622243484170152,56817.82889877302,10.5,10500056817.8289,47.655,-122.3035,60.0,1.8333333333333333
2026-02-06T22:01:34+00:00,SAT-52666,229.65898379292145,76.14064052274233,552.3708105164195,-1.5375321482967854,53850.879587892254,10.5,10500053850.879587,47.655,-122.3035,60.0,1.85
2026-02-06T22:01:35+00:00,SAT-52666,229.02731066531052,76.86716708577134,550.837400279633,-1.4521101535090428,50859.03999574583,10.5,10500050859.039995,47.655,-122.3035,60.0,1.8666666666666667
2026-02-06T22:01:36+00:00,SAT-52666,228.31871433749308,77.59571871017145,549.3891830330543,-1.366009713084241,47843.43836756737,10.5,10500047843.438368,47.655,-122.3035,60.0,1.8833333333333333
2026-02-06T22:01:37+00:00,SAT-52666,227.5185730596754,78.32574836262329,548.0268354035014,-1.2792645108400111,44805.254453132766,10.5,10500044805.254454,47.655,-122.3035,60.0,1.9
2026-02-06T22:01:38+00:00,SAT-52666,226.60839303585502,79.05660631039113,546.7510004242766,-1.1919096825666824,41745.718856443564,10.5,10500041745.718857,47.655,-122.3035,60.0,1.9166666666666667
2026-02-06T22:01:39+00:00,SAT-52666,225.56447208443174,79.78750608426887,545.5622860870853,-1.1039817486649117,38666.11067641192,10.5,10500038666.110676,47.655,-122.3035,60.0,1.9333333333333333
2026-02-06T22:01:40+00:00,SAT-52666,224.35598921014613,80.51747499573747,544.461263961139,-1.0155185397421806,35567.75490093516,10.5,10500035567.754902,47.655,-122.3035,60.0,1.95
2026-02-06T22:01:41+00:00,SAT-52666,222.94222486397464,81.2452806593136,543.4484678864603,-0.9265591535549574,32452.020898828123,10.5,10500032452.020899,47.655,-122.3035,60.0,1.9666666666666666
2026-02-06T22:01:42+00:00,SAT-52666,221.26844279686014,81.96931936747166,542.5243927101309,-0.8371438441035169,29320.31853545471,10.5,10500029320.318535,47.655,-122.3035,60.0,1.9833333333333334
2026-02-06T22:01:43+00:00,SAT-52666,219.2596822079344,82.68744216494231,541.6894931331475,-0.7473139775218323,26174.096627805226,10.5,10500026174.096628,47.655,-122.3035,60.0,2.0
2026-02-06T22:01:44+00:00,SAT-52666,216.81126077484916,83.39667669438282,540.9441826012701,-0.6571119167236301,23014.838904313317,10.5,10500023014.838903,47.655,-122.3035,60.0,2.0166666666666666
2026-02-06T22:01:45+00:00,SAT-52666,213.77413378393987,84.09277025037746,540.2888323109138,-0.5665809306688357,19844.060826983095,10.5,10500019844.060827,47.655,-122.3035,60.0,2.033333333333333
2026-02-06T22:01:46+00:00,SAT-52666,209.93253174553448,84.76942082042594,539.723770305532,-0.47576511068963534,16663.30666077387,10.5,10500016663.306662,47.655,-122.3035,60.0,2.05
2026-02-06T22:01:47+00:00,SAT-52666,204.9715369863244,85.41696321541716,539.2492806554485,-0.38470925476006707,13474.1454202317,10.5,10500013474.14542,47.655,-122.3035,60.0,2.066666666666667
2026-02-06T22:01:48+00:00,SAT-52666,198.4379444707092,86.020144326254,538.8656027531106,-0.29345875664528637,10278.166987027762,10.5,10500010278.166986,47.655,-122.3035,60.0,2.0833333333333335
2026-02-06T22:01:49+00:00,SAT-52666,189.72434392188504,86.55462465147748,538.5729307188944,-0.20205950590608565,7076.978607693658,10.5,10500007076.978607,47.655,-122.3035,60.0,2.1
2026-02-06T22:01:50+00:00,SAT-52666,178.18943012616316,86.98282388612864,538.3714129066394,-0.11055776799377892,3872.2006940370684,10.5,10500003872.200693,47.655,-122.3035,60.0,2.1166666666666667
2026-02-06T22:01:51+00:00,SAT-52666,163.65329491875323,87.25391809535466,538.2611515287647,-0.01900006632117136,665.4626927682726,10.5,10500000665.462692,47.655,-122.3035,60.0,2.1333333333333333
2026-02-06T22:01:52+00:00,SAT-52666,147.2404356000042,87.31944373031574,538.2422023989993,0.07256693130899461,-2541.6008922560804,10.5,10499997458.399107,47.655,-122.3035,60.0,2.15
2026-02-06T22:01:53+00:00,SAT-52666,131.3572490964175,87.16504750703758,538.3145747883798,0.16409653392989126,-5747.354745875088,10.5,10499994252.645254,47.655,-122.3035,60.0,2.1666666666666665
2026-02-06T22:01:54+00:00,SAT-52666,118.01173323725675,86.82282062332577,538.4782314021475,0.2555421446888605,-8950.166849204175,10.5,10499991049.83315,47.655,-122.3035,60.0,2.183333333333333
2026-02-06T22:01:55+00:00,SAT-52666,107.70269198805431,86.34553231437158,538.7330884736111,0.3468573810648305,-12148.412690157536,10.5,10499987851.58731,47.655,-122.3035,60.0,2.2
2026-02-06T22:01:56+00:00,SAT-52666,99.96719257275616,85.77926477055752,539.0790159779037,0.4379961884128075,-15340.479240256533,10.5,10499984659.52076,47.655,-122.3035,60.0,2.216666666666667
2026-02-06T22:01:57+00:00,SAT-52666,94.14554363197828,85.15572532399945,539.5158379589786,0.5289129558195592,-18524.7690123858,10.5,10499981475.230988,47.655,-122.3035,60.0,2.2333333333333334
2026-02-06T22:01:58+00:00,SAT-52666,89.69107580227531,84.49501118525983,540.0433329721538,0.6195626348978267,-21699.70422146904,10.5,10499978300.295778,47.655,-122.3035,60.0,2.25
2026-02-06T22:01:59+00:00,SAT-52666,86.2119822610777,83.80973155079793,540.6612346451273,0.7099008385868512,-24863.7302448814,10.5,10499975136.269754,47.655,-122.3035,60.0,2.2666666666666666
2026-02-06T22:02:00+00:00,SAT-52666,83.43870537581344,83.10796049271065,541.3692323375321,0.7998839470886886,-28015.31933278732,10.5,10499971984.680668,47.655,-122.3035,60.0,2.283333333333333
2026-02-06T22:02:01+00:00,SAT-52666,81.18623942752706,82.39503545823311,542.1669719061426,0.8894692241149693,-31152.974679593768,10.5,10499968847.02532,47.655,-122.3035,60.0,2.3
2026-02-06T22:02:02+00:00,SAT-52666,79.32598810177615,81.67461056229263,543.0540565860144,0.9786148916043513,-34275.23304087153,10.5,10499965724.766958,47.655,-122.3035,60.0,2.316666666666667
2026-02-06T22:02:03+00:00,SAT-52666,77.76692179108618,80.94927582511299,544.0300479461432,1.067280235200167,-37380.66842762854,10.5,10499962619.331572,47.655,-122.3035,60.0,2.3333333333333335
2026-02-06T22:02:04+00:00,SAT-52666,76.44332647624455,80.22092858760249,545.0944669503174,1.1554256812337738,-40467.894802592484,10.5,10499959532.105198,47.655,-122.3035,60.0,2.35
2026-02-06T22:02:05+00:00,SAT-52666,75.30684208104445,79.49100209080333,546.2467950947486,1.243012876308023,-43535.56886756051,10.5,10499956464.431133,47.655,-122.3035,60.0,2.3666666666666667
2026-02-06T22:02:06+00:00,SAT-52666,74.3212292977745,78.76060996091455,547.486475625071,1.330004767308775,-46582.39286574093,10.5,10499953417.607134,47.655,-122.3035,60.0,2.3833333333333333
2026-02-06T22:02:07+00:00,SAT-52666,73.45887373774758,78.03063992901768,548.8129148331393,1.4163656515413505,-49607.11633774383,10.5,10499950392.883663,47.655,-122.3035,60.0,2.4
2026-02-06T22:02:08+00:00,SAT-52666,72.69840869897672,77.30181612365055,550.2254834038272,1.5020612532156372,-52608.538800413015,10.5,10499947391.461199,47.655,-122.3035,60.0,2.4166666666666665
2026-02-06T22:02:09+00:00,SAT-52666,72.02306934530637,76.5747413964356,551.7235178381073,1.5870587583846107,-55585.51097052085,10.5,10499944414.489029,47.655,-122.3035,60.0,2.433333333333333
2026-02-06T22:02:10+00:00,SAT-52666,71.41953334389916,75.84992668931429,553.3063219109749,1.6713268675409507,-58536.93660692419,10.5,10499941463.063393,47.655,-122.3035,60.0,2.45
2026-02-06T22:02:11+00:00,SAT-52666,70.87709064177157,75.1278117877543,554.973168181827,1.7548358354708724,-61461.77390641415,10.5,10499938538.226093,47.655,-122.3035,60.0,2.466666666666667
2026-02-06T22:02:12+00:00,SAT-52666,70.38703971920044,74.40878024311536,556.7232995445904,1.8375574941762383,-64359.036306545444,10.5,10499935640.963694,47.655,-122.3035,60.0,2.4833333333333334
2026-02-06T22:02:13+00:00,SAT-52666,69.94224220137599,73.69317027845948,558.5559308007078,1.9194652737106748,-67227.79321540533,10.5,10499932772.206785,47.655,-122.3035,60.0,2.5
2026-02-06T22:02:14+00:00,SAT-52666,69.53678988250408,72.98128287724883,560.4702502529058,2.000534248168193,-70067.17162232957,10.5,10499929932.828377,47.655,-122.3035,60.0,2.5166666666666666
2026-02-06T22:02:15+00:00,SAT-52666,69.1657526898602,72.27338785676456,562.4654213448282,2.080741090403219,-72876.35451200644,10.5,10499927123.645489,47.655,-122.3035,60.0,2.533333333333333
2026-02-06T22:02:16+00:00,SAT-52666,68.82498572326655,71.56972851660157,564.5405842555103,2.1600641267544916,-75654.58278113908,10.5,10499924345.41722,47.655,-122.3035,60.0,2.55
2026-02-06T22:02:17+00:00,SAT-52666,68.51097992541852,70.87052521288135,566.6948575484298,2.2384833096050065,-78401.1542773787,10.5,10499921598.845722,47.655,-122.3035,60.0,2.566666666666667
2026-02-06T22:02:18+00:00,SAT-52666,68.22074537681313,70.17597816309286,568.9273397931923,2.315980215902781,-81115.42374751536,10.5,10499918884.576252,47.655,-122.3035,60.0,2.5833333333333335
2026-02-06T22:02:19+00:00,SAT-52666,67.95171923836915,69.48626966801858,571.2371111857416,2.3925380229005997,-83796.80198778148,10.5,10499916203.198011,47.655,-122.3035,60.0,2.6
2026-02-06T22:02:20+00:00,SAT-52666,67.70169251028781,68.80156590015089,573.6232351443731,2.468141511350239,-86444.75595572693,10.5,10499913555.244043,47.655,-122.3035,60.0,2.6166666666666667
2026-02-06T22:02:21+00:00,SAT-52666,67.46875128841987,68.12201835453713,576.084759908935,2.5427770153291736,-89058.80701293799,10.5,10499910941.192987,47.655,-122.3035,60.0,2.6333333333333333
2026-02-06T22:02:22+00:00,SAT-52666,67.25122929658924,67.44776505456014,578.6207200899892,2.6164324094399736,-91638.5304767064,10.5,10499908361.469522,47.655,-122.3035,60.0,2.65
2026-02-06T22:02:23+00:00,SAT-52666,67.04766925594853,66.77893155865503,581.2301382052071,2.6890970661880202,-94183.55412721627,10.5,10499905816.445873,47.655,-122.3035,60.0,2.6666666666666665
2026-02-06T22:02:24+00:00,SAT-52666,66.85679123966024,66.115631819296,583.9120261732561,2.7607618488501537,-96693.5579577743,10.5,10499903306.442041,47.655,-122.3035,60.0,2.683333333333333
2026-02-06T22:02:25+00:00,SAT-52666,66.67746658531748,65.45796891780205,586.6653868005745,2.8314190176808203,-99168.27088975205,10.5,10499900831.72911,47.655,-122.3035,60.0,2.7
2026-02-06T22:02:26+00:00,SAT-52666,66.50869626766028,64.80603572084777,589.4892151746047,2.901062250076445,-101607.47147882776,10.5,10499898392.52852,47.655,-122.3035,60.0,2.716666666666667
2026-02-06T22:02:27+00:00,SAT-52666,66.34959286354419,64.15991544957396,592.3825000771352,2.969686536092441,-104010.98425554998,10.5,10499895989.015745,47.655,-122.3035,60.0,2.7333333333333334
2026-02-06T22:02:28+00:00,SAT-52666,66.19936543957711,63.51968220547302,595.3442252934412,3.037288187676417,-106378.68004872349,10.5,10499893621.319952,47.655,-122.3035,60.0,2.75
2026-02-06T22:02:29+00:00,SAT-52666,66.05730682126082,62.885401437772316,598.3733709306323,3.1038647457958426,-108710.47273262742,10.5,10499891289.527267,47.655,-122.3035,60.0,2.7666666666666666
2026-02-06T22:02:30+00:00,SAT-52666,65.92278282216637,62.25713038390562,601.468914643378,3.169414946144778,-111006.31802591968,10.5,10499888993.681974,47.655,-122.3035,60.0,2.783333333333333
2026-02-06T22:02:31+00:00,SAT-52666,65.79522308838278,61.63491847634521,604.6298328254311,3.233938682949982,-113266.212223974,10.5,10499886733.787777,47.655,-122.3035,60.0,2.8
2026-02-06T22:02:32+00:00,SAT-52666,65.6741132837579,61.01880772200129,607.8551017650557,3.297436934669951,-115490.18959654577,10.5,10499884509.810404,47.655,-122.3035,60.0,2.816666666666667
2026-02-06T22:02:33+00:00,SAT-52666,65.55898839354126,60.408833065703554,611.1436987263501,3.3599117168593073,-117678.32073688367,10.5,10499882321.679264,47.655,-122.3035,60.0,2.8333333333333335
2026-02-06T22:02:34+00:00,SAT-52666,65.4494269639777,59.80502273514007,614.4946029835644,3.421366031314811,-119830.71078060781,10.5,10499880169.289219,47.655,-122.3035,60.0,2.85
2026-02-06T22:02:35+00:00,SAT-52666,65.34504612892238,59.20739857054266,617.9067968046978,3.4818038166277296,-121947.49767384463,10.5,10499878052.502327,47.655,-122.3035,60.0,2.8666666666666667
2026-02-06T22:02:36+00:00,SAT-52666,65.24549730122115,58.61597634081952,621.379266385782,3.5412299020080136,-124028.85055595408,10.5,10499875971.149445,47.655,-122.3035,60.0,2.8833333333333333
2026-02-06T22:02:37+00:00,SAT-52666,65.15046242756723,58.0307660471748,624.9110027391124,3.5996499336249483,-126074.96717966787,10.5,10499873925.03282,47.655,-122.3035,60.0,2.9
2026-02-06T22:02:38+00:00,SAT-52666,65.05965072327452,57.451772219901116,628.501002508017,3.657070322532677,-128086.07208722079,10.5,10499871913.927914,47.655,-122.3035,60.0,2.9166666666666665
2026-02-06T22:02:39+00:00,SAT-52666,64.97279581663697,56.87899420525242,632.1482687296906,3.713498243678279,-130062.41657560955,10.5,10499869937.583424,47.655,-122.3035,60.0,2.933333333333333
2026-02-06T22:02:40+00:00,SAT-52666,64.8896532432484,56.312426435454206,635.8518115970403,3.768941518372262,-132004.27458021225,10.5,10499867995.72542,47.655,-122.3035,60.0,2.95
2026-02-06T22:02:41+00:00,SAT-52666,64.80999824340708,55.752058700904065,639.6106491033157,3.8234086018068156,-133911.9422376248,10.5,10499866088.057762,47.655,-122.3035,60.0,2.966666666666667
2026-02-06T22:02:42+00:00,SAT-52666,64.73362381893313,55.19787640814418,643.4238076742914,3.8769085406901014,-135785.73640183458,10.5,10499864214.263597,47.655,-122.3035,60.0,2.9833333333333334
2026-02-06T22:02:43+00:00,SAT-52666,64.6603390152256,54.64986082916541,647.2903227581974,3.9294508994042054,-137625.9920579595,10.5,10499862374.007942,47.655,-122.3035,60.0,3.0
2026-02-06T22:02:44+00:00,SAT-52666,64.58996739883257,54.10798934676838,651.2092393420045,3.9810457603521305,-139433.06233440124,10.5,10499860566.937666,47.655,-122.3035,60.0,3.0166666666666666
2026-02-06T22:02:45+00:00,SAT-52666,64.52234570453707,53.57223568577599,655.1796124680573,4.03170361534411,-141207.31469873452,10.5,10499858792.6853,47.655,-122.3035,60.0,3.033333333333333
2026-02-06T22:02:46+00:00,SAT-52666,64.45732263134471,53.0425701455318,659.2005076423839,4.081435393005782,-142949.13191765719,10.5,10499857050.868082,47.655,-122.3035,60.0,3.05
2026-02-06T22:02:47+00:00,SAT-52666,64.39475776738605,52.518959815268346,663.2710012703388,4.1302523877815265,-144658.90957038695,10.5,10499855341.09043,47.655,-122.3035,60.0,3.066666666666667
2026-02-06T22:02:48+00:00,SAT-52666,64.33452062877176,52.001368786275584,667.3901810214436,4.178166201405094,-146337.05399871498,10.5,10499853662.946001,47.655,-122.3035,60.0,3.0833333333333335
2026-02-06T22:02:49+00:00,SAT-52666,64.27648979871512,51.489758358920575,671.5571461358495,4.225188717671189,-147983.9814234002,10.5,10499852016.018576,47.655,-122.3035,60.0,3.1
2026-02-06T22:02:50+00:00,SAT-52666,64.22055215429356,50.984087240464724,675.7710077056448,4.271332131209094,-149600.11895194338,10.5,10499850399.881048,47.655,-122.3035,60.0,3.1166666666666667
2026-02-06T22:02:51+00:00,SAT-52666,64.16660217052637,50.48431172791049,680.0308889848541,4.316608797726064,-151185.89933347714,10.5,10499848814.100666,47.655,-122.3035,60.0,3.1333333333333333
2026-02-06T22:02:52+00:00,SAT-52666,64.11454129421357,49.99038589750559,684.3359255500852,4.361031299873107,-152741.76326566437,10.5,10499847258.236734,47.655,-122.3035,60.0,3.15
2026-02-06T22:02:53+00:00,SAT-52666,64.0642773778156,49.50226177517777,688.6852655268657,4.404612359290829,-154268.15631417153,10.5,10499845731.843685,47.655,-122.3035,60.0,3.1666666666666665
2026-02-06T22:02:54+00:00,SAT-52666,64.01572416806069,49.019889506571324,693.0780697282577,4.4473648599182924,-155765.52972904366,10.5,10499844234.47027,47.655,-122.3035,60.0,3.183333333333333
2026-02-06T22:02:55+00:00,SAT-52666,63.96880084229391,48.54321751416316,697.513511816723,4.489301746291511,-157234.33688268723,10.5,10499842765.663116,47.655,-122.3035,60.0,3.2
2026-02-06T22:02:56+00:00,SAT-52666,63.92343158845512,48.07219265554708,701.9907783645563,4.530436103989298,-158675.0360874243,10.5,10499841324.963913,47.655,-122.3035,60.0,3.216666666666667
2026-02-06T22:02:57+00:00,SAT-52666,63.879545222623335,47.60676036348205,706.5090689945511,4.570781006835726,-160088.085243876,10.5,10499839911.914757,47.655,-122.3035,60.0,3.2333333333333334
2026-02-06T22:02:58+00:00,SAT-52666,63.837074841969304,47.146864792828644,711.0675963682753,4.6103496163274755,-161473.9453233293,10.5,10499838526.054676,47.655,-122.3035,60.0,3.25
2026-02-06T22:02:59+00:00,SAT-52666,63.79595750757282,46.69244894812055,715.6655862735096,4.649155092921415,-162833.07726065227,10.5,10499837166.922739,47.655,-122.3035,60.0,3.2666666666666666
2026-02-06T22:03:00+00:00,SAT-52666,63.75613395550214,46.24345481183976,720.3022776232102,4.687210563018474,-164165.9407979302,10.5,10499835834.059202,47.655,-122.3035,60.0,3.283333333333333
2026-02-06T22:03:01+00:00,SAT-52666,63.717548332806906,45.79982346746388,724.9769224215441,4.724529186031381,-165472.99683346105,10.5,10499834527.003166,47.655,-122.3035,60.0,3.3
2026-02-06T22:03:02+00:00,SAT-52666,63.68014795555052,45.3614952082383,729.6887857968128,4.76112401506701,-166754.70254226212,10.5,10499833245.297459,47.655,-122.3035,60.0,3.316666666666667
2026-02-06T22:03:03+00:00,SAT-52666,63.643883087599825,44.92840965165598,734.4371458954305,4.797008117436597,-168011.51559684754,10.5,10499831988.484404,47.655,-122.3035,60.0,3.3333333333333335
2026-02-06T22:03:04+00:00,SAT-52666,63.60870673721139,44.50050583540633,739.2212938960915,4.832194419360421,-169243.88872812944,10.5,10499830756.111273,47.655,-122.3035,60.0,3.35
2026-02-06T22:03:05+00:00,SAT-52666,63.57457447069228,44.07772232067007,744.0405338690562,4.866695809729259,-170452.2733595827,10.5,10499829547.72664,47.655,-122.3035,60.0,3.3666666666666667
2026-02-06T22:03:06+00:00,SAT-52666,63.54144424068387,43.65999727931939,748.8941827389236,4.9005250590391345,-171637.11676799727,10.5,10499828362.883232,47.655,-122.3035,60.0,3.3833333333333333
2026-02-06T22:03:07+00:00,SAT-52666,63.50927622819132,43.24726858209459,753.7815701665519,4.933694867796082,-172798.86377881747,10.5,10499827201.13622,47.655,-122.3035,60.0,3.4
2026-02-06T22:03:08+00:00,SAT-52666,63.478032696946144,42.83947387662886,758.7020384792575,4.9662177696785434,-173937.95337447987,10.5,10499826062.046625,47.655,-122.3035,60.0,3.4166666666666665
2026-02-06T22:03:09+00:00,SAT-52666,63.447677859206934,42.43655066792258,763.6549425044333,4.998106190875217,-175054.82077267527,10.5,10499824945.179228,47.655,-122.3035,60.0,3.433333333333333
2026-02-06T22:03:10+00:00,SAT-52666,63.418177751621485,42.03843638826486,768.6396494623496,5.029372444167968,-176149.89721910772,10.5,10499823850.102781,47.655,-122.3035,60.0,3.45
2026-02-06T22:03:11+00:00,SAT-52666,63.38950012043656,41.64506846264919,773.6555388530481,5.060028675008449,-177223.6080988692,10.5,10499822776.391901,47.655,-122.3035,60.0,3.466666666666667
2026-02-06T22:03:12+00:00,SAT-52666,63.361614315421,41.256384373587906,778.7020022894628,5.090086888882173,-178276.37389484566,10.5,10499821723.626104,47.655,-122.3035,60.0,3.4833333333333334
2026-02-06T22:03:13+00:00,SAT-52666,63.33449119147657,40.87232171903353,783.7784433578278,5.119558923047557,-179308.60919789833,10.5,10499820691.390802,47.655,-122.3035,60.0,3.5
2026-02-06T22:03:14+00:00,SAT-52666,63.30810301742544,40.492818268053306,788.8842774499016,5.148456500340769,-180320.72459133735,10.5,10499819679.275408,47.655,-122.3035,60.0,3.5166666666666666
2026-02-06T22:03:15+00:00,SAT-52666,63.28242339128613,40.117812008361575,794.0189316488523,5.176791116034444,-181313.1226882354,10.5,10499818686.877312,47.655,-122.3035,60.0,3.533333333333333
