DopplerPredictor/satellites_20260211_210203/SAT-53027.csv

timestamp,satellite,azimuth_deg,elevation_deg,distance_km,relative_velocity_kms,doppler_shift_hz,tx_freq_ghz,rx_freq_hz,ue_lat,ue_lon,ue_alt_m,time_minutes
2026-02-06T22:03:03+00:00,SAT-53027,302.606781895891,40.36090203567395,799.7973895156058,-5.1008709137330035,178654.07606150166,10.5,10500178654.076061,47.655,-122.3035,60.0,3.3333333333333335
2026-02-06T22:03:04+00:00,SAT-53027,302.67299454549135,40.733225942813476,794.7101933328724,-5.071781033297692,177635.22539858482,10.5,10500177635.225399,47.655,-122.3035,60.0,3.35
2026-02-06T22:03:05+00:00,SAT-53027,302.7407384817869,41.10990907877213,789.6520090446193,-5.042122605180253,176596.4617908855,10.5,10500176596.46179,47.655,-122.3035,60.0,3.3666666666666667
2026-02-06T22:03:06+00:00,SAT-53027,302.81007025766274,41.49100825287852,784.6234036743306,-5.011884384602076,175537.3913986915,10.5,10500175537.3914,47.655,-122.3035,60.0,3.3833333333333333
2026-02-06T22:03:07+00:00,SAT-53027,302.88104923538805,41.87658030648318,779.6249554601235,-4.9810549384059115,174457.61378447377,10.5,10500174457.613785,47.655,-122.3035,60.0,3.4
2026-02-06T22:03:08+00:00,SAT-53027,302.9537377619873,42.26668205125875,774.6572540426221,-4.949622743680989,173356.72536715513,10.5,10500173356.725367,47.655,-122.3035,60.0,3.4166666666666665
2026-02-06T22:03:09+00:00,SAT-53027,303.0282013593664,42.6613702104518,769.7209005544687,-4.917576113107702,172234.31680736569,10.5,10500172234.316807,47.655,-122.3035,60.0,3.433333333333333
2026-02-06T22:03:10+00:00,SAT-53027,303.1045089277198,43.06070134955627,764.8165077842947,-4.884903244921063,171089.9747573742,10.5,10500171089.974758,47.655,-122.3035,60.0,3.45
2026-02-06T22:03:11+00:00,SAT-53027,303.1827329654897,43.464731805710436,759.9447002908568,-4.851592251379788,169923.2828581958,10.5,10500169923.282858,47.655,-122.3035,60.0,3.466666666666667
2026-02-06T22:03:12+00:00,SAT-53027,303.26294980711026,43.873517614144234,755.1061144887831,-4.8176310833875196,168733.81909950834,10.5,10500168733.8191,47.655,-122.3035,60.0,3.4833333333333334
2026-02-06T22:03:13+00:00,SAT-53027,303.34523987809524,44.28711442262125,750.3013988094968,-4.783007644099122,167521.1597986257,10.5,10500167521.1598,47.655,-122.3035,60.0,3.5
2026-02-06T22:03:14+00:00,SAT-53027,303.42968797277155,44.70557740931482,745.5312137488366,-4.74770970909652,166284.87680471755,10.5,10500166284.876804,47.655,-122.3035,60.0,3.5166666666666666
2026-02-06T22:03:15+00:00,SAT-53027,303.51638355306596,45.12896118755548,740.7962319942862,-4.711725033948959,165024.541266025,10.5,10500165024.541265,47.655,-122.3035,60.0,3.533333333333333
2026-02-06T22:03:16+00:00,SAT-53027,303.6054210739762,45.55731971327266,736.0971384449351,-4.675041214485219,163739.71873600234,10.5,10500163739.718737,47.655,-122.3035,60.0,3.55
2026-02-06T22:03:17+00:00,SAT-53027,303.6969003333351,45.990706172786965,731.4346303707903,-4.637645928301313,162429.97763193824,10.5,10500162429.977633,47.655,-122.3035,60.0,3.566666666666667
2026-02-06T22:03:18+00:00,SAT-53027,303.79092685636726,46.429172885078245,726.8094173312277,-4.599526685175266,161094.88049342553,10.5,10500161094.880493,47.655,-122.3035,60.0,3.5833333333333335
2026-02-06T22:03:19+00:00,SAT-53027,303.88761230764624,46.872771173257874,722.2222213423607,-4.560671073167216,159733.9926018278,10.5,10500159733.992601,47.655,-122.3035,60.0,3.6
2026-02-06T22:03:20+00:00,SAT-53027,303.98707494449206,47.32155125060937,717.673776798968,-4.521066606191593,158346.8766416123,10.5,10500158346.876642,47.655,-122.3035,60.0,3.6166666666666667
2026-02-06T22:03:21+00:00,SAT-53027,304.0894401068182,47.77556208348826,713.1648305484402,-4.480700869646732,156933.09780091495,10.5,10500156933.097801,47.655,-122.3035,60.0,3.6333333333333333
2026-02-06T22:03:22+00:00,SAT-53027,304.19484075429864,48.234851259136036,708.6961418194885,-4.439561435823472,155492.22080879184,10.5,10500155492.220808,47.655,-122.3035,60.0,3.65
2026-02-06T22:03:23+00:00,SAT-53027,304.30341805022283,48.69946483544475,704.2684822352148,-4.397635972369164,154023.8137340874,10.5,10500154023.813734,47.655,-122.3035,60.0,3.6666666666666665
2026-02-06T22:03:24+00:00,SAT-53027,304.41532200205376,49.16944719150081,699.8826357180141,-4.354912160749402,152527.44512961936,10.5,10500152527.44513,47.655,-122.3035,60.0,3.683333333333333
2026-02-06T22:03:25+00:00,SAT-53027,304.5307121594831,49.644840858783006,695.5393984757895,-4.311377860263882,151002.68977670796,10.5,10500151002.689777,47.655,-122.3035,60.0,3.7
2026-02-06T22:03:26+00:00,SAT-53027,304.64975838378894,50.12568635848154,691.239578824599,-4.267020980884729,149449.1242314363,10.5,10500149449.124231,47.655,-122.3035,60.0,3.716666666666667
2026-02-06T22:03:27+00:00,SAT-53027,304.7726416874044,50.61202201317462,686.983997138115,-4.22182962976483,147866.33195599177,10.5,10500147866.331957,47.655,-122.3035,60.0,3.7333333333333334
2026-02-06T22:03:28+00:00,SAT-53027,304.8995551605158,51.10388376188165,682.7734856509751,-4.175792052341004,146253.90125584992,10.5,10500146253.901257,47.655,-122.3035,60.0,3.75
2026-02-06T22:03:29+00:00,SAT-53027,305.03070498786997,51.60130495520895,678.608888320867,-4.12889674657862,144611.42928110456,10.5,10500144611.429281,47.655,-122.3035,60.0,3.7666666666666666
2026-02-06T22:03:30+00:00,SAT-53027,305.1663115727604,52.104316149654736,674.4910605766783,-4.081132376100467,142938.51898387287,10.5,10500142938.518984,47.655,-122.3035,60.0,3.783333333333333
2026-02-06T22:03:31+00:00,SAT-53027,305.30661077320775,52.61294487656421,670.4208691532817,-4.0324879505367806,141234.78543491644,10.5,10500141234.785435,47.655,-122.3035,60.0,3.8
2026-02-06T22:03:32+00:00,SAT-53027,305.4518552747778,53.12721541707781,666.3991917464568,-3.98295271105688,139499.85181447509,10.5,10500139499.851814,47.655,-122.3035,60.0,3.816666666666667
2026-02-06T22:03:33+00:00,SAT-53027,305.6023161047339,53.647148546229914,662.4269167819712,-3.9325162805249865,137733.35467135854,10.5,10500137733.354671,47.655,-122.3035,60.0,3.8333333333333335
2026-02-06T22:03:34+00:00,SAT-53027,305.7582843168968,54.17276127788778,658.5049430349069,-3.8811686235995015,135934.94252545462,10.5,10500135934.942526,47.655,-122.3035,60.0,3.85
2026-02-06T22:03:35+00:00,SAT-53027,305.92007286026063,54.70406658557972,654.6341792887861,-3.82890012867227,134104.27873758864,10.5,10500134104.278738,47.655,-122.3035,60.0,3.8666666666666667
2026-02-06T22:03:36+00:00,SAT-53027,306.08801866161645,55.24107311354325,650.8155439129703,-3.775701624196154,132241.04208138425,10.5,10500132241.042082,47.655,-122.3035,60.0,3.8833333333333333
2026-02-06T22:03:37+00:00,SAT-53027,306.26248494690276,55.78378486805679,647.049964423782,-3.7215644405092063,130344.92890860738,10.5,10500130344.92891,47.655,-122.3035,60.0,3.9
2026-02-06T22:03:38+00:00,SAT-53027,306.44386383652414,56.33220089369164,643.3383769839619,-3.6664804214058164,128415.65355443688,10.5,10500128415.653555,47.655,-122.3035,60.0,3.9166666666666665
2026-02-06T22:03:39+00:00,SAT-53027,306.6325792494085,56.886314925515364,639.6817258905913,-3.6104419841010547,126452.95043766935,10.5,10500126452.950438,47.655,-122.3035,60.0,3.933333333333333
2026-02-06T22:03:40+00:00,SAT-53027,306.8290901619623,57.446115021921585,636.0809630032088,-3.553442175880911,124456.57604485024,10.5,10500124456.576044,47.655,-122.3035,60.0,3.95
2026-02-06T22:03:41+00:00,SAT-53027,307.03389427288636,58.01158317554894,632.5370471154264,-3.4954747111710875,122426.3102285796,10.5,10500122426.310228,47.655,-122.3035,60.0,3.966666666666667
2026-02-06T22:03:42+00:00,SAT-53027,307.2475321318082,58.58269489659302,629.0509432895802,-3.4365339718087626,120361.95621703067,10.5,10500120361.956217,47.655,-122.3035,60.0,3.9833333333333334
2026-02-06T22:03:43+00:00,SAT-53027,307.47059179845184,59.15941875864786,625.6236221911081,-3.376615156791074,118263.345858775,10.5,10500118263.34586,47.655,-122.3035,60.0,4.0
2026-02-06T22:03:44+00:00,SAT-53027,307.7037141231668,59.74171592783622,622.2560592735797,-3.3157142125012453,116130.33717900627,10.5,10500116130.33718,47.655,-122.3035,60.0,4.016666666666667
2026-02-06T22:03:45+00:00,SAT-53027,307.94759872975845,60.32953963440501,618.9492340333135,-3.2538279734749147,113962.81930977265,10.5,10500113962.81931,47.655,-122.3035,60.0,4.033333333333333
2026-02-06T22:03:46+00:00,SAT-53027,308.2030108271354,60.92283461623935,615.7041291236072,-3.190954148348244,111760.71199782005,10.5,10500111760.711998,47.655,-122.3035,60.0,4.05
2026-02-06T22:03:47+00:00,SAT-53027,308.47078897184923,61.521536501388766,612.5217294829791,-3.1270914147600752,109523.96892846713,10.5,10500109523.96893,47.655,-122.3035,60.0,4.066666666666666
2026-02-06T22:03:48+00:00,SAT-53027,308.7518539470466,62.12557114067222,609.4030213687632,-3.0622394223664444,107252.57783118635,10.5,10500107252.577831,47.655,-122.3035,60.0,4.083333333333333
2026-02-06T22:03:49+00:00,SAT-53027,309.0472189379917,62.73485386396693,606.3489913876992,-2.9963988984505496,104946.56417851169,10.5,10500104946.564178,47.655,-122.3035,60.0,4.1
2026-02-06T22:03:50+00:00,SAT-53027,309.35800123692877,63.34928866798071,603.3606254211923,-2.9295716144907855,102605.99001510988,10.5,10500102605.990015,47.655,-122.3035,60.0,4.116666666666666
2026-02-06T22:03:51+00:00,SAT-53027,309.685435731133,63.96876729394958,600.4389075839189,-2.8617605256341654,100230.95884272957,10.5,10500100230.958843,47.655,-122.3035,60.0,4.133333333333334
2026-02-06T22:03:52+00:00,SAT-53027,310.03089051404817,64.59316821254656,597.5848190433312,-2.7929697389649792,97821.61450883558,10.5,10500097821.61451,47.655,-122.3035,60.0,4.15
2026-02-06T22:03:53+00:00,SAT-53027,310.3958849883066,65.22235545997778,594.7993368708064,-2.7232046030241537,95378.14434195544,10.5,10500095378.144342,47.655,-122.3035,60.0,4.166666666666667
2026-02-06T22:03:54+00:00,SAT-53027,310.78211094305755,65.85617732403198,592.0834328035207,-2.652471720201806,92900.77958571914,10.5,10500092900.779585,47.655,-122.3035,60.0,4.183333333333334
2026-02-06T22:03:55+00:00,SAT-53027,311.1914571643639,66.49446483127426,589.4380719939596,-2.5807790268087962,90389.79820330357,10.5,10500090389.798203,47.655,-122.3035,60.0,4.2
2026-02-06T22:03:56+00:00,SAT-53027,311.62603828164254,67.13703001091713,586.864211679574,-2.5081357727938007,87845.5241670386,10.5,10500087845.524166,47.655,-122.3035,60.0,4.216666666666667
2026-02-06T22:03:57+00:00,SAT-53027,312.0882286791112,67.78366386166519,584.3627998726646,-2.4345526135807862,85268.330674944,10.5,10500085268.330675,47.655,-122.3035,60.0,4.233333333333333
2026-02-06T22:03:58+00:00,SAT-53027,312.58070252787536,68.43413398622411,581.9347739586724,-2.3600416034253056,82658.6399180386,10.5,10500082658.639917,47.655,-122.3035,60.0,4.25
2026-02-06T22:03:59+00:00,SAT-53027,313.1064811957928,69.08818179133678,579.5810593011004,-2.284616247276294,80016.92489676003,10.5,10500080016.924896,47.655,-122.3035,60.0,4.266666666666667
2026-02-06T22:04:00+00:00,SAT-53027,313.6689896173338,69.74551916951825,577.3025677947059,-2.208291506590608,77343.70962461433,10.5,10500077343.709625,47.655,-122.3035,60.0,4.283333333333333
2026-02-06T22:04:01+00:00,SAT-53027,314.2721235557773,70.40582452558425,575.1001964128999,-2.1310838228703393,74639.56995255218,10.5,10500074639.569952,47.655,-122.3035,60.0,4.3
2026-02-06T22:04:02+00:00,SAT-53027,314.92033016578904,71.06873799365842,572.9748257316693,-2.05301115218224,71905.13477798537,10.5,10500071905.134777,47.655,-122.3035,60.0,4.316666666666666
2026-02-06T22:04:03+00:00,SAT-53027,315.61870484454766,71.73385564590163,570.9273184190705,-1.9740929587375762,69141.08581992597,10.5,10500069141.08582,47.655,-122.3035,60.0,4.333333333333333
2026-02-06T22:04:04+00:00,SAT-53027,316.3731080604533,72.40072242055872,568.9585177311303,-1.8943502232235025,66348.15791078632,10.5,10500066348.157911,47.655,-122.3035,60.0,4.35
2026-02-06T22:04:05+00:00,SAT-53027,317.1903067475012,73.06882343768613,567.0692459994351,-1.813805441037948,63527.13893455736,10.5,10500063527.138935,47.655,-122.3035,60.0,4.366666666666666
2026-02-06T22:04:06+00:00,SAT-53027,318.0781459233802,73.73757326471599,565.2603031204794,-1.7324826320182776,60678.87016754742,10.5,10500060678.870167,47.655,-122.3035,60.0,4.383333333333334
2026-02-06T22:04:07+00:00,SAT-53027,319.04575748410167,74.40630257163055,563.532465035315,-1.650407316114021,57804.245426338304,10.5,10500057804.245426,47.655,-122.3035,60.0,4.4
2026-02-06T22:04:08+00:00,SAT-53027,320.10381458317875,75.07424142782456,561.8864822334591,-1.5676064929136175,54904.21035072531,10.5,10500054904.21035,47.655,-122.3035,60.0,4.416666666666667
2026-02-06T22:04:09+00:00,SAT-53027,321.264841611407,75.74049827994965,560.3230782772233,-1.484108639424896,51979.76232598022,10.5,10500051979.762325,47.655,-122.3035,60.0,4.433333333333334
2026-02-06T22:04:10+00:00,SAT-53027,322.5435913151302,76.40403336406979,558.8429483282538,-1.399943661773611,49031.94879112975,10.5,10500049031.948792,47.655,-122.3035,60.0,4.45
2026-02-06T22:04:11+00:00,SAT-53027,323.9575015070674,77.06362489983621,557.4467577222451,-1.315142869107568,46061.8663249676,10.5,10500046061.866325,47.655,-122.3035,60.0,4.466666666666667
2026-02-06T22:04:12+00:00,SAT-53027,325.5272433434,77.71782596333016,556.1351405696798,-1.2297389243754087,43070.65892211935,10.5,10500043070.658922,47.655,-122.3035,60.0,4.483333333333333
2026-02-06T22:04:13+00:00,SAT-53027,327.2773692895903,78.3649093351965,554.9086984056568,-1.143765813342487,40059.51690784734,10.5,10500040059.516909,47.655,-122.3035,60.0,4.5
2026-02-06T22:04:14+00:00,SAT-53027,329.23705843977035,79.00279698581653,553.7679988706201,-1.0572587623285101,37029.674056874894,10.5,10500037029.674057,47.655,-122.3035,60.0,4.516666666666667
2026-02-06T22:04:15+00:00,SAT-53027,331.44093344807413,79.62897019727347,552.7135744731318,-0.9702542138583481,33982.40674057469,10.5,10500033982.40674,47.655,-122.3035,60.0,4.533333333333333
2026-02-06T22:04:16+00:00,SAT-53027,333.9298768046995,80.24035604520574,551.7459213769256,-0.8827897187913095,30919.030148879698,10.5,10500030919.03015,47.655,-122.3035,60.0,4.55
2026-02-06T22:04:17+00:00,SAT-53027,336.7516865827987,80.83318641989123,550.8654982955452,-0.7949039011006847,27840.897056713777,10.5,10500027840.897057,47.655,-122.3035,60.0,4.566666666666666
2026-02-06T22:04:18+00:00,SAT-53027,339.9612586852512,81.40282842821547,550.0727254221067,-0.7066363604398835,24749.394411445726,10.5,10500024749.394411,47.655,-122.3035,60.0,4.583333333333333
2026-02-06T22:04:19+00:00,SAT-53027,343.61973278901746,81.94359169737285,549.3679834562333,-0.61802759255986,21645.940545570793,10.5,10500021645.940546,47.655,-122.3035,60.0,4.6
2026-02-06T22:04:20+00:00,SAT-53027,347.79167863231197,82.44853259651181,548.7516127103613,-0.5291189011954271,18531.98209059677,10.5,10500018531.98209,47.655,-122.3035,60.0,4.616666666666666
2026-02-06T22:04:21+00:00,SAT-53027,352.5389860657139,82.90930209311303,548.2239123039217,-0.43995231009902325,15408.990896094338,10.5,10500015408.990896,47.655,-122.3035,60.0,4.633333333333334
2026-02-06T22:04:22+00:00,SAT-53027,357.9099152257331,83.31612594337881,547.7851394452525,-0.35057046191196645,12278.460487740647,10.5,10500012278.460487,47.655,-122.3035,60.0,4.65
2026-02-06T22:04:23+00:00,SAT-53027,3.922390049540556,83.65805645821798,547.4355088143702,-0.2610165202581387,9141.902638225998,10.5,10500009141.902637,47.655,-122.3035,60.0,4.666666666666667
2026-02-06T22:04:24+00:00,SAT-53027,10.543050346863788,83.9236629078445,547.1751920433826,-0.17133406753984753,6000.8437876325725,10.5,10500006000.843788,47.655,-122.3035,60.0,4.683333333333334
2026-02-06T22:04:25+00:00,SAT-53027,17.668288640504528,84.10226633015684,547.0043172988336,-0.08156700117688276,2856.8214092873172,10.5,10500002856.82141,47.655,-122.3035,60.0,4.7
2026-02-06T22:04:26+00:00,SAT-53027,25.118431216713144,84.18560531416678,546.9229689675307,0.008240576084843052,-288.6198320934813,10.5,10499999711.380167,47.655,-122.3035,60.0,4.716666666666667
2026-02-06T22:04:27+00:00,SAT-53027,32.65563131629086,84.16948110206346,546.9311874517681,0.09804446174832818,-3433.931778088446,10.5,10499996566.068222,47.655,-122.3035,60.0,4.733333333333333
2026-02-06T22:04:28+00:00,SAT-53027,40.025179205057924,84.05471594163879,547.0289690698446,0.18780046258529248,-6577.566594906037,10.5,10499993422.433405,47.655,-122.3035,60.0,4.75
2026-02-06T22:04:29+00:00,SAT-53027,47.00435312337634,83.84695824050421,547.2162660653062,0.2774645035913806,-9717.980589456645,10.5,10499990282.019411,47.655,-122.3035,60.0,4.766666666666667
2026-02-06T22:04:30+00:00,SAT-53027,53.43724442206456,83.55543361122655,547.4929867248536,0.36699273411680683,-12853.637926496709,10.5,10499987146.362074,47.655,-122.3035,60.0,4.783333333333333
2026-02-06T22:04:31+00:00,SAT-53027,59.244337012674904,83.19122478293876,547.8589956020952,0.4563416373624949,-15983.014463646701,10.5,10499984016.985537,47.655,-122.3035,60.0,4.8
2026-02-06T22:04:32+00:00,SAT-53027,64.41109712994361,82.76571191937248,548.3141138505031,0.5454681303498919,-19104.601252756882,10.5,10499980895.398746,47.655,-122.3035,60.0,4.816666666666666
2026-02-06T22:04:33+00:00,SAT-53027,68.96734794514686,82.28951428498802,548.8581196560701,0.6343296713689189,-22216.908303189033,10.5,10499977783.091698,47.655,-122.3035,60.0,4.833333333333333
2026-02-06T22:04:34+00:00,SAT-53027,72.96727146754883,81.77195775114579,549.4907487771275,0.7228843553104075,-25318.467920761632,10.5,10499974681.53208,47.655,-122.3035,60.0,4.85
2026-02-06T22:04:35+00:00,SAT-53027,76.47455016804739,81.22092801408992,550.2116951792394,0.8110910088867895,-28407.838042781215,10.5,10499971592.161957,47.655,-122.3035,60.0,4.866666666666666
2026-02-06T22:04:36+00:00,SAT-53027,79.55312867592167,80.64294554865063,551.0206117650616,0.8989092841343074,-31483.60551288528,10.5,10499968516.394487,47.655,-122.3035,60.0,4.883333333333334
2026-02-06T22:04:37+00:00,SAT-53027,82.26233024426533,80.04333900299923,551.9171111974548,0.9862997464931544,-34544.38916598136,10.5,10499965455.610834,47.655,-122.3035,60.0,4.9
2026-02-06T22:04:38+00:00,SAT-53027,84.65479902871458,79.42644341159125,552.9007668104371,1.073223954960147,-37588.84263553269,10.5,10499962411.157364,47.655,-122.3035,60.0,4.916666666666667
2026-02-06T22:04:39+00:00,SAT-53027,86.7760601904861,78.79578669446049,553.9711136000789,1.159644531942644,-40615.65680013793,10.5,10499959384.3432,47.655,-122.3035,60.0,4.933333333333334
2026-02-06T22:04:40+00:00,SAT-53027,88.6649013698813,78.15425018672842,555.1276492850624,1.2455252528802432,-43623.56292246203,10.5,10499956376.437078,47.655,-122.3035,60.0,4.95
2026-02-06T22:04:41+00:00,SAT-53027,90.35410516450204,77.50420043679598,556.3698354566219,1.330831095471393,-46611.334373360485,10.5,10499953388.665627,47.655,-122.3035,60.0,4.966666666666667
2026-02-06T22:04:42+00:00,SAT-53027,91.8712777465351,76.84759464925484,557.6970987775811,1.415528296574504,-49577.78862479686,10.5,10499950422.211374,47.655,-122.3035,60.0,4.983333333333333
2026-02-06T22:04:43+00:00,SAT-53027,93.23964781703184,76.18606385912476,559.1088322381354,1.499584429054461,-52521.78994133281,10.5,10499947478.210058,47.655,-122.3035,60.0,5.0
2026-02-06T22:04:44+00:00,SAT-53027,94.47878198773802,75.52097808645203,560.6043964882782,1.582968413077111,-55442.24977570871,10.5,10499944557.750225,47.655,-122.3035,60.0,5.016666666666667
2026-02-06T22:04:45+00:00,SAT-53027,95.60520027350769,74.85349728836682,562.1831211814896,1.6656505980576022,-58338.129639021216,10.5,10499941661.870361,47.655,-122.3035,60.0,5.033333333333333
2026-02-06T22:04:46+00:00,SAT-53027,96.63289380406906,74.18461120860556,563.8443064001535,1.7476027488312178,-61208.44061636729,10.5,10499938791.559383,47.655,-122.3035,60.0,5.05
2026-02-06T22:04:47+00:00,SAT-53027,97.57375457360052,73.51517066192199,565.5872240671841,1.8287981229919703,-64052.24607556901,10.5,10499935947.753925,47.655,-122.3035,60.0,5.066666666666666
2026-02-06T22:04:48+00:00,SAT-53027,98.43792966793988,72.84591216165623,567.4111194347827,1.9092114549105559,-66868.66110741463,10.5,10499933131.338892,47.655,-122.3035,60.0,5.083333333333333
2026-02-06T22:04:49+00:00,SAT-53027,99.23411218810756,72.17747743010224,569.3152125572539,1.9888189979203383,-69656.85400319027,10.5,10499930343.145996,47.655,-122.3035,60.0,5.1
2026-02-06T22:04:50+00:00,SAT-53027,99.96977997484281,71.5104289203561,571.2986998058976,2.0675984972254264,-72416.04530580611,10.5,10499927583.954695,47.655,-122.3035,60.0,5.116666666666666
2026-02-06T22:04:51+00:00,SAT-53027,100.65139160497898,70.84526225639163,573.3607553568805,2.145529246666153,-75145.50979796365,10.5,10499924854.490202,47.655,-122.3035,60.0,5.133333333333334
2026-02-06T22:04:52+00:00,SAT-53027,101.28454762043394,70.18241623852052,575.5005327357196,2.222592033093278,-77844.57455390497,10.5,10499922155.425446,47.655,-122.3035,60.0,5.15
2026-02-06T22:04:53+00:00,SAT-53027,101.8741234617042,69.52228097073305,577.7171663062899,2.2987691804629167,-80512.62048380358,10.5,10499919487.379517,47.655,-122.3035,60.0,5.166666666666667
2026-02-06T22:04:54+00:00,SAT-53027,102.42437943093694,68.86520447729292,580.00977280381,2.374044478062942,-83149.07981994962,10.5,10499916850.92018,47.655,-122.3035,60.0,5.183333333333334
2026-02-06T22:04:55+00:00,SAT-53027,102.93905193455964,68.21149815313238,582.3774527962454,2.448403224995183,-85753.43767470436,10.5,10499914246.562325,47.655,-122.3035,60.0,5.2
2026-02-06T22:04:56+00:00,SAT-53027,103.42142948628407,67.56144125361278,584.819292190074,2.521832166367155,-88325.22980566486,10.5,10499911674.770195,47.655,-122.3035,60.0,5.216666666666667
2026-02-06T22:04:57+00:00,SAT-53027,103.87441622956929,66.91528464257335,587.3343636724159,2.59431949697132,-90864.04274452715,10.5,10499909135.957256,47.655,-122.3035,60.0,5.233333333333333
2026-02-06T22:04:58+00:00,SAT-53027,104.30058523790296,66.27325392625256,589.921728156832,2.6658547930028385,-93369.51140555312,10.5,10499906630.488594,47.655,-122.3035,60.0,5.25
2026-02-06T22:04:59+00:00,SAT-53027,104.70222339552546,65.63555210745922,592.5804361610227,2.7364290376737173,-95841.31998268625,10.5,10499904158.680017,47.655,-122.3035,60.0,5.266666666666667
2026-02-06T22:05:00+00:00,SAT-53027,105.08136934004229,65.00236182785859,595.3095292100736,2.8060345277177805,-98279.1986749603,10.5,10499901720.801325,47.655,-122.3035,60.0,5.283333333333333
2026-02-06T22:05:01+00:00,SAT-53027,105.43984564254791,64.37384730044928,598.1080411464552,2.8746648758097937,-100682.9237712272,10.5,10499899317.07623,47.655,-122.3035,60.0,5.3
2026-02-06T22:05:02+00:00,SAT-53027,105.77928620860901,63.75015596669624,600.9749994424369,2.94231494324172,-103052.31529219478,10.5,10499896947.684708,47.655,-122.3035,60.0,5.316666666666666
2026-02-06T22:05:03+00:00,SAT-53027,106.10115968427283,63.13141994126585,603.909426445355,3.0089808252908172,-105387.23647795564,10.5,10499894612.763521,47.655,-122.3035,60.0,5.333333333333333
2026-02-06T22:05:04+00:00,SAT-53027,106.40678952241865,62.517757269888484,606.9103406082927,3.0746597815549075,-107687.59134803362,10.5,10499892312.408651,47.655,-122.3035,60.0,5.35
2026-02-06T22:05:05+00:00,SAT-53027,106.69737123813438,61.909273042530685,609.9767576512764,3.1393502094318135,-109953.32377252147,10.5,10499890046.676228,47.655,-122.3035,60.0,5.366666666666666
2026-02-06T22:05:06+00:00,SAT-53027,106.97398729768598,61.30606037707044,613.1076916960269,3.203051563999535,-112184.41466594572,10.5,10499887815.585335,47.655,-122.3035,60.0,5.383333333333334
2026-02-06T22:05:07+00:00,SAT-53027,107.23762000193231,60.708201304070066,616.3021563208046,3.2657643826542273,-114380.88285019292,10.5,10499885619.11715,47.655,-122.3035,60.0,5.4
2026-02-06T22:05:08+00:00,SAT-53027,107.48916267477948,60.115767548923046,619.5591656398244,3.3274901432597166,-116542.78008630565,10.5,10499883457.219913,47.655,-122.3035,60.0,5.416666666666667
2026-02-06T22:05:09+00:00,SAT-53027,107.72942939707337,59.52882125629589,622.8777352412037,3.3882312903961616,-118670.19199382159,10.5,10499881329.808006,47.655,-122.3035,60.0,5.433333333333334
2026-02-06T22:05:10+00:00,SAT-53027,107.95916350947911,58.94741563609208,626.2568831510861,3.4479911363739575,-120763.23458386186,10.5,10499879236.765415,47.655,-122.3035,60.0,5.45
2026-02-06T22:05:11+00:00,SAT-53027,108.17904505259007,58.37159556319682,629.6956306990462,3.506773883352865,-122822.0550338364,10.5,10499877177.944965,47.655,-122.3035,60.0,5.466666666666667
2026-02-06T22:05:12+00:00,SAT-53027,108.38969730097801,57.801398117459144,633.1930034055528,3.5645844534896214,-124846.82573849481,10.5,10499875153.174261,47.655,-122.3035,60.0,5.483333333333333
2026-02-06T22:05:13+00:00,SAT-53027,108.59169250614158,57.23685310229155,636.7480317000352,3.621428590717844,-126837.74787468923,10.5,10499873162.252125,47.655,-122.3035,60.0,5.5
2026-02-06T22:05:14+00:00,SAT-53027,108.7855569699354,56.67798350219997,640.3597517404585,3.677312688908257,-128795.04538281845,10.5,10499871204.954617,47.655,-122.3035,60.0,5.516666666666667
2026-02-06T22:05:15+00:00,SAT-53027,108.97177552393075,56.12480592849738,644.0272060615168,3.7322438293181306,-130718.9662784658,10.5,10499869281.033722,47.655,-122.3035,60.0,5.533333333333333
2026-02-06T22:05:16+00:00,SAT-53027,109.15079550328103,55.57733102314405,647.7494442601783,3.786229668442816,-132609.77872448534,10.5,10499867390.221275,47.655,-122.3035,60.0,5.55
2026-02-06T22:05:17+00:00,SAT-53027,109.3230302730138,55.035563847213105,651.5255235693796,3.839278463141097,-134467.77191099824,10.5,10499865532.228088,47.655,-122.3035,60.0,5.566666666666666
2026-02-06T22:05:18+00:00,SAT-53027,109.48886236963493,54.49950423602772,655.3545094567814,3.8913989606732233,-136293.25220405927,10.5,10499863706.747795,47.655,-122.3035,60.0,5.583333333333333
2026-02-06T22:05:19+00:00,SAT-53027,109.64864630055756,53.969147143129554,659.2354761138542,3.9426004290484746,-138086.54420855705,10.5,10499861913.455791,47.655,-122.3035,60.0,5.6
2026-02-06T22:05:20+00:00,SAT-53027,109.8027110486434,53.44448295503216,663.1675069752313,3.99289252725151,-139847.9862229918,10.5,10499860152.013777,47.655,-122.3035,60.0,5.616666666666666
2026-02-06T22:05:21+00:00,SAT-53027,109.9513623118152,52.92549780065521,667.1496951086364,4.042285373634889,-141577.9326348708,10.5,10499858422.067366,47.655,-122.3035,60.0,5.633333333333334
2026-02-06T22:05:22+00:00,SAT-53027,110.09488451589885,52.41217383013558,671.1811436730198,4.090789382541798,-143276.748198545,10.5,10499856723.2518,47.655,-122.3035,60.0,5.65
2026-02-06T22:05:23+00:00,SAT-53027,110.23354261979537,51.90448949500651,675.2609662137561,4.13841538063463,-144944.81210952814,10.5,10499855055.187891,47.655,-122.3035,60.0,5.666666666666667
2026-02-06T22:05:24+00:00,SAT-53027,110.36758374529431,51.402419794831765,679.3882870738566,4.185174389510074,-146582.51039075764,10.5,10499853417.489609,47.655,-122.3035,60.0,5.683333333333334
2026-02-06T22:05:25+00:00,SAT-53027,110.49723864202839,50.90593653344967,683.5622415883826,4.231077795625575,-148190.24184413784,10.5,10499851809.758156,47.655,-122.3035,60.0,5.7
2026-02-06T22:05:26+00:00,SAT-53027,110.62272301623075,50.415008537888,687.7819764483268,4.276137139146346,-149768.41065506937,10.5,10499850231.589344,47.655,-122.3035,60.0,5.716666666666667
2026-02-06T22:05:27+00:00,SAT-53027,110.74423872867426,49.92960188728193,692.0466498539098,4.320364178173288,-151317.4286419825,10.5,10499848682.571358,47.655,-122.3035,60.0,5.733333333333333
2026-02-06T22:05:28+00:00,SAT-53027,110.86197488254626,49.449680119133966,696.355431731932,4.3637708703291755,-152837.71461140743,10.5,10499847162.285389,47.655,-122.3035,60.0,5.75
2026-02-06T22:05:29+00:00,SAT-53027,110.97610881130908,48.975204424165796,700.7075039347582,4.406369273216568,-154329.69087158947,10.5,10499845670.309128,47.655,-122.3035,60.0,5.766666666666667
2026-02-06T22:05:30+00:00,SAT-53027,111.0868069749038,48.50613383910831,705.1020603400322,4.4481716150137345,-155793.7857050567,10.5,10499844206.214294,47.655,-122.3035,60.0,5.783333333333333
2026-02-06T22:05:31+00:00,SAT-53027,111.1942257777396,48.04242541934668,709.5383070207936,4.489190153410629,-157230.42842796136,10.5,10499842769.571571,47.655,-122.3035,60.0,5.8
2026-02-06T22:05:32+00:00,SAT-53027,111.29851231198322,47.58403441486511,714.0154622749112,4.529437270264447,-158640.0527053175,10.5,10499841359.947294,47.655,-122.3035,60.0,5.816666666666666
2026-02-06T22:05:33+00:00,SAT-53027,111.39980503840603,47.1309144249634,718.5327567489165,4.568925374716789,-160023.09315775477,10.5,10499839976.906843,47.655,-122.3035,60.0,5.833333333333333
2026-02-06T22:05:34+00:00,SAT-53027,111.49823440716528,46.683017552537386,723.089433465215,4.607666916692376,-161379.9858342999,10.5,10499838620.014166,47.655,-122.3035,60.0,5.85
2026-02-06T22:05:35+00:00,SAT-53027,111.59392342671562,46.24029454685029,727.6847478627622,4.645674321067424,-162711.1659066752,10.5,10499837288.834093,47.655,-122.3035,60.0,5.866666666666666
2026-02-06T22:05:36+00:00,SAT-53027,111.68698818425976,45.80269494309715,732.3179677720777,4.6829600696707825,-164017.070541325,10.5,10499835982.929459,47.655,-122.3035,60.0,5.883333333333334
2026-02-06T22:05:37+00:00,SAT-53027,111.77753832486061,45.370167185090324,736.9883734720502,4.719536565225112,-165298.13413406044,10.5,10499834701.865866,47.655,-122.3035,60.0,5.9
2026-02-06T22:05:38+00:00,SAT-53027,111.86567748966212,44.94265875229802,741.6952576110398,4.75541619969432,-166554.79070387542,10.5,10499833445.209295,47.655,-122.3035,60.0,5.916666666666667
2026-02-06T22:05:39+00:00,SAT-53027,111.95150372019076,44.52011627215786,746.4379251961504,4.790611295739938,-167787.4718425016,10.5,10499832212.528158,47.655,-122.3035,60.0,5.933333333333334
2026-02-06T22:05:40+00:00,SAT-53027,112.0351098299279,44.1024856300274,751.2156935241107,4.82513411942865,-168996.60715947972,10.5,10499831003.392841,47.655,-122.3035,60.0,5.95
2026-02-06T22:05:41+00:00,SAT-53027,112.11658374701231,43.68971207058047,756.0278921248339,4.8589968742764755,-170182.62407356157,10.5,10499829817.375927,47.655,-122.3035,60.0,5.966666666666667
2026-02-06T22:05:42+00:00,SAT-53027,112.19600883071693,43.28174029283762,760.873862699032,4.892211629907529,-171345.9453140381,10.5,10499828654.054686,47.655,-122.3035,60.0,5.983333333333333
2026-02-06T22:05:43+00:00,SAT-53027,112.27346416278233,42.87851454458367,765.752958984685,4.924790415032464,-172486.99217723776,10.5,10499827513.007822,47.655,-122.3035,60.0,6.0
2026-02-06T22:05:44+00:00,SAT-53027,112.34902481816007,42.47997870266805,770.6645467162358,4.956745104163475,-173606.18055880672,10.5,10499826393.81944,47.655,-122.3035,60.0,6.016666666666667
2026-02-06T22:05:45+00:00,SAT-53027,112.42276211424343,42.08607635682,775.6080034708059,4.988087475673587,-174703.9229871909,10.5,10499825296.077013,47.655,-122.3035,60.0,6.033333333333333
2026-02-06T22:05:46+00:00,SAT-53027,112.49474384259435,41.6967508829668,780.5827185723132,5.018829179761529,-175780.62750163,10.5,10499824219.372498,47.655,-122.3035,60.0,6.05
2026-02-06T22:05:47+00:00,SAT-53027,112.5650344834396,41.311945513849494,785.5880929636422,5.048981730547522,-176836.69737531885,10.5,10499823163.302624,47.655,-122.3035,60.0,6.066666666666666
2026-02-06T22:05:48+00:00,SAT-53027,112.63369540481814,40.93160340516879,790.6235390709297,5.078556522708451,-177872.53169804136,10.5,10499822127.468302,47.655,-122.3035,60.0,6.083333333333333
2026-02-06T22:05:49+00:00,SAT-53027,112.70078504770477,40.555667695717695,795.6884806844415,5.107564790137359,-178888.5239282513,10.5,10499821111.476072,47.655,-122.3035,60.0,6.1
2026-02-06T22:05:50+00:00,SAT-53027,112.76635909785581,40.1840815661405,800.7823527982205,5.136017601612793,-179885.0617413942,10.5,10499820114.93826,47.655,-122.3035,60.0,6.116666666666666
