DopplerPredictor/satellites_20260211_210203/SAT-58028.csv

timestamp,satellite,azimuth_deg,elevation_deg,distance_km,relative_velocity_kms,doppler_shift_hz,tx_freq_ghz,rx_freq_hz,ue_lat,ue_lon,ue_alt_m,time_minutes
2026-02-06T22:03:24+00:00,SAT-58028,299.39513602992895,40.050480785587396,716.0718909451394,-5.217611966973581,182742.84156015227,10.5,10500182742.84156,47.655,-122.3035,60.0,3.683333333333333
2026-02-06T22:03:25+00:00,SAT-58028,299.4146984352932,40.46492777981606,710.8682666758189,-5.185332919636668,181612.2927821787,10.5,10500181612.292782,47.655,-122.3035,60.0,3.7
2026-02-06T22:03:26+00:00,SAT-58028,299.43470866587165,40.88501567271199,705.6968349181636,-5.152332765260827,180456.48778542213,10.5,10500180456.487785,47.655,-122.3035,60.0,3.716666666666667
2026-02-06T22:03:27+00:00,SAT-58028,299.4551854534172,41.31083306820819,700.5583148460246,-5.118594900422479,179274.84504775642,10.5,10500179274.845047,47.655,-122.3035,60.0,3.7333333333333334
2026-02-06T22:03:28+00:00,SAT-58028,299.47614858672796,41.74246901359806,695.4534421921638,-5.084102445085082,178066.77335889937,10.5,10500178066.77336,47.655,-122.3035,60.0,3.75
2026-02-06T22:03:29+00:00,SAT-58028,299.4976189871005,42.18001291342807,690.382969524128,-5.048838275439399,176831.67297061786,10.5,10500176831.67297,47.655,-122.3035,60.0,3.7666666666666666
2026-02-06T22:03:30+00:00,SAT-58028,299.519618790675,42.623554438145675,685.3476664873655,-5.012785001270568,175568.93480402685,10.5,10500175568.934805,47.655,-122.3035,60.0,3.783333333333333
2026-02-06T22:03:31+00:00,SAT-58028,299.542171437616,43.073183422264506,680.3483200709188,-4.9759250530764945,174277.94350084415,10.5,10500174277.9435,47.655,-122.3035,60.0,3.8
2026-02-06T22:03:32+00:00,SAT-58028,299.56530177007784,43.528989761262,675.385734786232,-4.938240564264678,172958.0732974247,10.5,10500172958.073298,47.655,-122.3035,60.0,3.816666666666667
2026-02-06T22:03:33+00:00,SAT-58028,299.5890361378292,43.99106328832981,670.460732963443,-4.89971353450204,171608.69374596284,10.5,10500171608.693747,47.655,-122.3035,60.0,3.8333333333333335
2026-02-06T22:03:34+00:00,SAT-58028,299.61340251510353,44.45949365576077,665.5741548847664,-4.860325752656619,170229.1670155842,10.5,10500170229.167015,47.655,-122.3035,60.0,3.85
2026-02-06T22:03:35+00:00,SAT-58028,299.63843062734435,44.934370198783306,660.7268589947278,-4.820058828551134,168818.84900448998,10.5,10500168818.849005,47.655,-122.3035,60.0,3.8666666666666667
2026-02-06T22:03:36+00:00,SAT-58028,299.6641520904456,45.4157817909012,655.9197220787278,-4.7788942149775435,167377.09011100009,10.5,10500167377.09011,47.655,-122.3035,60.0,3.8833333333333333
2026-02-06T22:03:37+00:00,SAT-58028,299.6906005632253,45.90381668931098,651.1536394196534,-4.736813297477884,165903.23837805746,10.5,10500165903.238379,47.655,-122.3035,60.0,3.9
2026-02-06T22:03:38+00:00,SAT-58028,299.71781191572313,46.398562376975306,646.4295248649455,-4.693797276300942,164396.63535885178,10.5,10500164396.635359,47.655,-122.3035,60.0,3.9166666666666665
2026-02-06T22:03:39+00:00,SAT-58028,299.7458244129233,46.90010537939547,641.7483110113984,-4.649827359867683,162856.62289279696,10.5,10500162856.622892,47.655,-122.3035,60.0,3.933333333333333
2026-02-06T22:03:40+00:00,SAT-58028,299.7746789187767,47.4085310875072,637.1109491970064,-4.604884650535639,161282.53910451676,10.5,10500161282.539104,47.655,-122.3035,60.0,3.95
2026-02-06T22:03:41+00:00,SAT-58028,299.80441911998105,47.92392355412211,632.5184096067447,-4.558950279975948,159673.72314532156,10.5,10500159673.723145,47.655,-122.3035,60.0,3.966666666666667
2026-02-06T22:03:42+00:00,SAT-58028,299.8350917742682,48.446365289660235,627.9716812433339,-4.51200540239129,158029.51495567162,10.5,10500158029.514956,47.655,-122.3035,60.0,3.9833333333333334
2026-02-06T22:03:43+00:00,SAT-58028,299.8667469851146,48.975937041588054,623.4717719047699,-4.464031214925745,156349.25598001643,10.5,10500156349.25598,47.655,-122.3035,60.0,4.0
2026-02-06T22:03:44+00:00,SAT-58028,299.89943850595773,49.512717559474616,619.019708141495,-4.415009036668939,154632.29193385466,10.5,10500154632.291933,47.655,-122.3035,60.0,4.016666666666667
2026-02-06T22:03:45+00:00,SAT-58028,299.9332240789897,50.05678335203827,614.6165351347822,-4.364920323580568,152877.9733264536,10.5,10500152877.973326,47.655,-122.3035,60.0,4.033333333333333
2026-02-06T22:03:46+00:00,SAT-58028,299.9681658117402,50.608208428182614,610.2633165602301,-4.3137467661554885,151085.65888149402,10.5,10500151085.658882,47.655,-122.3035,60.0,4.05
2026-02-06T22:03:47+00:00,SAT-58028,300.004330598046,51.16706403172615,605.9611343538573,-4.261470223345752,149254.71322274025,10.5,10500149254.713223,47.655,-122.3035,60.0,4.066666666666666
2026-02-06T22:03:48+00:00,SAT-58028,300.04179058678426,51.73341834845203,601.7110885440976,-4.20807294102878,147384.51452571963,10.5,10500147384.514526,47.655,-122.3035,60.0,4.083333333333333
2026-02-06T22:03:49+00:00,SAT-58028,300.08062370944185,52.30733622152928,597.5142968659097,-4.153537474820595,145474.45181431566,10.5,10500145474.451815,47.655,-122.3035,60.0,4.1
2026-02-06T22:03:50+00:00,SAT-58028,300.1209142702669,52.88887883696044,593.371894451871,-4.097846817744952,143523.92943228077,10.5,10500143523.929432,47.655,-122.3035,60.0,4.116666666666666
2026-02-06T22:03:51+00:00,SAT-58028,300.1627536113801,53.47810340520571,589.2850333959412,-4.040984414150933,141532.36753068952,10.5,10500141532.36753,47.655,-122.3035,60.0,4.133333333333334
2026-02-06T22:03:52+00:00,SAT-58028,300.20624086197887,54.075062823349796,585.254882303349,-3.9829343146371374,139499.2074940389,10.5,10500139499.207495,47.655,-122.3035,60.0,4.15
2026-02-06T22:03:53+00:00,SAT-58028,300.25148378691006,54.67980533789839,581.2826256859646,-3.923681142497358,137423.91076503418,10.5,10500137423.910765,47.655,-122.3035,60.0,4.166666666666667
2026-02-06T22:03:54+00:00,SAT-58028,300.29859974671473,55.29237418073201,577.3694633911423,-3.863210239803404,135305.96396102713,10.5,10500135305.96396,47.655,-122.3035,60.0,4.183333333333334
2026-02-06T22:03:55+00:00,SAT-58028,300.3477167898591,55.912807204313616,573.5166098848684,-3.8015077085531748,133144.8803151957,10.5,10500133144.880316,47.655,-122.3035,60.0,4.2
2026-02-06T22:03:56+00:00,SAT-58028,300.39897489703736,56.54113650075268,569.7252934938739,-3.738560503955923,130940.20294378849,10.5,10500130940.202944,47.655,-122.3035,60.0,4.216666666666667
2026-02-06T22:03:57+00:00,SAT-58028,300.45252740347127,57.17738801266888,565.9967555547076,-3.674356552456768,128691.50897984252,10.5,10500128691.50898,47.655,-122.3035,60.0,4.233333333333333
2026-02-06T22:03:58+00:00,SAT-58028,300.50854263040543,57.821581140881506,562.332249445107,-3.6088847456530484,126398.40936010808,10.5,10500126398.40936,47.655,-122.3035,60.0,4.25
2026-02-06T22:03:59+00:00,SAT-58028,300.56720575938044,58.47372832777141,558.7330396214309,-3.542135118645287,124060.55507165399,10.5,10500124060.55507,47.655,-122.3035,60.0,4.266666666666667
2026-02-06T22:04:00+00:00,SAT-58028,300.6287209971259,59.13383464809351,555.200400478224,-3.474098920116884,121677.63960635487,10.5,10500121677.639606,47.655,-122.3035,60.0,4.283333333333333
2026-02-06T22:04:01+00:00,SAT-58028,300.6933140821397,59.80189739005388,551.7356151378862,-3.4047686717721284,119249.40104266182,10.5,10500119249.401043,47.655,-122.3035,60.0,4.3
2026-02-06T22:04:02+00:00,SAT-58028,300.7612351969716,60.47790562433388,548.3399741810651,-3.3341382708551253,116775.62563624872,10.5,10500116775.625637,47.655,-122.3035,60.0,4.316666666666666
2026-02-06T22:04:03+00:00,SAT-58028,300.8327623663007,61.16183976918961,545.014774274803,-3.262203156157299,114256.15363429737,10.5,10500114256.153635,47.655,-122.3035,60.0,4.333333333333333
2026-02-06T22:04:04+00:00,SAT-58028,300.9082054400772,61.853671166225894,541.7613166351232,-3.188960275737117,111690.87814490558,10.5,10500111690.878145,47.655,-122.3035,60.0,4.35
2026-02-06T22:04:05+00:00,SAT-58028,300.98791077549436,62.55336162683764,538.5809055218089,-3.1144083073351294,109079.75285695432,10.5,10500109079.752857,47.655,-122.3035,60.0,4.366666666666666
2026-02-06T22:04:06+00:00,SAT-58028,301.07226677457913,63.2608630016619,535.4748465133574,-3.0385476807916754,106422.79282527044,10.5,10500106422.792826,47.655,-122.3035,60.0,4.383333333333334
2026-02-06T22:04:07+00:00,SAT-58028,301.16171045757835,63.97611673269036,532.4444447595783,-2.961380679634163,103720.07802864311,10.5,10500103720.078028,47.655,-122.3035,60.0,4.4
2026-02-06T22:04:08+00:00,SAT-58028,301.25673530838446,64.69905340381912,529.4910031328756,-2.882911570374027,100971.75789835009,10.5,10500100971.757898,47.655,-122.3035,60.0,4.416666666666667
2026-02-06T22:04:09+00:00,SAT-58028,301.3579006903862,65.42959229696021,526.61582025058,-2.803146650065173,98178.05298385564,10.5,10500098178.052984,47.655,-122.3035,60.0,4.433333333333334
2026-02-06T22:04:10+00:00,SAT-58028,301.465843206934,66.16764093328005,523.8201884498494,-2.7220943763656087,95339.25950811908,10.5,10500095339.259508,47.655,-122.3035,60.0,4.45
2026-02-06T22:04:11+00:00,SAT-58028,301.58129049702893,66.9130946177421,521.1053916328577,-2.6397653828776138,92455.74990487234,10.5,10500092455.749905,47.655,-122.3035,60.0,4.466666666666667
2026-02-06T22:04:12+00:00,SAT-58028,301.70507808906297,67.66583595354678,518.472703096684,-2.556172650672866,89527.97882615543,10.5,10500089527.978827,47.655,-122.3035,60.0,4.483333333333333
2026-02-06T22:04:13+00:00,SAT-58028,301.8381701445925,68.4257343631005,515.9233831921358,-2.4713314880705646,86556.48243406086,10.5,10500086556.482433,47.655,-122.3035,60.0,4.5
2026-02-06T22:04:14+00:00,SAT-58028,301.9816851657484,69.19264555461076,513.458677002741,-2.3852596576709675,83541.88284998537,10.5,10500083541.88285,47.655,-122.3035,60.0,4.516666666666667
2026-02-06T22:04:15+00:00,SAT-58028,302.13692812021594,69.96641096272064,511.0798118970463,-2.29797740684997,80484.88922267914,10.5,10500080484.889223,47.655,-122.3035,60.0,4.533333333333333
2026-02-06T22:04:16+00:00,SAT-58028,302.3054309224879,70.74685711766759,508.7879950505034,-2.209507533212797,77386.30002071089,10.5,10500077386.30002,47.655,-122.3035,60.0,4.55
2026-02-06T22:04:17+00:00,SAT-58028,302.48900392223265,71.53379492694862,506.5844109020749,-2.1198753926670064,74247.00331521871,10.5,10500074247.003315,47.655,-122.3035,60.0,4.566666666666666
2026-02-06T22:04:18+00:00,SAT-58028,302.689802044439,72.32701881157087,504.4702186027929,-2.029108981258646,71067.97964615835,10.5,10500071067.979647,47.655,-122.3035,60.0,4.583333333333333
2026-02-06T22:04:19+00:00,SAT-58028,302.9104106872894,73.12630566729847,502.44654938269593,-1.9372389084912802,67850.3010878227,10.5,10500067850.301088,47.655,-122.3035,60.0,4.6
2026-02-06T22:04:20+00:00,SAT-58028,303.15395859335086,73.9314135311491,500.51450394437944,-1.8442984066035506,64595.131573781226,10.5,10500064595.131575,47.655,-122.3035,60.0,4.616666666666666
2026-02-06T22:04:21+00:00,SAT-58028,303.42426810052575,74.74207984345269,498.67514984729064,-1.7503233713241357,61303.72832429102,10.5,10500061303.728325,47.655,-122.3035,60.0,4.633333333333334
2026-02-06T22:04:22+00:00,SAT-58028,303.726058021994,75.55801914199795,496.9295188513804,-1.655352280741207,57977.439004762,10.5,10500057977.439005,47.655,-122.3035,60.0,4.65
2026-02-06T22:04:23+00:00,SAT-58028,304.06522189180504,76.37891986479171,495.27860434166524,-1.5594262115081547,54617.70229334997,10.5,10500054617.702293,47.655,-122.3035,60.0,4.666666666666667
2026-02-06T22:04:24+00:00,SAT-58028,304.4492162883104,77.20443988441895,493.7233587366294,-1.4625887724458837,51226.04555542814,10.5,10500051226.045555,47.655,-122.3035,60.0,4.683333333333334
2026-02-06T22:04:25+00:00,SAT-58028,304.8876133586157,78.03420007915234,492.26469096284507,-1.3648860422823985,47804.082662964065,10.5,10500047804.082663,47.655,-122.3035,60.0,4.7
2026-02-06T22:04:26+00:00,SAT-58028,305.3929042364579,78.86777487716284,490.90346399168766,-1.2663664997423447,44353.51154595964,10.5,10500044353.511545,47.655,-122.3035,60.0,4.716666666666667
2026-02-06T22:04:27+00:00,SAT-58028,305.9816962506424,79.7046780046398,489.64049244577257,-1.1670809457216016,40876.11146667612,10.5,10500040876.111467,47.655,-122.3035,60.0,4.733333333333333
2026-02-06T22:04:28+00:00,SAT-58028,306.67654730054016,80.54434040802317,488.4765402830092,-1.067082371994105,37373.73842119171,10.5,10500037373.73842,47.655,-122.3035,60.0,4.75
2026-02-06T22:04:29+00:00,SAT-58028,307.5088674932741,81.38607492136418,487.4123186115972,-0.9664258802390958,33848.322303393325,10.5,10500033848.322304,47.655,-122.3035,60.0,4.766666666666667
2026-02-06T22:04:30+00:00,SAT-58028,308.52368107858894,82.22901767626513,486.44848358577616,-0.8651685118434038,30301.860943932552,10.5,10500030301.860945,47.655,-122.3035,60.0,4.783333333333333
2026-02-06T22:04:31+00:00,SAT-58028,309.78778332491305,83.0720265278294,485.5856344713197,-0.7633691361564978,26736.416196444898,10.5,10500026736.416197,47.655,-122.3035,60.0,4.8
2026-02-06T22:04:32+00:00,SAT-58028,311.40443338155603,83.91349564466734,484.8243118224723,-0.6610882749877793,23154.1077907026,10.5,10500023154.10779,47.655,-122.3035,60.0,4.816666666666666
2026-02-06T22:04:33+00:00,SAT-58028,313.54143894076276,84.75099486076488,484.16499583391965,-0.558387939938521,19557.107635291046,10.5,10500019557.107635,47.655,-122.3035,60.0,4.833333333333333
2026-02-06T22:04:34+00:00,SAT-58028,316.4887284190924,85.58051166016702,483.6081048549904,-0.4553314546027696,15947.633590332283,10.5,10500015947.63359,47.655,-122.3035,60.0,4.85
2026-02-06T22:04:35+00:00,SAT-58028,320.7862346463923,86.39469838881014,483.1539940811818,-0.3519832614391319,12327.942703318056,10.5,10500012327.942703,47.655,-122.3035,60.0,4.866666666666666
2026-02-06T22:04:36+00:00,SAT-58028,327.5320136675799,87.1783244066588,482.80295443829266,-0.2484087312771107,8700.324537215884,10.5,10500008700.324537,47.655,-122.3035,60.0,4.883333333333334
2026-02-06T22:04:37+00:00,SAT-58028,339.14515637515575,87.894946857192,482.55521165654386,-0.14467395361794053,5067.093825917314,10.5,10500005067.093826,47.655,-122.3035,60.0,4.9
2026-02-06T22:04:38+00:00,SAT-58028,0.6055915065135623,88.44682989053307,482.4109255538305,-0.04084553427075143,1430.5833866003727,10.5,10500001430.583387,47.655,-122.3035,60.0,4.916666666666667
2026-02-06T22:04:39+00:00,SAT-58028,34.494210508048056,88.61848610019268,482.37018952080035,0.06300962317691293,-2206.8635340972646,10.5,10499997793.136465,47.655,-122.3035,60.0,4.933333333333334
2026-02-06T22:04:40+00:00,SAT-58028,64.93933781190862,88.2909260721232,482.433030223873,0.1668245279759128,-5842.900636770136,10.5,10499994157.099363,47.655,-122.3035,60.0,4.95
2026-02-06T22:04:41+00:00,SAT-58028,82.38825000407077,87.66593905738736,482.59940751831107,0.27053231998457017,-9475.18619643856,10.5,10499990524.813803,47.655,-122.3035,60.0,4.966666666666667
2026-02-06T22:04:42+00:00,SAT-58028,91.96263942294269,86.920188092309,482.8692145784791,0.37406648398786746,-13101.390568913539,10.5,10499986898.60943,47.655,-122.3035,60.0,4.983333333333333
2026-02-06T22:04:43+00:00,SAT-58028,97.7067822888121,86.12358504966932,483.24227824184476,0.4773610578823699,-16719.203482313365,10.5,10499983280.796518,47.655,-122.3035,60.0,5.0
2026-02-06T22:04:44+00:00,SAT-58028,101.46637291820677,85.30288394584089,483.71835956060676,0.5803508498424076,-20326.341643141935,10.5,10499979673.658358,47.655,-122.3035,60.0,5.016666666666667
2026-02-06T22:04:45+00:00,SAT-58028,104.0979944312579,84.46983217476827,484.2971545699091,0.6829716266479627,-23920.555332327967,10.5,10499976079.444668,47.655,-122.3035,60.0,5.033333333333333
2026-02-06T22:04:46+00:00,SAT-58028,106.03589455293307,83.63035279596272,484.978295243876,0.785160324760917,-27499.63579800806,10.5,10499972500.364202,47.655,-122.3035,60.0,5.05
2026-02-06T22:04:47+00:00,SAT-58028,107.51958235999494,82.78780194681536,485.76135066215835,0.8868552197443687,-31061.421189307806,10.5,10499968938.578812,47.655,-122.3035,60.0,5.066666666666666
2026-02-06T22:04:48+00:00,SAT-58028,108.69076179859726,81.9442763937341,486.6458283454446,0.9879961180436808,-34603.803273325335,10.5,10499965396.196726,47.655,-122.3035,60.0,5.083333333333333
2026-02-06T22:04:49+00:00,SAT-58028,109.63820268589848,81.10119866774242,487.6311757822392,1.0885245171866291,-38124.73304601814,10.5,10499961875.266954,47.655,-122.3035,60.0,5.1
2026-02-06T22:04:50+00:00,SAT-58028,110.42017689985478,80.25960331353392,488.7167821154118,1.188383755632189,-41622.22598054146,10.5,10499958377.77402,47.655,-122.3035,60.0,5.116666666666666
2026-02-06T22:04:51+00:00,SAT-58028,111.07644559423962,79.42028743154712,489.901979978192,1.2875191643992394,-45094.36733792687,10.5,10499954905.632662,47.655,-122.3035,60.0,5.133333333333334
2026-02-06T22:04:52+00:00,SAT-58028,111.63503350982067,78.5838946718274,491.18604748138927,1.3858781791552572,-48539.31609290251,10.5,10499951460.683907,47.655,-122.3035,60.0,5.15
2026-02-06T22:04:53+00:00,SAT-58028,112.11624401453183,77.75096446391261,492.5682103123973,1.4834104837929774,-51955.30996255503,10.5,10499948044.690037,47.655,-122.3035,60.0,5.166666666666667
2026-02-06T22:04:54+00:00,SAT-58028,112.53513755149726,76.92196205740817,494.04764397739376,1.5800680770250948,-55340.66773875777,10.5,10499944659.332262,47.655,-122.3035,60.0,5.183333333333334
2026-02-06T22:04:55+00:00,SAT-58028,112.9031160920514,76.09729752915987,495.62347610995374,1.6758053799526025,-58693.793055668946,10.5,10499941306.206944,47.655,-122.3035,60.0,5.2
2026-02-06T22:04:56+00:00,SAT-58028,113.228967371016,75.27733815404731,497.29478888694393,1.7705793046120737,-62013.176790547455,10.5,10499937986.82321,47.655,-122.3035,60.0,5.216666666666667
2026-02-06T22:04:57+00:00,SAT-58028,113.51957167059224,74.4624166805355,499.06062151278024,1.8643493066668726,-65297.39890922193,10.5,10499934702.601091,47.655,-122.3035,60.0,5.233333333333333
2026-02-06T22:04:58+00:00,SAT-58028,113.78039157858215,73.65283700219571,500.9199727562361,1.9570774262438189,-68545.12989636349,10.5,10499931454.870104,47.655,-122.3035,60.0,5.25
2026-02-06T22:04:59+00:00,SAT-58028,114.01581852296538,72.84887813342553,502.87180352797685,2.0487283279018778,-71755.13215535835,10.5,10499928244.867846,47.655,-122.3035,60.0,5.266666666666667
2026-02-06T22:05:00+00:00,SAT-58028,114.22942258415335,72.05079705502838,504.9150394979562,2.1392692964706663,-74926.25986255464,10.5,10499925073.740137,47.655,-122.3035,60.0,5.283333333333333
2026-02-06T22:05:01+00:00,SAT-58028,114.4241356264282,71.25883080935999,507.04857370866193,2.2286702781783907,-78057.46040773681,10.5,10499921942.539593,47.655,-122.3035,60.0,5.3
2026-02-06T22:05:02+00:00,SAT-58028,114.60238759928541,70.47319806352284,509.2712692293811,2.316903816523534,-81147.77214808088,10.5,10499918852.227852,47.655,-122.3035,60.0,5.316666666666666
2026-02-06T22:05:03+00:00,SAT-58028,114.76620938478102,69.69410033703691,511.5819617465053,2.4039450722660627,-84196.32510833096,10.5,10499915803.674892,47.655,-122.3035,60.0,5.333333333333333
2026-02-06T22:05:04+00:00,SAT-58028,114.91731138559946,68.92172296744191,513.979462173777,2.4897717917503384,-87202.33987133375,10.5,10499912797.66013,47.655,-122.3035,60.0,5.35
2026-02-06T22:05:05+00:00,SAT-58028,115.0571442675903,68.15623590619035,516.4625592309422,2.5743642283532786,-90165.12482682079,10.5,10499909834.875174,47.655,-122.3035,60.0,5.366666666666666
2026-02-06T22:05:06+00:00,SAT-58028,115.18694640505235,67.3977944077371,519.0300219440616,2.657705129141487,-93084.07570408464,10.5,10499906915.924295,47.655,-122.3035,60.0,5.383333333333334
2026-02-06T22:05:07+00:00,SAT-58028,115.30778130476165,66.64653962487063,521.680602132515,2.739779662469505,-95958.67303616359,10.5,10499904041.326963,47.655,-122.3035,60.0,5.4
2026-02-06T22:05:08+00:00,SAT-58028,115.42056738978837,65.90259915290979,524.4130368237992,2.820575358215961,-98788.48006665862,10.5,10499901211.519934,47.655,-122.3035,60.0,5.416666666666667
2026-02-06T22:05:09+00:00,SAT-58028,115.52610190213929,65.16608753470341,527.226050608719,2.9000819956994515,-101573.13882407355,10.5,10499898426.861176,47.655,-122.3035,60.0,5.433333333333334
2026-02-06T22:05:10+00:00,SAT-58028,115.6250802337854,64.43710675087875,530.1183578847994,2.978291597073966,-104312.36989049484,10.5,10499895687.63011,47.655,-122.3035,60.0,5.45
2026-02-06T22:05:11+00:00,SAT-58028,115.71811167578244,63.715746675204855,533.0886650931058,3.055198268174088,-107005.96682731733,10.5,10499892994.033173,47.655,-122.3035,60.0,5.466666666666667
2026-02-06T22:05:12+00:00,SAT-58028,115.805732333728,63.00208553948995,536.1356727963404,3.130798176436408,-109653.79540195866,10.5,10499890346.204597,47.655,-122.3035,60.0,5.483333333333333
2026-02-06T22:05:13+00:00,SAT-58028,115.88841578853504,62.296190376056984,539.2580777349158,3.205089405693632,-112255.78850213482,10.5,10499887744.211498,47.655,-122.3035,60.0,5.5
2026-02-06T22:05:14+00:00,SAT-58028,115.96658194720268,61.59811746960459,542.4545747382152,3.2780718897241528,-114811.94380848503,10.5,10499885188.056192,47.655,-122.3035,60.0,5.516666666666667
2026-02-06T22:05:15+00:00,SAT-58028,116.04060443234985,60.90791279999502,545.7238585695768,3.3497473215214786,-117322.32061680326,10.5,10499882677.679382,47.655,-122.3035,60.0,5.533333333333333
2026-02-06T22:05:16+00:00,SAT-58028,116.11081678494031,60.22561248243135,549.0646256807945,3.420119069338298,-119787.03689754638,10.5,10499880212.963102,47.655,-122.3035,60.0,5.55
2026-02-06T22:05:17+00:00,SAT-58028,116.17751769575311,59.55124320365353,552.4755758828843,3.4891920094990714,-122206.26344022388,10.5,10499877793.736559,47.655,-122.3035,60.0,5.566666666666666
2026-02-06T22:05:18+00:00,SAT-58028,116.24097543841671,58.884822669716,555.9554138501144,3.5569725198941256,-124580.22362553337,10.5,10499875419.776375,47.655,-122.3035,60.0,5.583333333333333
2026-02-06T22:05:19+00:00,SAT-58028,116.30143164348415,58.2263600324678,559.5028506175448,3.6234683759900035,-126909.18978320342,10.5,10499873090.810217,47.655,-122.3035,60.0,5.6
2026-02-06T22:05:20+00:00,SAT-58028,116.35910452447555,57.575856314945824,563.1166049748575,3.6886885563408187,-129193.4763801783,10.5,10499870806.52362,47.655,-122.3035,60.0,5.616666666666666
2026-02-06T22:05:21+00:00,SAT-58028,116.41419164564775,56.93330484998262,566.7954046662177,3.752643276288236,-131433.441200934,10.5,10499868566.5588,47.655,-122.3035,60.0,5.633333333333334
2026-02-06T22:05:22+00:00,SAT-58028,116.46687230745735,56.2986916896248,570.5379876237471,3.8153438360374388,-133629.48002645586,10.5,10499866370.519974,47.655,-122.3035,60.0,5.65
2026-02-06T22:05:23+00:00,SAT-58028,116.51730960833721,55.671996019339936,574.3431030494775,3.8768025238060626,-135782.02324210457,10.5,10499864217.976757,47.655,-122.3035,60.0,5.666666666666667
2026-02-06T22:05:24+00:00,SAT-58028,116.5656522335886,55.05319056555601,578.2095124007161,3.9370325563341524,-137891.53375402326,10.5,10499862108.466246,47.655,-122.3035,60.0,5.683333333333334
2026-02-06T22:05:25+00:00,SAT-58028,116.61203601249794,54.44224199011604,582.1359903160771,3.99604800035544,-139958.50423872945,10.5,10499860041.495762,47.655,-122.3035,60.0,5.7
2026-02-06T22:05:26+00:00,SAT-58028,116.65658527796109,53.83911127492733,586.1213254631981,4.053863641460636,-141983.45255015284,10.5,10499858016.54745,47.655,-122.3035,60.0,5.716666666666667
2026-02-06T22:05:27+00:00,SAT-58028,116.69941405707141,53.243754104226035,590.1643212556694,4.11049499347669,-143966.92204813653,10.5,10499856033.077951,47.655,-122.3035,60.0,5.733333333333333
2026-02-06T22:05:28+00:00,SAT-58028,116.7406271168966,52.65612122301456,594.2637965793168,4.165958130780942,-145909.47572536962,10.5,10499854090.524275,47.655,-122.3035,60.0,5.75
2026-02-06T22:05:29+00:00,SAT-58028,116.78032088549466,52.07615879827028,598.4185863512515,4.220269714026838,-147811.6971084102,10.5,10499852188.30289,47.655,-122.3035,60.0,5.766666666666667
2026-02-06T22:05:30+00:00,SAT-58028,116.81858426516588,51.503808754526446,602.6275421045722,4.273446801541274,-149674.18365202294,10.5,10499850325.816347,47.655,-122.3035,60.0,5.783333333333333
2026-02-06T22:05:31+00:00,SAT-58028,116.8554993522651,50.93900911430571,606.8895323849741,4.325506959316704,-151497.5505915676,10.5,10499848502.449408,47.655,-122.3035,60.0,5.8
2026-02-06T22:05:32+00:00,SAT-58028,116.89114207623909,50.38169430264217,611.2034432570528,4.3764679789775,-153282.42106498807,10.5,10499846717.578936,47.655,-122.3035,60.0,5.816666666666666
2026-02-06T22:05:33+00:00,SAT-58028,116.92558276765945,49.83179546857195,615.5681785293312,4.426348041225837,-155029.43183737894,10.5,10499844970.568163,47.655,-122.3035,60.0,5.833333333333333
2026-02-06T22:05:34+00:00,SAT-58028,116.95888666491496,49.289240765006646,619.9826601422944,4.475165526383218,-156739.2266653479,10.5,10499843260.773335,47.655,-122.3035,60.0,5.85
2026-02-06T22:05:35+00:00,SAT-58028,116.99111436677805,48.753955633800025,624.4458283674743,4.522938990232238,-158412.4554508923,10.5,10499841587.54455,47.655,-122.3035,60.0,5.866666666666666
2026-02-06T22:05:36+00:00,SAT-58028,117.02232223747896,48.22586307443825,628.9566419824394,4.569687147173173,-160049.77365147162,10.5,10499839950.226349,47.655,-122.3035,60.0,5.883333333333334
2026-02-06T22:05:37+00:00,SAT-58028,117.05256277018498,47.7048838965413,633.5140784289879,4.615428788784549,-161651.8394276542,10.5,10499838348.160572,47.655,-122.3035,60.0,5.9
2026-02-06T22:05:38+00:00,SAT-58028,117.08188491359309,47.190936964330575,638.1171338901188,4.660182781564875,-163219.31356402297,10.5,10499836780.686436,47.655,-122.3035,60.0,5.916666666666667
2026-02-06T22:05:39+00:00,SAT-58028,117.11033436611298,46.68393942434942,642.7648233647516,4.703968010239833,-164752.85748355364,10.5,10499835247.142517,47.655,-122.3035,60.0,5.933333333333334
2026-02-06T22:05:40+00:00,SAT-58028,117.13795384120253,46.18380692336653,647.4561806859036,4.746803328067914,-166253.1315071078,10.5,10499833746.868492,47.655,-122.3035,60.0,5.95
2026-02-06T22:05:41+00:00,SAT-58028,117.16478330698764,45.690453815951045,652.1902584893078,4.7887075337675,-167720.79404532164,10.5,10499832279.205956,47.655,-122.3035,60.0,5.966666666666667
2026-02-06T22:05:42+00:00,SAT-58028,117.19086020343984,45.20379335936129,656.966128159019,4.829699393796068,-169156.50237891814,10.5,10499830843.497622,47.655,-122.3035,60.0,5.983333333333333
2026-02-06T22:05:43+00:00,SAT-58028,117.21621963904022,44.723737892025234,661.7828797952388,4.8697974910949755,-170560.90736110928,10.5,10499829439.092638,47.655,-122.3035,60.0,6.0
2026-02-06T22:05:44+00:00,SAT-58028,117.240894569462,44.25019901364453,666.6396220312921,4.909020361339354,-171934.65818964405,10.5,10499828065.34181,47.655,-122.3035,60.0,6.016666666666667
2026-02-06T22:05:45+00:00,SAT-58028,117.26491596005529,43.78308773859101,671.5354819864876,4.947386342597569,-173278.39714124653,10.5,10499826721.60286,47.655,-122.3035,60.0,6.033333333333333
2026-02-06T22:05:46+00:00,SAT-58028,117.288312933858,43.32231465191179,676.4696050690401,4.9849136049238325,-174592.76060807455,10.5,10499825407.239391,47.655,-122.3035,60.0,6.05
2026-02-06T22:05:47+00:00,SAT-58028,117.31111290653352,42.867790050449116,681.4411548085071,5.0216201184393325,-175878.37797978555,10.5,10499824121.62202,47.655,-122.3035,60.0,6.066666666666666
2026-02-06T22:05:48+00:00,SAT-58028,117.3333417097058,42.419424075767935,686.4493126563926,5.05752368526394,-177135.87276192041,10.5,10499822864.127237,47.655,-122.3035,60.0,6.083333333333333
2026-02-06T22:05:49+00:00,SAT-58028,117.35502370367921,41.977126833748535,691.4932778185945,5.092641838475256,-178365.8590370215,10.5,10499821634.140963,47.655,-122.3035,60.0,6.1
2026-02-06T22:05:50+00:00,SAT-58028,117.37618188073922,41.54080851324839,696.5722669870855,5.126991911554046,-179568.94389690578,10.5,10499820431.056103,47.655,-122.3035,60.0,6.116666666666666
2026-02-06T22:05:51+00:00,SAT-58028,117.39683795979738,41.11037948912158,701.6855141408495,5.160590978847821,-180745.7253574475,10.5,10499819254.274643,47.655,-122.3035,60.0,6.133333333333334
2026-02-06T22:05:52+00:00,SAT-58028,117.41701247337657,40.68575042161106,706.8322702874444,5.193455846545104,-181896.79204245892,10.5,10499818103.207958,47.655,-122.3035,60.0,6.15
2026-02-06T22:05:53+00:00,SAT-58028,117.4367248474453,40.2668323480049,712.011803195562,5.225603086711045,-183022.7243757612,10.5,10499816977.275623,47.655,-122.3035,60.0,6.166666666666667
