DopplerPredictor/satellites_20260211_210203/SAT-52678.csv

timestamp,satellite,azimuth_deg,elevation_deg,distance_km,relative_velocity_kms,doppler_shift_hz,tx_freq_ghz,rx_freq_hz,ue_lat,ue_lon,ue_alt_m,time_minutes
2026-02-06T22:09:41+00:00,SAT-52678,283.15326173950547,40.18615090040874,803.9826773651027,-4.2298343837724515,148146.69230141453,10.5,10500148146.6923,47.655,-122.3035,60.0,9.966666666666667
2026-02-06T22:09:42+00:00,SAT-52678,283.54011396965046,40.49247374087646,799.7641825835959,-4.191057913360708,146788.57628328807,10.5,10500146788.576283,47.655,-122.3035,60.0,9.983333333333333
