DopplerPredictor/satellites_20260211_210203/SAT-49735.csv

timestamp,satellite,azimuth_deg,elevation_deg,distance_km,relative_velocity_kms,doppler_shift_hz,tx_freq_ghz,rx_freq_hz,ue_lat,ue_lon,ue_alt_m,time_minutes
2026-02-06T22:00:29+00:00,SAT-49735,210.36766559030784,40.004576718307376,804.4315735690956,-4.637366964152092,162420.20712741534,10.5,10500162420.207127,47.655,-122.3035,60.0,0.7666666666666667
2026-02-06T22:00:30+00:00,SAT-49735,210.07269932717765,40.33875241928538,799.8066387458175,-4.602513555593216,161199.49332991146,10.5,10500161199.49333,47.655,-122.3035,60.0,0.7833333333333333
2026-02-06T22:00:31+00:00,SAT-49735,209.7712697460979,40.67562477019955,795.2164638939203,-4.56704807697936,159957.34225002845,10.5,10500159957.34225,47.655,-122.3035,60.0,0.8
2026-02-06T22:00:32+00:00,SAT-49735,209.46318115586172,41.01518123482211,790.6616594425826,-4.53096116105596,158693.425806888,10.5,10500158693.425806,47.655,-122.3035,60.0,0.8166666666666667
2026-02-06T22:00:33+00:00,SAT-49735,209.14823074581608,41.357406404992076,786.142845163127,-4.494243408987927,157407.41481352822,10.5,10500157407.414814,47.655,-122.3035,60.0,0.8333333333333334
2026-02-06T22:00:34+00:00,SAT-49735,208.82620831697702,41.7022818202367,781.6606502005128,-4.456885497908353,156098.98274371435,10.5,10500156098.982744,47.655,-122.3035,60.0,0.85
2026-02-06T22:00:35+00:00,SAT-49735,208.49689599812004,42.04978578604378,777.2157129975743,-4.418878097520544,154767.80281098903,10.5,10500154767.80281,47.655,-122.3035,60.0,0.8666666666666667
2026-02-06T22:00:36+00:00,SAT-49735,208.16006796120672,42.399893176011275,772.808681302428,-4.380211945202217,153413.5505991391,10.5,10500153413.5506,47.655,-122.3035,60.0,0.8833333333333333
2026-02-06T22:00:37+00:00,SAT-49735,207.81549012456853,42.75257522951766,768.4402121009816,-4.340877836454663,152035.9037276847,10.5,10500152035.903728,47.655,-122.3035,60.0,0.9
2026-02-06T22:00:38+00:00,SAT-49735,207.4629198509562,43.10779933810087,764.1109715589654,-4.300866641241245,150634.54242412286,10.5,10500150634.542423,47.655,-122.3035,60.0,0.9166666666666666
2026-02-06T22:00:39+00:00,SAT-49735,207.10210563870254,43.46552882214988,759.8216349476697,-4.260169336469757,149209.15066159688,10.5,10500149209.150661,47.655,-122.3035,60.0,0.9333333333333333
2026-02-06T22:00:40+00:00,SAT-49735,206.73278680583485,43.825722698907626,755.5728865372879,-4.2187769911461865,147759.41563891832,10.5,10500147759.415638,47.655,-122.3035,60.0,0.95
2026-02-06T22:00:41+00:00,SAT-49735,206.35469317161898,44.188335437500456,751.3654195050635,-4.17668080095169,146285.02899159904,10.5,10500146285.028992,47.655,-122.3035,60.0,0.9666666666666667
2026-02-06T22:00:42+00:00,SAT-49735,205.96754473308988,44.55331670468409,747.1999358089574,-4.133872118598566,144785.68785504586,10.5,10500144785.687855,47.655,-122.3035,60.0,0.9833333333333333
2026-02-06T22:00:43+00:00,SAT-49735,205.5710513372168,44.920611100743685,743.0771460310347,-4.090342474054866,143261.0955729116,10.5,10500143261.095573,47.655,-122.3035,60.0,1.0
2026-02-06T22:00:44+00:00,SAT-49735,205.16491235188363,45.29015788444821,738.9977692006852,-4.04608354703648,141710.9607336521,10.5,10500141710.960733,47.655,-122.3035,60.0,1.0166666666666666
2026-02-06T22:00:45+00:00,SAT-49735,204.7488163420933,45.661890682344755,734.9625326452788,-4.001087233184347,140134.99948833146,10.5,10500140134.999489,47.655,-122.3035,60.0,1.0333333333333334
2026-02-06T22:00:46+00:00,SAT-49735,204.32244074453007,46.0357371904367,730.9721717748168,-3.9553456788919856,138532.9367704302,10.5,10500138532.93677,47.655,-122.3035,60.0,1.05
2026-02-06T22:00:47+00:00,SAT-49735,203.88545154525173,46.41161886550411,727.0274298318521,-3.9088512652814655,136904.5057346152,10.5,10500136904.505735,47.655,-122.3035,60.0,1.0666666666666667
2026-02-06T22:00:48+00:00,SAT-49735,203.4375029696623,46.78945060106094,723.1290576573915,-3.861596613422554,135249.44793953697,10.5,10500135249.447939,47.655,-122.3035,60.0,1.0833333333333333
2026-02-06T22:00:49+00:00,SAT-49735,202.97823718624764,47.169140389498125,719.2778134515893,-3.813574700572369,133567.5174190335,10.5,10500133567.51742,47.655,-122.3035,60.0,1.1
2026-02-06T22:00:50+00:00,SAT-49735,202.50728401404504,47.550588981304884,715.4744624185158,-3.7647787883288593,131858.47816576168,10.5,10500131858.478167,47.655,-122.3035,60.0,1.1166666666666667
2026-02-06T22:00:51+00:00,SAT-49735,202.02426066142402,47.933689523163004,711.7197764825789,-3.715202489502993,130122.10647334374,10.5,10500130122.106474,47.655,-122.3035,60.0,1.1333333333333333
2026-02-06T22:00:52+00:00,SAT-49735,201.52877148413143,48.318327188338344,708.0145339382524,-3.6648397836859137,128358.19148159522,10.5,10500128358.191483,47.655,-122.3035,60.0,1.15
2026-02-06T22:00:53+00:00,SAT-49735,201.02040777553142,48.70437879459926,704.3595190842785,-3.6136850761955697,126566.53724108524,10.5,10500126566.537241,47.655,-122.3035,60.0,1.1666666666666667
2026-02-06T22:00:54+00:00,SAT-49735,200.49874758850845,49.09171241453711,700.7555217990838,-3.561733184198505,124746.96222706277,10.5,10500124746.962227,47.655,-122.3035,60.0,1.1833333333333333
2026-02-06T22:00:55+00:00,SAT-49735,199.96335560756904,49.4801869711605,697.203337130033,-3.5089793634213824,122899.3002750073,10.5,10500122899.300276,47.655,-122.3035,60.0,1.2
2026-02-06T22:00:56+00:00,SAT-49735,199.41378307429574,49.869651823371974,693.7037648560461,-3.4554193965718163,121023.40367750035,10.5,10500121023.403677,47.655,-122.3035,60.0,1.2166666666666666
2026-02-06T22:00:57+00:00,SAT-49735,198.8495677649657,50.25994634915721,690.2576089620283,-3.4010495331643966,119119.14107667834,10.5,10500119119.141077,47.655,-122.3035,60.0,1.2333333333333334
2026-02-06T22:00:58+00:00,SAT-49735,198.2702340553518,50.650899511108875,686.8656771733177,-3.34586660744495,117186.40159443895,10.5,10500117186.401594,47.655,-122.3035,60.0,1.25
2026-02-06T22:00:59+00:00,SAT-49735,197.67529305513463,51.04232942532615,683.5287803725178,-3.2898680094676274,115225.09381943854,10.5,10500115225.093819,47.655,-122.3035,60.0,1.2666666666666666
2026-02-06T22:01:00+00:00,SAT-49735,197.064242849554,51.43404291889617,680.2477320451817,-3.2330517193620025,113235.1470072707,10.5,10500113235.147007,47.655,-122.3035,60.0,1.2833333333333334
2026-02-06T22:01:01+00:00,SAT-49735,196.43656885322642,51.82583508470433,677.023347691318,-3.1754163735623675,111216.51340009648,10.5,10500111216.513401,47.655,-122.3035,60.0,1.3
2026-02-06T22:01:02+00:00,SAT-49735,195.7917442849763,52.21748883988083,673.8564441708459,-3.1169612664341604,109169.16828360867,10.5,10500109169.168283,47.655,-122.3035,60.0,1.3166666666666667
2026-02-06T22:01:03+00:00,SAT-49735,195.12923079388372,52.608774482913915,670.7478390474265,-3.057686383540128,107093.11115215362,10.5,10500107093.111153,47.655,-122.3035,60.0,1.3333333333333333
2026-02-06T22:01:04+00:00,SAT-49735,194.44847925006002,52.99944925619942,667.6983498991198,-2.99759242919524,104988.36667382078,10.5,10500104988.366674,47.655,-122.3035,60.0,1.35
2026-02-06T22:01:05+00:00,SAT-49735,193.74893072235884,53.38925691699432,664.7087936015597,-2.9366808709366765,102854.98624796992,10.5,10500102854.986248,47.655,-122.3035,60.0,1.3666666666666667
2026-02-06T22:01:06+00:00,SAT-49735,193.03001766144712,53.77792732321782,661.779985566776,-2.8749539458308417,100693.0482261293,10.5,10500100693.048225,47.655,-122.3035,60.0,1.3833333333333333
2026-02-06T22:01:07+00:00,SAT-49735,192.29116532153816,54.16517603399928,658.9127389757301,-2.812414711145537,98502.6596867495,10.5,10500098502.659687,47.655,-122.3035,60.0,1.4
2026-02-06T22:01:08+00:00,SAT-49735,191.5317934355357,54.550703936327345,656.1078639603123,-2.7490670703898763,96283.95734723154,10.5,10500096283.957348,47.655,-122.3035,60.0,1.4166666666666667
2026-02-06T22:01:09+00:00,SAT-49735,190.75131817603722,54.93419690098844,653.3661667593667,-2.6849157650116227,94037.1072731324,10.5,10500094037.107273,47.655,-122.3035,60.0,1.4333333333333333
2026-02-06T22:01:10+00:00,SAT-49735,189.9491544411304,55.315325470012304,650.6884488830026,-2.619966442295225,91762.30725624146,10.5,10500091762.307257,47.655,-122.3035,60.0,1.45
2026-02-06T22:01:11+00:00,SAT-49735,189.1247184714508,55.69374459412995,648.0755062091839,-2.5542256663076004,89459.78719794814,10.5,10500089459.787197,47.655,-122.3035,60.0,1.4666666666666666
2026-02-06T22:01:12+00:00,SAT-49735,188.27743084319832,56.06909342146354,645.5281280694045,-2.487700921254672,87129.80922680201,10.5,10500087129.809227,47.655,-122.3035,60.0,1.4833333333333334
2026-02-06T22:01:13+00:00,SAT-49735,187.40671986928416,56.440995145997135,643.0470963310172,-2.4204006644542564,84772.66955384746,10.5,10500084772.669554,47.655,-122.3035,60.0,1.5
2026-02-06T22:01:14+00:00,SAT-49735,186.5120254188789,56.80905693398078,640.6331844267289,-2.3523343115423,82388.69795448339,10.5,10500082388.697954,47.655,-122.3035,60.0,1.5166666666666666
2026-02-06T22:01:15+00:00,SAT-49735,185.59280320403752,57.17286993018091,638.2871563988537,-2.2835122899242526,79978.25964055656,10.5,10500079978.25964,47.655,-122.3035,60.0,1.5333333333333334
2026-02-06T22:01:16+00:00,SAT-49735,184.64852952965668,57.53200936707456,636.009765890254,-2.2139460009913416,77541.75393701562,10.5,10500077541.753937,47.655,-122.3035,60.0,1.55
2026-02-06T22:01:17+00:00,SAT-49735,183.67870656043536,57.88603477675324,633.8017551729668,-2.1436479139256237,75079.61756736072,10.5,10500075079.617567,47.655,-122.3035,60.0,1.5666666666666667
2026-02-06T22:01:18+00:00,SAT-49735,182.68286805896668,58.23449034081609,631.6638540832752,-2.072631473067902,72592.32140927631,10.5,10500072592.32141,47.655,-122.3035,60.0,1.5833333333333333
2026-02-06T22:01:19+00:00,SAT-49735,181.66058568010294,58.576905364078165,629.5967790491633,-2.0009111939417914,70080.37385780002,10.5,10500070080.373857,47.655,-122.3035,60.0,1.6
2026-02-06T22:01:20+00:00,SAT-49735,180.6114757285877,58.91279491799166,627.6012320220068,-1.9285026338694666,67544.31979616178,10.5,10500067544.319796,47.655,-122.3035,60.0,1.6166666666666667
2026-02-06T22:01:21+00:00,SAT-49735,179.53520641488254,59.24166065005789,625.6778994375653,-1.8554223669727123,64984.73972021498,10.5,10500064984.73972,47.655,-122.3035,60.0,1.6333333333333333
2026-02-06T22:01:22+00:00,SAT-49735,178.43150557925188,59.56299177540553,623.8274512019102,-1.7816880197370002,62402.250984040766,10.5,10500062402.250984,47.655,-122.3035,60.0,1.65
2026-02-06T22:01:23+00:00,SAT-49735,177.3001687974662,59.876266276397956,622.0505396418813,-1.7073182619015204,59797.507480878536,10.5,10500059797.50748,47.655,-122.3035,60.0,1.6666666666666667
2026-02-06T22:01:24+00:00,SAT-49735,176.1410678188435,60.180952317531755,620.3477984646299,-1.6323327788458264,57171.1986759893,10.5,10500057171.198675,47.655,-122.3035,60.0,1.6833333333333333
2026-02-06T22:01:25+00:00,SAT-49735,174.95415925956075,60.476509885208344,618.7198417447023,-1.55675227606064,54524.04976324228,10.5,10500054524.049763,47.655,-122.3035,60.0,1.7
2026-02-06T22:01:26+00:00,SAT-49735,173.73949341385133,60.762392668824205,617.1672629066619,-1.4805984481543262,51856.820579590516,10.5,10500051856.82058,47.655,-122.3035,60.0,1.7166666666666666
2026-02-06T22:01:27+00:00,SAT-49735,172.49722306990773,61.03805018468792,615.6906337386245,-1.4038939865398423,49170.30587430036,10.5,10500049170.305874,47.655,-122.3035,60.0,1.7333333333333334
2026-02-06T22:01:28+00:00,SAT-49735,171.22761213359865,61.302930153966265,614.2905033981252,-1.3266625245298518,46465.3333859501,10.5,10500046465.333385,47.655,-122.3035,60.0,1.75
2026-02-06T22:01:29+00:00,SAT-49735,169.93104392531794,61.5564811226853,612.9673974727443,-1.248928642893217,43742.764037041845,10.5,10500043742.764036,47.655,-122.3035,60.0,1.7666666666666666
2026-02-06T22:01:30+00:00,SAT-49735,168.6080288850128,61.79815532915429,611.7218170351905,-1.1707178071930275,41003.48973931422,10.5,10500041003.489738,47.655,-122.3035,60.0,1.7833333333333334
2026-02-06T22:01:31+00:00,SAT-49735,167.25921152325733,62.027411793969186,610.5542377608796,-1.0920563602940416,38248.43313132126,10.5,10500038248.433132,47.655,-122.3035,60.0,1.8
2026-02-06T22:01:32+00:00,SAT-49735,165.88537631932343,62.24371962423269,609.4651090529837,-1.0129714867551598,35478.546331306236,10.5,10500035478.546331,47.655,-122.3035,60.0,1.8166666666666667
2026-02-06T22:01:33+00:00,SAT-49735,164.48745233829948,62.44656150052559,608.4548532029945,-0.9334911449338026,32694.808559209745,10.5,10500032694.80856,47.655,-122.3035,60.0,1.8333333333333333
2026-02-06T22:01:34+00:00,SAT-49735,163.0665163668753,62.63543730621929,607.5238646189985,-0.8536440502817444,29898.22555161917,10.5,10500029898.225552,47.655,-122.3035,60.0,1.85
2026-02-06T22:01:35+00:00,SAT-49735,161.6237942598545,62.809867867533555,606.6725090706126,-0.773459619633554,27089.827610514192,10.5,10500027089.82761,47.655,-122.3035,60.0,1.8666666666666667
2026-02-06T22:01:36+00:00,SAT-49735,160.16066032818372,62.969398747555125,605.9011229894818,-0.6929679258796171,24270.668015724328,10.5,10500024270.668016,47.655,-122.3035,60.0,1.8833333333333333
2026-02-06T22:01:37+00:00,SAT-49735,158.67863456541616,63.11360404024461,605.210012814982,-0.612199628833255,21441.820603602966,10.5,10500021441.820604,47.655,-122.3035,60.0,1.9
2026-02-06T22:01:38+00:00,SAT-49735,157.1793776265396,63.24209009767807,604.5994544088702,-0.5311859424023959,18604.378617240454,10.5,10500018604.378616,47.655,-122.3035,60.0,1.9166666666666667
2026-02-06T22:01:39+00:00,SAT-49735,155.66468338942042,63.35449913189574,604.0696925026757,-0.4499585618619288,15759.452159234279,10.5,10500015759.45216,47.655,-122.3035,60.0,1.9333333333333333
2026-02-06T22:01:40+00:00,SAT-49735,154.1364691663165,63.45051261436575,603.6209402176238,-0.36854961026459626,12908.16631477187,10.5,10500012908.166315,47.655,-122.3035,60.0,1.95
2026-02-06T22:01:41+00:00,SAT-49735,152.59676357023858,63.52985440789119,603.2533786380044,-0.28699157112804935,10051.658794046509,10.5,10500010051.658794,47.655,-122.3035,60.0,1.9666666666666666
2026-02-06T22:01:42+00:00,SAT-49735,151.0476922108099,63.592293560901574,602.9671564516738,-0.2053172320335063,7191.077956843784,10.5,10500007191.077957,47.655,-122.3035,60.0,1.9833333333333334
2026-02-06T22:01:43+00:00,SAT-49735,149.49146136683544,63.637646703752125,602.7623896468057,-0.12355961246591514,4327.580285198866,10.5,10500004327.580286,47.655,-122.3035,60.0,2.0
2026-02-06T22:01:44+00:00,SAT-49735,147.930339997467,63.665779987859544,602.6391612806094,-0.04175190152259993,1462.3282016897813,10.5,10500001462.328201,47.655,-122.3035,60.0,2.0166666666666666
2026-02-06T22:01:45+00:00,SAT-49735,146.3666403795162,63.676610523314416,602.5975213101731,0.04007260977144786,-1403.5123011673713,10.5,10499998596.4877,47.655,-122.3035,60.0,2.033333333333333
2026-02-06T22:01:46+00:00,SAT-49735,144.8026977887601,63.67010727854808,602.6374864908078,0.12188059628143176,-4268.774036186839,10.5,10499995731.225964,47.655,-122.3035,60.0,2.05
2026-02-06T22:01:47+00:00,SAT-49735,143.24084968793878,63.646291419625825,602.7590403420301,0.2036387659553752,-7132.290974883163,10.5,10499992867.709024,47.655,-122.3035,60.0,2.066666666666667
2026-02-06T22:01:48+00:00,SAT-49735,141.68341485289372,63.60523608078421,602.9621331805562,0.2853139288028849,-9992.900663399249,10.5,10499990007.099337,47.655,-122.3035,60.0,2.0833333333333335
2026-02-06T22:01:49+00:00,SAT-49735,140.13267291368314,63.547065571509876,603.2466822220891,0.3668730607144672,-12849.446457728784,10.5,10499987150.553543,47.655,-122.3035,60.0,2.1
2026-02-06T22:01:50+00:00,SAT-49735,138.59084477117173,63.47195404096541,603.6125717467563,0.448283373744637,-15700.779985328012,10.5,10499984299.220015,47.655,-122.3035,60.0,2.1166666666666667
2026-02-06T22:01:51+00:00,SAT-49735,137.06007426808262,63.38012363118858,604.059653334639,0.5295123791861844,-18545.763354243347,10.5,10499981454.236647,47.655,-122.3035,60.0,2.1333333333333333
2026-02-06T22:01:52+00:00,SAT-49735,135.54241150628744,63.27184216500511,604.5877461642094,0.6105279476927004,-21383.27125885653,10.5,10499978616.72874,47.655,-122.3035,60.0,2.15
2026-02-06T22:01:53+00:00,SAT-49735,134.0397981007418,63.14742042337794,605.1966373707272,0.691298377449905,-24212.193367532956,10.5,10499975787.806633,47.655,-122.3035,60.0,2.1666666666666665
2026-02-06T22:01:54+00:00,SAT-49735,132.55405457426062,63.00720907206252,605.8860824726263,0.7717924580666237,-27031.43656035386,10.5,10499972968.56344,47.655,-122.3035,60.0,2.183333333333333
2026-02-06T22:01:55+00:00,SAT-49735,131.08687005618341,62.851595305045485,606.6558058616201,0.8519795076912202,-29839.926229090834,10.5,10499970160.07377,47.655,-122.3035,60.0,2.2
2026-02-06T22:01:56+00:00,SAT-49735,129.63979439524965,62.68099927910167,607.5055013298244,0.9318294537355729,-32636.60910450094,10.5,10499967363.390896,47.655,-122.3035,60.0,2.216666666666667
2026-02-06T22:01:57+00:00,SAT-49735,128.21423260058052,62.4958703996866,608.4348326773869,1.0113128730192265,-35420.454662344695,10.5,10499964579.545338,47.655,-122.3035,60.0,2.2333333333333334
2026-02-06T22:01:58+00:00,SAT-49735,126.81144161741197,62.296683533274255,609.4434343601548,1.0904010416182557,-38190.45686930418,10.5,10499961809.54313,47.655,-122.3035,60.0,2.25
2026-02-06T22:01:59+00:00,SAT-49735,125.43252928188906,62.083935206989196,610.5309121870561,1.1690659820284415,-40945.6358348369,10.5,10499959054.364164,47.655,-122.3035,60.0,2.2666666666666666
2026-02-06T22:02:00+00:00,SAT-49735,124.07845528589256,61.858139853363376,611.6968440645176,1.247280508767195,-43685.039408348115,10.5,10499956314.960592,47.655,-122.3035,60.0,2.283333333333333
2026-02-06T22:02:01+00:00,SAT-49735,122.75003393957168,61.61982615115435,612.9407807863657,1.32501827126019,-46407.744681262106,10.5,10499953592.25532,47.655,-122.3035,60.0,2.3
2026-02-06T22:02:02+00:00,SAT-49735,121.44793850356062,61.36953350601342,614.262246866493,1.4022537830558692,-49112.859010237764,10.5,10499950887.14099,47.655,-122.3035,60.0,2.316666666666667
2026-02-06T22:02:03+00:00,SAT-49735,120.17270685311111,61.10780870912198,615.6607414006675,1.4789624640437695,-51799.521495832894,10.5,10499948200.478504,47.655,-122.3035,60.0,2.3333333333333335
2026-02-06T22:02:04+00:00,SAT-49735,118.92474821328464,60.83520279903825,617.1357389704419,1.5551206557314787,-54466.9035175679,10.5,10499945533.096483,47.655,-122.3035,60.0,2.35
2026-02-06T22:02:05+00:00,SAT-49735,117.70435074204143,60.552268152122686,618.6866905623021,1.6307056644813076,-57114.21024825692,10.5,10499942885.789751,47.655,-122.3035,60.0,2.3666666666666667
2026-02-06T22:02:06+00:00,SAT-49735,116.51168970687884,60.25955580961333,620.3130245299344,1.7056957899249825,-59740.68164921052,10.5,10499940259.31835,47.655,-122.3035,60.0,2.3833333333333333
2026-02-06T22:02:07+00:00,SAT-49735,115.34683605669512,59.95761305130838,622.0141475848325,1.780070297471752,-62345.591507353376,10.5,10499937654.408493,47.655,-122.3035,60.0,2.4
2026-02-06T22:02:08+00:00,SAT-49735,114.2097652299634,59.64698122712772,623.7894457594864,1.8538094986309965,-64928.25024846177,10.5,10499935071.749752,47.655,-122.3035,60.0,2.4166666666666665
2026-02-06T22:02:09+00:00,SAT-49735,113.10036595939751,59.328193824072194,625.6382854506774,1.9268947157402523,-67488.00370178976,10.5,10499932511.996298,47.655,-122.3035,60.0,2.433333333333333
2026-02-06T22:02:10+00:00,SAT-49735,112.01844900549288,59.001774782022906,627.5600144275961,1.9993083132208525,-70024.234194774,10.5,10499929975.765804,47.655,-122.3035,60.0,2.45
2026-02-06T22:02:11+00:00,SAT-49735,110.96375565555351,58.66823703626512,629.5539628711338,2.071033681579679,-72536.35999270744,10.5,10499927463.640007,47.655,-122.3035,60.0,2.466666666666667
2026-02-06T22:02:12+00:00,SAT-49735,109.9359659176431,58.32808128220434,631.6194443972157,2.142055268136763,-75023.83637494981,10.5,10499924976.163626,47.655,-122.3035,60.0,2.4833333333333334
2026-02-06T22:02:13+00:00,SAT-49735,108.93470631176245,57.981794940107925,633.7557571107823,2.2123585543622433,-77486.154841172,10.5,10499922513.84516,47.655,-122.3035,60.0,2.5
2026-02-06T22:02:14+00:00,SAT-49735,107.95955722878392,57.62985131339293,635.9621846371659,2.2819300666775595,-79922.84348965969,10.5,10499920077.15651,47.655,-122.3035,60.0,2.5166666666666666
2026-02-06T22:02:15+00:00,SAT-49735,107.01005980389715,57.272708918911576,638.237997164241,2.350757331678875,-82333.46544904805,10.5,10499917666.534552,47.655,-122.3035,60.0,2.533333333333333
2026-02-06T22:02:16+00:00,SAT-49735,106.08572230378057,56.9108109818543,640.5824524399181,2.4188289379533754,-84717.6210433901,10.5,10499915282.378956,47.655,-122.3035,60.0,2.55
2026-02-06T22:02:17+00:00,SAT-49735,105.18602597595165,56.54458506265133,642.9947968312873,2.486134443786556,-87074.94455967547,10.5,10499912925.05544,47.655,-122.3035,60.0,2.566666666666667
2026-02-06T22:02:18+00:00,SAT-49735,104.31043042112388,56.17444282443169,645.4742662917165,2.5526644136947114,-89405.10552735277,10.5,10499910594.894472,47.655,-122.3035,60.0,2.5833333333333335
2026-02-06T22:02:19+00:00,SAT-49735,103.45837844742884,55.8007799061413,648.020087364386,2.6184104012737888,-91707.80811762378,10.5,10499908292.191883,47.655,-122.3035,60.0,2.6
2026-02-06T22:02:20+00:00,SAT-49735,102.62930044469216,55.42397589588991,650.6314781687142,2.683364889500845,-93982.78905254805,10.5,10499906017.210947,47.655,-122.3035,60.0,2.6166666666666667
2026-02-06T22:02:21+00:00,SAT-49735,101.82261831144088,55.044394397456095,653.3076493272508,2.747521315079805,-96229.81845773436,10.5,10499903770.181541,47.655,-122.3035,60.0,2.6333333333333333
2026-02-06T22:02:22+00:00,SAT-49735,101.03774893255535,54.6623831655744,656.0478049168428,2.8108740154421454,-98448.69800608033,10.5,10499901551.301994,47.655,-122.3035,60.0,2.65
2026-02-06T22:02:23+00:00,SAT-49735,100.27410725860035,54.27827431018152,658.85114336695,2.8734182482053594,-100639.26159929037,10.5,10499899360.738401,47.655,-122.3035,60.0,2.6666666666666665
2026-02-06T22:02:24+00:00,SAT-49735,99.53110899521899,53.892384549389135,661.7168583773638,2.9351500866270674,-102801.37170623623,10.5,10499897198.628294,47.655,-122.3035,60.0,2.683333333333333
2026-02-06T22:02:25+00:00,SAT-49735,98.80817296296046,53.505015518999905,664.6441397316593,2.9960664880632377,-104934.92176065348,10.5,10499895065.07824,47.655,-122.3035,60.0,2.7
2026-02-06T22:02:26+00:00,SAT-49735,98.10472311294888,53.11645410688312,667.6321741789252,3.0561651676218258,-107039.83173595772,10.5,10499892960.168264,47.655,-122.3035,60.0,2.716666666666667
2026-02-06T22:02:27+00:00,SAT-49735,97.42019027400202,52.726972831039085,670.6801461894833,3.1154446946265764,-109116.05152381469,10.5,10499890883.948477,47.655,-122.3035,60.0,2.7333333333333334
2026-02-06T22:02:28+00:00,SAT-49735,96.75401360724882,52.33683022568949,673.7872388068149,3.1739043304387553,-111163.5552539715,10.5,10499888836.444746,47.655,-122.3035,60.0,2.75
2026-02-06T22:02:29+00:00,SAT-49735,96.10564185167391,51.94627126318028,676.9526343377426,3.2315440821109283,-113182.34317343883,10.5,10499886817.656826,47.655,-122.3035,60.0,2.7666666666666666
2026-02-06T22:02:30+00:00,SAT-49735,95.474534337453,51.55552777879628,680.1755150961226,3.2883646502231567,-115172.43981949387,10.5,10499884827.56018,47.655,-122.3035,60.0,2.783333333333333
2026-02-06T22:02:31+00:00,SAT-49735,94.86016181332653,51.16481890788541,683.4550640945126,3.3443674063777555,-117133.89323145158,10.5,10499882866.106768,47.655,-122.3035,60.0,2.8
2026-02-06T22:02:32+00:00,SAT-49735,94.2620071034414,50.77435152776346,686.7904657133967,3.3995543532802825,-119066.77355253203,10.5,10499880933.226448,47.655,-122.3035,60.0,2.816666666666667
2026-02-06T22:02:33+00:00,SAT-49735,93.67956561606228,50.38432070325682,690.1809063305943,3.453928074008914,-120971.17125305932,10.5,10499879028.828747,47.655,-122.3035,60.0,2.8333333333333335
2026-02-06T22:02:34+00:00,SAT-49735,93.11234572366587,49.99491013420889,693.6255749000788,3.507491776319898,-122847.19868222612,10.5,10499877152.801317,47.655,-122.3035,60.0,2.85
2026-02-06T22:02:35+00:00,SAT-49735,92.55986901573537,49.60629259189279,697.1236635749805,3.560249157960046,-124694.98535076718,10.5,10499875305.014648,47.655,-122.3035,60.0,2.8666666666666667
2026-02-06T22:02:36+00:00,SAT-49735,92.02167046790267,49.218630362699315,700.6743681962621,3.6122044679418983,-126514.68007707495,10.5,10499873485.319923,47.655,-122.3035,60.0,2.8833333333333333
2026-02-06T22:02:37+00:00,SAT-49735,91.49729850981805,48.83207567529344,704.2768888425098,3.6633624249204497,-128306.44812840731,10.5,10499871693.551872,47.655,-122.3035,60.0,2.9
2026-02-06T22:02:38+00:00,SAT-49735,90.98631502614893,48.4467711259896,707.9304302983129,3.713728211047508,-130070.47100564097,10.5,10499869929.528994,47.655,-122.3035,60.0,2.9166666666666665
2026-02-06T22:02:39+00:00,SAT-49735,90.4882952902509,48.06285009285698,711.634202516521,3.7633074166477747,-131806.94450559403,10.5,10499868193.055494,47.655,-122.3035,60.0,2.933333333333333
2026-02-06T22:02:40+00:00,SAT-49735,90.00282784676773,47.6804371429395,715.3874210253213,3.8121060859934373,-133516.08032424582,10.5,10499866483.919676,47.655,-122.3035,60.0,2.95
2026-02-06T22:02:41+00:00,SAT-49735,89.52951433942913,47.29964842158844,719.1893073809688,3.860130560573519,-135198.10056736632,10.5,10499864801.899433,47.655,-122.3035,60.0,2.966666666666667
2026-02-06T22:02:42+00:00,SAT-49735,89.0679693163971,46.92059204400891,723.0390894642074,3.9073875826023543,-136853.24137582112,10.5,10499863146.758625,47.655,-122.3035,60.0,2.9833333333333334
2026-02-06T22:02:43+00:00,SAT-49735,88.61781998826045,46.543368462234305,726.9360018799204,3.9538842159048944,-138481.75015463994,10.5,10499861518.249846,47.655,-122.3035,60.0,3.0
2026-02-06T22:02:44+00:00,SAT-49735,88.17870596713568,46.16807082601268,730.8792862778784,3.999627801648992,-140083.8840225741,10.5,10499859916.115978,47.655,-122.3035,60.0,3.0166666666666666
2026-02-06T22:02:45+00:00,SAT-49735,87.7502789873879,45.79478533363775,734.8681916293397,4.0446259385591254,-141659.9091190974,10.5,10499858340.090881,47.655,-122.3035,60.0,3.033333333333333
2026-02-06T22:02:46+00:00,SAT-49735,87.33220260941566,45.42359157027465,738.9019744839161,4.0888865281552125,-143210.10218886068,10.5,10499856789.897812,47.655,-122.3035,60.0,3.05
2026-02-06T22:02:47+00:00,SAT-49735,86.92415190486976,45.054562828064206,742.9798992715555,4.132417659905342,-144734.74655925497,10.5,10499855265.25344,47.655,-122.3035,60.0,3.066666666666667
2026-02-06T22:02:48+00:00,SAT-49735,86.52581314254046,44.68776642294986,747.1012384899885,4.175227600130216,-146234.1317517977,10.5,10499853765.868248,47.655,-122.3035,60.0,3.0833333333333335
2026-02-06T22:02:49+00:00,SAT-49735,86.13688346708199,44.32326399844073,751.2652728811038,4.2173248893303965,-147708.55689094475,10.5,10499852291.44311,47.655,-122.3035,60.0,3.1
2026-02-06T22:02:50+00:00,SAT-49735,85.75707056399152,43.96111180743538,755.4712917043969,4.2587181499506555,-149158.32397118505,10.5,10499850841.67603,47.655,-122.3035,60.0,3.1166666666666667
2026-02-06T22:02:51+00:00,SAT-49735,85.38609233936823,43.60136099778847,759.7185928186907,4.2994161788618745,-150583.74109614754,10.5,10499849416.258904,47.655,-122.3035,60.0,3.1333333333333333
2026-02-06T22:02:52+00:00,SAT-49735,85.0236765903087,43.24405787674391,764.0064828560961,4.339427895998953,-151985.1206796837,10.5,10499848014.87932,47.655,-122.3035,60.0,3.15
2026-02-06T22:02:53+00:00,SAT-49735,84.66956068071414,42.889244167309556,768.3342773447471,4.378762354573486,-153362.77980355863,10.5,10499846637.220196,47.655,-122.3035,60.0,3.1666666666666665
2026-02-06T22:02:54+00:00,SAT-49735,84.323491218807,42.536957251662564,772.7013008417172,4.417428670396785,-154717.03774204437,10.5,10499845282.962257,47.655,-122.3035,60.0,3.183333333333333
2026-02-06T22:02:55+00:00,SAT-49735,83.98522374357516,42.18723040854187,777.1068869954538,4.455436044984183,-156048.21677113013,10.5,10499843951.783228,47.655,-122.3035,60.0,3.2
2026-02-06T22:02:56+00:00,SAT-49735,83.65452241389974,41.84009303724223,781.5503786312514,4.4927937411554035,-157356.6413139444,10.5,10499842643.358686,47.655,-122.3035,60.0,3.216666666666667
2026-02-06T22:02:57+00:00,SAT-49735,83.33115970471465,41.49557087253694,786.0311278123925,4.529511095215446,-158642.63836738074,10.5,10499841357.361633,47.655,-122.3035,60.0,3.2333333333333334
2026-02-06T22:02:58+00:00,SAT-49735,83.01491610861495,41.15368618807305,790.5484959134344,4.565597438021573,-159906.53473753005,10.5,10499840093.465263,47.655,-122.3035,60.0,3.25
2026-02-06T22:02:59+00:00,SAT-49735,82.70557984915618,40.81445799553961,795.1018536147768,4.6010621668495295,-161148.6595567393,10.5,10499838851.340443,47.655,-122.3035,60.0,3.2666666666666666
2026-02-06T22:03:00+00:00,SAT-49735,82.40294659639457,40.47790222848511,799.6905809689033,4.63591462954916,-162369.3402262514,10.5,10499837630.659773,47.655,-122.3035,60.0,3.283333333333333
2026-02-06T22:03:01+00:00,SAT-49735,82.1068191970986,40.14403192525696,804.3140673510871,4.670164233772151,-163568.90624182273,10.5,10499836431.093758,47.655,-122.3035,60.0,3.3
