DopplerPredictor/satellites_20260211_210203/SAT-58668.csv

timestamp,satellite,azimuth_deg,elevation_deg,distance_km,relative_velocity_kms,doppler_shift_hz,tx_freq_ghz,rx_freq_hz,ue_lat,ue_lon,ue_alt_m,time_minutes
2026-02-06T22:05:11+00:00,SAT-58668,188.95398196273672,40.03795691807265,716.1340836348388,-0.9142660455726387,32021.464257492113,10.5,10500032021.464258,47.655,-122.3035,60.0,5.466666666666667
2026-02-06T22:05:12+00:00,SAT-58668,188.20586110509345,40.11021902996207,715.2222686103656,-0.8462727005777615,29640.049704207355,10.5,10500029640.049704,47.655,-122.3035,60.0,5.483333333333333
2026-02-06T22:05:13+00:00,SAT-58668,187.45435007481555,40.1773384262275,714.3782646501124,-0.7780371679299464,27250.15271486395,10.5,10500027250.152716,47.655,-122.3035,60.0,5.5
2026-02-06T22:05:14+00:00,SAT-58668,186.6996873900776,40.23924581544731,713.6023132924606,-0.7095779677777068,24852.421943403,10.5,10500024852.421944,47.655,-122.3035,60.0,5.516666666666667
2026-02-06T22:05:15+00:00,SAT-58668,185.94211795575413,40.295876757229436,712.8946376052927,-0.6409139351407993,22447.517071888422,10.5,10500022447.517073,47.655,-122.3035,60.0,5.533333333333333
2026-02-06T22:05:16+00:00,SAT-58668,185.181892639063,40.34717185718351,712.2554418719659,-0.5720641945527232,20036.107922380066,10.5,10500020036.107922,47.655,-122.3035,60.0,5.55
2026-02-06T22:05:17+00:00,SAT-58668,184.41926781631494,40.393076948783445,711.6849113025738,-0.5030481335761197,17618.873529330936,10.5,10500017618.87353,47.655,-122.3035,60.0,5.566666666666666
2026-02-06T22:05:18+00:00,SAT-58668,183.65450489410463,40.4335432609805,711.1832117716233,-0.4338853793940412,15196.501319714429,10.5,10500015196.50132,47.655,-122.3035,60.0,5.583333333333333
2026-02-06T22:05:19+00:00,SAT-58668,182.887869801876,40.46852757085007,710.7504895790554,-0.36459577518738856,12769.686285662261,10.5,10500012769.686285,47.655,-122.3035,60.0,5.6
2026-02-06T22:05:20+00:00,SAT-58668,182.11963245257712,40.497992340359474,710.386871234827,-0.2951993404475213,10339.129594444212,10.5,10500010339.129595,47.655,-122.3035,60.0,5.616666666666666
2026-02-06T22:05:21+00:00,SAT-58668,181.35006620445998,40.521905835143194,710.0924632830737,-0.22571625603751838,7905.53806525027,10.5,10500007905.538065,47.655,-122.3035,60.0,5.633333333333334
2026-02-06T22:05:22+00:00,SAT-58668,180.57944727922128,40.540242226570136,709.8673521411698,-0.15616682640934226,5469.622845875909,10.5,10500005469.622847,47.655,-122.3035,60.0,5.65
2026-02-06T22:05:23+00:00,SAT-58668,179.80805418158872,40.55298167462926,709.7116039764713,-0.08657145321719517,3032.0984885502,10.5,10500003032.098488,47.655,-122.3035,60.0,5.666666666666667
2026-02-06T22:05:24+00:00,SAT-58668,179.0361671028974,40.5601103920514,709.6252646093732,-0.0169506061667958,593.681928954183,10.5,10500000593.681929,47.655,-122.3035,60.0,5.683333333333334
2026-02-06T22:05:25+00:00,SAT-58668,178.26406730874467,40.561620689047764,709.6083594454425,0.05267520828803631,-1844.9086101571681,10.5,10499998155.09139,47.655,-122.3035,60.0,5.7
2026-02-06T22:05:26+00:00,SAT-58668,177.49203653342477,40.55751099820679,709.6608934387662,0.12228547611884708,-4282.954640733138,10.5,10499995717.045359,47.655,-122.3035,60.0,5.716666666666667
2026-02-06T22:05:27+00:00,SAT-58668,176.7203563573171,40.547785879575116,709.7828510843989,0.19185970603404562,-6719.738471064135,10.5,10499993280.261528,47.655,-122.3035,60.0,5.733333333333333
2026-02-06T22:05:28+00:00,SAT-58668,175.94930759741203,40.532456005791005,709.9741964410377,0.2613774593676896,-9154.544252613388,10.5,10499990845.455748,47.655,-122.3035,60.0,5.75
2026-02-06T22:05:29+00:00,SAT-58668,175.17916969518515,40.51153812740351,710.234873183507,0.33081838142686215,-11586.659077934684,10.5,10499988413.340921,47.655,-122.3035,60.0,5.766666666666667
2026-02-06T22:05:30+00:00,SAT-58668,174.4102201108281,40.48505501847238,710.5648046865062,0.4001622266723095,-14015.373862604807,10.5,10499985984.626137,47.655,-122.3035,60.0,5.783333333333333
2026-02-06T22:05:31+00:00,SAT-58668,173.6427337384259,40.4530354032781,710.9638941334713,0.46938889504726033,-16439.984617612474,10.5,10499983560.015383,47.655,-122.3035,60.0,5.8
2026-02-06T22:05:32+00:00,SAT-58668,172.87698231822114,40.41551386371024,711.4320246616664,0.5384784540618622,-18859.793222848697,10.5,10499981140.206778,47.655,-122.3035,60.0,5.816666666666666
2026-02-06T22:05:33+00:00,SAT-58668,172.1132338811092,40.372530729029904,711.9690595293031,0.6074111667108364,-21274.108404901173,10.5,10499978725.891596,47.655,-122.3035,60.0,5.833333333333333
2026-02-06T22:05:34+00:00,SAT-58668,171.35175220915679,40.32413194821624,712.5748423104985,0.6761675288986548,-23682.247047842266,10.5,10499976317.752953,47.655,-122.3035,60.0,5.85
2026-02-06T22:05:35+00:00,SAT-58668,170.5927963062512,40.27036894489894,713.2491971275637,0.7447282835369214,-26083.534686978935,10.5,10499973916.465313,47.655,-122.3035,60.0,5.866666666666666
2026-02-06T22:05:36+00:00,SAT-58668,169.83661991089323,40.21129845760594,713.9919288973447,0.8130744493324806,-28477.306517134086,10.5,10499971522.693483,47.655,-122.3035,60.0,5.883333333333334
2026-02-06T22:05:37+00:00,SAT-58668,169.08347102933382,40.14698236507287,714.802823606283,0.8811873554046795,-30862.908605089506,10.5,10499969137.091394,47.655,-122.3035,60.0,5.9
2026-02-06T22:05:38+00:00,SAT-58668,168.3335914890315,40.07748749717285,715.6816486199916,0.9490486537706759,-33239.69832687418,10.5,10499966760.301674,47.655,-122.3035,60.0,5.916666666666667
2026-02-06T22:05:39+00:00,SAT-58668,167.5872165343513,40.00288543428453,716.6281530052903,1.0166403470088587,-35607.04533665426,10.5,10499964392.954664,47.655,-122.3035,60.0,5.933333333333334
