DopplerPredictor/satellites_20260211_210309/SAT-55763.csv

timestamp,satellite,azimuth_deg,elevation_deg,distance_km,relative_velocity_kms,doppler_shift_hz,tx_freq_ghz,rx_freq_hz,ue_lat,ue_lon,ue_alt_m,time_minutes
2026-02-06T22:13:09+00:00,SAT-55763,229.01747135224414,40.24900414834158,850.3942514591021,-4.885825002486511,171122.25860634682,10.5,10500171122.258606,47.655,-122.3035,60.0,8.2
2026-02-06T22:13:10+00:00,SAT-55763,229.23462199789182,40.58789627687378,845.5215246792033,-4.854570468842627,170027.59263159175,10.5,10500170027.592632,47.655,-122.3035,60.0,8.216666666666667
2026-02-06T22:13:11+00:00,SAT-55763,229.45646596993518,40.9299240465377,840.679968643857,-4.82276775104544,168913.72692897136,10.5,10500168913.726929,47.655,-122.3035,60.0,8.233333333333333
2026-02-06T22:13:12+00:00,SAT-55763,229.6831530507774,41.27510162695582,835.8701300676101,-4.790407848664771,167780.346265349,10.5,10500167780.346266,47.655,-122.3035,60.0,8.25
2026-02-06T22:13:13+00:00,SAT-55763,229.91483915610397,41.623441689924135,831.0925646413115,-4.7574816771394906,166627.13246096624,10.5,10500166627.132462,47.655,-122.3035,60.0,8.266666666666667
2026-02-06T22:13:14+00:00,SAT-55763,230.1516866313812,41.974955291271996,826.3478371160161,-4.723980133080322,165453.7666766233,10.5,10500165453.766676,47.655,-122.3035,60.0,8.283333333333333
2026-02-06T22:13:15+00:00,SAT-55763,230.3938645669611,42.32965175028329,821.6365213217632,-4.689894098510048,164259.929562189,10.5,10500164259.929562,47.655,-122.3035,60.0,8.3
2026-02-06T22:13:16+00:00,SAT-55763,230.64154913000402,42.68753852207513,816.959200182126,-4.655214395989611,163045.29968492707,10.5,10500163045.299685,47.655,-122.3035,60.0,8.316666666666666
2026-02-06T22:13:17+00:00,SAT-55763,230.894923912012,43.048621058678755,812.3164657735123,-4.619931827176114,161809.5548799603,10.5,10500161809.55488,47.655,-122.3035,60.0,8.333333333333334
2026-02-06T22:13:18+00:00,SAT-55763,231.15418029648188,43.4129026645479,807.7089193460145,-4.584037259171897,160552.3752745805,10.5,10500160552.375275,47.655,-122.3035,60.0,8.35
2026-02-06T22:13:19+00:00,SAT-55763,231.41951785021118,43.780384350159615,803.1371712581372,-4.547521505310665,159273.4391128745,10.5,10500159273.439114,47.655,-122.3035,60.0,8.366666666666667
2026-02-06T22:13:20+00:00,SAT-55763,231.69114472956463,44.151064667071125,798.6018410304243,-4.510375398464378,157972.42532324136,10.5,10500157972.425323,47.655,-122.3035,60.0,8.383333333333333
2026-02-06T22:13:21+00:00,SAT-55763,231.96927811151178,44.524939538810905,794.1035573259715,-4.472589829156176,156649.01485326843,10.5,10500156649.014853,47.655,-122.3035,60.0,8.4
2026-02-06T22:13:22+00:00,SAT-55763,232.25414464957788,44.90200208466658,789.64295789293,-4.434155727507144,155302.8900374305,10.5,10500155302.890038,47.655,-122.3035,60.0,8.416666666666666
2026-02-06T22:13:23+00:00,SAT-55763,232.54598095247252,45.28224243124392,785.2206895250148,-4.39506405585276,153933.7343384869,10.5,10500153933.734339,47.655,-122.3035,60.0,8.433333333333334
2026-02-06T22:13:24+00:00,SAT-55763,232.84503408743342,45.665647511848455,780.8374080293771,-4.355305882536422,152541.23493204234,10.5,10500152541.234932,47.655,-122.3035,60.0,8.45
2026-02-06T22:13:25+00:00,SAT-55763,233.15156211350694,46.05220086014115,776.4937781208795,-4.314872318564282,151125.08048793196,10.5,10500151125.080488,47.655,-122.3035,60.0,8.466666666666667
2026-02-06T22:13:26+00:00,SAT-55763,233.46583463862004,46.4418823855662,772.1904733795488,-4.2737546076072945,149684.96432247336,10.5,10500149684.964323,47.655,-122.3035,60.0,8.483333333333333
2026-02-06T22:13:27+00:00,SAT-55763,233.78813341007975,46.83466814325735,767.9281761182666,-4.231944119894951,148220.58418459943,10.5,10500148220.584185,47.655,-122.3035,60.0,8.5
2026-02-06T22:13:28+00:00,SAT-55763,234.1187529350359,47.23053008947584,763.7075772565488,-4.189432317568927,146731.6410423965,10.5,10500146731.641043,47.655,-122.3035,60.0,8.516666666666667
2026-02-06T22:13:29+00:00,SAT-55763,234.45800112842133,47.629435818853224,759.5293762288816,-4.146210858338943,145217.84271357118,10.5,10500145217.842714,47.655,-122.3035,60.0,8.533333333333333
2026-02-06T22:13:30+00:00,SAT-55763,234.80620000032064,48.03134829558593,755.3942807896766,-4.10227153910455,143678.9018908467,10.5,10500143678.901892,47.655,-122.3035,60.0,8.55
2026-02-06T22:13:31+00:00,SAT-55763,235.16368637171786,48.43622556285362,751.3030068744549,-4.057606372820076,142114.53883409835,10.5,10500142114.538834,47.655,-122.3035,60.0,8.566666666666666
2026-02-06T22:13:32+00:00,SAT-55763,235.53081262961774,48.844020442209086,747.2562783843708,-4.012207572975867,140524.4808268212,10.5,10500140524.480827,47.655,-122.3035,60.0,8.583333333333334
2026-02-06T22:13:33+00:00,SAT-55763,235.90794751536333,49.25468021323134,743.2548269862133,-3.966067575526454,138908.46294414706,10.5,10500138908.462944,47.655,-122.3035,60.0,8.6
2026-02-06T22:13:34+00:00,SAT-55763,236.29547694936133,49.66814627598741,739.2993918905399,-3.919179088146574,137266.2297779987,10.5,10500137266.229778,47.655,-122.3035,60.0,8.616666666666667
2026-02-06T22:13:35+00:00,SAT-55763,236.69380489526716,50.084353798285484,735.3907195806819,-3.871535102830323,135597.53587836554,10.5,10500135597.53588,47.655,-122.3035,60.0,8.633333333333333
2026-02-06T22:13:36+00:00,SAT-55763,237.10335426045643,50.50323134306334,731.5295635291905,-3.8231288644972716,133902.14465375693,10.5,10500133902.144653,47.655,-122.3035,60.0,8.65
2026-02-06T22:13:37+00:00,SAT-55763,237.52456782842626,50.924700469855566,727.716683945587,-3.7739540080858975,132179.83317279423,10.5,10500132179.833172,47.655,-122.3035,60.0,8.666666666666666
2026-02-06T22:13:38+00:00,SAT-55763,237.95790923779512,51.34867532757233,723.9528473873914,-3.7240044835195056,130430.38953619979,10.5,10500130430.389536,47.655,-122.3035,60.0,8.683333333333334
2026-02-06T22:13:39+00:00,SAT-55763,238.40386398743675,51.77506221460345,720.2388264459796,-3.6732746050461134,128653.61460488838,10.5,10500128653.614605,47.655,-122.3035,60.0,8.7
2026-02-06T22:13:40+00:00,SAT-55763,238.8629404759993,52.20375911830732,716.5753993832376,-3.6217591166840646,126849.32429214974,10.5,10500126849.324291,47.655,-122.3035,60.0,8.716666666666667
2026-02-06T22:13:41+00:00,SAT-55763,239.33567107688665,52.63465523498633,712.9633497029429,-3.5694531761772827,125017.34900169326,10.5,10500125017.349,47.655,-122.3035,60.0,8.733333333333333
2026-02-06T22:13:42+00:00,SAT-55763,239.8226132346126,53.06763045984301,709.4034657381462,-3.5163524022214636,123157.53528170935,10.5,10500123157.535282,47.655,-122.3035,60.0,8.75
2026-02-06T22:13:43+00:00,SAT-55763,240.32435058582305,53.50255485298491,705.8965401914586,-3.462452882835597,121269.74611807535,10.5,10500121269.746119,47.655,-122.3035,60.0,8.766666666666667
2026-02-06T22:13:44+00:00,SAT-55763,240.84149409264364,53.939288075682576,702.4433696669836,-3.407751247911738,119353.86347535551,10.5,10500119353.863476,47.655,-122.3035,60.0,8.783333333333333
2026-02-06T22:13:45+00:00,SAT-55763,241.3746831897249,54.37767880382184,699.0447541298977,-3.352244634611087,117409.78708482525,10.5,10500117409.787085,47.655,-122.3035,60.0,8.8
2026-02-06T22:13:46+00:00,SAT-55763,241.92458692005366,54.817564104073284,695.701496400542,-3.2959307757603025,115437.43754048401,10.5,10500115437.43754,47.655,-122.3035,60.0,8.816666666666666
2026-02-06T22:13:47+00:00,SAT-55763,242.49190506424333,55.25876878734275,692.4144015603534,-3.238807981455724,113436.75565475732,10.5,10500113436.755655,47.655,-122.3035,60.0,8.833333333333334
2026-02-06T22:13:48+00:00,SAT-55763,243.07736923295369,55.70110472508308,689.1842763761404,-3.180875200698108,111407.70461720598,10.5,10500111407.704617,47.655,-122.3035,60.0,8.85
2026-02-06T22:13:49+00:00,SAT-55763,243.68174391578364,56.144370138204344,686.0119286628943,-3.1221320318188837,109350.27035969756,10.5,10500109350.270359,47.655,-122.3035,60.0,8.866666666666667
2026-02-06T22:13:50+00:00,SAT-55763,244.30582745738383,56.58834885151323,682.8981666361989,-3.0625787740356154,107264.46336209685,10.5,10500107264.463362,47.655,-122.3035,60.0,8.883333333333333
2026-02-06T22:13:51+00:00,SAT-55763,244.95045294086566,57.032809519288584,679.8437982132206,-3.002216395722702,105150.31754097153,10.5,10500105150.317541,47.655,-122.3035,60.0,8.9
2026-02-06T22:13:52+00:00,SAT-55763,245.61648893223324,57.47750481037309,676.8496303453489,-2.94104666821827,103007.89493607554,10.5,10500103007.894936,47.655,-122.3035,60.0,8.916666666666666
2026-02-06T22:13:53+00:00,SAT-55763,246.3048400801304,57.92217057764997,673.9164682173837,-2.879072083943109,100837.28284252784,10.5,10500100837.282843,47.655,-122.3035,60.0,8.933333333333334
2026-02-06T22:13:54+00:00,SAT-55763,247.01644748711246,58.366524982084776,671.0451145283859,-2.8162959423328853,98638.59682052207,10.5,10500098638.59682,47.655,-122.3035,60.0,8.95
2026-02-06T22:13:55+00:00,SAT-55763,247.7522888325596,58.81026759793463,668.2363686868254,-2.7527223599815707,96411.98105059231,10.5,10500096411.98105,47.655,-122.3035,60.0,8.966666666666667
2026-02-06T22:13:56+00:00,SAT-55763,248.51337817579702,59.25307849139265,665.4910259956154,-2.688356325946429,94157.61027062763,10.5,10500094157.610271,47.655,-122.3035,60.0,8.983333333333333
2026-02-06T22:13:57+00:00,SAT-55763,249.3007653811721,59.694617284204284,662.8098767819856,-2.6232036565236965,91875.68819192513,10.5,10500091875.688192,47.655,-122.3035,60.0,9.0
2026-02-06T22:13:58+00:00,SAT-55763,250.11553506278884,60.1345221918089,660.193705572463,-2.5572710776053404,89566.45038367201,10.5,10500089566.450384,47.655,-122.3035,60.0,9.016666666666667
2026-02-06T22:13:59+00:00,SAT-55763,250.9588049915561,60.5724090638946,657.6432901857133,-2.4905662405547053,87230.16482897781,10.5,10500087230.16483,47.655,-122.3035,60.0,9.033333333333333
2026-02-06T22:14:00+00:00,SAT-55763,251.8317238504824,61.007870426530296,655.1594008095514,-2.42309771252505,84867.13158578865,10.5,10500084867.131586,47.655,-122.3035,60.0,9.05
2026-02-06T22:14:01+00:00,SAT-55763,252.73546821660915,61.44047453300537,652.7427990876062,-2.3548750184487894,82477.68425752822,10.5,10500082477.684258,47.655,-122.3035,60.0,9.066666666666666
2026-02-06T22:14:02+00:00,SAT-55763,253.67123866145454,61.8697644466071,650.3942371641092,-2.285908629467498,80062.18958786725,10.5,10500080062.189589,47.655,-122.3035,60.0,9.083333333333334
2026-02-06T22:14:03+00:00,SAT-55763,254.64025481578355,62.29525716351141,648.1144567402218,-2.2162100266373788,77621.04969195882,10.5,10500077621.049692,47.655,-122.3035,60.0,9.1
2026-02-06T22:14:04+00:00,SAT-55763,255.643749278885,62.71644281068973,645.904188066829,-2.1457916602575793,75154.7006319438,10.5,10500075154.700632,47.655,-122.3035,60.0,9.116666666666667
2026-02-06T22:14:05+00:00,SAT-55763,256.6829601783466,63.13278392483763,643.7641489778933,-2.0746669709148113,72663.61315402245,10.5,10500072663.613153,47.655,-122.3035,60.0,9.133333333333333
2026-02-06T22:14:06+00:00,SAT-55763,257.759122235184,63.543714852862514,641.6950439028233,-2.002850430596553,70148.29412841269,10.5,10500070148.294128,47.655,-122.3035,60.0,9.15
2026-02-06T22:14:07+00:00,SAT-55763,258.873456182895,63.948641312685666,639.6975628378381,-1.9303574834176271,67609.28447334417,10.5,10500067609.284473,47.655,-122.3035,60.0,9.166666666666666
2026-02-06T22:14:08+00:00,SAT-55763,260.0271563263263,64.34694013402044,637.7723803764441,-1.8572046166582739,65047.161643112035,10.5,10500065047.161644,47.655,-122.3035,60.0,9.183333333333334
2026-02-06T22:14:09+00:00,SAT-55763,261.22137615308606,64.73795924988428,635.9201546690689,-1.7834093071704693,62462.53775099948,10.5,10500062462.53775,47.655,-122.3035,60.0,9.2
2026-02-06T22:14:10+00:00,SAT-55763,262.45721180052124,65.12101796415523,634.1415264361403,-1.708990016591767,59856.05940164631,10.5,10500059856.059402,47.655,-122.3035,60.0,9.216666666666667
2026-02-06T22:14:11+00:00,SAT-55763,263.7356832994926,65.49540755990881,632.4371179859426,-1.633966232940544,57228.40914789028,10.5,10500057228.409147,47.655,-122.3035,60.0,9.233333333333333
2026-02-06T22:14:12+00:00,SAT-55763,265.0577135765093,65.86039231906123,630.8075321909852,-1.5583584006908044,54580.303041691084,10.5,10500054580.303041,47.655,-122.3035,60.0,9.25
2026-02-06T22:14:13+00:00,SAT-55763,266.4241051547297,66.21521099286903,629.2533515341131,-1.482187917563155,51912.49052173663,10.5,10500051912.490522,47.655,-122.3035,60.0,9.266666666666667
2026-02-06T22:14:14+00:00,SAT-55763,267.8355146882694,66.55907880296718,627.775137157815,-1.4054771582260128,49225.755243559644,10.5,10500049225.755243,47.655,-122.3035,60.0,9.283333333333333
2026-02-06T22:14:15+00:00,SAT-55763,269.2924255656762,66.89119004546014,626.3734278898944,-1.3282493996077567,46520.91246365326,10.5,10500046520.912464,47.655,-122.3035,60.0,9.3
2026-02-06T22:14:16+00:00,SAT-55763,270.7951188315941,67.21072133837198,625.0487393436285,-1.250528816961581,43798.808901645556,10.5,10500043798.8089,47.655,-122.3035,60.0,9.316666666666666
2026-02-06T22:14:17+00:00,SAT-55763,272.3436429637243,67.51683558480133,623.8015630218524,-1.172340462491805,41060.32199170252,10.5,10500041060.321991,47.655,-122.3035,60.0,9.333333333333334
2026-02-06T22:14:18+00:00,SAT-55763,273.9377831419664,67.80868669368482,622.6323654423575,-1.0937102170601634,38306.35819107803,10.5,10500038306.35819,47.655,-122.3035,60.0,9.35
2026-02-06T22:14:19+00:00,SAT-55763,275.57703080269494,68.085425081447,621.5415873114573,-1.0146647632032728,35537.85203507142,10.5,10500035537.852036,47.655,-122.3035,60.0,9.366666666666667
2026-02-06T22:14:20+00:00,SAT-55763,277.26055450342744,68.34620396825184,620.5296427244604,-0.9352315569585818,32755.76515025308,10.5,10500032755.76515,47.655,-122.3035,60.0,9.383333333333333
2026-02-06T22:14:21+00:00,SAT-55763,278.98717326785436,68.59018645052609,619.596918394244,-0.8554387518078848,29961.083590644528,10.5,10500029961.083591,47.655,-122.3035,60.0,9.4
2026-02-06T22:14:22+00:00,SAT-55763,280.7553336450014,68.81655328676366,618.7437729556791,-0.77531519639516,27154.817757787554,10.5,10500027154.817759,47.655,-122.3035,60.0,9.416666666666666
2026-02-06T22:14:23+00:00,SAT-55763,282.56309198694294,69.02451132809205,617.9705362723321,-0.6948903532499051,24337.99955409153,10.5,10500024337.999554,47.655,-122.3035,60.0,9.433333333333334
2026-02-06T22:14:24+00:00,SAT-55763,284.40810324111794,69.21330244545037,617.2775088242244,-0.6141942682128897,21511.681311993987,10.5,10500021511.681313,47.655,-122.3035,60.0,9.45
2026-02-06T22:14:25+00:00,SAT-55763,286.2876176923117,69.38221279764018,616.6649611260859,-0.5332575047794978,18676.933494386732,10.5,10500018676.933495,47.655,-122.3035,60.0,9.466666666666667
2026-02-06T22:14:26+00:00,SAT-55763,288.1984867816461,69.5305822223829,616.1331332110869,-0.45211109343466327,15834.842920110965,10.5,10500015834.84292,47.655,-122.3035,60.0,9.483333333333333
2026-02-06T22:14:27+00:00,SAT-55763,290.1371789411802,69.65781351114128,615.6822341651025,-0.37078648138637776,12986.511003412123,10.5,10500012986.511003,47.655,-122.3035,60.0,9.5
2026-02-06T22:14:28+00:00,SAT-55763,292.0998060050411,69.76338129839324,615.3124417111043,-0.28931545597455777,10133.051071394386,10.5,10500010133.051071,47.655,-122.3035,60.0,9.516666666666667
2026-02-06T22:14:29+00:00,SAT-55763,294.0821601626315,69.84684027406544,615.0239018699417,-0.20773009758956454,7275.586715028127,10.5,10500007275.586716,47.655,-122.3035,60.0,9.533333333333333
2026-02-06T22:14:30+00:00,SAT-55763,296.07976108279865,69.90783244356538,614.8167286680771,-0.12606271651878334,4415.249577249956,10.5,10500004415.249577,47.655,-122.3035,60.0,9.55
2026-02-06T22:14:31+00:00,SAT-55763,298.08791213984296,69.94609316402294,614.6910039083045,-0.04434578068196506,1553.1768219487133,10.5,10500001553.176823,47.655,-122.3035,60.0,9.566666666666666
2026-02-06T22:14:32+00:00,SAT-55763,300.10176408969437,69.96145572079092,614.646777012541,0.03738814073263313,-1309.4908401353039,10.5,10499998690.50916,47.655,-122.3035,60.0,9.583333333333334
2026-02-06T22:14:33+00:00,SAT-55763,302.1163842216076,69.95385426517925,614.6840649208277,0.11910644377337837,-4171.6114807013355,10.5,10499995828.38852,47.655,-122.3035,60.0,9.6
2026-02-06T22:14:34+00:00,SAT-55763,304.1268285625553,69.92332498975803,614.8028520566619,0.20077655609495232,-7032.044278435448,10.5,10499992967.95572,47.655,-122.3035,60.0,9.616666666666667
2026-02-06T22:14:35+00:00,SAT-55763,306.12821444432535,69.87000549210693,615.0030903585172,0.2823660008076521,-9889.651755283143,10.5,10499990110.348246,47.655,-122.3035,60.0,9.633333333333333
2026-02-06T22:14:36+00:00,SAT-55763,308.11579088328705,69.79413235417282,615.2846993750431,0.36384245841553176,-12743.301945785051,10.5,10499987256.698053,47.655,-122.3035,60.0,9.65
2026-02-06T22:14:37+00:00,SAT-55763,310.08500418311564,69.69603703739253,615.6475664220378,0.44517383557510526,-15591.870805297594,10.5,10499984408.129194,47.655,-122.3035,60.0,9.666666666666666
2026-02-06T22:14:38+00:00,SAT-55763,312.0315566870925,69.57614025764708,616.0915468079938,0.5263283217909476,-18434.244195712723,10.5,10499981565.755804,47.655,-122.3035,60.0,9.683333333333334
2026-02-06T22:14:39+00:00,SAT-55763,313.9514568182235,69.4349450630337,616.6164641161874,0.607274454222989,-21269.32015528351,10.5,10499978730.679844,47.655,-122.3035,60.0,9.7
2026-02-06T22:14:40+00:00,SAT-55763,315.8410592894567,69.27302887097035,617.2221105514024,0.6879811760946893,-24096.010944325484,10.5,10499975903.989056,47.655,-122.3035,60.0,9.716666666666667
2026-02-06T22:14:41+00:00,SAT-55763,317.6970947859016,69.09103474690302,617.9082473449055,0.7684178943456148,-26913.245064453742,10.5,10499973086.754936,47.655,-122.3035,60.0,9.733333333333333
2026-02-06T22:14:42+00:00,SAT-55763,319.5166890325246,68.88966221047961,618.674605216918,0.8485545356608896,-29719.96922097133,10.5,10499970280.030779,47.655,-122.3035,60.0,9.75
2026-02-06T22:14:43+00:00,SAT-55763,321.29737164008696,68.66965784505858,619.5208848949693,0.9283615994998616,-32515.150180157456,10.5,10499967484.84982,47.655,-122.3035,60.0,9.766666666666667
2026-02-06T22:14:44+00:00,SAT-55763,323.0370755349417,68.43180596374083,620.4467576851346,1.0078102084149434,-35297.776531646115,10.5,10499964702.223469,47.655,-122.3035,60.0,9.783333333333333
2026-02-06T22:14:45+00:00,SAT-55763,324.7341280823005,68.17691955246538,621.4518660934585,1.0868721581694487,-38066.860443764774,10.5,10499961933.139557,47.655,-122.3035,60.0,9.8
2026-02-06T22:14:46+00:00,SAT-55763,326.3872352187796,67.90583167167543,622.5358244973605,1.1655199660374032,-40821.43935519797,10.5,10499959178.560644,47.655,-122.3035,60.0,9.816666666666666
2026-02-06T22:14:47+00:00,SAT-55763,327.9954599941858,67.61938745733659,623.6982198652108,1.2437268919304936,-43560.57671494252,10.5,10499956439.423285,47.655,-122.3035,60.0,9.833333333333334
2026-02-06T22:14:48+00:00,SAT-55763,329.558196895436,67.31843682748193,624.9386124969782,1.3214670183824568,-46283.364783699115,10.5,10499953716.635216,47.655,-122.3035,60.0,9.85
2026-02-06T22:14:49+00:00,SAT-55763,331.07514337803906,67.00382794122888,626.2565368446468,1.398715247100175,-48988.9245130771,10.5,10499951011.075487,47.655,-122.3035,60.0,9.866666666666667
2026-02-06T22:14:50+00:00,SAT-55763,332.5462696933069,66.67640145832063,627.6515023291922,1.4754473442506286,-51676.40713173512,10.5,10499948323.592869,47.655,-122.3035,60.0,9.883333333333333
2026-02-06T22:14:51+00:00,SAT-55763,333.97178814600267,66.33698558594405,629.1229942027246,1.5516399834785257,-54344.99565204045,10.5,10499945655.004349,47.655,-122.3035,60.0,9.9
2026-02-06T22:14:52+00:00,SAT-55763,335.3521226476167,65.98639188965622,630.6704744535336,1.627270758015907,-56993.90529419864,10.5,10499943006.094706,47.655,-122.3035,60.0,9.916666666666666
2026-02-06T22:14:53+00:00,SAT-55763,336.68787923249414,65.62541183421801,632.2933827232106,1.7023181948278079,-59622.38398169438,10.5,10499940377.616018,47.655,-122.3035,60.0,9.933333333333334
2026-02-06T22:14:54+00:00,SAT-55763,337.97981807659187,65.25481399981943,633.991137237878,1.7767617998898135,-62229.713927103,10.5,10499937770.286074,47.655,-122.3035,60.0,9.95
2026-02-06T22:14:55+00:00,SAT-55763,339.22882742068595,64.87534190557791,635.7631357845754,1.850582038404585,-64815.21093918962,10.5,10499935184.78906,47.655,-122.3035,60.0,9.966666666666667
2026-02-06T22:14:56+00:00,SAT-55763,340.43589958305137,64.48771238928362,637.6087566679154,1.9237603913123427,-67378.22640214517,10.5,10499932621.773598,47.655,-122.3035,60.0,9.983333333333333
