DopplerPredictor/satellites_20260211_210309/SAT-53027.csv

timestamp,satellite,azimuth_deg,elevation_deg,distance_km,relative_velocity_kms,doppler_shift_hz,tx_freq_ghz,rx_freq_hz,ue_lat,ue_lon,ue_alt_m,time_minutes
2026-02-06T22:04:57+00:00,SAT-53027,103.87441622956929,66.91528464257335,587.3343636724159,2.59431949697132,-90864.04274452715,10.5,10499909135.957256,47.655,-122.3035,60.0,0.0
2026-02-06T22:04:58+00:00,SAT-53027,104.30058523790296,66.27325392625256,589.921728156832,2.6658547930028385,-93369.51140555312,10.5,10499906630.488594,47.655,-122.3035,60.0,0.016666666666666666
2026-02-06T22:04:59+00:00,SAT-53027,104.70222339552546,65.63555210745922,592.5804361610227,2.7364290376737173,-95841.31998268625,10.5,10499904158.680017,47.655,-122.3035,60.0,0.03333333333333333
2026-02-06T22:05:00+00:00,SAT-53027,105.08136934004229,65.00236182785859,595.3095292100736,2.8060345277177805,-98279.1986749603,10.5,10499901720.801325,47.655,-122.3035,60.0,0.05
2026-02-06T22:05:01+00:00,SAT-53027,105.43984564254791,64.37384730044928,598.1080411464552,2.8746648758097937,-100682.9237712272,10.5,10499899317.07623,47.655,-122.3035,60.0,0.06666666666666667
2026-02-06T22:05:02+00:00,SAT-53027,105.77928620860901,63.75015596669624,600.9749994424369,2.94231494324172,-103052.31529219478,10.5,10499896947.684708,47.655,-122.3035,60.0,0.08333333333333333
2026-02-06T22:05:03+00:00,SAT-53027,106.10115968427283,63.13141994126585,603.909426445355,3.0089808252908172,-105387.23647795564,10.5,10499894612.763521,47.655,-122.3035,60.0,0.1
2026-02-06T22:05:04+00:00,SAT-53027,106.40678952241865,62.517757269888484,606.9103406082927,3.0746597815549075,-107687.59134803362,10.5,10499892312.408651,47.655,-122.3035,60.0,0.11666666666666667
2026-02-06T22:05:05+00:00,SAT-53027,106.69737123813438,61.909273042530685,609.9767576512764,3.1393502094318135,-109953.32377252147,10.5,10499890046.676228,47.655,-122.3035,60.0,0.13333333333333333
2026-02-06T22:05:06+00:00,SAT-53027,106.97398729768598,61.30606037707044,613.1076916960269,3.203051563999535,-112184.41466594572,10.5,10499887815.585335,47.655,-122.3035,60.0,0.15
2026-02-06T22:05:07+00:00,SAT-53027,107.23762000193231,60.708201304070066,616.3021563208046,3.2657643826542273,-114380.88285019292,10.5,10499885619.11715,47.655,-122.3035,60.0,0.16666666666666666
2026-02-06T22:05:08+00:00,SAT-53027,107.48916267477948,60.115767548923046,619.5591656398244,3.3274901432597166,-116542.78008630565,10.5,10499883457.219913,47.655,-122.3035,60.0,0.18333333333333332
2026-02-06T22:05:09+00:00,SAT-53027,107.72942939707337,59.52882125629589,622.8777352412037,3.3882312903961616,-118670.19199382159,10.5,10499881329.808006,47.655,-122.3035,60.0,0.2
2026-02-06T22:05:10+00:00,SAT-53027,107.95916350947911,58.94741563609208,626.2568831510861,3.4479911363739575,-120763.23458386186,10.5,10499879236.765415,47.655,-122.3035,60.0,0.21666666666666667
2026-02-06T22:05:11+00:00,SAT-53027,108.17904505259007,58.37159556319682,629.6956306990462,3.506773883352865,-122822.0550338364,10.5,10499877177.944965,47.655,-122.3035,60.0,0.23333333333333334
2026-02-06T22:05:12+00:00,SAT-53027,108.38969730097801,57.801398117459144,633.1930034055528,3.5645844534896214,-124846.82573849481,10.5,10499875153.174261,47.655,-122.3035,60.0,0.25
2026-02-06T22:05:13+00:00,SAT-53027,108.59169250614158,57.23685310229155,636.7480317000352,3.621428590717844,-126837.74787468923,10.5,10499873162.252125,47.655,-122.3035,60.0,0.26666666666666666
2026-02-06T22:05:14+00:00,SAT-53027,108.7855569699354,56.67798350219997,640.3597517404585,3.677312688908257,-128795.04538281845,10.5,10499871204.954617,47.655,-122.3035,60.0,0.2833333333333333
2026-02-06T22:05:15+00:00,SAT-53027,108.97177552393075,56.12480592849738,644.0272060615168,3.7322438293181306,-130718.9662784658,10.5,10499869281.033722,47.655,-122.3035,60.0,0.3
2026-02-06T22:05:16+00:00,SAT-53027,109.15079550328103,55.57733102314405,647.7494442601783,3.786229668442816,-132609.77872448534,10.5,10499867390.221275,47.655,-122.3035,60.0,0.31666666666666665
2026-02-06T22:05:17+00:00,SAT-53027,109.3230302730138,55.035563847213105,651.5255235693796,3.839278463141097,-134467.77191099824,10.5,10499865532.228088,47.655,-122.3035,60.0,0.3333333333333333
2026-02-06T22:05:18+00:00,SAT-53027,109.48886236963493,54.49950423602772,655.3545094567814,3.8913989606732233,-136293.25220405927,10.5,10499863706.747795,47.655,-122.3035,60.0,0.35
2026-02-06T22:05:19+00:00,SAT-53027,109.64864630055756,53.969147143129554,659.2354761138542,3.9426004290484746,-138086.54420855705,10.5,10499861913.455791,47.655,-122.3035,60.0,0.36666666666666664
2026-02-06T22:05:20+00:00,SAT-53027,109.8027110486434,53.44448295503216,663.1675069752313,3.99289252725151,-139847.9862229918,10.5,10499860152.013777,47.655,-122.3035,60.0,0.38333333333333336
2026-02-06T22:05:21+00:00,SAT-53027,109.9513623118152,52.92549780065521,667.1496951086364,4.042285373634889,-141577.9326348708,10.5,10499858422.067366,47.655,-122.3035,60.0,0.4
2026-02-06T22:05:22+00:00,SAT-53027,110.09488451589885,52.41217383013558,671.1811436730198,4.090789382541798,-143276.748198545,10.5,10499856723.2518,47.655,-122.3035,60.0,0.4166666666666667
2026-02-06T22:05:23+00:00,SAT-53027,110.23354261979537,51.90448949500651,675.2609662137561,4.13841538063463,-144944.81210952814,10.5,10499855055.187891,47.655,-122.3035,60.0,0.43333333333333335
2026-02-06T22:05:24+00:00,SAT-53027,110.36758374529431,51.402419794831765,679.3882870738566,4.185174389510074,-146582.51039075764,10.5,10499853417.489609,47.655,-122.3035,60.0,0.45
2026-02-06T22:05:25+00:00,SAT-53027,110.49723864202839,50.90593653344967,683.5622415883826,4.231077795625575,-148190.24184413784,10.5,10499851809.758156,47.655,-122.3035,60.0,0.4666666666666667
2026-02-06T22:05:26+00:00,SAT-53027,110.62272301623075,50.415008537888,687.7819764483268,4.276137139146346,-149768.41065506937,10.5,10499850231.589344,47.655,-122.3035,60.0,0.48333333333333334
2026-02-06T22:05:27+00:00,SAT-53027,110.74423872867426,49.92960188728193,692.0466498539098,4.320364178173288,-151317.4286419825,10.5,10499848682.571358,47.655,-122.3035,60.0,0.5
2026-02-06T22:05:28+00:00,SAT-53027,110.86197488254626,49.449680119133966,696.355431731932,4.3637708703291755,-152837.71461140743,10.5,10499847162.285389,47.655,-122.3035,60.0,0.5166666666666667
2026-02-06T22:05:29+00:00,SAT-53027,110.97610881130908,48.975204424165796,700.7075039347582,4.406369273216568,-154329.69087158947,10.5,10499845670.309128,47.655,-122.3035,60.0,0.5333333333333333
2026-02-06T22:05:30+00:00,SAT-53027,111.0868069749038,48.50613383910831,705.1020603400322,4.4481716150137345,-155793.7857050567,10.5,10499844206.214294,47.655,-122.3035,60.0,0.55
2026-02-06T22:05:31+00:00,SAT-53027,111.1942257777396,48.04242541934668,709.5383070207936,4.489190153410629,-157230.42842796136,10.5,10499842769.571571,47.655,-122.3035,60.0,0.5666666666666667
2026-02-06T22:05:32+00:00,SAT-53027,111.29851231198322,47.58403441486511,714.0154622749112,4.529437270264447,-158640.0527053175,10.5,10499841359.947294,47.655,-122.3035,60.0,0.5833333333333334
2026-02-06T22:05:33+00:00,SAT-53027,111.39980503840603,47.1309144249634,718.5327567489165,4.568925374716789,-160023.09315775477,10.5,10499839976.906843,47.655,-122.3035,60.0,0.6
2026-02-06T22:05:34+00:00,SAT-53027,111.49823440716528,46.683017552537386,723.089433465215,4.607666916692376,-161379.9858342999,10.5,10499838620.014166,47.655,-122.3035,60.0,0.6166666666666667
2026-02-06T22:05:35+00:00,SAT-53027,111.59392342671562,46.24029454685029,727.6847478627622,4.645674321067424,-162711.1659066752,10.5,10499837288.834093,47.655,-122.3035,60.0,0.6333333333333333
2026-02-06T22:05:36+00:00,SAT-53027,111.68698818425976,45.80269494309715,732.3179677720777,4.6829600696707825,-164017.070541325,10.5,10499835982.929459,47.655,-122.3035,60.0,0.65
2026-02-06T22:05:37+00:00,SAT-53027,111.77753832486061,45.370167185090324,736.9883734720502,4.719536565225112,-165298.13413406044,10.5,10499834701.865866,47.655,-122.3035,60.0,0.6666666666666666
2026-02-06T22:05:38+00:00,SAT-53027,111.86567748966212,44.94265875229802,741.6952576110398,4.75541619969432,-166554.79070387542,10.5,10499833445.209295,47.655,-122.3035,60.0,0.6833333333333333
2026-02-06T22:05:39+00:00,SAT-53027,111.95150372019076,44.52011627215786,746.4379251961504,4.790611295739938,-167787.4718425016,10.5,10499832212.528158,47.655,-122.3035,60.0,0.7
2026-02-06T22:05:40+00:00,SAT-53027,112.0351098299279,44.1024856300274,751.2156935241107,4.82513411942865,-168996.60715947972,10.5,10499831003.392841,47.655,-122.3035,60.0,0.7166666666666667
2026-02-06T22:05:41+00:00,SAT-53027,112.11658374701231,43.68971207058047,756.0278921248339,4.8589968742764755,-170182.62407356157,10.5,10499829817.375927,47.655,-122.3035,60.0,0.7333333333333333
2026-02-06T22:05:42+00:00,SAT-53027,112.19600883071693,43.28174029283762,760.873862699032,4.892211629907529,-171345.9453140381,10.5,10499828654.054686,47.655,-122.3035,60.0,0.75
2026-02-06T22:05:43+00:00,SAT-53027,112.27346416278233,42.87851454458367,765.752958984685,4.924790415032464,-172486.99217723776,10.5,10499827513.007822,47.655,-122.3035,60.0,0.7666666666666667
2026-02-06T22:05:44+00:00,SAT-53027,112.34902481816007,42.47997870266805,770.6645467162358,4.956745104163475,-173606.18055880672,10.5,10499826393.81944,47.655,-122.3035,60.0,0.7833333333333333
2026-02-06T22:05:45+00:00,SAT-53027,112.42276211424343,42.08607635682,775.6080034708059,4.988087475673587,-174703.9229871909,10.5,10499825296.077013,47.655,-122.3035,60.0,0.8
2026-02-06T22:05:46+00:00,SAT-53027,112.49474384259435,41.6967508829668,780.5827185723132,5.018829179761529,-175780.62750163,10.5,10499824219.372498,47.655,-122.3035,60.0,0.8166666666666667
2026-02-06T22:05:47+00:00,SAT-53027,112.5650344834396,41.311945513849494,785.5880929636422,5.048981730547522,-176836.69737531885,10.5,10499823163.302624,47.655,-122.3035,60.0,0.8333333333333334
2026-02-06T22:05:48+00:00,SAT-53027,112.63369540481814,40.93160340516879,790.6235390709297,5.078556522708451,-177872.53169804136,10.5,10499822127.468302,47.655,-122.3035,60.0,0.85
2026-02-06T22:05:49+00:00,SAT-53027,112.70078504770477,40.555667695717695,795.6884806844415,5.107564790137359,-178888.5239282513,10.5,10499821111.476072,47.655,-122.3035,60.0,0.8666666666666667
2026-02-06T22:05:50+00:00,SAT-53027,112.76635909785581,40.1840815661405,800.7823527982205,5.136017601612793,-179885.0617413942,10.5,10499820114.93826,47.655,-122.3035,60.0,0.8833333333333333
