DopplerPredictor/satellites_20260211_210309/SAT-60344.csv

timestamp,satellite,azimuth_deg,elevation_deg,distance_km,relative_velocity_kms,doppler_shift_hz,tx_freq_ghz,rx_freq_hz,ue_lat,ue_lon,ue_alt_m,time_minutes
2026-02-06T22:14:49+00:00,SAT-60344,279.83495987139787,40.35411976101961,709.9990679790092,-4.799802343773216,168109.38122272163,10.5,10500168109.381222,47.655,-122.3035,60.0,9.866666666666667
2026-02-06T22:14:50+00:00,SAT-60344,279.53436064225946,40.74153851969331,705.2121332429468,-4.761041029858975,166751.79604924962,10.5,10500166751.79605,47.655,-122.3035,60.0,9.883333333333333
2026-02-06T22:14:51+00:00,SAT-60344,279.22600010965397,41.132955756059324,700.4638559070653,-4.72148043090536,165366.2165327264,10.5,10500165366.216534,47.655,-122.3035,60.0,9.9
2026-02-06T22:14:52+00:00,SAT-60344,278.9095953781896,41.528373196725106,695.7550331136308,-4.681105514947388,163952.11619015306,10.5,10500163952.11619,47.655,-122.3035,60.0,9.916666666666666
2026-02-06T22:14:53+00:00,SAT-60344,278.5848507171239,41.92778842679106,691.0864769965763,-4.6399012439311,162508.96832526903,10.5,10500162508.968325,47.655,-122.3035,60.0,9.933333333333334
2026-02-06T22:14:54+00:00,SAT-60344,278.25145690129125,42.33119456298464,686.459014687574,-4.597852511793832,161036.24385986134,10.5,10500161036.24386,47.655,-122.3035,60.0,9.95
2026-02-06T22:14:55+00:00,SAT-60344,277.909090524202,42.73857989923789,681.8734883838606,-4.554944270230829,159533.41573864312,10.5,10500159533.41574,47.655,-122.3035,60.0,9.966666666666667
2026-02-06T22:14:56+00:00,SAT-60344,277.5574132697115,43.14992753958646,677.3307552906358,-4.511161455231566,157999.95635624512,10.5,10500157999.956356,47.655,-122.3035,60.0,9.983333333333333
