DopplerPredictor/satellites_20260211_210309/SAT-65198.csv

timestamp,satellite,azimuth_deg,elevation_deg,distance_km,relative_velocity_kms,doppler_shift_hz,tx_freq_ghz,rx_freq_hz,ue_lat,ue_lon,ue_alt_m,time_minutes
2026-02-06T22:04:57+00:00,SAT-65198,132.66615037159897,63.36481877845138,508.233336148526,0.8276109810818305,-28986.43734846465,10.5,10499971013.56265,47.655,-122.3035,60.0,0.0
2026-02-06T22:04:58+00:00,SAT-65198,130.89233378854084,63.16597234593405,509.0587284187777,0.9255456982167578,-32416.525405972545,10.5,10499967583.474594,47.655,-122.3035,60.0,0.016666666666666666
2026-02-06T22:04:59+00:00,SAT-65198,129.15003135214178,62.94566147995795,509.9817928567028,1.0229483559087311,-35827.978491178976,10.5,10499964172.02151,47.655,-122.3035,60.0,0.03333333333333333
2026-02-06T22:05:00+00:00,SAT-65198,127.44155706220388,62.70472697974017,511.0019988292364,1.1197674387708183,-39218.99231732371,10.5,10499960781.007683,47.655,-122.3035,60.0,0.05
2026-02-06T22:05:01+00:00,SAT-65198,125.76889544950835,62.44405694671751,512.1187643260315,1.2159530636170461,-42587.819764228305,10.5,10499957412.180235,47.655,-122.3035,60.0,0.06666666666666667
2026-02-06T22:05:02+00:00,SAT-65198,124.1337045614993,62.16457686625201,513.3314575872866,1.31145706113122,-45932.77373868361,10.5,10499954067.226261,47.655,-122.3035,60.0,0.08333333333333333
2026-02-06T22:05:03+00:00,SAT-65198,122.53732476736907,61.86724003602105,514.6393988130181,1.4062330879867482,-49252.23110136031,10.5,10499950747.768898,47.655,-122.3035,60.0,0.1
2026-02-06T22:05:04+00:00,SAT-65198,120.98079237089928,61.55301849452304,516.0418619841561,1.500236729540896,-52544.63626359609,10.5,10499947455.363737,47.655,-122.3035,60.0,0.11666666666666667
2026-02-06T22:05:05+00:00,SAT-65198,119.4648570519114,61.222894575727935,517.5380767860578,1.5934255648973974,-55808.503466163485,10.5,10499944191.496534,47.655,-122.3035,60.0,0.13333333333333333
2026-02-06T22:05:06+00:00,SAT-65198,117.99000219204636,60.8778531856887,519.1272305969084,1.6857592520431768,-59042.41976111806,10.5,10499940957.580238,47.655,-122.3035,60.0,0.15
2026-02-06T22:05:07+00:00,SAT-65198,116.55646713248967,60.518874850246185,520.8084705610315,1.7771995542473162,-62245.045936401846,10.5,10499937754.954063,47.655,-122.3035,60.0,0.16666666666666666
2026-02-06T22:05:08+00:00,SAT-65198,115.16427057557765,60.14692957019496,522.5809056885277,1.8677104377241882,-65415.1199364194,10.5,10499934584.880064,47.655,-122.3035,60.0,0.18333333333333332
2026-02-06T22:05:09+00:00,SAT-65198,113.81323433838253,59.76297146690952,524.4436090523122,1.9572580564601088,-68551.45633060302,10.5,10499931448.543669,47.655,-122.3035,60.0,0.2
2026-02-06T22:05:10+00:00,SAT-65198,112.50300693395286,59.36793421998226,526.3956199700245,2.0458107978626527,-71652.94791224487,10.5,10499928347.052088,47.655,-122.3035,60.0,0.21666666666666667
2026-02-06T22:05:11+00:00,SAT-65198,111.23308643217314,58.962727245340155,528.43594623146,2.133339313357902,-74718.56677014194,10.5,10499925281.43323,47.655,-122.3035,60.0,0.23333333333333334
2026-02-06T22:05:12+00:00,SAT-65198,110.00284223442206,58.54823256746288,530.5635663565196,2.219816483632209,-77747.36307121575,10.5,10499922252.636929,47.655,-122.3035,60.0,0.25
2026-02-06T22:05:13+00:00,SAT-65198,108.8115355218006,58.125302341017985,532.7774318184938,2.3052174344574046,-80738.4656147779,10.5,10499919261.534386,47.655,-122.3035,60.0,0.26666666666666666
2026-02-06T22:05:14+00:00,SAT-65198,107.65833815732307,57.694756949860086,535.0764692831295,2.3895195453269706,-83691.08213500552,10.5,10499916308.917866,47.655,-122.3035,60.0,0.2833333333333333
2026-02-06T22:05:15+00:00,SAT-65198,106.54234994504706,57.257383622010735,537.4595828563092,2.4727023667585244,-86604.49640452433,10.5,10499913395.503595,47.655,-122.3035,60.0,0.3
2026-02-06T22:05:16+00:00,SAT-65198,105.46261424306473,56.81393551489303,539.9256562492553,2.55474764201138,-89478.06899504953,10.5,10499910521.931005,47.655,-122.3035,60.0,0.31666666666666665
2026-02-06T22:05:17+00:00,SAT-65198,104.41813188899633,56.36513119078043,542.4735549653935,2.6356392287246524,-92311.23453282086,10.5,10499907688.765467,47.655,-122.3035,60.0,0.3333333333333333
2026-02-06T22:05:18+00:00,SAT-65198,103.4078735304203,55.9116544440179,545.1021284090642,2.7153631074790434,-95103.5019984724,10.5,10499904896.498001,47.655,-122.3035,60.0,0.35
2026-02-06T22:05:19+00:00,SAT-65198,102.43079040130954,55.45415441177506,547.8102120027723,2.7939072345435956,-97854.4495696011,10.5,10499902145.55043,47.655,-122.3035,60.0,0.36666666666666664
2026-02-06T22:05:20+00:00,SAT-65198,101.48582369705437,54.99324594700667,550.5966291575793,2.871261601073895,-100563.7266941382,10.5,10499899436.273306,47.655,-122.3035,60.0,0.38333333333333336
2026-02-06T22:05:21+00:00,SAT-65198,100.57191258229209,54.52951017495128,553.4601933025347,2.9474180733101125,-103231.04849340866,10.5,10499896768.951506,47.655,-122.3035,60.0,0.4
2026-02-06T22:05:22+00:00,SAT-65198,99.68800102192483,54.06349523165429,556.399709754734,3.0223703820187984,-105856.19539233833,10.5,10499894143.804607,47.655,-122.3035,60.0,0.4166666666666667
2026-02-06T22:05:23+00:00,SAT-65198,98.83304350032387,53.59571712534288,559.4139775788458,3.096114021590368,-108439.00958542082,10.5,10499891560.990414,47.655,-122.3035,60.0,0.43333333333333335
2026-02-06T22:05:24+00:00,SAT-65198,98.00600977130078,53.12666070583883,562.501791346008,3.168646203679984,-110979.39341302519,10.5,10499889020.606586,47.655,-122.3035,60.0,0.45
2026-02-06T22:05:25+00:00,SAT-65198,97.20588873267678,52.65678070766995,565.6619428464891,3.239965778088923,-113477.30659032687,10.5,10499886522.693409,47.655,-122.3035,60.0,0.4666666666666667
2026-02-06T22:05:26+00:00,SAT-65198,96.43169153851255,52.18650285019473,568.8932227234421,3.31007310199804,-115932.76162731025,10.5,10499884067.238373,47.655,-122.3035,60.0,0.48333333333333334
2026-02-06T22:05:27+00:00,SAT-65198,95.68245405539031,51.71622498325755,572.1944219762438,3.3789700547610946,-118345.82434689366,10.5,10499881654.175653,47.655,-122.3035,60.0,0.5
2026-02-06T22:05:28+00:00,SAT-65198,94.95723871797836,51.24631824147624,575.5643334785858,3.446659903137189,-120716.60916479921,10.5,10499879283.390835,47.655,-122.3035,60.0,0.5166666666666667
2026-02-06T22:05:29+00:00,SAT-65198,94.25513589909735,50.77712821618472,579.0017533621618,3.513147217701772,-123045.27616191268,10.5,10499876954.723839,47.655,-122.3035,60.0,0.5333333333333333
2026-02-06T22:05:30+00:00,SAT-65198,93.57526485357754,50.30897612626797,582.5054823169872,3.5784378003693504,-125332.02854582212,10.5,10499874667.971455,47.655,-122.3035,60.0,0.55
2026-02-06T22:05:31+00:00,SAT-65198,92.91677429770648,49.842159977565835,586.0743268194382,3.6425386322824758,-127577.11082566991,10.5,10499872422.889174,47.655,-122.3035,60.0,0.5666666666666667
2026-02-06T22:05:32+00:00,SAT-65198,92.27884267908532,49.37695570128367,589.7071003083178,3.7054577945896843,-129780.80603746105,10.5,10499870219.193962,47.655,-122.3035,60.0,0.5833333333333334
2026-02-06T22:05:33+00:00,SAT-65198,91.66067819268441,48.9136182696514,593.4026242819135,3.767204320663833,-131943.43056812405,10.5,10499868056.569431,47.655,-122.3035,60.0,0.6
2026-02-06T22:05:34+00:00,SAT-65198,91.06151859739698,48.45238279267517,597.1597292476675,3.8277882241841605,-134065.33513906374,10.5,10499865934.664862,47.655,-122.3035,60.0,0.6166666666666667
2026-02-06T22:05:35+00:00,SAT-65198,90.48063084279154,47.99346557055482,600.9772556998578,3.8872203823269245,-136146.90071500302,10.5,10499863853.099285,47.655,-122.3035,60.0,0.6333333333333333
2026-02-06T22:05:36+00:00,SAT-65198,89.91731056438928,47.537065118017495,604.8540549807759,3.9455124443722496,-138188.53530300828,10.5,10499861811.464697,47.655,-122.3035,60.0,0.65
2026-02-06T22:05:37+00:00,SAT-65198,89.37088147046362,47.08336315524527,608.7889900507655,4.002676772618871,-140190.6718830737,10.5,10499859809.328117,47.655,-122.3035,60.0,0.6666666666666666
2026-02-06T22:05:38+00:00,SAT-65198,88.84069464034478,46.63252556044929,612.7809361993264,4.058726420710088,-142153.76764900444,10.5,10499857846.232351,47.655,-122.3035,60.0,0.6833333333333333
2026-02-06T22:05:39+00:00,SAT-65198,88.32612775127741,46.18470327967902,616.8287817346068,4.113675027191327,-144078.30028035239,10.5,10499855921.69972,47.655,-122.3035,60.0,0.7
2026-02-06T22:05:40+00:00,SAT-65198,87.82658426303121,45.74003320360943,620.9314285667372,4.167536744330916,-145964.7654494184,10.5,10499854035.23455,47.655,-122.3035,60.0,0.7166666666666667
2026-02-06T22:05:41+00:00,SAT-65198,87.34149257006841,45.29863900719871,625.0877927201767,4.220326208348184,-147813.6757785145,10.5,10499852186.32422,47.655,-122.3035,60.0,0.7333333333333333
2026-02-06T22:05:42+00:00,SAT-65198,86.87030512902129,44.86063194842852,629.2968048163654,4.272058483789447,-149625.55889177567,10.5,10499850374.441109,47.655,-122.3035,60.0,0.75
2026-02-06T22:05:43+00:00,SAT-65198,86.41249757620962,44.426111629969405,633.5574105009038,4.32274901662796,-151400.95577252176,10.5,10499848599.044228,47.655,-122.3035,60.0,0.7666666666666667
2026-02-06T22:05:44+00:00,SAT-65198,85.96756784265234,43.995166723894485,637.8685708239575,4.3724135374779145,-153140.41737340204,10.5,10499846859.582626,47.655,-122.3035,60.0,0.7833333333333333
2026-02-06T22:05:45+00:00,SAT-65198,85.53503527887808,43.56787566548583,642.2292625241347,4.421068037230373,-154844.503763063,10.5,10499845155.496237,47.655,-122.3035,60.0,0.8
2026-02-06T22:05:46+00:00,SAT-65198,85.11443978760073,43.14430730985141,646.6384782880644,4.468728807391191,-156513.78553895274,10.5,10499843486.21446,47.655,-122.3035,60.0,0.8166666666666667
2026-02-06T22:05:47+00:00,SAT-65198,84.70534096440421,42.72452154699102,651.0952270502077,4.515412211238288,-158148.83581228057,10.5,10499841851.164188,47.655,-122.3035,60.0,0.8333333333333334
2026-02-06T22:05:48+00:00,SAT-65198,84.3073172740777,42.30856990231532,655.5985340644344,4.561134857817168,-159750.23630207623,10.5,10499840249.763699,47.655,-122.3035,60.0,0.85
2026-02-06T22:05:49+00:00,SAT-65198,83.91996522970177,41.89649608559261,660.1474411491344,4.605913383899392,-161318.56969845324,10.5,10499838681.430302,47.655,-122.3035,60.0,0.8666666666666667
2026-02-06T22:05:50+00:00,SAT-65198,83.54289861111268,41.48833652682228,664.7410067148677,4.649764547535672,-162854.42293923403,10.5,10499837145.57706,47.655,-122.3035,60.0,0.8833333333333333
2026-02-06T22:05:51+00:00,SAT-65198,83.17574769795964,41.0841208713978,669.3783058853189,4.692705112619341,-164358.38316687432,10.5,10499835641.616833,47.655,-122.3035,60.0,0.9
2026-02-06T22:05:52+00:00,SAT-65198,82.81815853571173,40.6838724551493,674.0584305031243,4.734751863253472,-165831.03823166044,10.5,10499834168.96177,47.655,-122.3035,60.0,0.9166666666666666
2026-02-06T22:05:53+00:00,SAT-65198,82.46979222518772,40.28760874893493,678.7804891500283,4.7759215704950115,-167272.9755269481,10.5,10499832727.024473,47.655,-122.3035,60.0,0.9333333333333333
