DopplerPredictor/satellites_20260211_210309/SAT-52702.csv

timestamp,satellite,azimuth_deg,elevation_deg,distance_km,relative_velocity_kms,doppler_shift_hz,tx_freq_ghz,rx_freq_hz,ue_lat,ue_lon,ue_alt_m,time_minutes
2026-02-06T22:04:57+00:00,SAT-52702,50.28773575342538,42.50007415527768,772.4310793303308,4.832323979324609,-169248.4264661134,10.5,10499830751.573534,47.655,-122.3035,60.0,0.0
2026-02-06T22:04:58+00:00,SAT-52702,50.46826941911833,42.11784165338947,777.2504485159275,4.865024968594412,-170393.75343538937,10.5,10499829606.246565,47.655,-122.3035,60.0,0.016666666666666666
2026-02-06T22:04:59+00:00,SAT-52702,50.64452231652635,41.73968720067461,782.1024310239545,4.897115490299477,-171517.69924827298,10.5,10499828482.300753,47.655,-122.3035,60.0,0.03333333333333333
2026-02-06T22:05:00+00:00,SAT-52702,50.81664500775903,41.36557542802919,786.9864180234264,4.9286065826415575,-172620.6505092812,10.5,10499827379.349491,47.655,-122.3035,60.0,0.05
2026-02-06T22:05:01+00:00,SAT-52702,50.984781219541944,40.99546991205779,791.9018116919675,4.95950919262822,-173702.99062892472,10.5,10499826297.00937,47.655,-122.3035,60.0,0.06666666666666667
2026-02-06T22:05:02+00:00,SAT-52702,51.149068218777884,40.62933328474157,796.8480251248627,4.989834194007651,-174765.10045186104,10.5,10499825234.899548,47.655,-122.3035,60.0,0.08333333333333333
2026-02-06T22:05:03+00:00,SAT-52702,51.309637164977815,40.26712733449788,801.8244822619934,5.0195922831332975,-175807.3546096334,10.5,10499824192.64539,47.655,-122.3035,60.0,0.1
