DopplerPredictor/satellites_20260211_210309/SAT-55755.csv

timestamp,satellite,azimuth_deg,elevation_deg,distance_km,relative_velocity_kms,doppler_shift_hz,tx_freq_ghz,rx_freq_hz,ue_lat,ue_lon,ue_alt_m,time_minutes
2026-02-06T22:08:42+00:00,SAT-55755,221.24868259400657,40.04810203388233,852.5417720939206,-5.0731508760240605,177683.2030852912,10.5,10500177683.203085,47.655,-122.3035,60.0,3.75
2026-02-06T22:08:43+00:00,SAT-55755,221.3879757098155,40.39707188368377,847.4822216353007,-5.044098976671719,176665.68268055978,10.5,10500176665.68268,47.655,-122.3035,60.0,3.7666666666666666
2026-02-06T22:08:44+00:00,SAT-55755,221.53034845174918,40.74968218384404,842.4516451918996,-5.014518180060161,175629.63805657745,10.5,10500175629.638056,47.655,-122.3035,60.0,3.783333333333333
2026-02-06T22:08:45+00:00,SAT-55755,221.67590486168191,41.10596898678656,837.4505702430768,-4.984398936257769,174574.7347343427,10.5,10500174574.734734,47.655,-122.3035,60.0,3.8
2026-02-06T22:08:46+00:00,SAT-55755,221.82475364235896,41.46596778949772,832.4795337925203,-4.9537316354584044,173500.6361377952,10.5,10500173500.636137,47.655,-122.3035,60.0,3.816666666666667
2026-02-06T22:08:47+00:00,SAT-55755,221.97700841723855,41.82971346177303,827.5390824279614,-4.922506561744347,172407.00197439804,10.5,10500172407.001974,47.655,-122.3035,60.0,3.8333333333333335
2026-02-06T22:08:48+00:00,SAT-55755,222.1327880061992,42.197240166080896,822.6297724270032,-4.890713899441829,171293.48845773566,10.5,10500171293.488459,47.655,-122.3035,60.0,3.85
2026-02-06T22:08:49+00:00,SAT-55755,222.2922167196137,42.568581272324124,817.7521698566073,-4.858343794142101,170159.75044472952,10.5,10500170159.750444,47.655,-122.3035,60.0,3.8666666666666667
2026-02-06T22:08:50+00:00,SAT-55755,222.45542467371843,42.94376927143264,812.9068506117261,-4.825386297304578,169005.43949540608,10.5,10500169005.439495,47.655,-122.3035,60.0,3.8833333333333333
2026-02-06T22:08:51+00:00,SAT-55755,222.62254812550333,43.32283567871329,808.0944005091814,-4.791831397886541,167830.2049807026,10.5,10500167830.20498,47.655,-122.3035,60.0,3.9
2026-02-06T22:08:52+00:00,SAT-55755,222.79372983152254,43.70581093304171,803.3154153499996,-4.757669028303026,166633.69429120785,10.5,10500166633.694292,47.655,-122.3035,60.0,3.9166666666666665
2026-02-06T22:08:53+00:00,SAT-55755,222.96911943107943,44.09272428962026,798.5705009758033,-4.722889092676471,165415.5538265841,10.5,10500165415.553827,47.655,-122.3035,60.0,3.933333333333333
2026-02-06T22:08:54+00:00,SAT-55755,223.14887385702016,44.48360370773005,793.8602732970255,-4.687481460572029,164175.42877615124,10.5,10500164175.428776,47.655,-122.3035,60.0,3.95
2026-02-06T22:08:55+00:00,SAT-55755,223.3331577748213,44.87847573030678,789.1853583273769,-4.6514359523368105,162912.9626054052,10.5,10500162912.962605,47.655,-122.3035,60.0,3.966666666666667
2026-02-06T22:08:56+00:00,SAT-55755,223.52214405231152,45.2773653539928,784.5463922329303,-4.614742404679936,161627.79935290877,10.5,10500161627.799353,47.655,-122.3035,60.0,3.9833333333333334
2026-02-06T22:08:57+00:00,SAT-55755,223.71601426450172,45.68029589596348,779.9440213158027,-4.577390643300584,160319.58267160988,10.5,10500160319.582672,47.655,-122.3035,60.0,4.0
2026-02-06T22:08:58+00:00,SAT-55755,223.91495923431168,46.08728884926046,775.3789020251369,-4.5393704790867515,158987.9556957063,10.5,10500158987.955696,47.655,-122.3035,60.0,4.016666666666667
2026-02-06T22:08:59+00:00,SAT-55755,224.11917961157982,46.498363727781104,770.8517009718717,-4.500671798887508,157632.56421987386,10.5,10500157632.56422,47.655,-122.3035,60.0,4.033333333333333
2026-02-06T22:09:00+00:00,SAT-55755,224.32888649804846,46.913537908932675,766.3630948529843,-4.46128448548667,156253.053896406,10.5,10500156253.053896,47.655,-122.3035,60.0,4.05
2026-02-06T22:09:01+00:00,SAT-55755,224.5443021153483,47.33282645801225,761.913770455546,-4.421198492623921,154849.07286277084,10.5,10500154849.072863,47.655,-122.3035,60.0,4.066666666666666
2026-02-06T22:09:02+00:00,SAT-55755,224.76566052534127,47.756241947478244,757.5044245859556,-4.380403852103277,153420.27199057958,10.5,10500153420.27199,47.655,-122.3035,60.0,4.083333333333333
2026-02-06T22:09:03+00:00,SAT-55755,224.99320840504637,48.18379426438617,753.135763992084,-4.338890672875885,151966.3048534623,10.5,10500151966.304853,47.655,-122.3035,60.0,4.1
2026-02-06T22:09:04+00:00,SAT-55755,225.22720587984287,48.61549040430144,748.8085052863352,-4.2966491803941365,150486.8291054154,10.5,10500150486.829105,47.655,-122.3035,60.0,4.116666666666666
2026-02-06T22:09:05+00:00,SAT-55755,225.46792742241666,49.05133425466835,744.5233748294562,-4.253669696255187,148981.50576783175,10.5,10500148981.505768,47.655,-122.3035,60.0,4.133333333333334
2026-02-06T22:09:06+00:00,SAT-55755,225.71566281947258,49.49132636078614,740.2811086346503,-4.209942738244144,147450.00273343603,10.5,10500147450.002733,47.655,-122.3035,60.0,4.15
2026-02-06T22:09:07+00:00,SAT-55755,225.97071821878708,49.93546368559904,736.0824521719153,-4.16545893212261,145891.9916767466,10.5,10500145891.991676,47.655,-122.3035,60.0,4.166666666666667
2026-02-06T22:09:08+00:00,SAT-55755,226.2334172533963,50.38373934292969,731.9281602603563,-4.120209134615334,144307.15236158812,10.5,10500144307.15236,47.655,-122.3035,60.0,4.183333333333334
2026-02-06T22:09:09+00:00,SAT-55755,226.50410226142026,50.83614232472005,727.8189968378421,-4.0741844170029635,142695.17206644043,10.5,10500142695.172066,47.655,-122.3035,60.0,4.2
2026-02-06T22:09:10+00:00,SAT-55755,226.78313560174539,51.29265720674478,723.7557347470238,-4.02737604170036,141055.74476411202,10.5,10500141055.744764,47.655,-122.3035,60.0,4.216666666666667
2026-02-06T22:09:11+00:00,SAT-55755,227.07090107433177,51.75326382993862,719.7391555447132,-3.9797755536736434,139388.57432355173,10.5,10500139388.574324,47.655,-122.3035,60.0,4.233333333333333
2026-02-06T22:09:12+00:00,SAT-55755,227.36780546003692,52.21793696851761,715.7700492200898,-3.9313748062614464,137693.37541421803,10.5,10500137693.375414,47.655,-122.3035,60.0,4.25
2026-02-06T22:09:13+00:00,SAT-55755,227.67428018829844,52.68664597635734,711.8492138871545,-3.882165921013475,135969.87209945582,10.5,10500135969.872099,47.655,-122.3035,60.0,4.266666666666667
2026-02-06T22:09:14+00:00,SAT-55755,227.99078313833093,53.15935440162762,707.9774555172362,-3.8321414167567345,134217.8023569416,10.5,10500134217.802357,47.655,-122.3035,60.0,4.283333333333333
2026-02-06T22:09:15+00:00,SAT-55755,228.31780059810092,53.63601958765337,704.1555875427825,-3.7812941138177028,132436.91472413854,10.5,10500132436.914724,47.655,-122.3035,60.0,4.3
2026-02-06T22:09:16+00:00,SAT-55755,228.65584937893001,54.11659223065177,700.3844305566654,-3.729617284051601,130626.97355295646,10.5,10500130626.973553,47.655,-122.3035,60.0,4.316666666666666
2026-02-06T22:09:17+00:00,SAT-55755,229.00547911775695,54.60101592169478,696.664811861865,-3.67710459774016,128787.75714988694,10.5,10500128787.75715,47.655,-122.3035,60.0,4.333333333333333
2026-02-06T22:09:18+00:00,SAT-55755,229.36727476852317,55.08922664510283,692.9975650741112,-3.623750191927231,126919.06016940533,10.5,10500126919.06017,47.655,-122.3035,60.0,4.35
2026-02-06T22:09:19+00:00,SAT-55755,229.74185930852337,55.581152245126326,689.3835296563708,-3.569548716365796,125020.6952232296,10.5,10500125020.695223,47.655,-122.3035,60.0,4.366666666666666
2026-02-06T22:09:20+00:00,SAT-55755,230.12989667778615,56.076711854978825,685.823550407516,-3.51449530389091,123092.4918426552,10.5,10500123092.491842,47.655,-122.3035,60.0,4.383333333333334
2026-02-06T22:09:21+00:00,SAT-55755,230.53209496404693,56.57581527379798,682.3184769805346,-3.458585678513347,121134.30026445209,10.5,10500121134.300264,47.655,-122.3035,60.0,4.4
2026-02-06T22:09:22+00:00,SAT-55755,230.94920986767698,57.07836230598322,678.8691632929405,-3.401816138699552,119145.99084525768,10.5,10500119145.990845,47.655,-122.3035,60.0,4.416666666666667
2026-02-06T22:09:23+00:00,SAT-55755,231.38204845826837,57.5842420409867,675.4764669538583,-3.3441836127832203,117127.45600232482,10.5,10500117127.456003,47.655,-122.3035,60.0,4.433333333333334
2026-02-06T22:09:24+00:00,SAT-55755,231.83147325397456,58.09333207804207,672.1412486358433,-3.2856856730691617,115078.61070749884,10.5,10500115078.610708,47.655,-122.3035,60.0,4.45
2026-02-06T22:09:25+00:00,SAT-55755,232.29840664466136,58.60549768377155,668.8643714326391,-3.226320615485439,112999.39527697227,10.5,10500112999.395277,47.655,-122.3035,60.0,4.466666666666667
2026-02-06T22:09:26+00:00,SAT-55755,232.7838356938954,59.1205908859313,665.6467001374916,-3.166087422977061,110889.77408917718,10.5,10500110889.77409,47.655,-122.3035,60.0,4.483333333333333
2026-02-06T22:09:27+00:00,SAT-55755,233.2888173320965,59.63844947773848,662.4891005579757,-3.104985864904494,108749.73906614151,10.5,10500108749.739067,47.655,-122.3035,60.0,4.5
2026-02-06T22:09:28+00:00,SAT-55755,233.81448398568327,60.15889594543923,659.3924387316868,-3.0430165156321842,106579.3103245377,10.5,10500106579.310324,47.655,-122.3035,60.0,4.516666666666667
2026-02-06T22:09:29+00:00,SAT-55755,234.36204965902397,60.68173629752689,656.3575801233968,-2.9801807376959313,104378.53558613299,10.5,10500104378.535585,47.655,-122.3035,60.0,4.533333333333333
2026-02-06T22:09:30+00:00,SAT-55755,234.9328164875087,61.20675877844266,653.3853888389937,-2.916480792348953,102147.49404958016,10.5,10500102147.49405,47.655,-122.3035,60.0,4.55
2026-02-06T22:09:31+00:00,SAT-55755,235.52818180339315,61.73373247696742,650.4767267291749,-2.8519198185234873,99886.29565356384,10.5,10500099886.295654,47.655,-122.3035,60.0,4.566666666666666
2026-02-06T22:09:32+00:00,SAT-55755,236.14964571056268,62.26240579424668,647.6324525141199,-2.786501884704791,97595.0828936474,10.5,10500097595.082893,47.655,-122.3035,60.0,4.583333333333333
2026-02-06T22:09:33+00:00,SAT-55755,236.79881918877112,62.79250476983682,644.8534208564307,-2.7202320029304246,95274.03131258712,10.5,10500095274.031313,47.655,-122.3035,60.0,4.6
2026-02-06T22:09:34+00:00,SAT-55755,237.47743271746052,63.32373124359877,642.1404814201081,-2.6531161903290696,92923.35165568185,10.5,10500092923.351656,47.655,-122.3035,60.0,4.616666666666666
2026-02-06T22:09:35+00:00,SAT-55755,238.1873454122579,63.85576084597551,639.4944778681552,-2.585161460797914,90543.28957927987,10.5,10500090543.28958,47.655,-122.3035,60.0,4.633333333333334
2026-02-06T22:09:36+00:00,SAT-55755,238.9305546189462,64.3882407854594,636.9162468684816,-2.5163758652625567,88134.12706085102,10.5,10500088134.12706,47.655,-122.3035,60.0,4.65
2026-02-06T22:09:37+00:00,SAT-55755,239.7092059068934,64.92078742350601,634.4066170596539,-2.446768511660586,85696.18309889622,10.5,10500085696.1831,47.655,-122.3035,60.0,4.666666666666667
2026-02-06T22:09:38+00:00,SAT-55755,240.52560334997978,65.45298361337838,631.9664079967191,-2.3763496093591026,83229.81526863686,10.5,10500083229.81527,47.655,-122.3035,60.0,4.683333333333334
2026-02-06T22:09:39+00:00,SAT-55755,241.3822199457603,65.98437578842264,629.5964290527264,-2.305130445846484,80735.41890566201,10.5,10500080735.418905,47.655,-122.3035,60.0,4.7
2026-02-06T22:09:40+00:00,SAT-55755,242.2817079281265,66.5144707656116,627.2974783434972,-2.233123445727814,78213.42917219769,10.5,10500078213.429173,47.655,-122.3035,60.0,4.716666666666667
2026-02-06T22:09:41+00:00,SAT-55755,243.2269086905045,67.04273226425121,625.0703415935565,-2.160342151747694,75664.32039244559,10.5,10500075664.320393,47.655,-122.3035,60.0,4.733333333333333
2026-02-06T22:09:42+00:00,SAT-55755,244.22086187759453,67.56857710765202,622.9157910209904,-2.086801258021089,73088.60721646785,10.5,10500073088.607216,47.655,-122.3035,60.0,4.75
2026-02-06T22:09:43+00:00,SAT-55755,245.26681311038303,68.09137110960765,620.8345841891635,-2.012516606237683,70486.84448724746,10.5,10500070486.844488,47.655,-122.3035,60.0,4.766666666666667
2026-02-06T22:09:44+00:00,SAT-55755,246.36821960748824,68.61042463515399,618.8274628622198,-1.9375052047126269,67859.62790792616,10.5,10500067859.627909,47.655,-122.3035,60.0,4.783333333333333
2026-02-06T22:09:45+00:00,SAT-55755,247.52875278060955,69.12498785085181,616.8951518415854,-1.8617851906945468,65207.59272167128,10.5,10500065207.592722,47.655,-122.3035,60.0,4.8
2026-02-06T22:09:46+00:00,SAT-55755,248.75229658978523,69.63424567603356,615.0383578400607,-1.7853758956362076,62531.415997730604,10.5,10500062531.415998,47.655,-122.3035,60.0,4.816666666666666
2026-02-06T22:09:47+00:00,SAT-55755,250.04294022717846,70.13731251154537,613.2577682908188,-1.7082977725137485,59831.81408584455,10.5,10500059831.814085,47.655,-122.3035,60.0,4.833333333333333
2026-02-06T22:09:48+00:00,SAT-55755,251.40496322324927,70.63322678972352,611.5540502288882,-1.6305724048667725,57109.54293286828,10.5,10500057109.542933,47.655,-122.3035,60.0,4.85
2026-02-06T22:09:49+00:00,SAT-55755,252.8428107917355,71.12094548790247,609.9278491636198,-1.5522225321371652,54365.39897024439,10.5,10500054365.39897,47.655,-122.3035,60.0,4.866666666666666
2026-02-06T22:09:50+00:00,SAT-55755,254.36105680323698,71.5993387860243,608.3797879258847,-1.4732719667142886,51600.21620857463,10.5,10500051600.21621,47.655,-122.3035,60.0,4.883333333333334
2026-02-06T22:09:51+00:00,SAT-55755,255.96435125552318,72.06718507700208,606.9104655980017,-1.3937456244500204,48814.86730638572,10.5,10500048814.867306,47.655,-122.3035,60.0,4.9
2026-02-06T22:09:52+00:00,SAT-55755,257.65734892977565,72.52316668599298,605.5204564132338,-1.3136694592338447,46010.261278672224,10.5,10500046010.261278,47.655,-122.3035,60.0,4.916666666666667
2026-02-06T22:09:53+00:00,SAT-55755,259.44461552307564,72.96586668868464,604.2103087205339,-1.2330704706466418,43187.34376496469,10.5,10500043187.343765,47.655,-122.3035,60.0,4.933333333333334
2026-02-06T22:09:54+00:00,SAT-55755,261.3305077262754,73.39376738100331,602.9805439416554,-1.15197663180301,40347.0945020625,10.5,10500040347.094501,47.655,-122.3035,60.0,4.95
2026-02-06T22:09:55+00:00,SAT-55755,263.31902396276024,73.80525102111694,601.8316556002294,-1.0704168694543341,37490.526627159205,10.5,10500037490.526627,47.655,-122.3035,60.0,4.966666666666667
2026-02-06T22:09:56+00:00,SAT-55755,265.41362363971814,74.19860362334316,600.7641083706845,-0.9884210233990526,34618.68525621833,10.5,10500034618.685257,47.655,-122.3035,60.0,4.983333333333333
2026-02-06T22:09:57+00:00,SAT-55755,267.61701446639023,74.57202265733137,599.7783371676471,-0.9060197859917989,31732.645365327666,10.5,10500031732.645365,47.655,-122.3035,60.0,5.0
2026-02-06T22:09:58+00:00,SAT-55755,269.9309101355051,74.92362955996242,598.8747462956707,-0.823244661374392,28833.510362796107,10.5,10500028833.510363,47.655,-122.3035,60.0,5.016666666666667
2026-02-06T22:09:59+00:00,SAT-55755,272.35576460880606,75.25148796314254,598.0537086396258,-0.7401279096520894,25922.41013396988,10.5,10500025922.410133,47.655,-122.3035,60.0,5.033333333333333
2026-02-06T22:10:00+00:00,SAT-55755,274.89049415786627,75.55362839873105,597.3155649107617,-0.6567024804391498,23000.49871371705,10.5,10500023000.498714,47.655,-122.3035,60.0,5.05
2026-02-06T22:10:01+00:00,SAT-55755,277.53220406601815,75.82807996422899,596.6606229590478,-0.5730019653578194,20068.95262274111,10.5,10500020068.952623,47.655,-122.3035,60.0,5.066666666666666
2026-02-06T22:10:02+00:00,SAT-55755,280.27594289890015,76.07290898876943,596.0891571328847,-0.4890605172631519,17128.968038492465,10.5,10500017128.968039,47.655,-122.3035,60.0,5.083333333333333
2026-02-06T22:10:03+00:00,SAT-55755,283.1145120713392,76.28626407580471,595.6014077193781,-0.4049127961741427,14181.758901448076,10.5,10500014181.758902,47.655,-122.3035,60.0,5.1
2026-02-06T22:10:04+00:00,SAT-55755,286.03836125698496,76.46642612604417,595.1975804385324,-0.32059389453111853,11228.554297309054,10.5,10500011228.554296,47.655,-122.3035,60.0,5.116666666666666
2026-02-06T22:10:05+00:00,SAT-55755,289.03559874531015,76.61186105025993,594.8778460119908,-0.23613926390193335,8270.595889941635,10.5,10500008270.59589,47.655,-122.3035,60.0,5.133333333333334
2026-02-06T22:10:06+00:00,SAT-55755,292.0921394629945,76.72127206977656,594.6423398048682,-0.15158464620242812,5309.135512426718,10.5,10500005309.135513,47.655,-122.3035,60.0,5.15
2026-02-06T22:10:07+00:00,SAT-55755,295.19200146568693,76.79364790549361,594.4911615361833,-0.06696599128770526,2345.4322807577278,10.5,10500002345.432281,47.655,-122.3035,60.0,5.166666666666667
2026-02-06T22:10:08+00:00,SAT-55755,298.31774498806897,76.82830294243958,594.424375071477,0.01768061003606457,-619.2497523692808,10.5,10499999380.750248,47.655,-122.3035,60.0,5.183333333333334
2026-02-06T22:10:09+00:00,SAT-55755,301.45102980976765,76.82490578373228,594.4420082822373,0.102319009136322,-3583.6445089335134,10.5,10499996416.355492,47.655,-122.3035,60.0,5.2
2026-02-06T22:10:10+00:00,SAT-55755,304.5732491573227,76.78349345581368,594.5440529882305,0.1869130740526571,-6546.486494843376,10.5,10499993453.513506,47.655,-122.3035,60.0,5.216666666666667
2026-02-06T22:10:11+00:00,SAT-55755,307.6661868673508,76.70446985718374,594.7304649741255,0.2714267660222553,-9506.513480181282,10.5,10499990493.48652,47.655,-122.3035,60.0,5.233333333333333
2026-02-06T22:10:12+00:00,SAT-55755,310.7126405833075,76.58858860370847,595.001164082445,0.3558242176940301,-12462.46923859344,10.5,10499987537.530762,47.655,-122.3035,60.0,5.25
2026-02-06T22:10:13+00:00,SAT-55755,313.69695934598604,76.43692196303385,595.3560343845152,0.44006980715121374,-15413.106139874086,10.5,10499984586.89386,47.655,-122.3035,60.0,5.266666666666667
2026-02-06T22:10:14+00:00,SAT-55755,316.6054568671245,76.25081881705492,595.7949244252432,0.5241282321443502,-18357.187749918903,10.5,10499981642.81225,47.655,-122.3035,60.0,5.283333333333333
2026-02-06T22:10:15+00:00,SAT-55755,319.42667966346977,76.03185535030585,596.3176475419267,0.6079645830289642,-21293.491385310714,10.5,10499978706.508615,47.655,-122.3035,60.0,5.3
2026-02-06T22:10:16+00:00,SAT-55755,322.151527646159,75.7817823703947,596.9239822558077,0.6915444135340196,-24220.810591930254,10.5,10499975779.189407,47.655,-122.3035,60.0,5.316666666666666
2026-02-06T22:10:17+00:00,SAT-55755,324.7732405935934,75.5024728740221,597.613672734202,0.7748338131668473,-27137.957680883006,10.5,10499972862.042318,47.655,-122.3035,60.0,5.333333333333333
2026-02-06T22:10:18+00:00,SAT-55755,327.2872748959865,75.1958728150844,598.386429324843,0.8577994644799825,-30043.765734226097,10.5,10499969956.234266,47.655,-122.3035,60.0,5.35
2026-02-06T22:10:19+00:00,SAT-55755,329.6911002946897,74.86395719449041,599.2419291473349,0.9404087168435858,-32937.09118879052,10.5,10499967062.908812,47.655,-122.3035,60.0,5.366666666666666
2026-02-06T22:10:20+00:00,SAT-55755,331.9839468998844,74.50869270998355,600.1798167581851,1.0226296368593182,-35816.81560188829,10.5,10499964183.184399,47.655,-122.3035,60.0,5.383333333333334
2026-02-06T22:10:21+00:00,SAT-55755,334.1665294200651,74.13200744778175,601.1997048661107,1.104431072185883,-38681.84788675295,10.5,10499961318.152113,47.655,-122.3035,60.0,5.4
2026-02-06T22:10:22+00:00,SAT-55755,336.240770413158,73.73576747605598,602.3011751110035,1.1857827024674765,-41531.126096269254,10.5,10499958468.873903,47.655,-122.3035,60.0,5.416666666666667
2026-02-06T22:10:23+00:00,SAT-55755,338.2095383242414,73.3217597897208,603.4837788936838,1.266655084651488,-44363.619010190785,10.5,10499955636.38099,47.655,-122.3035,60.0,5.433333333333334
2026-02-06T22:10:24+00:00,SAT-55755,340.07641045929694,72.89168080569023,604.7470382508517,1.3470197070412313,-47178.32802829526,10.5,10499952821.671972,47.655,-122.3035,60.0,5.45
2026-02-06T22:10:25+00:00,SAT-55755,341.84546629561555,72.44712949773462,606.090446783947,1.4268490281865733,-49974.28853249877,10.5,10499950025.711468,47.655,-122.3035,60.0,5.466666666666667
2026-02-06T22:10:26+00:00,SAT-55755,343.5211128226026,71.98960426676027,607.5134706267942,1.506116500735322,-52750.57072223238,10.5,10499947249.429277,47.655,-122.3035,60.0,5.483333333333333
2026-02-06T22:10:27+00:00,SAT-55755,345.1079410645471,71.5205027069649,609.015549437035,1.5847966329780057,-55506.28177000056,10.5,10499944493.71823,47.655,-122.3035,60.0,5.5
2026-02-06T22:10:28+00:00,SAT-55755,346.6106113826265,71.0411235142256,610.5960974489418,1.6628649868031773,-58240.56574976733,10.5,10499941759.43425,47.655,-122.3035,60.0,5.516666666666667
2026-02-06T22:10:29+00:00,SAT-55755,348.03376416807936,70.55266993258257,612.2545045241909,1.7402982289222841,-60952.60543106787,10.5,10499939047.39457,47.655,-122.3035,60.0,5.533333333333333
2026-02-06T22:10:30+00:00,SAT-55755,349.381952352899,70.05625421463805,613.9901372537228,1.817074130504637,-63641.622266223545,10.5,10499936358.377733,47.655,-122.3035,60.0,5.55
2026-02-06T22:10:31+00:00,SAT-55755,350.6595920868912,69.55290271187958,615.8023400592396,1.8931715953928823,-66306.87737856721,10.5,10499933693.122622,47.655,-122.3035,60.0,5.566666666666666
2026-02-06T22:10:32+00:00,SAT-55755,351.87092827065266,69.04356128057914,617.6904363228427,1.9685706834088192,-68947.67237871142,10.5,10499931052.327621,47.655,-122.3035,60.0,5.583333333333333
2026-02-06T22:10:33+00:00,SAT-55755,353.0200119638386,68.52910077827592,619.6537295399121,2.043252580494852,-71563.34831877574,10.5,10499928436.651682,47.655,-122.3035,60.0,5.6
2026-02-06T22:10:34+00:00,SAT-55755,354.1106870810383,68.0103225018352,621.6915044422074,2.1171996491380285,-74153.28745845001,10.5,10499925846.712542,47.655,-122.3035,60.0,5.616666666666666
2026-02-06T22:10:35+00:00,SAT-55755,355.14658428321036,67.48796343307045,623.8030281712596,2.1903954065070663,-76716.91249926039,10.5,10499923283.087502,47.655,-122.3035,60.0,5.633333333333334
2026-02-06T22:10:36+00:00,SAT-55755,356.1311202522291,66.96270123793131,625.9875514299565,2.2628245152644944,-79253.6862627718,10.5,10499920746.313738,47.655,-122.3035,60.0,5.65
2026-02-06T22:10:37+00:00,SAT-55755,357.0675009358486,66.43515897101717,628.2443096249654,2.334472789444857,-81763.1118964674,10.5,10499918236.888103,47.655,-122.3035,60.0,5.666666666666667
2026-02-06T22:10:38+00:00,SAT-55755,357.958727637346,65.90590945936053,630.5725240150189,2.4053271961137934,-84244.73293185659,10.5,10499915755.267069,47.655,-122.3035,60.0,5.683333333333334
2026-02-06T22:10:39+00:00,SAT-55755,358.8076050539368,65.3754793599918,632.971402860855,2.4753758035634177,-86698.13147005816,10.5,10499913301.86853,47.655,-122.3035,60.0,5.7
2026-02-06T22:10:40+00:00,SAT-55755,359.6167505575783,64.84435290701116,635.440142523491,2.5446078174476368,-89122.92944741187,10.5,10499910877.070553,47.655,-122.3035,60.0,5.716666666666667
2026-02-06T22:10:41+00:00,SAT-55755,0.38860422703551295,64.3129753395947,637.9779285985359,2.613013509979001,-91518.78615565275,10.5,10499908481.213844,47.655,-122.3035,60.0,5.733333333333333
2026-02-06T22:10:42+00:00,SAT-55755,1.125439197000751,63.78175605028091,640.5839369798903,2.680584254054521,-93885.3994371415,10.5,10499906114.600563,47.655,-122.3035,60.0,5.75
2026-02-06T22:10:43+00:00,SAT-55755,1.8293720705781997,63.25107144943194,643.2573349574805,2.7473124563000004,-96222.50333979385,10.5,10499903777.49666,47.655,-122.3035,60.0,5.766666666666667
2026-02-06T22:10:44+00:00,SAT-55755,2.5023731517389174,62.721267586864805,645.9972822482142,2.8131915558988423,-98529.86807606029,10.5,10499901470.131924,47.655,-122.3035,60.0,5.783333333333333
2026-02-06T22:10:45+00:00,SAT-55755,3.146276372304079,62.19266253680429,648.8029320257723,2.8782159820917887,-100807.29853438734,10.5,10499899192.701466,47.655,-122.3035,60.0,5.8
2026-02-06T22:10:46+00:00,SAT-55755,3.7627888023826666,61.66554857406913,651.6734319080098,2.9423811521994394,-103054.63420995772,10.5,10499896945.36579,47.655,-122.3035,60.0,5.816666666666666
2026-02-06T22:10:47+00:00,SAT-55755,4.353499692551993,61.14019415254609,654.6079249423885,3.0056834062496893,-105271.7469150666,10.5,10499894728.253084,47.655,-122.3035,60.0,5.833333333333333
2026-02-06T22:10:48+00:00,SAT-55755,4.919888997097428,60.61684571537551,657.6055505262104,3.0681200152243555,-107458.54106795351,10.5,10499892541.458933,47.655,-122.3035,60.0,5.85
2026-02-06T22:10:49+00:00,SAT-55755,5.463335381526478,60.095729339763395,660.6654453350747,3.1296891095043735,-109614.95118665035,10.5,10499890385.048813,47.655,-122.3035,60.0,5.866666666666666
2026-02-06T22:10:50+00:00,SAT-55755,5.985123696244371,59.57705224581958,663.7867441799734,3.190389684256804,-111740.94207765708,10.5,10499888259.057922,47.655,-122.3035,60.0,5.883333333333334
2026-02-06T22:10:51+00:00,SAT-55755,6.486451943625399,59.06100416974815,666.9685808697603,3.2502215408875292,-113836.50678536767,10.5,10499886163.493216,47.655,-122.3035,60.0,5.9
2026-02-06T22:10:52+00:00,SAT-55755,6.968437742680172,58.54775862504445,670.2100890152274,3.30918524952854,-115901.66527821613,10.5,10499884098.334723,47.655,-122.3035,60.0,5.916666666666667
2026-02-06T22:10:53+00:00,SAT-55755,7.432124319279687,58.03747405912321,673.5104027957693,3.3672821537247346,-117936.46461282796,10.5,10499882063.535387,47.655,-122.3035,60.0,5.933333333333334
2026-02-06T22:10:54+00:00,SAT-55755,7.878486052915076,57.53029490930466,676.8686577307247,3.4245142869310006,-119940.97600939483,10.5,10499880059.02399,47.655,-122.3035,60.0,5.95
2026-02-06T22:10:55+00:00,SAT-55755,8.30843359326848,57.02635258115453,680.2839913674356,3.480884350459539,-121915.29407929654,10.5,10499878084.705921,47.655,-122.3035,60.0,5.966666666666667
2026-02-06T22:10:56+00:00,SAT-55755,8.722818584068433,56.52576634751866,683.7555439473136,3.536395717702663,-123859.53697300138,10.5,10499876140.463026,47.655,-122.3035,60.0,5.983333333333333
2026-02-06T22:10:57+00:00,SAT-55755,9.122438024459017,56.02864417237565,687.2824590761196,3.591052359878336,-125773.84377936063,10.5,10499874226.156221,47.655,-122.3035,60.0,6.0
2026-02-06T22:10:58+00:00,SAT-55755,9.508038282632803,55.53508347763379,690.8638843201865,3.6448588117060217,-127658.37332343173,10.5,10499872341.626677,47.655,-122.3035,60.0,6.016666666666667
2026-02-06T22:10:59+00:00,SAT-55755,9.880318794635134,55.04517185267389,694.4989717684086,3.697820161655596,-129513.30382495398,10.5,10499870486.696175,47.655,-122.3035,60.0,6.033333333333333
2026-02-06T22:11:00+00:00,SAT-55755,10.239935473691324,54.558987708749505,698.1868785845102,3.7499420079398407,-131338.83135701943,10.5,10499868661.168642,47.655,-122.3035,60.0,6.05
2026-02-06T22:11:01+00:00,SAT-55755,10.587503849632752,54.07660088789691,701.9267675154189,3.801230416456076,-133135.1683730109,10.5,10499866864.831627,47.655,-122.3035,60.0,6.066666666666666
2026-02-06T22:11:02+00:00,SAT-55755,10.923601959624525,53.598073230141004,705.7178073576978,3.8516919048524616,-134902.54314853658,10.5,10499865097.456852,47.655,-122.3035,60.0,6.083333333333333
2026-02-06T22:11:03+00:00,SAT-55755,11.248773013014045,53.123459099490205,709.5591734080868,3.9013334059214215,-136641.19849931292,10.5,10499863358.8015,47.655,-122.3035,60.0,6.1
2026-02-06T22:11:04+00:00,SAT-55755,11.56352784671294,52.65280587491964,713.4500478775309,3.950162253997161,-138351.39130474787,10.5,10499861648.608696,47.655,-122.3035,60.0,6.116666666666666
2026-02-06T22:11:05+00:00,SAT-55755,11.868347189499602,52.18615440665693,717.3896202916476,3.9981861031336616,-140033.38964218856,10.5,10499859966.610357,47.655,-122.3035,60.0,6.133333333333334
2026-02-06T22:11:06+00:00,SAT-55755,12.163683745977911,51.72353944863369,721.3770878095883,4.045412964609027,-141687.47410048184,10.5,10499858312.5259,47.655,-122.3035,60.0,6.15
2026-02-06T22:11:07+00:00,SAT-55755,12.449964124437056,51.264990055372955,725.4116555803065,4.0918511298249856,-143313.9350795888,10.5,10499856686.06492,47.655,-122.3035,60.0,6.166666666666667
2026-02-06T22:11:08+00:00,SAT-55755,12.727590612263294,50.81052995925453,729.4925370219277,4.137509184485194,-144913.073287169,10.5,10499855086.926712,47.655,-122.3035,60.0,6.183333333333334
2026-02-06T22:11:09+00:00,SAT-55755,12.996942818353784,50.36017791959554,733.6189541152653,4.182395942242206,-146485.19741461662,10.5,10499853514.802586,47.655,-122.3035,60.0,6.2
2026-02-06T22:11:10+00:00,SAT-55755,13.258379187770617,49.91394805453144,737.7901376311571,4.2265204757930155,-148030.6252261578,10.5,10499851969.374773,47.655,-122.3035,60.0,6.216666666666667
2026-02-06T22:11:11+00:00,SAT-55755,13.512238405410494,49.4718501466992,742.0053273888143,4.269892001984548,-149549.6795347592,10.5,10499850450.320465,47.655,-122.3035,60.0,6.233333333333333
2026-02-06T22:11:12+00:00,SAT-55755,13.7588406885825,49.0338899398806,746.2637723995864,4.312519965101353,-151042.6911192149,10.5,10499848957.30888,47.655,-122.3035,60.0,6.25
2026-02-06T22:11:13+00:00,SAT-55755,13.998488989951612,48.600069406998884,750.5647310937892,4.354413941228039,-152509.99537451472,10.5,10499847490.004625,47.655,-122.3035,60.0,6.266666666666667
2026-02-06T22:11:14+00:00,SAT-55755,14.23147010698032,48.17038700968788,754.9074714521498,4.395583664452962,-153951.93322960814,10.5,10499846048.06677,47.655,-122.3035,60.0,6.283333333333333
2026-02-06T22:11:15+00:00,SAT-55755,14.458055712615808,47.74483793794118,759.2912711633891,4.436038944558988,-155368.84826458636,10.5,10499844631.151735,47.655,-122.3035,60.0,6.3
2026-02-06T22:11:16+00:00,SAT-55755,14.678503307371546,47.323414341721985,763.7154176997109,4.475789741592666,-156761.0893224105,10.5,10499843238.910677,47.655,-122.3035,60.0,6.316666666666666
2026-02-06T22:11:17+00:00,SAT-55755,14.893057108138848,46.90610554027113,768.1792084666653,4.514846058410314,-158129.00674542086,10.5,10499841870.993254,47.655,-122.3035,60.0,6.333333333333333
2026-02-06T22:11:18+00:00,SAT-55755,15.101948867927485,46.49289822767341,772.6819508458417,4.553217961231311,-159472.95309520015,10.5,10499840527.046906,47.655,-122.3035,60.0,6.35
2026-02-06T22:11:19+00:00,SAT-55755,15.30539863988797,46.083776663039785,777.2229622580629,4.59091559469855,-160793.28368005433,10.5,10499839206.71632,47.655,-122.3035,60.0,6.366666666666666
2026-02-06T22:11:20+00:00,SAT-55755,15.503615488765277,45.67872284704062,781.8015702415985,4.627949113735203,-162090.3541683481,10.5,10499837909.645832,47.655,-122.3035,60.0,6.383333333333334
2026-02-06T22:11:21+00:00,SAT-55755,15.69679815013584,45.27771669298153,786.4171124624168,4.664328687881977,-163364.5207404142,10.5,10499836635.47926,47.655,-122.3035,60.0,6.4
2026-02-06T22:11:22+00:00,SAT-55755,15.885135644811745,44.88073618640689,791.0689367287638,4.7000645004322665,-164616.1400582626,10.5,10499835383.859941,47.655,-122.3035,60.0,6.416666666666667
2026-02-06T22:11:23+00:00,SAT-55755,16.068807851892945,44.48775753448972,795.7564010048792,4.7351667356833245,-165845.5688190625,10.5,10499834154.431181,47.655,-122.3035,60.0,6.433333333333334
2026-02-06T22:11:24+00:00,SAT-55755,16.247986042392082,44.098755306903314,800.4788734119974,4.769645548050733,-167053.16267340086,10.5,10499832946.837326,47.655,-122.3035,60.0,6.45
2026-02-06T22:11:25+00:00,SAT-55755,16.42283337632294,43.71370257015021,805.2357321985444,4.803511075061042,-168239.2766803391,10.5,10499831760.72332,47.655,-122.3035,60.0,6.466666666666667
2026-02-06T22:11:26+00:00,SAT-55755,16.59350536746518,43.332571012234595,810.026365723298,4.836773382534677,-169404.26338748692,10.5,10499830595.736612,47.655,-122.3035,60.0,6.483333333333333
2026-02-06T22:11:27+00:00,SAT-55755,16.760150315499963,42.95533106362177,814.8501723838688,4.869442544720381,-170548.4756376493,10.5,10499829451.524363,47.655,-122.3035,60.0,6.5
2026-02-06T22:11:28+00:00,SAT-55755,16.922909713240998,42.58195200426721,819.7065606251098,4.901528501033778,-171672.26155120507,10.5,10499828327.73845,47.655,-122.3035,60.0,6.516666666666667
2026-02-06T22:11:29+00:00,SAT-55755,17.08191862229463,42.212402074654676,824.5949488046432,4.933041241137668,-172775.9710084018,10.5,10499827224.028992,47.655,-122.3035,60.0,6.533333333333333
2026-02-06T22:11:30+00:00,SAT-55755,17.23730603146857,41.84664856589672,829.5147652429728,4.963990545292433,-173859.94655532844,10.5,10499826140.053444,47.655,-122.3035,60.0,6.55
2026-02-06T22:11:31+00:00,SAT-55755,17.389195183149486,41.48465792311675,834.4654480146439,4.994386205796904,-174924.5311597115,10.5,10499825075.46884,47.655,-122.3035,60.0,6.566666666666666
2026-02-06T22:11:32+00:00,SAT-55755,17.537703887285815,41.12639582609033,839.4464449602486,5.024237916784981,-175970.0643511262,10.5,10499824029.935648,47.655,-122.3035,60.0,6.583333333333333
2026-02-06T22:11:33+00:00,SAT-55755,17.68294481161519,40.77182727260894,844.4572135885235,5.053555238750358,-176996.88097850268,10.5,10499823003.119022,47.655,-122.3035,60.0,6.6
2026-02-06T22:11:34+00:00,SAT-55755,17.825025753146182,40.42091665886493,849.4972209430695,5.08234769078957,-178005.31444086722,10.5,10499821994.685558,47.655,-122.3035,60.0,6.616666666666666
2026-02-06T22:11:35+00:00,SAT-55755,17.96404989591999,40.07362784827415,854.5659435610638,5.110624647731559,-178995.69308438496,10.5,10499821004.306915,47.655,-122.3035,60.0,6.633333333333334
