DopplerPredictor/satellites_20260211_210309/SAT-64464.csv

timestamp,satellite,azimuth_deg,elevation_deg,distance_km,relative_velocity_kms,doppler_shift_hz,tx_freq_ghz,rx_freq_hz,ue_lat,ue_lon,ue_alt_m,time_minutes
2026-02-06T22:14:50+00:00,SAT-64464,318.59606753258583,40.06288226396075,700.1165778492845,-4.706816555651629,164852.6255932099,10.5,10500164852.625593,47.655,-122.3035,60.0,9.883333333333333
2026-02-06T22:14:51+00:00,SAT-64464,318.9408764535603,40.44393790793019,695.422379619278,-4.666513324889762,163441.03596943224,10.5,10500163441.035969,47.655,-122.3035,60.0,9.9
2026-02-06T22:14:52+00:00,SAT-64464,319.2942741578286,40.828652518255424,690.7683765726331,-4.625384285380745,162000.52303016186,10.5,10500162000.52303,47.655,-122.3035,60.0,9.916666666666666
2026-02-06T22:14:53+00:00,SAT-64464,319.6565624484368,41.217009314096515,686.1553923042186,-4.583414475697707,160530.56276294292,10.5,10500160530.562763,47.655,-122.3035,60.0,9.933333333333334
2026-02-06T22:14:54+00:00,SAT-64464,320.0280558964221,41.60898643403463,681.584265330219,-4.540588979049826,159030.6327186629,10.5,10500159030.632719,47.655,-122.3035,60.0,9.95
2026-02-06T22:14:55+00:00,SAT-64464,320.4090824126192,42.0045565703262,677.0558490436208,-4.496892854834027,157500.20961420343,10.5,10500157500.209614,47.655,-122.3035,60.0,9.966666666666667
2026-02-06T22:14:56+00:00,SAT-64464,320.79998383130425,42.403686574283185,672.5710117379591,-4.452311265965882,155938.77379210707,10.5,10500155938.773792,47.655,-122.3035,60.0,9.983333333333333
