DopplerPredictor/satellites_20260211_210309/SAT-64035.csv

timestamp,satellite,azimuth_deg,elevation_deg,distance_km,relative_velocity_kms,doppler_shift_hz,tx_freq_ghz,rx_freq_hz,ue_lat,ue_lon,ue_alt_m,time_minutes
2026-02-06T22:14:48+00:00,SAT-64035,331.9861412018481,40.350221887249184,849.746190009283,-5.183717048971425,181555.69815635573,10.5,10500181555.698156,47.655,-122.3035,60.0,9.85
2026-02-06T22:14:49+00:00,SAT-64035,331.9944541793026,40.70901340680505,844.5763697903672,-5.155825947242876,180578.83379457865,10.5,10500180578.833794,47.655,-122.3035,60.0,9.866666666666667
2026-02-06T22:14:50+00:00,SAT-64035,332.0028834493253,41.07183837612911,839.4343659009847,-5.127412748885499,179583.68340039343,10.5,10500179583.683401,47.655,-122.3035,60.0,9.883333333333333
2026-02-06T22:14:51+00:00,SAT-64035,332.0114332024418,41.43874899628572,834.3206990380961,-5.098467535220945,178569.8995797283,10.5,10500178569.89958,47.655,-122.3035,60.0,9.9
2026-02-06T22:14:52+00:00,SAT-64035,332.020107829903,41.80979763793756,829.2358997907486,-5.068980237976369,177537.1296990796,10.5,10500177537.1297,47.655,-122.3035,60.0,9.916666666666666
2026-02-06T22:14:53+00:00,SAT-64035,332.02891193569064,42.185036801641196,824.1805087892709,-5.038940682726053,176485.01740702082,10.5,10500176485.017406,47.655,-122.3035,60.0,9.933333333333334
2026-02-06T22:14:54+00:00,SAT-64035,332.0378503496161,42.56451907834704,819.1550768111414,-5.0083385936654885,175413.20280141148,10.5,10500175413.2028,47.655,-122.3035,60.0,9.95
2026-02-06T22:14:55+00:00,SAT-64035,332.04692814148336,42.94829710730444,814.1601648820949,-4.977163555378003,174321.32109030255,10.5,10500174321.32109,47.655,-122.3035,60.0,9.966666666666667
2026-02-06T22:14:56+00:00,SAT-64035,332.0561506359129,43.33642352786252,809.1963444153602,-4.945405075081009,173209.00477206332,10.5,10500173209.004772,47.655,-122.3035,60.0,9.983333333333333
