DopplerPredictor/satellites_20260211_210309/SAT-58028.csv

timestamp,satellite,azimuth_deg,elevation_deg,distance_km,relative_velocity_kms,doppler_shift_hz,tx_freq_ghz,rx_freq_hz,ue_lat,ue_lon,ue_alt_m,time_minutes
2026-02-06T22:04:57+00:00,SAT-58028,113.51957167059224,74.4624166805355,499.06062151278024,1.8643493066668726,-65297.39890922193,10.5,10499934702.601091,47.655,-122.3035,60.0,0.0
2026-02-06T22:04:58+00:00,SAT-58028,113.78039157858215,73.65283700219571,500.9199727562361,1.9570774262438189,-68545.12989636349,10.5,10499931454.870104,47.655,-122.3035,60.0,0.016666666666666666
2026-02-06T22:04:59+00:00,SAT-58028,114.01581852296538,72.84887813342553,502.87180352797685,2.0487283279018778,-71755.13215535835,10.5,10499928244.867846,47.655,-122.3035,60.0,0.03333333333333333
2026-02-06T22:05:00+00:00,SAT-58028,114.22942258415335,72.05079705502838,504.9150394979562,2.1392692964706663,-74926.25986255464,10.5,10499925073.740137,47.655,-122.3035,60.0,0.05
2026-02-06T22:05:01+00:00,SAT-58028,114.4241356264282,71.25883080935999,507.04857370866193,2.2286702781783907,-78057.46040773681,10.5,10499921942.539593,47.655,-122.3035,60.0,0.06666666666666667
2026-02-06T22:05:02+00:00,SAT-58028,114.60238759928541,70.47319806352284,509.2712692293811,2.316903816523534,-81147.77214808088,10.5,10499918852.227852,47.655,-122.3035,60.0,0.08333333333333333
2026-02-06T22:05:03+00:00,SAT-58028,114.76620938478102,69.69410033703691,511.5819617465053,2.4039450722660627,-84196.32510833096,10.5,10499915803.674892,47.655,-122.3035,60.0,0.1
2026-02-06T22:05:04+00:00,SAT-58028,114.91731138559946,68.92172296744191,513.979462173777,2.4897717917503384,-87202.33987133375,10.5,10499912797.66013,47.655,-122.3035,60.0,0.11666666666666667
2026-02-06T22:05:05+00:00,SAT-58028,115.0571442675903,68.15623590619035,516.4625592309422,2.5743642283532786,-90165.12482682079,10.5,10499909834.875174,47.655,-122.3035,60.0,0.13333333333333333
2026-02-06T22:05:06+00:00,SAT-58028,115.18694640505235,67.3977944077371,519.0300219440616,2.657705129141487,-93084.07570408464,10.5,10499906915.924295,47.655,-122.3035,60.0,0.15
2026-02-06T22:05:07+00:00,SAT-58028,115.30778130476165,66.64653962487063,521.680602132515,2.739779662469505,-95958.67303616359,10.5,10499904041.326963,47.655,-122.3035,60.0,0.16666666666666666
2026-02-06T22:05:08+00:00,SAT-58028,115.42056738978837,65.90259915290979,524.4130368237992,2.820575358215961,-98788.48006665862,10.5,10499901211.519934,47.655,-122.3035,60.0,0.18333333333333332
2026-02-06T22:05:09+00:00,SAT-58028,115.52610190213929,65.16608753470341,527.226050608719,2.9000819956994515,-101573.13882407355,10.5,10499898426.861176,47.655,-122.3035,60.0,0.2
2026-02-06T22:05:10+00:00,SAT-58028,115.6250802337854,64.43710675087875,530.1183578847994,2.978291597073966,-104312.36989049484,10.5,10499895687.63011,47.655,-122.3035,60.0,0.21666666666666667
2026-02-06T22:05:11+00:00,SAT-58028,115.71811167578244,63.715746675204855,533.0886650931058,3.055198268174088,-107005.96682731733,10.5,10499892994.033173,47.655,-122.3035,60.0,0.23333333333333334
2026-02-06T22:05:12+00:00,SAT-58028,115.805732333728,63.00208553948995,536.1356727963404,3.130798176436408,-109653.79540195866,10.5,10499890346.204597,47.655,-122.3035,60.0,0.25
2026-02-06T22:05:13+00:00,SAT-58028,115.88841578853504,62.296190376056984,539.2580777349158,3.205089405693632,-112255.78850213482,10.5,10499887744.211498,47.655,-122.3035,60.0,0.26666666666666666
2026-02-06T22:05:14+00:00,SAT-58028,115.96658194720268,61.59811746960459,542.4545747382152,3.2780718897241528,-114811.94380848503,10.5,10499885188.056192,47.655,-122.3035,60.0,0.2833333333333333
2026-02-06T22:05:15+00:00,SAT-58028,116.04060443234985,60.90791279999502,545.7238585695768,3.3497473215214786,-117322.32061680326,10.5,10499882677.679382,47.655,-122.3035,60.0,0.3
2026-02-06T22:05:16+00:00,SAT-58028,116.11081678494031,60.22561248243135,549.0646256807945,3.420119069338298,-119787.03689754638,10.5,10499880212.963102,47.655,-122.3035,60.0,0.31666666666666665
2026-02-06T22:05:17+00:00,SAT-58028,116.17751769575311,59.55124320365353,552.4755758828843,3.4891920094990714,-122206.26344022388,10.5,10499877793.736559,47.655,-122.3035,60.0,0.3333333333333333
2026-02-06T22:05:18+00:00,SAT-58028,116.24097543841671,58.884822669716,555.9554138501144,3.5569725198941256,-124580.22362553337,10.5,10499875419.776375,47.655,-122.3035,60.0,0.35
2026-02-06T22:05:19+00:00,SAT-58028,116.30143164348415,58.2263600324678,559.5028506175448,3.6234683759900035,-126909.18978320342,10.5,10499873090.810217,47.655,-122.3035,60.0,0.36666666666666664
2026-02-06T22:05:20+00:00,SAT-58028,116.35910452447555,57.575856314945824,563.1166049748575,3.6886885563408187,-129193.4763801783,10.5,10499870806.52362,47.655,-122.3035,60.0,0.38333333333333336
2026-02-06T22:05:21+00:00,SAT-58028,116.41419164564775,56.93330484998262,566.7954046662177,3.752643276288236,-131433.441200934,10.5,10499868566.5588,47.655,-122.3035,60.0,0.4
2026-02-06T22:05:22+00:00,SAT-58028,116.46687230745735,56.2986916896248,570.5379876237471,3.8153438360374388,-133629.48002645586,10.5,10499866370.519974,47.655,-122.3035,60.0,0.4166666666666667
2026-02-06T22:05:23+00:00,SAT-58028,116.51730960833721,55.671996019339936,574.3431030494775,3.8768025238060626,-135782.02324210457,10.5,10499864217.976757,47.655,-122.3035,60.0,0.43333333333333335
2026-02-06T22:05:24+00:00,SAT-58028,116.5656522335886,55.05319056555601,578.2095124007161,3.9370325563341524,-137891.53375402326,10.5,10499862108.466246,47.655,-122.3035,60.0,0.45
2026-02-06T22:05:25+00:00,SAT-58028,116.61203601249794,54.44224199011604,582.1359903160771,3.99604800035544,-139958.50423872945,10.5,10499860041.495762,47.655,-122.3035,60.0,0.4666666666666667
2026-02-06T22:05:26+00:00,SAT-58028,116.65658527796109,53.83911127492733,586.1213254631981,4.053863641460636,-141983.45255015284,10.5,10499858016.54745,47.655,-122.3035,60.0,0.48333333333333334
2026-02-06T22:05:27+00:00,SAT-58028,116.69941405707141,53.243754104226035,590.1643212556694,4.11049499347669,-143966.92204813653,10.5,10499856033.077951,47.655,-122.3035,60.0,0.5
2026-02-06T22:05:28+00:00,SAT-58028,116.7406271168966,52.65612122301456,594.2637965793168,4.165958130780942,-145909.47572536962,10.5,10499854090.524275,47.655,-122.3035,60.0,0.5166666666666667
2026-02-06T22:05:29+00:00,SAT-58028,116.78032088549466,52.07615879827028,598.4185863512515,4.220269714026838,-147811.6971084102,10.5,10499852188.30289,47.655,-122.3035,60.0,0.5333333333333333
2026-02-06T22:05:30+00:00,SAT-58028,116.81858426516588,51.503808754526446,602.6275421045722,4.273446801541274,-149674.18365202294,10.5,10499850325.816347,47.655,-122.3035,60.0,0.55
2026-02-06T22:05:31+00:00,SAT-58028,116.8554993522651,50.93900911430571,606.8895323849741,4.325506959316704,-151497.5505915676,10.5,10499848502.449408,47.655,-122.3035,60.0,0.5666666666666667
2026-02-06T22:05:32+00:00,SAT-58028,116.89114207623909,50.38169430264217,611.2034432570528,4.3764679789775,-153282.42106498807,10.5,10499846717.578936,47.655,-122.3035,60.0,0.5833333333333334
2026-02-06T22:05:33+00:00,SAT-58028,116.92558276765945,49.83179546857195,615.5681785293312,4.426348041225837,-155029.43183737894,10.5,10499844970.568163,47.655,-122.3035,60.0,0.6
2026-02-06T22:05:34+00:00,SAT-58028,116.95888666491496,49.289240765006646,619.9826601422944,4.475165526383218,-156739.2266653479,10.5,10499843260.773335,47.655,-122.3035,60.0,0.6166666666666667
2026-02-06T22:05:35+00:00,SAT-58028,116.99111436677805,48.753955633800025,624.4458283674743,4.522938990232238,-158412.4554508923,10.5,10499841587.54455,47.655,-122.3035,60.0,0.6333333333333333
2026-02-06T22:05:36+00:00,SAT-58028,117.02232223747896,48.22586307443825,628.9566419824394,4.569687147173173,-160049.77365147162,10.5,10499839950.226349,47.655,-122.3035,60.0,0.65
2026-02-06T22:05:37+00:00,SAT-58028,117.05256277018498,47.7048838965413,633.5140784289879,4.615428788784549,-161651.8394276542,10.5,10499838348.160572,47.655,-122.3035,60.0,0.6666666666666666
2026-02-06T22:05:38+00:00,SAT-58028,117.08188491359309,47.190936964330575,638.1171338901188,4.660182781564875,-163219.31356402297,10.5,10499836780.686436,47.655,-122.3035,60.0,0.6833333333333333
2026-02-06T22:05:39+00:00,SAT-58028,117.11033436611298,46.68393942434942,642.7648233647516,4.703968010239833,-164752.85748355364,10.5,10499835247.142517,47.655,-122.3035,60.0,0.7
2026-02-06T22:05:40+00:00,SAT-58028,117.13795384120253,46.18380692336653,647.4561806859036,4.746803328067914,-166253.1315071078,10.5,10499833746.868492,47.655,-122.3035,60.0,0.7166666666666667
2026-02-06T22:05:41+00:00,SAT-58028,117.16478330698764,45.690453815951045,652.1902584893078,4.7887075337675,-167720.79404532164,10.5,10499832279.205956,47.655,-122.3035,60.0,0.7333333333333333
2026-02-06T22:05:42+00:00,SAT-58028,117.19086020343984,45.20379335936129,656.966128159019,4.829699393796068,-169156.50237891814,10.5,10499830843.497622,47.655,-122.3035,60.0,0.75
2026-02-06T22:05:43+00:00,SAT-58028,117.21621963904022,44.723737892025234,661.7828797952388,4.8697974910949755,-170560.90736110928,10.5,10499829439.092638,47.655,-122.3035,60.0,0.7666666666666667
2026-02-06T22:05:44+00:00,SAT-58028,117.240894569462,44.25019901364453,666.6396220312921,4.909020361339354,-171934.65818964405,10.5,10499828065.34181,47.655,-122.3035,60.0,0.7833333333333333
2026-02-06T22:05:45+00:00,SAT-58028,117.26491596005529,43.78308773859101,671.5354819864876,4.947386342597569,-173278.39714124653,10.5,10499826721.60286,47.655,-122.3035,60.0,0.8
2026-02-06T22:05:46+00:00,SAT-58028,117.288312933858,43.32231465191179,676.4696050690401,4.9849136049238325,-174592.76060807455,10.5,10499825407.239391,47.655,-122.3035,60.0,0.8166666666666667
2026-02-06T22:05:47+00:00,SAT-58028,117.31111290653352,42.867790050449116,681.4411548085071,5.0216201184393325,-175878.37797978555,10.5,10499824121.62202,47.655,-122.3035,60.0,0.8333333333333334
2026-02-06T22:05:48+00:00,SAT-58028,117.3333417097058,42.419424075767935,686.4493126563926,5.05752368526394,-177135.87276192041,10.5,10499822864.127237,47.655,-122.3035,60.0,0.85
2026-02-06T22:05:49+00:00,SAT-58028,117.35502370367921,41.977126833748535,691.4932778185945,5.092641838475256,-178365.8590370215,10.5,10499821634.140963,47.655,-122.3035,60.0,0.8666666666666667
2026-02-06T22:05:50+00:00,SAT-58028,117.37618188073922,41.54080851324839,696.5722669870855,5.126991911554046,-179568.94389690578,10.5,10499820431.056103,47.655,-122.3035,60.0,0.8833333333333333
2026-02-06T22:05:51+00:00,SAT-58028,117.39683795979738,41.11037948912158,701.6855141408495,5.160590978847821,-180745.7253574475,10.5,10499819254.274643,47.655,-122.3035,60.0,0.9
2026-02-06T22:05:52+00:00,SAT-58028,117.41701247337657,40.68575042161106,706.8322702874444,5.193455846545104,-181896.79204245892,10.5,10499818103.207958,47.655,-122.3035,60.0,0.9166666666666666
2026-02-06T22:05:53+00:00,SAT-58028,117.4367248474453,40.2668323480049,712.011803195562,5.225603086711045,-183022.7243757612,10.5,10499816977.275623,47.655,-122.3035,60.0,0.9333333333333333
