DopplerPredictor/satellites_20260211_210309/SAT-53172.csv

timestamp,satellite,azimuth_deg,elevation_deg,distance_km,relative_velocity_kms,doppler_shift_hz,tx_freq_ghz,rx_freq_hz,ue_lat,ue_lon,ue_alt_m,time_minutes
2026-02-06T22:11:38+00:00,SAT-53172,224.06817294151426,40.04224776413224,804.4474720245483,-4.989880995043445,174766.73962210273,10.5,10500174766.739622,47.655,-122.3035,60.0,6.683333333333334
2026-02-06T22:11:39+00:00,SAT-53172,223.90458500439175,40.40237307693565,799.470968211849,-4.95936211431769,173697.83932434933,10.5,10500173697.839325,47.655,-122.3035,60.0,6.7
2026-02-06T22:11:40+00:00,SAT-53172,223.73709433845497,40.766359853061424,794.5249014629678,-4.928264354493985,172608.66423192952,10.5,10500172608.664232,47.655,-122.3035,60.0,6.716666666666667
2026-02-06T22:11:41+00:00,SAT-53172,223.5655647912921,41.1342437446359,789.6098491051081,-4.89657691628443,171498.83610810022,10.5,10500171498.836107,47.655,-122.3035,60.0,6.733333333333333
2026-02-06T22:11:42+00:00,SAT-53172,223.38985396094228,41.506059457379095,784.7263992358082,-4.864288925498306,170367.97409270453,10.5,10500170367.974092,47.655,-122.3035,60.0,6.75
2026-02-06T22:11:43+00:00,SAT-53172,223.20981284208264,41.88184064461849,779.8751507976475,-4.831389350257506,169215.69180270645,10.5,10500169215.691803,47.655,-122.3035,60.0,6.766666666666667
2026-02-06T22:11:44+00:00,SAT-53172,223.02528545227233,42.261619787304404,775.0567137355063,-4.797867157483133,168041.60281301304,10.5,10500168041.602814,47.655,-122.3035,60.0,6.783333333333333
2026-02-06T22:11:45+00:00,SAT-53172,222.8361084271045,42.64542807798431,770.2717089977667,-4.76371114841702,166845.3148957427,10.5,10500166845.314896,47.655,-122.3035,60.0,6.8
2026-02-06T22:11:46+00:00,SAT-53172,222.6421105954278,43.033295283328066,765.5207687015467,-4.728910140533927,165626.43639155937,10.5,10500165626.436392,47.655,-122.3035,60.0,6.816666666666666
2026-02-06T22:11:47+00:00,SAT-53172,222.44311251810961,43.425249611897314,760.8045361165098,-4.693452806427225,164384.57056676812,10.5,10500164384.570566,47.655,-122.3035,60.0,6.833333333333333
2026-02-06T22:11:48+00:00,SAT-53172,222.23892600304387,43.8213175591565,756.1236658093601,-4.657327831579502,163119.32113910874,10.5,10500163119.321138,47.655,-122.3035,60.0,6.85
2026-02-06T22:11:49+00:00,SAT-53172,222.02935357981292,44.221523754959534,751.4788236309856,-4.620523844755254,161830.28983981366,10.5,10500161830.28984,47.655,-122.3035,60.0,6.866666666666666
2026-02-06T22:11:50+00:00,SAT-53172,221.8141879416921,44.62589079436558,746.8706867730258,-4.583029436451814,160517.07705983732,10.5,10500160517.07706,47.655,-122.3035,60.0,6.883333333333334
2026-02-06T22:11:51+00:00,SAT-53172,221.59321134829304,45.034439058111545,742.2999438060352,-4.5448332309051835,159179.2843718051,10.5,10500159179.284372,47.655,-122.3035,60.0,6.9
2026-02-06T22:11:52+00:00,SAT-53172,221.36619498297208,45.44718652697982,737.7672946458352,-4.505923796120414,157816.5113788965,10.5,10500157816.51138,47.655,-122.3035,60.0,6.916666666666667
2026-02-06T22:11:53+00:00,SAT-53172,221.13289827012622,45.864148574822515,733.2734506095948,-4.466289799093215,156428.36115136277,10.5,10500156428.36115,47.655,-122.3035,60.0,6.933333333333334
2026-02-06T22:11:54+00:00,SAT-53172,220.89306813580995,46.28533776147917,728.8191343171051,-4.425919865596195,155014.43531564777,10.5,10500155014.435316,47.655,-122.3035,60.0,6.95
2026-02-06T22:11:55+00:00,SAT-53172,220.64643822388575,46.71076359773411,724.4050797318915,-4.384802727686855,153574.33922074176,10.5,10500153574.33922,47.655,-122.3035,60.0,6.966666666666667
2026-02-06T22:11:56+00:00,SAT-53172,220.39272804785358,47.140432307826615,720.0320320552149,-4.342927205724097,152107.6813083237,10.5,10500152107.681309,47.655,-122.3035,60.0,6.983333333333333
2026-02-06T22:11:57+00:00,SAT-53172,220.13164208223586,47.57434657343773,715.7007476380056,-4.300282159800719,150614.07141172158,10.5,10500150614.071411,47.655,-122.3035,60.0,7.0
2026-02-06T22:11:58+00:00,SAT-53172,219.86286879212932,48.01250525443089,711.4119939412362,-4.256856618377262,149093.12526121404,10.5,10500149093.125261,47.655,-122.3035,60.0,7.016666666666667
2026-02-06T22:11:59+00:00,SAT-53172,219.58607958329375,48.45490310275505,707.1665493680066,-4.212639742755293,147544.46323973426,10.5,10500147544.46324,47.655,-122.3035,60.0,7.033333333333333
2026-02-06T22:12:00+00:00,SAT-53172,219.30092767815677,48.90153045215542,702.9652031310573,-4.1676208385049796,145967.7107831121,10.5,10500145967.710783,47.655,-122.3035,60.0,7.05
2026-02-06T22:12:01+00:00,SAT-53172,219.0070469084874,49.35237288657953,698.8087551088888,-4.121789437662645,144362.50125898025,10.5,10500144362.501259,47.655,-122.3035,60.0,7.066666666666666
2026-02-06T22:12:02+00:00,SAT-53172,218.70405041290405,49.807410893457956,694.6980156199016,-4.075135233008051,142728.4736648863,10.5,10500142728.473665,47.655,-122.3035,60.0,7.083333333333333
2026-02-06T22:12:03+00:00,SAT-53172,218.39152924327314,50.26661948425257,690.6338052620845,-4.02764823327826,141065.27806453934,10.5,10500141065.278065,47.655,-122.3035,60.0,7.1
2026-02-06T22:12:04+00:00,SAT-53172,218.0690508548282,50.72996780467771,686.6169545979043,-3.9793186650429897,139372.57215106924,10.5,10500139372.572151,47.655,-122.3035,60.0,7.116666666666666
2026-02-06T22:12:05+00:00,SAT-53172,217.73615749219422,51.19741870470727,682.6483039370562,-3.930137091042816,137650.0253917314,10.5,10500137650.025393,47.655,-122.3035,60.0,7.133333333333334
2026-02-06T22:12:06+00:00,SAT-53172,217.39236444461878,51.66892829031964,678.7287030011956,-3.880094399511853,135897.3186539418,10.5,10500135897.318653,47.655,-122.3035,60.0,7.15
2026-02-06T22:12:07+00:00,SAT-53172,217.03715817182564,52.14444544024374,674.859010599316,-3.829181838018596,134114.14539052633,10.5,10500134114.145391,47.655,-122.3035,60.0,7.166666666666667
2026-02-06T22:12:08+00:00,SAT-53172,216.66999428672926,52.62391129007083,671.040094269378,-3.7773910828252,132300.21406897635,10.5,10500132300.21407,47.655,-122.3035,60.0,7.183333333333334
2026-02-06T22:12:09+00:00,SAT-53172,216.2902953807441,53.10725868558011,667.272829850766,-3.7247142095203913,130455.2471428888,10.5,10500130455.247143,47.655,-122.3035,60.0,7.2
2026-02-06T22:12:10+00:00,SAT-53172,215.89744869031972,53.59441158991537,663.5581010860308,-3.671143806352979,128578.98502138529,10.5,10500128578.985022,47.655,-122.3035,60.0,7.216666666666667
2026-02-06T22:12:11+00:00,SAT-53172,215.49080357836675,54.08528445933995,659.8967991096048,-3.616672962610524,126671.18566208394,10.5,10500126671.185661,47.655,-122.3035,60.0,7.233333333333333
2026-02-06T22:12:12+00:00,SAT-53172,215.06966883119424,54.579781568249544,656.2898219481061,-3.5612952949310164,124731.62549264556,10.5,10500124731.625492,47.655,-122.3035,60.0,7.25
2026-02-06T22:12:13+00:00,SAT-53172,214.63330975557815,55.077796283885064,652.738073994402,-3.505005027791422,122760.10222982304,10.5,10500122760.10223,47.655,-122.3035,60.0,7.266666666666667
2026-02-06T22:12:14+00:00,SAT-53172,214.18094505601357,55.57921029395755,649.2424654013996,-3.4477970155884314,120756.43565282263,10.5,10500120756.435654,47.655,-122.3035,60.0,7.283333333333333
2026-02-06T22:12:15+00:00,SAT-53172,213.71174348715294,56.083892774750325,645.8039114538138,-3.389666775469714,118720.46875319323,10.5,10500118720.468754,47.655,-122.3035,60.0,7.3
2026-02-06T22:12:16+00:00,SAT-53172,213.22482026779474,56.591699495757965,642.4233319071951,-3.3306105282273073,116652.06916708601,10.5,10500116652.069166,47.655,-122.3035,60.0,7.316666666666666
2026-02-06T22:12:17+00:00,SAT-53172,212.71923324508057,57.10247185627856,639.1016502861697,-3.2706252512632745,114551.1310303356,10.5,10500114551.131031,47.655,-122.3035,60.0,7.333333333333333
2026-02-06T22:12:18+00:00,SAT-53172,212.19397879713867,57.616035849697944,635.839793129859,-3.209708722697963,112417.57652331804,10.5,10500112417.576523,47.655,-122.3035,60.0,7.35
2026-02-06T22:12:19+00:00,SAT-53172,211.64798746764419,58.132200947613036,632.6386891933067,-3.147859535316192,110251.3563594052,10.5,10500110251.35636,47.655,-122.3035,60.0,7.366666666666666
2026-02-06T22:12:20+00:00,SAT-53172,211.08011933414923,58.65075889159964,629.4992686350001,-3.0850771769082868,108052.45259884761,10.5,10500108052.452599,47.655,-122.3035,60.0,7.383333333333334
2026-02-06T22:12:21+00:00,SAT-53172,210.48915909882814,59.17148239533402,626.4224621242624,-3.0213620415503972,105820.87904385898,10.5,10500105820.879044,47.655,-122.3035,60.0,7.4
2026-02-06T22:12:22+00:00,SAT-53172,209.873810920385,59.694123737687185,623.4091999373974,-2.956715484255528,103556.68315272643,10.5,10500103556.683153,47.655,-122.3035,60.0,7.416666666666667
2026-02-06T22:12:23+00:00,SAT-53172,209.232692994169,60.21841324476179,620.4604109993286,-2.891139863187165,101259.94751831026,10.5,10500101259.947517,47.655,-122.3035,60.0,7.433333333333334
2026-02-06T22:12:24+00:00,SAT-53172,208.5643319079425,60.74405764955953,617.5770218831373,-2.8246385548490704,98930.79040005482,10.5,10500098930.7904,47.655,-122.3035,60.0,7.45
2026-02-06T22:12:25+00:00,SAT-53172,207.867156819316,61.2707383144678,614.7599557944536,-2.757216041349033,96569.36878033419,10.5,10500096569.36878,47.655,-122.3035,60.0,7.466666666666667
2026-02-06T22:12:26+00:00,SAT-53172,207.13949349423675,61.79810931971935,612.0101314688156,-2.6888778954489516,94175.87784084279,10.5,10500094175.87784,47.655,-122.3035,60.0,7.483333333333333
2026-02-06T22:12:27+00:00,SAT-53172,206.37955831187926,62.3257953892015,609.3284620839393,-2.6196308499036673,91750.5533911347,10.5,10500091750.55339,47.655,-122.3035,60.0,7.5
2026-02-06T22:12:28+00:00,SAT-53172,205.585452323012,62.853389659465904,606.7158541028352,-2.549482818382975,89293.67260140093,10.5,10500089293.672602,47.655,-122.3035,60.0,7.516666666666667
2026-02-06T22:12:29+00:00,SAT-53172,204.7551555187869,63.38045127427915,604.1732060960597,-2.4784429035655333,86805.55428595238,10.5,10500086805.554285,47.655,-122.3035,60.0,7.533333333333333
2026-02-06T22:12:30+00:00,SAT-53172,203.88652150582826,63.90650279437283,601.7014075558935,-2.40652149224025,84286.5622340727,10.5,10500084286.562235,47.655,-122.3035,60.0,7.55
2026-02-06T22:12:31+00:00,SAT-53172,202.97727280025967,64.43102743592813,599.301337615674,-2.3337301980524017,81737.10320474513,10.5,10500081737.103205,47.655,-122.3035,60.0,7.566666666666666
2026-02-06T22:12:32+00:00,SAT-53172,202.02499710607427,64.9534661047473,596.973863826228,-2.260081949810758,79157.63001954158,10.5,10500079157.63002,47.655,-122.3035,60.0,7.583333333333333
2026-02-06T22:12:33+00:00,SAT-53172,201.02714491822914,65.47321426059072,594.7198408442332,-2.1855909739223653,76548.64094741447,10.5,10500076548.640947,47.655,-122.3035,60.0,7.6
2026-02-06T22:12:34+00:00,SAT-53172,199.98102897917855,65.9896186001125,592.5401091381003,-2.110272833673736,73910.68108049012,10.5,10500073910.68108,47.655,-122.3035,60.0,7.616666666666666
2026-02-06T22:12:35+00:00,SAT-53172,198.88382616937838,66.5019735912975,590.4354936546761,-2.034144412682458,71244.34175447405,10.5,10500071244.341755,47.655,-122.3035,60.0,7.633333333333334
2026-02-06T22:12:36+00:00,SAT-53172,197.73258259267178,67.00951787949882,588.4068025024521,-1.9572239572080106,68550.26203055485,10.5,10500068550.26203,47.655,-122.3035,60.0,7.65
2026-02-06T22:12:37+00:00,SAT-53172,196.5242227111637,67.51143062852505,586.4548255925764,-1.8795310632695352,65829.12824421393,10.5,10500065829.128244,47.655,-122.3035,60.0,7.666666666666667
2026-02-06T22:12:38+00:00,SAT-53172,195.2555636021837,68.00682785397804,584.5803332927122,-1.8010866592188586,63081.673394859106,10.5,10500063081.673395,47.655,-122.3035,60.0,7.683333333333334
2026-02-06T22:12:39+00:00,SAT-53172,193.92333556656527,68.49475884331483,582.7840750982768,-1.721913046252336,60308.678564720685,10.5,10500060308.678564,47.655,-122.3035,60.0,7.7
2026-02-06T22:12:40+00:00,SAT-53172,192.52421043342335,68.97420280663562,581.0667782632775,-1.6420338350453787,57510.97069952466,10.5,10500057510.9707,47.655,-122.3035,60.0,7.716666666666667
2026-02-06T22:12:41+00:00,SAT-53172,191.0548391807614,69.4440658976187,579.4291464943432,-1.5614739615098072,54689.42316038175,10.5,10500054689.42316,47.655,-122.3035,60.0,7.733333333333333
2026-02-06T22:12:42+00:00,SAT-53172,189.51190047059384,69.90317883768569,577.8718586290408,-1.4802596782311102,51844.95542388413,10.5,10500051844.955423,47.655,-122.3035,60.0,7.75
2026-02-06T22:12:43+00:00,SAT-53172,187.89216179924108,70.35029540129473,576.3955673227313,-1.398418477861175,48978.530398994684,10.5,10500048978.5304,47.655,-122.3035,60.0,7.766666666666667
2026-02-06T22:12:44+00:00,SAT-53172,186.19255494579036,70.7840920612242,575.0008978118275,-1.3159791314763032,46091.15577050702,10.5,10500046091.155771,47.655,-122.3035,60.0,7.783333333333333
2026-02-06T22:12:45+00:00,SAT-53172,184.41026693938005,71.20316920519153,573.6884466387975,-1.2329715894347126,43183.88052665582,10.5,10500043183.880527,47.655,-122.3035,60.0,7.8
2026-02-06T22:12:46+00:00,SAT-53172,182.5428475421946,71.60605431381764,572.458780476044,-1.1494269795607968,40257.7948955219,10.5,10500040257.794895,47.655,-122.3035,60.0,7.816666666666666
2026-02-06T22:12:47+00:00,SAT-53172,180.58833315610963,71.99120760469093,571.3124349515947,-1.0653775411742599,37314.02803445352,10.5,10500037314.028034,47.655,-122.3035,60.0,7.833333333333333
2026-02-06T22:12:48+00:00,SAT-53172,178.54538606080968,72.35703062128734,570.249913540586,-0.9808565841356703,34353.74659566832,10.5,10500034353.746595,47.655,-122.3035,60.0,7.85
2026-02-06T22:12:49+00:00,SAT-53172,176.41344615627057,72.70187826351705,569.2716864975941,-0.8958984268203999,31378.152553838427,10.5,10500031378.152554,47.655,-122.3035,60.0,7.866666666666666
2026-02-06T22:12:50+00:00,SAT-53172,174.1928904274953,73.02407468420255,568.3781898508221,-0.8105383262041624,28388.48075739019,10.5,10500028388.480757,47.655,-122.3035,60.0,7.883333333333334
2026-02-06T22:12:51+00:00,SAT-53172,171.88519298638792,73.32193335909513,567.5698244660163,-0.7248124316051061,25385.99730835662,10.5,10500025385.997309,47.655,-122.3035,60.0,7.9
2026-02-06T22:12:52+00:00,SAT-53172,169.49307596482518,73.59378145370646,566.8469551565161,-0.6387576918664923,22371.996311522187,10.5,10500022371.996311,47.655,-122.3035,60.0,7.916666666666667
2026-02-06T22:12:53+00:00,SAT-53172,167.02063941082324,73.83798830670534,566.2099098858731,-0.5524117925058568,19347.797673120574,10.5,10500019347.797672,47.655,-122.3035,60.0,7.933333333333334
2026-02-06T22:12:54+00:00,SAT-53172,164.4734564502908,74.05299752207044,565.6589790331501,-0.46581307521655585,16314.744281438314,10.5,10500016314.744282,47.655,-122.3035,60.0,7.95
2026-02-06T22:12:55+00:00,SAT-53172,161.85861954148533,74.23736173331181,565.1944147385059,-0.3790004535032832,13274.199052013755,10.5,10500013274.199053,47.655,-122.3035,60.0,7.966666666666667
2026-02-06T22:12:56+00:00,SAT-53172,159.18472471696506,74.38977867852265,564.8164303329164,-0.2920133305364782,10227.542050550923,10.5,10500010227.542051,47.655,-122.3035,60.0,7.983333333333333
2026-02-06T22:12:57+00:00,SAT-53172,156.46178375838076,74.5091268375555,564.5251998498213,-0.2048915067594953,7176.167256931796,10.5,10500007176.167257,47.655,-122.3035,60.0,8.0
2026-02-06T22:12:58+00:00,SAT-53172,153.7010595023826,74.59449859493533,564.3208576289164,-0.11767509332156158,4121.479533272303,10.5,10500004121.479534,47.655,-122.3035,60.0,8.016666666666667
2026-02-06T22:12:59+00:00,SAT-53172,150.91482625603533,74.64522879107759,564.2034980062808,-0.030404420981607106,1064.891433349116,10.5,10500001064.891434,47.655,-122.3035,60.0,8.033333333333333
2026-02-06T22:13:00+00:00,SAT-53172,148.11606508083437,74.66091663894733,564.1731750953562,0.05688005483595471,-1992.180122748533,10.5,10499998007.819878,47.655,-122.3035,60.0,8.05
2026-02-06T22:13:01+00:00,SAT-53172,145.31811131131235,74.64143934612076,564.2299026626144,0.14413784744357144,-5048.317119964039,10.5,10499994951.68288,47.655,-122.3035,60.0,8.066666666666666
2026-02-06T22:13:02+00:00,SAT-53172,142.5342773145559,74.5869563671166,564.3736540963802,0.23132852913958282,-8102.103609176251,10.5,10499991897.89639,47.655,-122.3035,60.0,8.083333333333334
2026-02-06T22:13:03+00:00,SAT-53172,139.77747696334353,74.49790394363562,564.6043624656564,0.31841183002227963,-11152.129168085796,10.5,10499988847.870832,47.655,-122.3035,60.0,8.1
2026-02-06T22:13:04+00:00,SAT-53172,137.0598776976899,74.37498036802323,564.9219206775033,0.40534772494401916,-14196.991946716022,10.5,10499985803.008053,47.655,-122.3035,60.0,8.116666666666667
2026-02-06T22:13:05+00:00,SAT-53172,134.39260293396117,74.21912313220822,565.3261817211346,0.4920965272306349,-17235.30194986315,10.5,10499982764.69805,47.655,-122.3035,60.0,8.133333333333333
2026-02-06T22:13:06+00:00,SAT-53172,131.785501122306,74.0314796754885,565.8169590054852,0.578618981515655,-20265.684288543303,10.5,10499979734.315712,47.655,-122.3035,60.0,8.15
2026-02-06T22:13:07+00:00,SAT-53172,129.2469903257748,73.81337378096333,566.3940267893609,0.6648763403460463,-23286.78186304969,10.5,10499976713.218138,47.655,-122.3035,60.0,8.166666666666666
2026-02-06T22:13:08+00:00,SAT-53172,126.78397949811378,73.56626976528267,567.0571206879912,0.7508304644633771,-26297.25887522314,10.5,10499973702.741125,47.655,-122.3035,60.0,8.183333333333334
2026-02-06T22:13:09+00:00,SAT-53172,124.40186076534303,73.29173645892018,567.805938279594,0.8364438839889663,-29295.802971414796,10.5,10499970704.19703,47.655,-122.3035,60.0,8.2
2026-02-06T22:13:10+00:00,SAT-53172,122.10456234742735,72.99141269814764,568.6401397729591,0.9216798932578832,-32281.12856397399,10.5,10499967718.871435,47.655,-122.3035,60.0,8.216666666666667
2026-02-06T22:13:11+00:00,SAT-53172,119.894648636786,72.66697562413144,569.5593487696151,1.0065026236804464,-35251.97938316609,10.5,10499964748.020617,47.655,-122.3035,60.0,8.233333333333333
2026-02-06T22:13:12+00:00,SAT-53172,117.77345329561176,72.32011267547894,570.5631530986587,1.090877097442884,-38207.13035799681,10.5,10499961792.869642,47.655,-122.3035,60.0,8.25
2026-02-06T22:13:13+00:00,SAT-53172,115.74123189347097,71.95249775199075,571.6511057051445,1.1747693077741033,-41145.390427493956,10.5,10499958854.609573,47.655,-122.3035,60.0,8.266666666666667
2026-02-06T22:13:14+00:00,SAT-53172,113.79732231174121,71.56577166489268,572.8227256185226,1.2581462746015355,-44065.60449001062,10.5,10499955934.39551,47.655,-122.3035,60.0,8.283333333333333
2026-02-06T22:13:15+00:00,SAT-53172,111.9403036116511,71.16152673890919,574.0774989765862,1.3409761017967574,-46966.65540820894,10.5,10499953033.344591,47.655,-122.3035,60.0,8.3
2026-02-06T22:13:16+00:00,SAT-53172,110.16814648661239,70.74129523582192,575.4148801065088,1.4232280278233385,-49847.46578296193,10.5,10499950152.534218,47.655,-122.3035,60.0,8.316666666666666
2026-02-06T22:13:17+00:00,SAT-53172,108.47835075720549,70.30654115994925,576.8342926563947,1.5048724629188348,-52706.99925562426,10.5,10499947293.000744,47.655,-122.3035,60.0,8.333333333333334
2026-02-06T22:13:18+00:00,SAT-53172,106.8680673518703,69.8586549569284,578.335130763913,1.5858810403619679,-55544.26230362561,10.5,10499944455.737696,47.655,-122.3035,60.0,8.35
2026-02-06T22:13:19+00:00,SAT-53172,105.33420375011757,69.3989506038948,579.9167602760573,1.6662266461959812,-58358.30528150846,10.5,10499941641.69472,47.655,-122.3035,60.0,8.366666666666667
2026-02-06T22:13:20+00:00,SAT-53172,103.87351305520981,68.92866462673634,581.5785199985539,1.745883441117669,-61148.2231875744,10.5,10499938851.776812,47.655,-122.3035,60.0,8.383333333333333
2026-02-06T22:13:21+00:00,SAT-53172,102.48266761856397,68.44895662106768,583.3197229670978,1.824826906445726,-63913.15727389021,10.5,10499936086.842726,47.655,-122.3035,60.0,8.4
2026-02-06T22:13:22+00:00,SAT-53172,101.15831858705101,67.96091090011413,585.1396577644338,1.9030338319656561,-66652.29462056511,10.5,10499933347.70538,47.655,-122.3035,60.0,8.416666666666666
2026-02-06T22:13:23+00:00,SAT-53172,99.89714304642028,67.46553897312471,587.0375898253145,1.9804823609957771,-69364.86971415291,10.5,10499930635.130285,47.655,-122.3035,60.0,8.433333333333334
2026-02-06T22:13:24+00:00,SAT-53172,98.69588040880066,66.96378258150241,589.0127627864069,2.0571519657690573,-72050.16358541982,10.5,10499927949.836414,47.655,-122.3035,60.0,8.45
2026-02-06T22:13:25+00:00,SAT-53172,97.55135973933318,66.45651710491806,591.0643998116428,2.133023485670934,-74707.50514859452,10.5,10499925292.494852,47.655,-122.3035,60.0,8.466666666666667
2026-02-06T22:13:26+00:00,SAT-53172,96.46051950752538,65.94455515907374,593.1917049557057,2.2080791000071214,-77336.27024758166,10.5,10499922663.729752,47.655,-122.3035,60.0,8.483333333333333
2026-02-06T22:13:27+00:00,SAT-53172,95.42042117398252,65.42865027769504,595.3938645003608,2.2823023430073985,-79935.88218145796,10.5,10499920064.117819,47.655,-122.3035,60.0,8.5
2026-02-06T22:13:28+00:00,SAT-53172,94.42825778588832,64.90950057537549,597.6700483057443,2.355678063195349,-82505.81028142865,10.5,10499917494.189718,47.655,-122.3035,60.0,8.516666666666667
2026-02-06T22:13:29+00:00,SAT-53172,93.48135863562352,64.3877523369557,600.0194111211358,2.4281924552571676,-85045.57102700783,10.5,10499914954.428972,47.655,-122.3035,60.0,8.533333333333333
2026-02-06T22:13:30+00:00,SAT-53172,92.57719081503554,63.86400346966579,602.4410939275109,2.499833002531766,-87554.72603177877,10.5,10499912445.273968,47.655,-122.3035,60.0,8.55
2026-02-06T22:13:31+00:00,SAT-53172,91.71335842265906,63.33880680717604,604.9342252227397,2.570588482261318,-90032.88222729019,10.5,10499909967.117773,47.655,-122.3035,60.0,8.566666666666666
2026-02-06T22:13:32+00:00,SAT-53172,90.88759998610966,62.812673232228235,607.4979223120214,2.640448903988038,-92479.68970545082,10.5,10499907520.310295,47.655,-122.3035,60.0,8.583333333333334
2026-02-06T22:13:33+00:00,SAT-53172,90.09778460004657,62.28607462213168,610.1312925368796,2.7094055504598975,-94894.8431512207,10.5,10499905105.156849,47.655,-122.3035,60.0,8.6
2026-02-06T22:13:34+00:00,SAT-53172,89.34190713036348,61.759446593014026,612.8334345449571,2.777450885247708,-97278.07860697061,10.5,10499902721.921392,47.655,-122.3035,60.0,8.616666666666667
2026-02-06T22:13:35+00:00,SAT-53172,88.61808282832196,61.23319107195731,615.6034394676694,2.8445785333921116,-99629.17279465773,10.5,10499900370.827206,47.655,-122.3035,60.0,8.633333333333333
2026-02-06T22:13:36+00:00,SAT-53172,87.92454156772578,60.70767868672542,618.4403920785653,2.910783273144122,-101947.94282654462,10.5,10499898052.057173,47.655,-122.3035,60.0,8.65
2026-02-06T22:13:37+00:00,SAT-53172,87.25962188777044,60.18325097908404,621.3433719434422,2.9760609960767295,-104234.24480813877,10.5,10499895765.755192,47.655,-122.3035,60.0,8.666666666666666
2026-02-06T22:13:38+00:00,SAT-53172,86.62176499093111,59.660222456964036,624.3114545306848,3.040408615940901,-106487.97064594421,10.5,10499893512.029354,47.655,-122.3035,60.0,8.683333333333334
2026-02-06T22:13:39+00:00,SAT-53172,86.00950880888409,59.13888250371396,627.3437122307027,3.1038241170489855,-108709.04974205304,10.5,10499891290.950258,47.655,-122.3035,60.0,8.7
2026-02-06T22:13:40+00:00,SAT-53172,85.42148218554426,58.619497129846835,630.4392154236217,3.1663064479119427,-110897.4452688713,10.5,10499889102.554731,47.655,-122.3035,60.0,8.716666666666667
2026-02-06T22:13:41+00:00,SAT-53172,84.8563992634849,58.10231060484622,633.597033440897,3.2278554950843206,-113053.15325305937,10.5,10499886946.846746,47.655,-122.3035,60.0,8.733333333333333
2026-02-06T22:13:42+00:00,SAT-53172,84.31305409472868,57.58754696428289,636.8162355008432,3.288472081875283,-115176.20253038678,10.5,10499884823.79747,47.655,-122.3035,60.0,8.75
2026-02-06T22:13:43+00:00,SAT-53172,83.79031549651206,57.07541139825814,640.0958916428758,3.3481578442615434,-117266.65039967818,10.5,10499882733.3496,47.655,-122.3035,60.0,8.766666666666667
2026-02-06T22:13:44+00:00,SAT-53172,83.28712218581246,56.56609154954765,643.4350735380028,3.406915287269014,-119324.58459753731,10.5,10499880675.415403,47.655,-122.3035,60.0,8.783333333333333
2026-02-06T22:13:45+00:00,SAT-53172,82.80247816954835,56.05975870126435,646.8328553555409,3.4647476700127267,-121350.11927195858,10.5,10499878649.880728,47.655,-122.3035,60.0,8.8
2026-02-06T22:13:46+00:00,SAT-53172,82.33544841716217,55.55656888879329,650.2883145151854,3.521658997844845,-123343.3947073174,10.5,10499876656.605293,47.655,-122.3035,60.0,8.816666666666666
2026-02-06T22:13:47+00:00,SAT-53172,81.88515479447466,55.05666392644371,653.8005324312461,3.5776539635695115,-125304.5752654654,10.5,10499874695.424734,47.655,-122.3035,60.0,8.833333333333334
2026-02-06T22:13:48+00:00,SAT-53172,81.45077225872167,54.56017236323874,657.3685951982554,3.632737922014331,-127233.84849511617,10.5,10499872766.151505,47.655,-122.3035,60.0,8.85
2026-02-06T22:13:49+00:00,SAT-53172,81.0315253006507,54.067210369094404,660.9915942512188,3.6869168525511937,-129131.42381916603,10.5,10499870868.576181,47.655,-122.3035,60.0,8.866666666666667
2026-02-06T22:13:50+00:00,SAT-53172,80.6266846241445,53.57788255888155,664.6686269884829,3.740197288783178,-130997.53007203192,10.5,10499869002.469929,47.655,-122.3035,60.0,8.883333333333333
2026-02-06T22:13:51+00:00,SAT-53172,80.23556405480505,53.09228276377438,668.3987973244818,3.792586320170607,-132832.41555660273,10.5,10499867167.584444,47.655,-122.3035,60.0,8.9
2026-02-06T22:13:52+00:00,SAT-53172,79.8575176571212,52.61049474488884,672.181216244105,3.84409153690927,-134636.3461136415,10.5,10499865363.653887,47.655,-122.3035,60.0,8.916666666666666
2026-02-06T22:13:53+00:00,SAT-53172,79.49193705420116,52.132592861262836,676.0150023020885,3.8947209806624605,-136409.60339621297,10.5,10499863590.396605,47.655,-122.3035,60.0,8.933333333333334
2026-02-06T22:13:54+00:00,SAT-53172,79.13824893613808,51.658642695016084,679.8992820732733,3.944483107472111,-138152.48357067464,10.5,10499861847.51643,47.655,-122.3035,60.0,8.95
2026-02-06T22:13:55+00:00,SAT-53172,78.79591274418654,51.1887016355993,683.8331905658729,3.993386801310473,-139865.2977913139,10.5,10499860134.70221,47.655,-122.3035,60.0,8.966666666666667
2026-02-06T22:13:56+00:00,SAT-53172,78.46441851454347,50.72281942049609,687.8158716482562,4.041441282215712,-141548.36898286807,10.5,10499858451.631018,47.655,-122.3035,60.0,8.983333333333333
2026-02-06T22:13:57+00:00,SAT-53172,78.14328488001522,50.261038648110876,691.8464783841133,4.088656084872602,-143202.03109032955,10.5,10499856797.96891,47.655,-122.3035,60.0,9.0
2026-02-06T22:13:58+00:00,SAT-53172,77.83205721218934,49.80339525673229,695.924173346257,4.135041074717755,-144826.62964301932,10.5,10499855173.370358,47.655,-122.3035,60.0,9.016666666666667
2026-02-06T22:13:59+00:00,SAT-53172,77.53030589218649,49.34991896818138,700.048128946489,4.180606346462112,-146422.5182004151,10.5,10499853577.4818,47.655,-122.3035,60.0,9.033333333333333
2026-02-06T22:14:00+00:00,SAT-53172,77.2376247088308,48.90063371165749,704.2175276642598,4.225362249310585,-147990.05923544994,10.5,10499852009.940765,47.655,-122.3035,60.0,9.05
2026-02-06T22:14:01+00:00,SAT-53172,76.95362936642756,48.45555801553977,708.4315623004801,4.269319345000511,-149529.6226648416,10.5,10499850470.377335,47.655,-122.3035,60.0,9.066666666666666
2026-02-06T22:14:02+00:00,SAT-53172,76.6779560987097,48.01470537674829,712.6894361894826,4.312488344370234,-151041.58362745555,10.5,10499848958.416372,47.655,-122.3035,60.0,9.083333333333334
2026-02-06T22:14:03+00:00,SAT-53172,76.41026038233818,47.578084611336855,716.9903633477251,4.354880172702318,-152526.3247729012,10.5,10499847473.675226,47.655,-122.3035,60.0,9.1
2026-02-06T22:14:04+00:00,SAT-53172,76.15021573526849,47.145700174770944,721.3335686876578,4.396505854974642,-153984.2322425394,10.5,10499846015.767757,47.655,-122.3035,60.0,9.116666666666667
2026-02-06T22:14:05+00:00,SAT-53172,75.89751260392374,46.71755247197755,725.7182881171532,4.437376513633246,-155415.6955914784,10.5,10499844584.304409,47.655,-122.3035,60.0,9.133333333333333
2026-02-06T22:14:06+00:00,SAT-53172,75.65185732641991,46.29363814665874,730.1437686367109,4.477503390349736,-156821.10855061014,10.5,10499843178.891449,47.655,-122.3035,60.0,9.15
2026-02-06T22:14:07+00:00,SAT-53172,75.41297116483491,45.87395034922753,734.6092684583667,4.516897795301205,-158200.86725017827,10.5,10499841799.13275,47.655,-122.3035,60.0,9.166666666666666
2026-02-06T22:14:08+00:00,SAT-53172,75.18058940574535,45.45847899165258,739.1140570740105,4.555571072902357,-159555.36901957268,10.5,10499840444.63098,47.655,-122.3035,60.0,9.183333333333334
2026-02-06T22:14:09+00:00,SAT-53172,74.9544605224896,45.047210988487755,743.6574152895354,4.593534597807238,-160885.01224729276,10.5,10499839114.987753,47.655,-122.3035,60.0,9.2
2026-02-06T22:14:10+00:00,SAT-53172,74.73434539366201,44.64013048223233,748.2386352549936,4.630799792677219,-162190.1970032575,10.5,10499837809.802998,47.655,-122.3035,60.0,9.216666666666667
2026-02-06T22:14:11+00:00,SAT-53172,74.52001657261637,44.23721905229561,752.8570205124769,4.6673780577271256,-163471.32257121298,10.5,10499836528.67743,47.655,-122.3035,60.0,9.233333333333333
2026-02-06T22:14:12+00:00,SAT-53172,74.31125760826593,43.83845591628179,757.5118859737296,4.703280775400103,-164728.78761246582,10.5,10499835271.212387,47.655,-122.3035,60.0,9.25
2026-02-06T22:14:13+00:00,SAT-53172,74.10786241008859,43.44381811756031,762.2025579024237,4.738519313500534,-165962.9902756113,10.5,10499834037.009724,47.655,-122.3035,60.0,9.266666666666667
2026-02-06T22:14:14+00:00,SAT-53172,73.90963465437946,43.05328070025125,766.92837389956,4.7731049947033934,-167174.32712862187,10.5,10499832825.67287,47.655,-122.3035,60.0,9.283333333333333
2026-02-06T22:14:15+00:00,SAT-53172,73.7163872299735,42.666816875211104,771.6886828584611,4.8070490825702015,-168363.1926690668,10.5,10499831636.807331,47.655,-122.3035,60.0,9.3
2026-02-06T22:14:16+00:00,SAT-53172,73.5279417202066,42.284398176203304,776.4828449058137,4.840362819282691,-169529.98064570475,10.5,10499830470.019354,47.655,-122.3035,60.0,9.316666666666666
2026-02-06T22:14:17+00:00,SAT-53172,73.34412791648296,41.90599460286581,781.310231380348,4.873057286146765,-170675.07917274235,10.5,10499829324.920828,47.655,-122.3035,60.0,9.333333333333334
2026-02-06T22:14:18+00:00,SAT-53172,73.16478336752013,41.53157476503251,786.1702246723924,4.9051435840353035,-171798.87704970446,10.5,10499828201.12295,47.655,-122.3035,60.0,9.35
2026-02-06T22:14:19+00:00,SAT-53172,72.98975295081259,41.161106003797485,791.0622182433889,4.936632658663209,-172901.75764182728,10.5,10499827098.242357,47.655,-122.3035,60.0,9.366666666666667
2026-02-06T22:14:20+00:00,SAT-53172,72.81888847659263,40.79455451773431,795.9856164711493,4.967535367439153,-173984.10122148937,10.5,10499826015.898779,47.655,-122.3035,60.0,9.383333333333333
2026-02-06T22:14:21+00:00,SAT-53172,72.65204831427012,40.43188547578263,800.9398345617882,4.9978624775549205,-175046.28490129215,10.5,10499824953.7151,47.655,-122.3035,60.0,9.4
2026-02-06T22:14:22+00:00,SAT-53172,72.4890970417516,40.07306312281371,805.9242984597458,5.0276246373000895,-176088.68162937887,10.5,10499823911.31837,47.655,-122.3035,60.0,9.416666666666666
