DopplerPredictor/satellites_20260211_210309/SAT-53492.csv

timestamp,satellite,azimuth_deg,elevation_deg,distance_km,relative_velocity_kms,doppler_shift_hz,tx_freq_ghz,rx_freq_hz,ue_lat,ue_lon,ue_alt_m,time_minutes
2026-02-06T22:04:57+00:00,SAT-53492,171.4820725460117,40.40395440873239,836.1122705082807,5.020675512819971,-175845.29389531774,10.5,10499824154.706104,47.655,-122.3035,60.0,0.0
2026-02-06T22:04:58+00:00,SAT-53492,171.7243090847526,40.0543344596199,841.119486282904,5.0542200787914675,-177020.1664890129,10.5,10499822979.833511,47.655,-122.3035,60.0,0.016666666666666666
