DopplerPredictor/satellites_20260211_210309/SAT-48670.csv

timestamp,satellite,azimuth_deg,elevation_deg,distance_km,relative_velocity_kms,doppler_shift_hz,tx_freq_ghz,rx_freq_hz,ue_lat,ue_lon,ue_alt_m,time_minutes
2026-02-06T22:14:15+00:00,SAT-48670,6.408556883914989,40.00099369105953,818.2814733243979,-0.05166589559375689,1809.5582102150393,10.5,10500001809.55821,47.655,-122.3035,60.0,9.3
2026-02-06T22:14:16+00:00,SAT-48670,7.074637930955896,40.004509851956435,818.2299459379404,0.007348655368253413,-257.3809957776217,10.5,10499999742.619003,47.655,-122.3035,60.0,9.316666666666666
2026-02-06T22:14:17+00:00,SAT-48670,7.740782848588536,40.00387664271146,818.237274892578,0.06636173468018632,-2324.2686583594987,10.5,10499997675.731342,47.655,-122.3035,60.0,9.333333333333334
