DopplerPredictor/satellites_20260211_210309/SAT-45384.csv

timestamp,satellite,azimuth_deg,elevation_deg,distance_km,relative_velocity_kms,doppler_shift_hz,tx_freq_ghz,rx_freq_hz,ue_lat,ue_lon,ue_alt_m,time_minutes
2026-02-06T22:11:03+00:00,SAT-45384,272.25130297805435,40.078127956229764,809.0765043091159,-4.641209025598661,162554.772371178,10.5,10500162554.772371,47.655,-122.3035,60.0,6.1
2026-02-06T22:11:04+00:00,SAT-45384,272.54108020956755,40.411548901064116,804.4477377244278,-4.607179906294191,161362.92867010352,10.5,10500161362.92867,47.655,-122.3035,60.0,6.116666666666666
2026-02-06T22:11:05+00:00,SAT-45384,272.8370628641428,40.74770294876244,799.8529090316717,-4.572556168332532,160150.25890841987,10.5,10500160150.25891,47.655,-122.3035,60.0,6.133333333333334
2026-02-06T22:11:06+00:00,SAT-45384,273.1394394692917,41.086581293711,795.2926112554136,-4.537328643212688,158916.44196643942,10.5,10500158916.441967,47.655,-122.3035,60.0,6.15
2026-02-06T22:11:07+00:00,SAT-45384,273.44840550742805,41.428172483729526,790.7674465641423,-4.501488153162718,157661.15639976686,10.5,10500157661.1564,47.655,-122.3035,60.0,6.166666666666667
2026-02-06T22:11:08+00:00,SAT-45384,273.76416369086354,41.77246225295455,786.2780262795127,-4.465025587393286,156384.08311002108,10.5,10500156384.08311,47.655,-122.3035,60.0,6.183333333333334
2026-02-06T22:11:09+00:00,SAT-45384,274.08692425065357,42.119433351548125,781.8249708095457,-4.427931789842581,155084.9014131873,10.5,10500155084.901413,47.655,-122.3035,60.0,6.2
2026-02-06T22:11:10+00:00,SAT-45384,274.4169052264379,42.4690653574414,777.4089096937772,-4.390197663573431,153763.29269604586,10.5,10500153763.292696,47.655,-122.3035,60.0,6.216666666666667
2026-02-06T22:11:11+00:00,SAT-45384,274.75433277161255,42.82133448615183,773.0304815442925,-4.351814205129721,152418.94161947886,10.5,10500152418.94162,47.655,-122.3035,60.0,6.233333333333333
2026-02-06T22:11:12+00:00,SAT-45384,275.09944146918167,43.17621339335465,768.6903339524963,-4.312772408047051,151051.53273900584,10.5,10500151051.53274,47.655,-122.3035,60.0,6.25
2026-02-06T22:11:13+00:00,SAT-45384,275.4524746484854,43.53367095909565,764.3891234921127,-4.273063402291095,149660.75538850448,10.5,10500149660.755388,47.655,-122.3035,60.0,6.266666666666667
2026-02-06T22:11:14+00:00,SAT-45384,275.8136847192606,43.89367207224569,760.1275155831205,-4.232678350500598,148246.30004620156,10.5,10500148246.300047,47.655,-122.3035,60.0,6.283333333333333
2026-02-06T22:11:15+00:00,SAT-45384,276.18333350448216,44.2561773950138,755.9061844591678,-4.191608584789711,146807.8631260696,10.5,10500146807.863127,47.655,-122.3035,60.0,6.3
2026-02-06T22:11:16+00:00,SAT-45384,276.5616925897712,44.621143127063895,751.725812998552,-4.14984553493985,145345.14446280175,10.5,10500145345.144463,47.655,-122.3035,60.0,6.316666666666666
2026-02-06T22:11:17+00:00,SAT-45384,276.9490436719203,44.988520751444796,747.5870926268127,-4.107380777272389,143857.84902354042,10.5,10500143857.849024,47.655,-122.3035,60.0,6.333333333333333
2026-02-06T22:11:18+00:00,SAT-45384,277.34567891519976,45.35825677201168,743.4907231705855,-4.064206030959115,142345.68677865376,10.5,10500142345.686779,47.655,-122.3035,60.0,6.35
2026-02-06T22:11:19+00:00,SAT-45384,277.75190130915263,45.730292437435395,739.437412715135,-4.020313250313162,140808.37593415444,10.5,10500140808.375935,47.655,-122.3035,60.0,6.366666666666666
2026-02-06T22:11:20+00:00,SAT-45384,278.16802503570767,46.10456346022442,735.4278773698427,-3.9756945460150668,139245.64017270308,10.5,10500139245.640173,47.655,-122.3035,60.0,6.383333333333334
2026-02-06T22:11:21+00:00,SAT-45384,278.5943758273662,46.48099971489389,731.4628411122598,-3.9303422624508615,137657.21136231534,10.5,10500137657.211363,47.655,-122.3035,60.0,6.4
2026-02-06T22:11:22+00:00,SAT-45384,279.03129132874494,46.85952492906524,727.5430355550271,-3.8842489940853944,136042.8301298248,10.5,10500136042.83013,47.655,-122.3035,60.0,6.416666666666667
2026-02-06T22:11:23+00:00,SAT-45384,279.4791214530423,47.24005636182267,723.6691996964686,-3.8374076149605405,134402.24689403517,10.5,10500134402.246895,47.655,-122.3035,60.0,6.433333333333334
2026-02-06T22:11:24+00:00,SAT-45384,279.9382287321169,47.62250447037955,719.8420796417616,-3.789811260529654,132735.22122948593,10.5,10500132735.22123,47.655,-122.3035,60.0,6.45
2026-02-06T22:11:25+00:00,SAT-45384,280.4089886504798,48.00677256010908,716.0624283422273,-3.741453402091435,131041.52447344112,10.5,10500131041.524473,47.655,-122.3035,60.0,6.466666666666667
2026-02-06T22:11:26+00:00,SAT-45384,280.89178996954246,48.392756426955884,712.3310052603863,-3.6923278571020877,129320.94008706491,10.5,10500129320.940086,47.655,-122.3035,60.0,6.483333333333333
2026-02-06T22:11:27+00:00,SAT-45384,281.3870350303961,48.78034398605156,708.6485760247278,-3.642428788429889,127573.2636293133,10.5,10500127573.26363,47.655,-122.3035,60.0,6.5
2026-02-06T22:11:28+00:00,SAT-45384,281.89514002758307,49.16941488523403,705.0159120852247,-3.591750767766281,125798.30497785889,10.5,10500125798.304977,47.655,-122.3035,60.0,6.516666666666667
2026-02-06T22:11:29+00:00,SAT-45384,282.41653525535446,49.55984011035772,701.4337903056052,-3.5402887682420676,123995.88807047879,10.5,10500123995.888071,47.655,-122.3035,60.0,6.533333333333333
2026-02-06T22:11:30+00:00,SAT-45384,282.95166531039104,49.95148157528071,697.9029925629909,-3.488038230916921,122165.8532337984,10.5,10500122165.853233,47.655,-122.3035,60.0,6.55
2026-02-06T22:11:31+00:00,SAT-45384,283.50098925229554,50.34419170493762,694.4243052812218,-3.4349950461758705,120308.05653171783,10.5,10500120308.056532,47.655,-122.3035,60.0,6.566666666666666
2026-02-06T22:11:32+00:00,SAT-45384,284.06498070057813,50.73781300284123,690.9985189827355,-3.381155632141765,118422.37251174788,10.5,10500118422.37251,47.655,-122.3035,60.0,6.583333333333333
2026-02-06T22:11:33+00:00,SAT-45384,284.6441278719269,51.13217761461619,687.6264277622439,-3.3265169051078134,116508.69316943269,10.5,10500116508.693169,47.655,-122.3035,60.0,6.6
2026-02-06T22:11:34+00:00,SAT-45384,285.23893352885904,51.52710687643941,684.3088287898995,-3.2710763672288667,114566.93101966928,10.5,10500114566.931019,47.655,-122.3035,60.0,6.616666666666666
2026-02-06T22:11:35+00:00,SAT-45384,285.8499148452574,51.92241086317867,681.0465217270024,-3.214832107242082,112597.01912194822,10.5,10500112597.019121,47.655,-122.3035,60.0,6.633333333333334
2026-02-06T22:11:36+00:00,SAT-45384,286.4776031603354,52.31788792798007,677.8403081409932,-3.1577828116891693,110598.9114734043,10.5,10500110598.911474,47.655,-122.3035,60.0,6.65
2026-02-06T22:11:37+00:00,SAT-45384,287.12254360483365,52.71332423622738,674.6909909092478,-3.0999278194778537,108572.58491978962,10.5,10500108572.584919,47.655,-122.3035,60.0,6.666666666666667
2026-02-06T22:11:38+00:00,SAT-45384,287.78529458934577,53.10849330158176,671.5993735684641,-3.0412671685913377,106518.04079143661,10.5,10500106518.04079,47.655,-122.3035,60.0,6.683333333333334
2026-02-06T22:11:39+00:00,SAT-45384,288.46642713442463,53.50315552635386,668.5662596174569,-2.9818015654258767,104435.30382933017,10.5,10500104435.30383,47.655,-122.3035,60.0,6.7
2026-02-06T22:11:40+00:00,SAT-45384,289.1665240038351,53.89705773958335,665.5924518505393,-2.9215324681574986,102324.4251049629,10.5,10500102324.425104,47.655,-122.3035,60.0,6.716666666666667
2026-02-06T22:11:41+00:00,SAT-45384,289.8861786404744,54.28993275128532,662.6787516077575,-2.8604620989437244,100185.48244769088,10.5,10500100185.482449,47.655,-122.3035,60.0,6.733333333333333
2026-02-06T22:11:42+00:00,SAT-45384,290.6259938648,54.68149891856301,659.8259580129571,-2.7985934490402,98018.58062393985,10.5,10500098018.580624,47.655,-122.3035,60.0,6.75
2026-02-06T22:11:43+00:00,SAT-45384,291.38658030551153,55.07145972765203,657.034867206748,-2.7359303461981312,95823.85369774839,10.5,10500095823.853697,47.655,-122.3035,60.0,6.766666666666667
2026-02-06T22:11:44+00:00,SAT-45384,292.1685545478631,55.459503406518394,654.3062715122495,-2.672477431636974,93601.46422425419,10.5,10500093601.464224,47.655,-122.3035,60.0,6.783333333333333
2026-02-06T22:11:45+00:00,SAT-45384,292.97253694628694,55.84530256253188,651.6409586238047,-2.6082402251816923,91351.60553107633,10.5,10500091351.605532,47.655,-122.3035,60.0,6.8
2026-02-06T22:11:46+00:00,SAT-45384,293.79914909127046,56.22851386529531,649.0397107307298,-2.5432251321979242,89074.50196121412,10.5,10500089074.50196,47.655,-122.3035,60.0,6.816666666666666
2026-02-06T22:11:47+00:00,SAT-45384,294.64901088295005,56.60877777544976,646.5033036341462,-2.477439472218858,86770.40987568143,10.5,10500086770.409876,47.655,-122.3035,60.0,6.833333333333333
2026-02-06T22:11:48+00:00,SAT-45384,295.52273718385567,56.98571833243353,644.0325058352656,-2.410891466101122,84439.61720365153,10.5,10500084439.617203,47.655,-122.3035,60.0,6.85
2026-02-06T22:11:49+00:00,SAT-45384,296.42093400403513,57.358943005870316,641.6280776364822,-2.3435903094893487,82082.44601549704,10.5,10500082082.446016,47.655,-122.3035,60.0,6.866666666666666
2026-02-06T22:11:50+00:00,SAT-45384,297.3441942163855,57.72804263581958,639.2907701691971,-2.2755461494016003,79699.2517027123,10.5,10500079699.251703,47.655,-122.3035,60.0,6.883333333333334
2026-02-06T22:11:51+00:00,SAT-45384,298.29309274177155,58.092591460574944,637.0213244449967,-2.2067701091374747,77290.42385030075,10.5,10500077290.423851,47.655,-122.3035,60.0,6.9
2026-02-06T22:11:52+00:00,SAT-45384,299.2681811952728,58.45214725360253,634.8204703819874,-2.137274288020438,74856.38622775026,10.5,10500074856.386229,47.655,-122.3035,60.0,6.916666666666667
2026-02-06T22:11:53+00:00,SAT-45384,300.2699819648283,58.80625158106649,632.6889258313895,-2.0670718213052446,72397.59888724443,10.5,10500072397.598886,47.655,-122.3035,60.0,6.933333333333334
2026-02-06T22:11:54+00:00,SAT-45384,301.29898173935334,59.15443020630573,630.6273955443812,-1.9961768080516447,69914.55563749462,10.5,10500069914.555637,47.655,-122.3035,60.0,6.95
2026-02-06T22:11:55+00:00,SAT-45384,302.35562442647904,59.496193636625726,628.6365702108794,-1.9246043703383366,67407.78611766323,10.5,10500067407.786118,47.655,-122.3035,60.0,6.966666666666667
2026-02-06T22:11:56+00:00,SAT-45384,303.4403035293527,59.83103785160063,626.7171254392626,-1.85237065921397,64877.85600579279,10.5,10500064877.856007,47.655,-122.3035,60.0,6.983333333333333
2026-02-06T22:11:57+00:00,SAT-45384,304.5533539886805,60.158445222357834,624.8697207301587,-1.7794928129815726,62325.36555775033,10.5,10500062325.365559,47.655,-122.3035,60.0,7.0
2026-02-06T22:11:58+00:00,SAT-45384,305.69504350826867,60.47788563106558,623.0949984918389,-1.7059889830297155,59750.95051194387,10.5,10500059750.950512,47.655,-122.3035,60.0,7.016666666666667
2026-02-06T22:11:59+00:00,SAT-45384,306.8655634634228,60.788817819254135,621.3935830298461,-1.631878315730864,57155.28145532624,10.5,10500057155.281456,47.655,-122.3035,60.0,7.033333333333333
2026-02-06T22:12:00+00:00,SAT-45384,308.0650194593557,61.09069097314866,619.7660795546807,-1.5571809454002485,54539.06357678487,10.5,10500054539.063578,47.655,-122.3035,60.0,7.05
2026-02-06T22:12:01+00:00,SAT-45384,309.29342165930365,61.382946561650755,618.2130731965041,-1.4819179803035576,51903.036177072056,10.5,10500051903.036177,47.655,-122.3035,60.0,7.066666666666666
2026-02-06T22:12:02+00:00,SAT-45384,310.55067502119175,61.66502043669066,616.7351280338008,-1.406111480327668,49247.97188673944,10.5,10500049247.971888,47.655,-122.3035,60.0,7.083333333333333
2026-02-06T22:12:03+00:00,SAT-45384,311.8365696070795,61.9363452016626,615.3327861443084,-1.3297844305474975,46574.67574033742,10.5,10500046574.675741,47.655,-122.3035,60.0,7.1
2026-02-06T22:12:04+00:00,SAT-45384,313.1507711595314,62.19635284977284,614.006566682309,-1.2529607347069442,43883.984948090045,10.5,10500043883.984947,47.655,-122.3035,60.0,7.116666666666666
2026-02-06T22:12:05+00:00,SAT-45384,314.4928121911037,62.4444776733841,612.7569649624234,-1.1756651705764813,41176.76733232914,10.5,10500041176.767332,47.655,-122.3035,60.0,7.133333333333334
2026-02-06T22:12:06+00:00,SAT-45384,315.8620838049725,62.68015942766469,611.5844515879271,-1.0979233603663792,38453.920291240225,10.5,10500038453.920292,47.655,-122.3035,60.0,7.15
2026-02-06T22:12:07+00:00,SAT-45384,317.25782852897464,62.90284673472199,610.4894716085767,-1.019761746230514,35716.36994090224,10.5,10500035716.369942,47.655,-122.3035,60.0,7.166666666666667
2026-02-06T22:12:08+00:00,SAT-45384,318.6791344553855,63.11200070457681,609.4724437028605,-0.9412075368984637,32965.069246117826,10.5,10500032965.069246,47.655,-122.3035,60.0,7.183333333333334
2026-02-06T22:12:09+00:00,SAT-45384,320.1249309422273,63.3070987338673,608.5337594134818,-0.8622886787821975,30200.99700844734,10.5,10500030200.99701,47.655,-122.3035,60.0,7.2
2026-02-06T22:12:10+00:00,SAT-45384,321.59398618590535,63.48763844508904,607.6737824116516,-0.7830338031947852,27425.15601758482,10.5,10500027425.156017,47.655,-122.3035,60.0,7.216666666666667
2026-02-06T22:12:11+00:00,SAT-45384,323.08490689968625,63.65314171071025,606.8928478140245,-0.7034721802895492,24638.571438112253,10.5,10500024638.571438,47.655,-122.3035,60.0,7.233333333333333
2026-02-06T22:12:12+00:00,SAT-45384,324.5961403346209,63.80315870454422,606.1912615455711,-0.6236336783488673,21842.289383621206,10.5,10500021842.289383,47.655,-122.3035,60.0,7.25
2026-02-06T22:12:13+00:00,SAT-45384,326.1259788441981,63.93727191545161,605.5692997430524,-0.5435486930732678,19037.374440117877,10.5,10500019037.37444,47.655,-122.3035,60.0,7.266666666666667
2026-02-06T22:12:14+00:00,SAT-45384,327.67256705797183,64.05510004518791,605.0272082290157,-0.46324810317191695,16224.90811061407,10.5,10500016224.90811,47.655,-122.3035,60.0,7.283333333333333
2026-02-06T22:12:15+00:00,SAT-45384,329.2339117650637,64.15630172039161,604.56520203008,-0.38276321647124795,13405.986927623455,10.5,10500013405.986927,47.655,-122.3035,60.0,7.3
2026-02-06T22:12:16+00:00,SAT-45384,330.8078944685583,64.24057893977988,604.1834649489706,-0.30212570081892637,10581.72003312614,10.5,10500010581.720034,47.655,-122.3035,60.0,7.316666666666666
2026-02-06T22:12:17+00:00,SAT-45384,332.39228645080226,64.30768017750563,603.8821492054623,-0.22136752869729703,7753.227238697309,10.5,10500007753.22724,47.655,-122.3035,60.0,7.333333333333333
2026-02-06T22:12:18+00:00,SAT-45384,333.9847661769969,64.35740307400215,603.6613751325607,-0.1405209117742075,4921.636733200202,10.5,10500004921.636734,47.655,-122.3035,60.0,7.35
2026-02-06T22:12:19+00:00,SAT-45384,335.58293870531855,64.3895966475055,603.5212309379589,-0.059618240991139014,2088.08298441904,10.5,10500002088.082985,47.655,-122.3035,60.0,7.366666666666666
2026-02-06T22:12:20+00:00,SAT-45384,337.1843567591855,64.40416297259861,603.4617725252447,0.021307981627180627,-746.2956492567821,10.5,10499999253.704351,47.655,-122.3035,60.0,7.383333333333334
2026-02-06T22:12:21+00:00,SAT-45384,338.78654297234607,64.40105828130658,603.4830233831136,0.10222520639339493,-3580.359140090998,10.5,10499996419.64086,47.655,-122.3035,60.0,7.4
2026-02-06T22:12:22+00:00,SAT-45384,340.38701283866203,64.38029345928348,603.5849745378356,0.18310090098207824,-6412.968068435602,10.5,10499993587.03193,47.655,-122.3035,60.0,7.416666666666667
2026-02-06T22:12:23+00:00,SAT-45384,341.9832978136222,64.34193392376244,603.7675845705701,0.26390261633186357,-9242.985930902129,10.5,10499990757.014069,47.655,-122.3035,60.0,7.433333333333334
2026-02-06T22:12:24+00:00,SAT-45384,343.5729680681792,64.28609888626183,604.0307797004061,0.34459805122912146,-12069.281402355275,10.5,10499987930.718597,47.655,-122.3035,60.0,7.45
2026-02-06T22:12:25+00:00,SAT-45384,345.1536543358586,64.21296001942257,604.3744539318143,0.42515511512964066,-14890.730536193898,10.5,10499985109.269464,47.655,-122.3035,60.0,7.466666666666667
2026-02-06T22:12:26+00:00,SAT-45384,346.7230683908882,64.12273956259456,604.7984692647518,0.5055419939898594,-17706.219070039195,10.5,10499982293.78093,47.655,-122.3035,60.0,7.483333333333333
2026-02-06T22:12:27+00:00,SAT-45384,348.2790217434825,64.01570791320407,605.3026559704205,0.5857272105086962,-20514.644535658434,10.5,10499979485.355465,47.655,-122.3035,60.0,7.5
2026-02-06T22:12:28+00:00,SAT-45384,349.81944217795456,63.89218076411963,605.8868129271083,0.6656796818052833,-23314.918279083173,10.5,10499976685.08172,47.655,-122.3035,60.0,7.516666666666667
2026-02-06T22:12:29+00:00,SAT-45384,351.342387872571,63.75251585522656,606.5507080135503,0.7453687817087962,-26105.96764226257,10.5,10499973894.032358,47.655,-122.3035,60.0,7.533333333333333
2026-02-06T22:12:30+00:00,SAT-45384,352.8460589385091,63.5971094118875,607.294078564416,0.8247643994456396,-28886.738018536864,10.5,10499971113.261982,47.655,-122.3035,60.0,7.55
2026-02-06T22:12:31+00:00,SAT-45384,354.32880627900937,63.42639234760979,608.1166318843242,0.9038369865196716,-31656.194494581152,10.5,10499968343.805506,47.655,-122.3035,60.0,7.566666666666666
2026-02-06T22:12:32+00:00,SAT-45384,355.7891377505041,63.24082631016895,609.0180458086127,0.9825576088376369,-34413.32367605855,10.5,10499965586.676325,47.655,-122.3035,60.0,7.583333333333333
2026-02-06T22:12:33+00:00,SAT-45384,357.2257217240592,63.04089964442702,609.9979693160938,1.06089800895872,-37157.13586786283,10.5,10499962842.864132,47.655,-122.3035,60.0,7.6
2026-02-06T22:12:34+00:00,SAT-45384,358.63738820643323,62.82712333967607,611.0560232038946,1.138830631073546,-39886.66594898873,10.5,10499960113.334051,47.655,-122.3035,60.0,7.616666666666666
2026-02-06T22:12:35+00:00,SAT-45384,0.023127666257386843,62.60002703260513,612.1918007872047,1.2163286780649367,-42600.97537104097,10.5,10499957399.02463,47.655,-122.3035,60.0,7.633333333333334
2026-02-06T22:12:36+00:00,SAT-45384,1.382087865299364,62.36015511521967,613.4048686559371,1.2933661590372585,-45299.1538229131,10.5,10499954700.846176,47.655,-122.3035,60.0,7.65
2026-02-06T22:12:37+00:00,SAT-45384,2.7135689421520253,62.10806299728955,614.6947674787865,1.369917898098841,-47980.31953838488,10.5,10499952019.680462,47.655,-122.3035,60.0,7.666666666666667
2026-02-06T22:12:38+00:00,SAT-45384,4.017016995443474,61.84431356959266,616.061012816049,1.4459595906099623,-50643.62126616476,10.5,10499949356.378735,47.655,-122.3035,60.0,7.683333333333334
2026-02-06T22:12:39+00:00,SAT-45384,5.2920165098218295,61.569473888485874,617.5030959885389,1.5214678384614333,-53288.239505494996,10.5,10499946711.760494,47.655,-122.3035,60.0,7.7
2026-02-06T22:12:40+00:00,SAT-45384,6.53828187498051,61.284112107654046,619.020484981688,1.5964201442366752,-55913.386301683044,10.5,10499944086.613699,47.655,-122.3035,60.0,7.716666666666667
2026-02-06T22:12:41+00:00,SAT-45384,7.755648228379919,60.988794678432164,620.6126253438239,1.6707949721264352,-58518.30737959248,10.5,10499941481.692621,47.655,-122.3035,60.0,7.733333333333333
2026-02-06T22:12:42+00:00,SAT-45384,8.944061924552232,60.68408381274997,622.2789411451998,1.7445717411393489,-61102.28190584823,10.5,10499938897.718094,47.655,-122.3035,60.0,7.75
2026-02-06T22:12:43+00:00,SAT-45384,10.103570786789092,60.37053522207196,624.0188359302521,1.8177308605657723,-63664.62373092991,10.5,10499936335.376268,47.655,-122.3035,60.0,7.766666666666667
2026-02-06T22:12:44+00:00,SAT-45384,11.23431436617117,60.04869611983581,625.8316937052274,1.8902537093290654,-66204.68066596655,10.5,10499933795.319334,47.655,-122.3035,60.0,7.783333333333333
2026-02-06T22:12:45+00:00,SAT-45384,12.33651432758427,59.71910348865656,627.7168799052167,1.9621226970480707,-68721.83662140273,10.5,10499931278.163378,47.655,-122.3035,60.0,7.8
2026-02-06T22:12:46+00:00,SAT-45384,13.410465148208523,59.38228258563419,629.673742422087,2.033321228307738,-71215.51035560491,10.5,10499928784.489645,47.655,-122.3035,60.0,7.816666666666666
2026-02-06T22:12:47+00:00,SAT-45384,14.45652516927274,59.03874568839121,631.7016125967798,2.103833707596227,-73685.15564777945,10.5,10499926314.844353,47.655,-122.3035,60.0,7.833333333333333
2026-02-06T22:12:48+00:00,SAT-45384,15.475108110674734,58.68899105804069,633.7998062165349,2.1736455615043258,-76130.2620754903,10.5,10499923869.737925,47.655,-122.3035,60.0,7.85
2026-02-06T22:12:49+00:00,SAT-45384,16.466675112456254,58.33350209899882,635.9676245342521,2.242743232080989,-78550.35478194179,10.5,10499921449.645218,47.655,-122.3035,60.0,7.866666666666666
2026-02-06T22:12:50+00:00,SAT-45384,17.431727323017736,57.97274670283544,638.2043552812264,2.311114149132433,-80944.99350577574,10.5,10499919055.006495,47.655,-122.3035,60.0,7.883333333333334
2026-02-06T22:12:51+00:00,SAT-45384,18.370799048031326,57.60717676157044,640.5092736522586,2.3787467389248964,-83313.77288587898,10.5,10499916686.227114,47.655,-122.3035,60.0,7.9
2026-02-06T22:12:52+00:00,SAT-45384,19.28445148351128,57.23722782689057,642.8816432994435,2.445630414226197,-85656.32211259654,10.5,10499914343.677887,47.655,-122.3035,60.0,7.916666666666667
2026-02-06T22:12:53+00:00,SAT-45384,20.173267018872878,56.863318901578964,645.3207173160262,2.5117555530590994,-87972.30418358471,10.5,10499912027.695816,47.655,-122.3035,60.0,7.933333333333334
2026-02-06T22:12:54+00:00,SAT-45384,21.03784409168111,56.485852348851644,647.8257391990696,2.5771134980718817,-90261.41588176564,10.5,10499909738.584118,47.655,-122.3035,60.0,7.95
2026-02-06T22:12:55+00:00,SAT-45384,21.878792581064292,56.10521390140163,650.3959438114948,2.641696509103773,-92523.38611396826,10.5,10499907476.613886,47.655,-122.3035,60.0,7.966666666666667
2026-02-06T22:12:56+00:00,SAT-45384,22.69672969720451,55.72177276320402,653.0305582968119,2.7054977780369094,-94757.97643110671,10.5,10499905242.02357,47.655,-122.3035,60.0,7.983333333333333
2026-02-06T22:12:57+00:00,SAT-45384,23.492276359029074,55.33588178192223,655.7288030086644,2.768511386518302,-96964.97954742468,10.5,10499903035.020452,47.655,-122.3035,60.0,8.0
2026-02-06T22:12:58+00:00,SAT-45384,24.26605400823431,54.947877688772024,658.48989239821,2.8307323018476964,-99144.21919647095,10.5,10499900855.780804,47.655,-122.3035,60.0,8.016666666666667
2026-02-06T22:12:59+00:00,SAT-45384,25.018681839089,54.558081389680055,661.3130358973974,2.892156317580913,-101295.54805077713,10.5,10499898704.45195,47.655,-122.3035,60.0,8.033333333333333
2026-02-06T22:13:00+00:00,SAT-45384,25.750774394895846,54.16679830598515,664.1974387430085,2.952780076425913,-103418.84852377468,10.5,10499896581.151476,47.655,-122.3035,60.0,8.05
2026-02-06T22:13:01+00:00,SAT-45384,26.46293952142239,53.7743187447774,667.1423028235331,3.0126010082220693,-105514.03059756669,10.5,10499894485.969402,47.655,-122.3035,60.0,8.066666666666666
2026-02-06T22:13:02+00:00,SAT-45384,27.15577662148831,53.38091830315835,670.1468274641912,3.071617325458685,-107581.03166596738,10.5,10499892418.968334,47.655,-122.3035,60.0,8.083333333333334
2026-02-06T22:13:03+00:00,SAT-45384,27.829875196016904,52.98685829192853,673.2102102074834,3.129827951647773,-109619.81402581389,10.5,10499890380.185974,47.655,-122.3035,60.0,8.1
2026-02-06T22:13:04+00:00,SAT-45384,28.485813626887246,52.592386181655286,676.3316475223093,3.1872325926580296,-111630.36737538378,10.5,10499888369.632624,47.655,-122.3035,60.0,8.116666666666667
2026-02-06T22:13:05+00:00,SAT-45384,29.124158205960768,52.197736047877925,679.5103355842242,3.2438315655184713,-113612.70281837427,10.5,10499886387.297182,47.655,-122.3035,60.0,8.133333333333333
2026-02-06T22:13:06+00:00,SAT-45384,29.745462332265227,51.80312904187427,682.7454708849644,3.299625905818357,-115566.85662550172,10.5,10499884433.143375,47.655,-122.3035,60.0,8.15
2026-02-06T22:13:07+00:00,SAT-45384,30.35026591427279,51.4087738481008,686.0362509490774,3.3546172583560763,-117492.88640456327,10.5,10499882507.113596,47.655,-122.3035,60.0,8.166666666666666
2026-02-06T22:13:08+00:00,SAT-45384,30.93909490944025,51.0148671523868,689.3818749415011,3.4088078514262894,-119390.87019986354,10.5,10499880609.1298,47.655,-122.3035,60.0,8.183333333333334
2026-02-06T22:13:09+00:00,SAT-45384,31.51246100045185,50.62159410745164,692.7815442494932,3.462200526083972,-121260.90751716544,10.5,10499878739.092484,47.655,-122.3035,60.0,8.2
2026-02-06T22:13:10+00:00,SAT-45384,32.07086139923372,50.2291287873636,696.2344630937502,3.514798623123205,-123103.11536520925,10.5,10499876896.884634,47.655,-122.3035,60.0,8.216666666666667
2026-02-06T22:13:11+00:00,SAT-45384,32.61477873769211,49.8376346456016,699.739839026807,3.5666060331680787,-124917.63001010795,10.5,10499875082.36999,47.655,-122.3035,60.0,8.233333333333333
2026-02-06T22:13:12+00:00,SAT-45384,33.14468105931495,49.44726495632669,703.2968834813918,3.6176271092580037,-126704.603913715,10.5,10499873295.396086,47.655,-122.3035,60.0,8.25
2026-02-06T22:13:13+00:00,SAT-45384,33.661021875526686,49.05816325334367,706.9048122316022,3.6678666781216704,-128464.20612848618,10.5,10499871535.79387,47.655,-122.3035,60.0,8.266666666666667
2026-02-06T22:13:14+00:00,SAT-45384,34.16424029159403,48.67046375465426,710.5628458653256,3.717329981264348,-130196.62023410758,10.5,10499869803.379766,47.655,-122.3035,60.0,8.283333333333333
2026-02-06T22:13:15+00:00,SAT-45384,34.65476118088514,48.28429177955998,714.2702101979017,3.7660226831315406,-131902.0446234214,10.5,10499868097.955376,47.655,-122.3035,60.0,8.3
2026-02-06T22:13:16+00:00,SAT-45384,35.13299540846523,47.89976415058068,718.0261366939309,3.81395081627818,-133580.69058201887,10.5,10499866419.309418,47.655,-122.3035,60.0,8.316666666666666
2026-02-06T22:13:17+00:00,SAT-45384,35.599340086945695,47.51698958646667,721.8298628343957,3.8611207579091897,-135232.7814665921,10.5,10499864767.218533,47.655,-122.3035,60.0,8.333333333333334
2026-02-06T22:13:18+00:00,SAT-45384,36.054178862372986,47.136069082632126,725.6806324603875,3.907539221672129,-136858.55241747727,10.5,10499863141.447582,47.655,-122.3035,60.0,8.35
2026-02-06T22:13:19+00:00,SAT-45384,36.497882225773495,46.757096277436474,729.5776961086467,3.9532132163370086,-138458.24891144724,10.5,10499861541.75109,47.655,-122.3035,60.0,8.366666666666667
2026-02-06T22:13:20+00:00,SAT-45384,36.9308078407154,46.38015780759685,733.5203113058943,3.99815004974911,-140032.12690015588,10.5,10499859967.8731,47.655,-122.3035,60.0,8.383333333333333
2026-02-06T22:13:21+00:00,SAT-45384,37.353300887740296,46.00533364837678,737.5077428671048,4.042357240494784,-141580.44971630085,10.5,10499858419.550283,47.655,-122.3035,60.0,8.4
2026-02-06T22:13:22+00:00,SAT-45384,37.76569441121955,45.632697447415076,741.5392631056831,4.08584258175318,-143103.49030998105,10.5,10499856896.50969,47.655,-122.3035,60.0,8.416666666666666
2026-02-06T22:13:23+00:00,SAT-45384,38.1683096822299,45.26231683797955,745.6141521073206,4.1286140750344185,-144601.52892792717,10.5,10499855398.471071,47.655,-122.3035,60.0,8.433333333333334
2026-02-06T22:13:24+00:00,SAT-45384,38.56145655948666,44.89425374431421,749.7316979377686,4.17067988568101,-146074.8515549734,10.5,10499853925.148445,47.655,-122.3035,60.0,8.45
2026-02-06T22:13:25+00:00,SAT-45384,38.94543384925697,44.52856467695833,753.8911968062299,4.21204836727435,-147523.75076887582,10.5,10499852476.249231,47.655,-122.3035,60.0,8.466666666666667
2026-02-06T22:13:26+00:00,SAT-45384,39.32052966852569,44.16530101222544,758.0919532530943,4.2527280489693755,-148948.52529671858,10.5,10499851051.474703,47.655,-122.3035,60.0,8.483333333333333
2026-02-06T22:13:27+00:00,SAT-45384,39.68702180561648,43.804509259736214,762.3332803250408,4.292727546232244,-150349.4768885699,10.5,10499849650.523111,47.655,-122.3035,60.0,8.5
2026-02-06T22:13:28+00:00,SAT-45384,40.04517806987112,43.446231324736374,766.614499661118,4.332055640553195,-151726.91310936364,10.5,10499848273.086891,47.655,-122.3035,60.0,8.516666666666667
2026-02-06T22:13:29+00:00,SAT-45384,40.39525664473093,43.090504751135796,770.9349416583227,4.370721168927698,-153081.14346806158,10.5,10499846918.856531,47.655,-122.3035,60.0,8.533333333333333
2026-02-06T22:13:30+00:00,SAT-45384,40.73750642577407,42.73736296179919,775.2939455269559,4.408733094739378,-154412.48190027336,10.5,10499845587.518099,47.655,-122.3035,60.0,8.55
2026-02-06T22:13:31+00:00,SAT-45384,41.07216735889261,42.38683548129277,779.6908594166731,4.446100417616184,-155721.24361103817,10.5,10499844278.75639,47.655,-122.3035,60.0,8.566666666666666
2026-02-06T22:13:32+00:00,SAT-45384,41.39947076416678,42.03894815476016,784.1250404526317,4.482832227409182,-157007.74696539034,10.5,10499842992.253035,47.655,-122.3035,60.0,8.583333333333334
2026-02-06T22:13:33+00:00,SAT-45384,41.719639656700735,41.69372335163584,788.5958548254698,4.518937610693961,-158272.3102136432,10.5,10499841727.689787,47.655,-122.3035,60.0,8.6
2026-02-06T22:13:34+00:00,SAT-45384,42.03288905251168,41.35118016625897,793.1026777880431,4.554425737423625,-159515.25452634325,10.5,10499840484.745474,47.655,-122.3035,60.0,8.616666666666667
2026-02-06T22:13:35+00:00,SAT-45384,42.33942627266386,41.01133460176459,797.6448937385753,4.589305761520636,-160736.9005125762,10.5,10499839263.099487,47.655,-122.3035,60.0,8.633333333333333
2026-02-06T22:13:36+00:00,SAT-45384,42.639451231727215,40.67419975200482,802.2218962046734,4.623586826615614,-161937.5684209639,10.5,10499838062.43158,47.655,-122.3035,60.0,8.65
2026-02-06T22:13:37+00:00,SAT-45384,42.9331567183178,40.33978597362237,806.8330878330618,4.657278136403013,-163117.58060381774,10.5,10499836882.419395,47.655,-122.3035,60.0,8.666666666666666
2026-02-06T22:13:38+00:00,SAT-45384,43.2207286716258,40.00810104421343,811.4778804494856,4.690388816586138,-164277.25668186907,10.5,10499835722.743319,47.655,-122.3035,60.0,8.683333333333334
