DopplerPredictor/satellites_20260211_210343/SAT-57605.csv

timestamp,satellite,azimuth_deg,elevation_deg,distance_km,relative_velocity_kms,doppler_shift_hz,tx_freq_ghz,rx_freq_hz,ue_lat,ue_lon,ue_alt_m,time_minutes
2026-02-06T22:11:07+00:00,SAT-57605,210.0587412580844,40.00936409496632,829.2779791799378,-2.0295025839901033,71081.76527875189,10.5,10500071081.765278,47.655,-122.3035,60.0,0.95
2026-02-06T22:11:08+00:00,SAT-57605,209.46044614615428,40.150894055442045,827.2539174123041,-1.9761098229093959,69211.72493455007,10.5,10500069211.724934,47.655,-122.3035,60.0,0.9666666666666667
2026-02-06T22:11:09+00:00,SAT-57605,208.8567433386292,40.289595719208414,825.2831052671266,-1.9223315242128332,67328.18143221851,10.5,10500067328.181433,47.655,-122.3035,60.0,0.9833333333333333
2026-02-06T22:11:10+00:00,SAT-57605,208.2476959941438,40.42538019257911,823.3659272484485,-1.8681746374964956,65431.37817600869,10.5,10500065431.378176,47.655,-122.3035,60.0,1.0
2026-02-06T22:11:11+00:00,SAT-57605,207.6333732405818,40.55815886184911,821.502760929347,-1.8136464443280307,63521.57019722064,10.5,10500063521.570198,47.655,-122.3035,60.0,1.0166666666666666
2026-02-06T22:11:12+00:00,SAT-57605,207.0138502739618,40.68784353240542,819.693976620853,-1.758754549490407,61599.02384752212,10.5,10500061599.023848,47.655,-122.3035,60.0,1.0333333333333334
2026-02-06T22:11:13+00:00,SAT-57605,206.38920844778838,40.8143465713832,817.9399370496019,-1.7035068888760916,59664.0170754361,10.5,10500059664.017075,47.655,-122.3035,60.0,1.05
2026-02-06T22:11:14+00:00,SAT-57605,205.75953534630335,40.93758105479096,816.2409970276108,-1.6479117173402176,57716.83900090737,10.5,10500057716.839,47.655,-122.3035,60.0,1.0666666666666667
2026-02-06T22:11:15+00:00,SAT-57605,205.12492484720735,41.057460917342304,814.5975031341729,-1.591977622631776,55757.79040323172,10.5,10500055757.790403,47.655,-122.3035,60.0,1.0833333333333333
2026-02-06T22:11:16+00:00,SAT-57605,204.48547716321698,41.17390110654011,813.0097933838545,-1.5357135005532325,53787.18285104071,10.5,10500053787.182852,47.655,-122.3035,60.0,1.1
2026-02-06T22:11:17+00:00,SAT-57605,203.84129887578646,41.286817737815674,811.4781969192678,-1.4791285739154716,51805.339366183965,10.5,10500051805.339367,47.655,-122.3035,60.0,1.1166666666666667
2026-02-06T22:11:18+00:00,SAT-57605,203.19250294294628,41.39612825349649,810.0030336849394,-1.4222323605461256,49812.593303245536,10.5,10500049812.593304,47.655,-122.3035,60.0,1.1333333333333333
2026-02-06T22:11:19+00:00,SAT-57605,202.53920870090602,41.50175158142209,808.5846141330838,-1.3650346991425863,47809.289255025746,10.5,10500047809.289255,47.655,-122.3035,60.0,1.15
2026-02-06T22:11:20+00:00,SAT-57605,201.88154183398353,41.60360829699594,807.2232389035947,-1.3075457244862554,45795.782184439355,10.5,10500045795.782185,47.655,-122.3035,60.0,1.1666666666666667
2026-02-06T22:11:21+00:00,SAT-57605,201.21963433310302,41.70162078442542,805.9191985287545,-1.2497758489031938,43772.4367751891,10.5,10500043772.436775,47.655,-122.3035,60.0,1.1833333333333333
2026-02-06T22:11:22+00:00,SAT-57605,200.55362444126288,41.79571339706204,804.6727731564331,-1.1917357949698435,41739.62857725846,10.5,10500041739.628578,47.655,-122.3035,60.0,1.2
2026-02-06T22:11:23+00:00,SAT-57605,199.8836565587903,41.88581262013141,803.4842322406702,-1.1334365408519584,39697.74209244971,10.5,10500039697.742092,47.655,-122.3035,60.0,1.2166666666666666
2026-02-06T22:11:24+00:00,SAT-57605,199.20988115160407,41.971847228718566,802.3538342867702,-1.0748893492014726,37647.17178647457,10.5,10500037647.171787,47.655,-122.3035,60.0,1.2333333333333334
2026-02-06T22:11:25+00:00,SAT-57605,198.53245461896603,42.053748446705896,801.2818265675792,-1.0161057288668407,35588.32074788829,10.5,10500035588.320747,47.655,-122.3035,60.0,1.25
2026-02-06T22:11:26+00:00,SAT-57605,197.8515391566654,42.131450100969225,800.2684448779487,-0.9570974550960456,33521.60139568447,10.5,10500033521.601397,47.655,-122.3035,60.0,1.2666666666666666
2026-02-06T22:11:27+00:00,SAT-57605,197.16730258070157,42.20488877466491,799.3139132690503,-0.8978765296883551,31447.434083641052,10.5,10500031447.434084,47.655,-122.3035,60.0,1.2833333333333334
2026-02-06T22:11:28+00:00,SAT-57605,196.47991814830297,42.274003954407256,798.4184438224312,-0.8384551901881472,29366.2474223269,10.5,10500029366.247423,47.655,-122.3035,60.0,1.3
2026-02-06T22:11:29+00:00,SAT-57605,195.78956434531415,42.33873817444422,797.582236414901,-0.7788458874142247,27278.477492083406,10.5,10500027278.477491,47.655,-122.3035,60.0,1.3166666666666667
2026-02-06T22:11:30+00:00,SAT-57605,195.09642466054916,42.39903715479343,796.8054785058303,-0.7190612823472247,25184.567734008368,10.5,10500025184.567734,47.655,-122.3035,60.0,1.3333333333333333
2026-02-06T22:11:31+00:00,SAT-57605,194.40068733316053,42.454849934216575,796.0883449275505,-0.6591142267358242,23084.96827070331,10.5,10500023084.968271,47.655,-122.3035,60.0,1.35
2026-02-06T22:11:32+00:00,SAT-57605,193.70254508589946,42.50612899615522,795.4309976950987,-0.599017750884093,20980.135478534878,10.5,10500020980.135479,47.655,-122.3035,60.0,1.3666666666666667
2026-02-06T22:11:33+00:00,SAT-57605,193.00219483946836,42.55283038761889,794.8335858281403,-0.5387850533677933,18870.53162745618,10.5,10500018870.531628,47.655,-122.3035,60.0,1.3833333333333333
2026-02-06T22:11:34+00:00,SAT-57605,192.29983740622427,42.59491383060003,794.2962451831484,-0.47842948575017774,16756.624345689397,10.5,10500016756.624346,47.655,-122.3035,60.0,1.4
2026-02-06T22:11:35+00:00,SAT-57605,191.59567716795073,42.63234282509516,793.8190983008265,-0.41796453891151414,14638.886140927863,10.5,10500014638.88614,47.655,-122.3035,60.0,1.4166666666666667
2026-02-06T22:11:36+00:00,SAT-57605,190.8899217362879,42.66508474336191,793.4022542671645,-0.35740382106997715,12517.793630534761,10.5,10500012517.79363,47.655,-122.3035,60.0,1.4333333333333333
2026-02-06T22:11:37+00:00,SAT-57605,190.1827816116067,42.69311091428363,793.0458085964169,-0.2967610578264991,10393.82754311398,10.5,10500010393.827543,47.655,-122.3035,60.0,1.45
2026-02-06T22:11:38+00:00,SAT-57605,189.47446980512535,42.71639669915336,792.7498431140338,-0.2360500629030003,8267.471693639147,10.5,10500008267.471693,47.655,-122.3035,60.0,1.4666666666666666
2026-02-06T22:11:39+00:00,SAT-57605,188.76520147130964,42.73492155619079,792.5144258687742,-0.17528472952552276,6139.212681654551,10.5,10500006139.21268,47.655,-122.3035,60.0,1.4833333333333334
2026-02-06T22:11:40+00:00,SAT-57605,188.05519351930752,42.74866909508701,792.3396110534194,-0.11447901164373118,4009.5392335025904,10.5,10500004009.539234,47.655,-122.3035,60.0,1.5
2026-02-06T22:11:41+00:00,SAT-57605,187.344664225225,42.75762712049163,792.2254389442079,-0.05364691212204531,1878.941788727306,10.5,10500001878.94179,47.655,-122.3035,60.0,1.5166666666666666
2026-02-06T22:11:42+00:00,SAT-57605,186.63383282296147,42.761787664772086,792.1719358520537,0.007197538066496191,-252.08822864453117,10.5,10499999747.911772,47.655,-122.3035,60.0,1.5333333333333334
2026-02-06T22:11:43+00:00,SAT-57605,185.92291910590333,42.76114700915682,792.179114094514,0.06804029318075046,-2383.058877344672,10.5,10499997616.941122,47.655,-122.3035,60.0,1.55
2026-02-06T22:11:44+00:00,SAT-57605,185.21214302190933,42.75570569375659,792.2469719810582,0.1288673090074103,-4513.4782696161365,10.5,10499995486.52173,47.655,-122.3035,60.0,1.5666666666666667
2026-02-06T22:11:45+00:00,SAT-57605,184.50172426294293,42.74546851615428,792.375493814594,0.18966455994201661,-6642.855169462517,10.5,10499993357.14483,47.655,-122.3035,60.0,1.5833333333333333
2026-02-06T22:11:46+00:00,SAT-57605,183.79188185749967,42.73044451853254,792.5646499100246,0.250418053797974,-8770.699511322353,10.5,10499991229.30049,47.655,-122.3035,60.0,1.6
2026-02-06T22:11:47+00:00,SAT-57605,183.08283377186245,42.71064696357352,792.8143966275782,0.3111138496058048,-10896.523023474294,10.5,10499989103.476976,47.655,-122.3035,60.0,1.6166666666666667
2026-02-06T22:11:48+00:00,SAT-57605,182.37479650683056,42.68609329901584,793.1246764238869,0.37173807051989827,-13019.839680086054,10.5,10499986980.16032,47.655,-122.3035,60.0,1.6333333333333333
2026-02-06T22:11:49+00:00,SAT-57605,181.6679847117711,42.656805111457224,793.4954179159395,0.43227692457598477,-15140.166428228958,10.5,10499984859.833572,47.655,-122.3035,60.0,1.65
2026-02-06T22:11:50+00:00,SAT-57605,180.96261079414322,42.6228080690016,793.9265359657347,0.4927167131133536,-17257.02348285964,10.5,10499982742.976517,47.655,-122.3035,60.0,1.6666666666666667
2026-02-06T22:11:51+00:00,SAT-57605,180.25888455450686,42.584131854033295,794.4179317733353,0.5530438521007713,-19369.935073743916,10.5,10499980630.064926,47.655,-122.3035,60.0,1.6833333333333333
2026-02-06T22:11:52+00:00,SAT-57605,179.55701282044876,42.54081008543589,794.9694929911888,0.6132448836324124,-21478.429848092874,10.5,10499978521.570152,47.655,-122.3035,60.0,1.7
2026-02-06T22:11:53+00:00,SAT-57605,178.85719910034055,42.49288023142818,795.5810938499159,0.673306493676037,-23582.041492179196,10.5,10499976417.958508,47.655,-122.3035,60.0,1.7166666666666666
2026-02-06T22:11:54+00:00,SAT-57605,178.1596432476273,42.4403835129553,796.2525953017986,0.7332155205094399,-25680.30902681721,10.5,10499974319.690973,47.655,-122.3035,60.0,1.7333333333333334
2026-02-06T22:11:55+00:00,SAT-57605,177.46454114741303,42.38336479884795,796.9838451726813,0.7929589759670853,-27772.77755150997,10.5,10499972227.222448,47.655,-122.3035,60.0,1.75
2026-02-06T22:11:56+00:00,SAT-57605,176.77208441198133,42.32187249224878,797.7746783350623,0.8525240529039496,-29858.998505864583,10.5,10499970141.001493,47.655,-122.3035,60.0,1.7666666666666666
2026-02-06T22:11:57+00:00,SAT-57605,176.0824601004867,42.25595840993503,798.624916888629,0.9118981414848549,-31938.530240113567,10.5,10499968061.469759,47.655,-122.3035,60.0,1.7833333333333334
2026-02-06T22:11:58+00:00,SAT-57605,175.3958504545076,42.18567765441201,799.5343703570381,0.9710688381291358,-34010.93832839493,10.5,10499965989.061672,47.655,-122.3035,60.0,1.8
2026-02-06T22:11:59+00:00,SAT-57605,174.71243265568233,42.11108847993309,800.5028358936199,1.0300239599240075,-36075.79607356927,10.5,10499963924.203926,47.655,-122.3035,60.0,1.8166666666666667
2026-02-06T22:12:00+00:00,SAT-57605,174.03237860158887,42.03225215263776,801.5300985014505,1.088751562107579,-38132.68511954887,10.5,10499961867.31488,47.655,-122.3035,60.0,1.8333333333333333
2026-02-06T22:12:01+00:00,SAT-57605,173.35585469849494,41.94923280518733,802.6159312708679,1.1472399318565019,-40181.19523371488,10.5,10499959818.804766,47.655,-122.3035,60.0,1.85
2026-02-06T22:12:02+00:00,SAT-57605,172.6830216865209,41.86209728833912,803.7600956107862,1.2054776137791632,-42220.925199796766,10.5,10499957779.0748,47.655,-122.3035,60.0,1.8666666666666667
2026-02-06T22:12:03+00:00,SAT-57605,172.01403447518322,41.77091501765099,804.9623415054388,1.2634534203244083,-44251.48318242979,10.5,10499955748.516817,47.655,-122.3035,60.0,1.8833333333333333
2026-02-06T22:12:04+00:00,SAT-57605,171.34904200072495,41.675757817112675,806.2224077814999,1.3211564271145575,-46272.48656369753,10.5,10499953727.513435,47.655,-122.3035,60.0,1.9
2026-02-06T22:12:05+00:00,SAT-57605,170.68818711228514,41.57669976144503,807.5400223705531,1.3785759922888865,-48283.56262062239,10.5,10499951716.43738,47.655,-122.3035,60.0,1.9166666666666667
2026-02-06T22:12:06+00:00,SAT-57605,170.03160647230726,41.473817015861144,808.9149025908498,1.4357017561969152,-50284.348514423305,10.5,10499949715.651485,47.655,-122.3035,60.0,1.9333333333333333
2026-02-06T22:12:07+00:00,SAT-57605,169.37943048164664,41.367187675352874,810.3467554287655,1.492523669634464,-52274.49227946178,10.5,10499947725.50772,47.655,-122.3035,60.0,1.95
2026-02-06T22:12:08+00:00,SAT-57605,168.73178321493324,41.25689160196196,811.8352778484096,1.5490319645891244,-54253.65179862465,10.5,10499945746.348202,47.655,-122.3035,60.0,1.9666666666666666
2026-02-06T22:12:09+00:00,SAT-57605,168.0887823922915,41.143010264849124,813.3801570720685,1.6052171892775666,-56221.49603047869,10.5,10499943778.50397,47.655,-122.3035,60.0,1.9833333333333334
2026-02-06T22:12:10+00:00,SAT-57605,167.45053935594504,41.02562657890702,814.9810708955814,1.661070203790223,-58177.70485672905,10.5,10499941822.295143,47.655,-122.3035,60.0,2.0
2026-02-06T22:12:11+00:00,SAT-57605,166.8171590698592,40.90482474535543,816.6376879993829,1.7165821877481262,-60121.969350394145,10.5,10499939878.03065,47.655,-122.3035,60.0,2.0166666666666666
2026-02-06T22:12:12+00:00,SAT-57605,166.1887401356001,40.780690093893604,818.349668267174,1.7717446289821879,-62053.991379306055,10.5,10499937946.008621,47.655,-122.3035,60.0,2.033333333333333
2026-02-06T22:12:13+00:00,SAT-57605,165.56537483044048,40.65330892821974,820.1166630933067,1.8265493488569002,-63973.4844930537,10.5,10499936026.515507,47.655,-122.3035,60.0,2.05
2026-02-06T22:12:14+00:00,SAT-57605,164.9471491525789,40.52276837267212,821.9383157154233,1.880988488075375,-65880.17342581526,10.5,10499934119.826574,47.655,-122.3035,60.0,2.066666666666667
2026-02-06T22:12:15+00:00,SAT-57605,164.33414288764772,40.38915622322777,823.8142615329383,1.9350545301582098,-67773.79491868739,10.5,10499932226.205082,47.655,-122.3035,60.0,2.0833333333333335
2026-02-06T22:12:16+00:00,SAT-57605,163.72642968160824,40.25256080049839,825.7441284489389,1.9887402547599442,-69654.09608463003,10.5,10499930345.903915,47.655,-122.3035,60.0,2.1
2026-02-06T22:12:17+00:00,SAT-57605,163.12407714219884,40.113070810006676,827.7275371655221,2.0420388217220005,-71520.83735235597,10.5,10499928479.162647,47.655,-122.3035,60.0,2.1166666666666667
