DopplerPredictor/satellites_20260211_210343/SAT-61670.csv

timestamp,satellite,azimuth_deg,elevation_deg,distance_km,relative_velocity_kms,doppler_shift_hz,tx_freq_ghz,rx_freq_hz,ue_lat,ue_lon,ue_alt_m,time_minutes
2026-02-06T22:17:09+00:00,SAT-61670,326.4630106886897,40.33294172248993,710.9995812671385,-4.202568795426042,147191.73606419892,10.5,10500147191.736065,47.655,-122.3035,60.0,6.983333333333333
2026-02-06T22:17:10+00:00,SAT-61670,326.9221923563268,40.671300325577455,706.8082789786986,-4.156890303800648,145591.88206764963,10.5,10500145591.882067,47.655,-122.3035,60.0,7.0
2026-02-06T22:17:11+00:00,SAT-61670,327.3915012041439,41.01138120949696,702.6625327241514,-4.110393450645666,143963.36558866833,10.5,10500143963.36559,47.655,-122.3035,60.0,7.016666666666667
2026-02-06T22:17:12+00:00,SAT-61670,327.87121583372584,41.3530970700003,698.5631586711127,-4.063068197497378,142305.83503779295,10.5,10500142305.835037,47.655,-122.3035,60.0,7.033333333333333
2026-02-06T22:17:13+00:00,SAT-61670,328.36162171569555,41.69635387602775,694.5109829987493,-4.014904790441645,140618.94879169133,10.5,10500140618.948792,47.655,-122.3035,60.0,7.05
2026-02-06T22:17:14+00:00,SAT-61670,328.86301114241235,42.041050565714876,690.5068416139939,-3.965893737187354,138902.37439017635,10.5,10500138902.37439,47.655,-122.3035,60.0,7.066666666666666
2026-02-06T22:17:15+00:00,SAT-61670,329.37568314015516,42.387078732069725,686.5515798906227,-3.9160258867759867,137155.79132797217,10.5,10500137155.791328,47.655,-122.3035,60.0,7.083333333333333
2026-02-06T22:17:16+00:00,SAT-61670,329.89994334919453,42.734322307672855,682.6460523288374,-3.8652924401713906,135378.89142561285,10.5,10500135378.891426,47.655,-122.3035,60.0,7.1
2026-02-06T22:17:17+00:00,SAT-61670,330.4361038582949,43.08265724342716,678.791122204288,-3.8136849940889124,133571.38036452397,10.5,10500133571.380365,47.655,-122.3035,60.0,7.116666666666666
2026-02-06T22:17:18+00:00,SAT-61670,330.9844829928207,43.43195118519585,674.9876611733794,-3.761195535770765,131732.97750403392,10.5,10500131732.977505,47.655,-122.3035,60.0,7.133333333333334
2026-02-06T22:17:19+00:00,SAT-61670,331.5454050432521,43.78206314499818,671.2365488837952,-3.7078165750775613,129863.42050777808,10.5,10500129863.420507,47.655,-122.3035,60.0,7.15
2026-02-06T22:17:20+00:00,SAT-61670,332.1191999489106,44.13284318077805,667.5386724532766,-3.65354105261323,127962.46212584479,10.5,10500127962.462126,47.655,-122.3035,60.0,7.166666666666667
2026-02-06T22:17:21+00:00,SAT-61670,332.70620289643426,44.48413206563315,663.8949260400367,-3.5983624757642647,126029.87495944538,10.5,10500126029.87496,47.655,-122.3035,60.0,7.183333333333334
2026-02-06T22:17:22+00:00,SAT-61670,333.3067538604831,44.83576096935271,660.306210277496,-3.5422749041326265,124065.45095071263,10.5,10500124065.45095,47.655,-122.3035,60.0,7.2
2026-02-06T22:17:23+00:00,SAT-61670,333.9211970562877,45.18755114029119,656.7734317235474,-3.4852730237889338,122069.00398336173,10.5,10500122069.003983,47.655,-122.3035,60.0,7.216666666666667
2026-02-06T22:17:24+00:00,SAT-61670,334.54988031026465,45.539313598320376,653.2975022357675,-3.4273521554784363,120040.37017009807,10.5,10500120040.37017,47.655,-122.3035,60.0,7.233333333333333
2026-02-06T22:17:25+00:00,SAT-61670,335.1931543297375,45.89084883502154,649.8793383384434,-3.3685083282925508,117979.41043290615,10.5,10500117979.410433,47.655,-122.3035,60.0,7.25
2026-02-06T22:17:26+00:00,SAT-61670,335.85137187445014,46.24194653051951,646.5198605161246,-3.3087382616719094,115886.00987272018,10.5,10500115886.009872,47.655,-122.3035,60.0,7.266666666666667
2026-02-06T22:17:27+00:00,SAT-61670,336.52488680382044,46.592385280771595,643.2199925251265,-3.2480394881749795,113760.08206930038,10.5,10500113760.08207,47.655,-122.3035,60.0,7.283333333333333
2026-02-06T22:17:28+00:00,SAT-61670,337.21405301843095,46.941932353459435,639.9806605825897,-3.1864103402080586,111601.56861646139,10.5,10500111601.568617,47.655,-122.3035,60.0,7.3
2026-02-06T22:17:29+00:00,SAT-61670,337.91922326035706,47.290343462370686,636.8027925687791,-3.123849981494122,109410.44022424433,10.5,10500109410.440224,47.655,-122.3035,60.0,7.316666666666666
2026-02-06T22:17:30+00:00,SAT-61670,338.64074777053213,47.63736256893118,633.6873171979942,-3.0603584944248663,107186.69977835499,10.5,10500107186.699778,47.655,-122.3035,60.0,7.333333333333333
2026-02-06T22:17:31+00:00,SAT-61670,339.3789728078562,47.9827217218006,630.6351631023633,-2.9959368944025546,104930.38284247572,10.5,10500104930.382843,47.655,-122.3035,60.0,7.35
2026-02-06T22:17:32+00:00,SAT-61670,340.1342390053082,48.326140931732496,627.6472579013353,-2.930587151289295,102641.55840951008,10.5,10500102641.558409,47.655,-122.3035,60.0,7.366666666666666
2026-02-06T22:17:33+00:00,SAT-61670,340.90687955572605,48.66732808767729,624.7245272497776,-2.8643122614084455,100320.33142337648,10.5,10500100320.331423,47.655,-122.3035,60.0,7.383333333333334
2026-02-06T22:17:34+00:00,SAT-61670,341.69721823289336,49.005978925760004,621.867893814267,-2.797116284225122,97966.84406371485,10.5,10500097966.844063,47.655,-122.3035,60.0,7.4
2026-02-06T22:17:35+00:00,SAT-61670,342.5055672344388,49.341777053480016,619.0782762127977,-2.729004345994707,95581.27587367265,10.5,10500095581.275873,47.655,-122.3035,60.0,7.416666666666667
2026-02-06T22:17:36+00:00,SAT-61670,343.3322248317922,49.6743940316307,616.3565879508519,-2.6599827109791767,93163.84625420214,10.5,10500093163.846254,47.655,-122.3035,60.0,7.433333333333334
2026-02-06T22:17:37+00:00,SAT-61670,344.17747284397973,50.003489528787696,613.7037362864434,-2.5900587894471188,90714.81474425466,10.5,10500090714.814745,47.655,-122.3035,60.0,7.45
2026-02-06T22:17:38+00:00,SAT-61670,345.04157391678876,50.32871154794917,611.1206210871826,-2.5192411937523476,88234.482984891,10.5,10500088234.482985,47.655,-122.3035,60.0,7.466666666666667
2026-02-06T22:17:39+00:00,SAT-61670,345.9247686249772,50.64969673847933,608.6081336314153,-2.44753974340048,85723.19489673433,10.5,10500085723.194897,47.655,-122.3035,60.0,7.483333333333333
2026-02-06T22:17:40+00:00,SAT-61670,346.8272723868596,50.96607079443466,606.1671554043063,-2.3749655146891713,83181.33841858123,10.5,10500083181.338419,47.655,-122.3035,60.0,7.5
2026-02-06T22:17:41+00:00,SAT-61670,347.7492722161039,51.27744895225497,603.7985568444168,-2.3015308343349123,80609.34528418517,10.5,10500080609.345284,47.655,-122.3035,60.0,7.516666666666667
2026-02-06T22:17:42+00:00,SAT-61670,348.6909233043818,51.58343658790715,601.5031960966376,-2.2272493286323654,78007.69274402439,10.5,10500078007.692743,47.655,-122.3035,60.0,7.533333333333333
2026-02-06T22:17:43+00:00,SAT-61670,349.65234547425183,51.88362992764392,599.2819177160945,-2.1521359409222582,75376.90417710145,10.5,10500075376.904177,47.655,-122.3035,60.0,7.55
2026-02-06T22:17:44+00:00,SAT-61670,350.63361951652575,52.17761687496286,597.1355513546353,-2.0762069106674717,72717.5483580993,10.5,10500072717.548359,47.655,-122.3035,60.0,7.566666666666666
2026-02-06T22:17:45+00:00,SAT-61670,351.634783422905,52.46497795437608,595.0649104681787,-1.9994798256647381,70030.2412860558,10.5,10500070030.241285,47.655,-122.3035,60.0,7.583333333333333
2026-02-06T22:17:46+00:00,SAT-61670,352.6558285836205,52.74528738699566,593.0707909719982,-1.9219736082152221,67315.645699999,10.5,10500067315.6457,47.655,-122.3035,60.0,7.6
2026-02-06T22:17:47+00:00,SAT-61670,353.6966959636124,53.01811429307873,591.1539699097943,-1.8437085030324478,64574.47065543158,10.5,10500064574.470655,47.655,-122.3035,60.0,7.616666666666666
2026-02-06T22:17:48+00:00,SAT-61670,354.75727230465884,53.283024024305064,589.3152041348267,-1.7647061044799555,61807.47247830875,10.5,10500061807.472479,47.655,-122.3035,60.0,7.633333333333334
2026-02-06T22:17:49+00:00,SAT-61670,355.837386431219,53.53957963255422,587.5552289638835,-1.6849893244911982,59015.45364145746,10.5,10500059015.453642,47.655,-122.3035,60.0,7.65
2026-02-06T22:17:50+00:00,SAT-61670,356.9368056909112,53.78734346616451,585.8747568632426,-1.6045823904782202,56199.26269132931,10.5,10500056199.262691,47.655,-122.3035,60.0,7.666666666666667
2026-02-06T22:17:51+00:00,SAT-61670,358.05523261279075,54.02587889515854,584.2744761367209,-1.523510819488297,53359.79334285694,10.5,10500053359.793343,47.655,-122.3035,60.0,7.683333333333334
2026-02-06T22:17:52+00:00,SAT-61670,359.1923018429231,54.25475215700042,582.755049639495,-1.4418014094144047,50497.98417160731,10.5,10500050497.98417,47.655,-122.3035,60.0,7.7
2026-02-06T22:17:53+00:00,SAT-61670,0.34757744659401907,54.47353431786907,581.3171135006909,-1.3594821906083767,47614.81691906991,10.5,10500047614.81692,47.655,-122.3035,60.0,7.716666666666667
2026-02-06T22:17:54+00:00,SAT-61670,1.5205506271774443,54.68180333332538,579.9612758942268,-1.276582415340425,44711.31612348455,10.5,10500044711.316124,47.655,-122.3035,60.0,7.733333333333333
2026-02-06T22:17:55+00:00,SAT-61670,2.71063797306374,54.87914620102783,578.6881158201735,-1.193132501798406,41788.54715845875,10.5,10500041788.54716,47.655,-122.3035,60.0,7.75
2026-02-06T22:17:56+00:00,SAT-61670,3.917180275315357,55.06516118276185,577.4981819419602,-1.1091639876290358,38847.61460578463,10.5,10500038847.614605,47.655,-122.3035,60.0,7.766666666666667
2026-02-06T22:17:57+00:00,SAT-61670,5.139441996118768,55.23946007840999,576.3919914699173,-1.0247095036864329,35889.66133600181,10.5,10500035889.661337,47.655,-122.3035,60.0,7.783333333333333
2026-02-06T22:17:58+00:00,SAT-61670,6.376611484200388,55.40167053365964,575.3700290710002,-0.939802697051945,32915.865812226075,10.5,10500032915.865812,47.655,-122.3035,60.0,7.8
2026-02-06T22:17:59+00:00,SAT-61670,7.627801946211158,55.55143834957227,574.4327458552862,-0.854478178970335,29927.440266654467,10.5,10500029927.440268,47.655,-122.3035,60.0,7.816666666666666
2026-02-06T22:18:00+00:00,SAT-61670,8.892053247503256,55.68842977173136,573.5805584143957,-0.768771469781121,26925.628771827778,10.5,10500026925.628773,47.655,-122.3035,60.0,7.833333333333333
2026-02-06T22:18:01+00:00,SAT-61670,10.168334585028035,55.81233373061432,572.8138479148346,-0.6827189174114328,23911.704385905683,10.5,10500023911.704386,47.655,-122.3035,60.0,7.85
2026-02-06T22:18:02+00:00,SAT-61670,11.455548012747107,55.922863999788376,572.1329592726255,-0.5963576336474135,20886.966920621602,10.5,10500020886.96692,47.655,-122.3035,60.0,7.866666666666666
2026-02-06T22:18:03+00:00,SAT-61670,12.752532850848308,56.01976124494871,571.5382003914966,-0.5097254170300372,17852.740240768133,10.5,10500017852.74024,47.655,-122.3035,60.0,7.883333333333334
2026-02-06T22:18:04+00:00,SAT-61670,14.058070944400612,56.102794931881064,571.0298414779674,-0.4228606728056692,14810.36946052701,10.5,10500014810.369461,47.655,-122.3035,60.0,7.9
2026-02-06T22:18:05+00:00,SAT-61670,15.370892731704194,56.171765063879924,570.6081144362709,-0.3358023300077859,11761.21803932023,10.5,10500011761.218039,47.655,-122.3035,60.0,7.916666666666667
2026-02-06T22:18:06+00:00,SAT-61670,16.68968406027147,56.2265037207176,570.273212345969,-0.24858975488161086,8706.664749574567,10.5,10500008706.66475,47.655,-122.3035,60.0,7.933333333333334
2026-02-06T22:18:07+00:00,SAT-61670,18.013093664196226,56.26687637348208,570.025289025915,-0.1612626652314865,5648.100676804245,10.5,10500005648.100677,47.655,-122.3035,60.0,7.95
2026-02-06T22:18:08+00:00,SAT-61670,19.339741214622155,56.29278295338018,569.8644586836347,-0.07386104070121746,2586.9260772490256,10.5,10500002586.926077,47.655,-122.3035,60.0,7.966666666666667
2026-02-06T22:18:09+00:00,SAT-61670,20.66822582238344,56.30415865555639,569.7907956541907,0.013574969132583005,-475.45284108555376,10.5,10499999524.54716,47.655,-122.3035,60.0,7.983333333333333
2026-02-06T22:18:10+00:00,SAT-61670,21.997134865405194,56.30097446357738,569.8043342307044,0.10100513643654169,-3537.6271293111977,10.5,10499996462.372871,47.655,-122.3035,60.0,8.0
2026-02-06T22:18:11+00:00,SAT-61670,23.32505300308193,56.28323738537915,569.9050685863086,0.18838924644971428,-6598.188296391366,10.5,10499993401.811703,47.655,-122.3035,60.0,8.016666666666667
2026-02-06T22:18:12+00:00,SAT-61670,24.65057122247906,56.25099039658995,570.0929527871864,0.27568719078758913,-9655.731577042161,10.5,10499990344.268423,47.655,-122.3035,60.0,8.033333333333333
2026-02-06T22:18:13+00:00,SAT-61670,25.97229580417944,56.20431209187583,570.3679008986603,0.36285905933266815,-12708.859150129172,10.5,10499987291.14085,47.655,-122.3035,60.0,8.05
2026-02-06T22:18:14+00:00,SAT-61670,27.288857031740154,56.143316050761854,570.7297871829293,0.4498652262828713,-15756.183152446578,10.5,10499984243.816847,47.655,-122.3035,60.0,8.066666666666666
2026-02-06T22:18:15+00:00,SAT-61670,28.598917518304592,56.06814993002259,571.1784463826222,0.5366664492228815,-18796.329148614725,10.5,10499981203.67085,47.655,-122.3035,60.0,8.083333333333334
2026-02-06T22:18:16+00:00,SAT-61670,29.901180060232353,55.97899429618834,571.7136741031545,0.6232239437433852,-21827.93874456156,10.5,10499978172.061255,47.655,-122.3035,60.0,8.1
2026-02-06T22:18:17+00:00,SAT-61670,31.194394846689516,55.87606122210111,572.3352272695098,0.7094994804424387,-24849.672984920813,10.5,10499975150.327015,47.655,-122.3035,60.0,8.116666666666667
2026-02-06T22:18:18+00:00,SAT-61670,32.47736599796838,55.759592667073825,573.0428246797559,0.7954554508921393,-27860.214663463827,10.5,10499972139.785337,47.655,-122.3035,60.0,8.133333333333333
2026-02-06T22:18:19+00:00,SAT-61670,33.74895729907644,55.62985867190163,573.8361476243571,0.8810549657542641,-30858.271759524294,10.5,10499969141.728241,47.655,-122.3035,60.0,8.15
2026-02-06T22:18:20+00:00,SAT-61670,35.00809713896536,55.48715539154873,574.7148406033336,0.9662619138528129,-33842.57950696857,10.5,10499966157.420492,47.655,-122.3035,60.0,8.166666666666666
2026-02-06T22:18:21+00:00,SAT-61670,36.25378256103703,55.33180300128812,575.6785121023395,1.0510410412626607,-36811.90316421482,10.5,10499963188.096836,47.655,-122.3035,60.0,8.183333333333334
2026-02-06T22:18:22+00:00,SAT-61670,37.48508245210571,55.16414350289843,576.7267354476143,1.135358011050537,-39765.04010661482,10.5,10499960234.959894,47.655,-122.3035,60.0,8.2
2026-02-06T22:18:23+00:00,SAT-61670,38.70113985454107,54.984538463656904,577.8590497205164,1.2191794757691459,-42700.82236550472,10.5,10499957299.177635,47.655,-122.3035,60.0,8.216666666666667
2026-02-06T22:18:24+00:00,SAT-61670,39.90117344287863,54.793366714864135,579.0749607443579,1.3024731268425327,-45618.11835788942,10.5,10499954381.881641,47.655,-122.3035,60.0,8.233333333333333
2026-02-06T22:18:25+00:00,SAT-61670,41.08447818266221,54.59102204084001,580.3739421204887,1.385207744719242,-48515.8346430184,10.5,10499951484.165358,47.655,-122.3035,60.0,8.25
2026-02-06T22:18:26+00:00,SAT-61670,42.25042523149106,54.377910883558066,581.7554363144029,1.467353259967705,-51392.91806220456,10.5,10499948607.081938,47.655,-122.3035,60.0,8.266666666666667
2026-02-06T22:18:27+00:00,SAT-61670,43.39846115370259,54.15445008424062,583.2188558027754,1.5488807747971864,-54248.3564925788,10.5,10499945751.643507,47.655,-122.3035,60.0,8.283333333333333
2026-02-06T22:18:28+00:00,SAT-61670,44.528106490552396,53.92106468841813,584.7635842419609,1.629762628102925,-57081.18112524603,10.5,10499942918.818874,47.655,-122.3035,60.0,8.3
2026-02-06T22:18:29+00:00,SAT-61670,45.638953796261035,53.67818582539159,586.3889777013651,1.7099723934281752,-59890.46639390721,10.5,10499940109.533606,47.655,-122.3035,60.0,8.316666666666666
2026-02-06T22:18:30+00:00,SAT-61670,46.73066517145805,53.42624868705439,588.0943658947826,1.7894849311370287,-62675.33180217229,10.5,10499937324.668198,47.655,-122.3035,60.0,8.333333333333334
2026-02-06T22:18:31+00:00,SAT-61670,47.802969413238586,53.16569060976672,589.8790534637682,1.8682764119820938,-65434.942748999994,10.5,10499934565.057251,47.655,-122.3035,60.0,8.35
2026-02-06T22:18:32+00:00,SAT-61670,48.85565883815432,52.89694927285678,591.742321284512,1.946324305055744,-68168.51010669958,10.5,10499931831.489893,47.655,-122.3035,60.0,8.366666666666667
2026-02-06T22:18:33+00:00,SAT-61670,49.88858583529879,52.620461025373096,593.6834277626987,2.0236074183334805,-70875.29164093095,10.5,10499929124.708359,47.655,-122.3035,60.0,8.383333333333333
2026-02-06T22:18:34+00:00,SAT-61670,50.9016592508946,52.33665933752574,595.7016101688014,2.1001058948845155,-73554.59187798318,10.5,10499926445.408121,47.655,-122.3035,60.0,8.4
2026-02-06T22:18:35+00:00,SAT-61670,51.89484064378632,52.04597338521146,597.7960859695963,2.175801216792311,-76205.76224208837,10.5,10499923794.237759,47.655,-122.3035,60.0,8.416666666666666
2026-02-06T22:18:36+00:00,SAT-61670,52.8681404764889,51.7488267663697,599.9660541635869,2.2506761951933383,-78828.20070653695,10.5,10499921171.799294,47.655,-122.3035,60.0,8.433333333333334
2026-02-06T22:18:37+00:00,SAT-61670,53.82161428871069,51.44563634930435,602.2106966064943,2.3247149595754997,-81421.35141886307,10.5,10499918578.64858,47.655,-122.3035,60.0,8.45
2026-02-06T22:18:38+00:00,SAT-61670,54.75535890070723,51.136811249724055,604.5291793260737,2.397902979589011,-83984.70546475395,10.5,10499916015.294535,47.655,-122.3035,60.0,8.466666666666667
2026-02-06T22:18:39+00:00,SAT-61670,55.66950869788069,50.822751927798244,606.9206538586851,2.4702269985519476,-86517.79853913285,10.5,10499913482.201462,47.655,-122.3035,60.0,8.483333333333333
2026-02-06T22:18:40+00:00,SAT-61670,56.564231995737394,50.503849411538766,609.3842585195451,2.5416750784382356,-89020.21252182894,10.5,10499910979.787477,47.655,-122.3035,60.0,8.5
2026-02-06T22:18:41+00:00,SAT-61670,57.43972755557423,50.180484625594204,611.9191197178494,2.6122365021660507,-91491.57205530346,10.5,10499908508.427944,47.655,-122.3035,60.0,8.516666666666667
2026-02-06T22:18:42+00:00,SAT-61670,58.29622122083569,49.85302783730221,614.5243531744419,2.681901812739001,-93931.5459155397,10.5,10499906068.454084,47.655,-122.3035,60.0,8.533333333333333
2026-02-06T22:18:43+00:00,SAT-61670,59.133962739689686,49.5218381951526,617.199065178523,2.750662768439305,-96339.84544271858,10.5,10499903660.154558,47.655,-122.3035,60.0,8.55
2026-02-06T22:18:44+00:00,SAT-61670,59.95322275536931,49.18726336330142,619.9423537996717,2.8185122808296885,-98716.22236978267,10.5,10499901283.77763,47.655,-122.3035,60.0,8.566666666666666
2026-02-06T22:18:45+00:00,SAT-61670,60.754289969818494,48.84963924657932,622.7533100380311,2.885444434580816,-101060.46951687681,10.5,10499898939.530483,47.655,-122.3035,60.0,8.583333333333334
2026-02-06T22:18:46+00:00,SAT-61670,61.53746850869605,48.50928978865147,625.6310189942744,2.9514544316117064,-103372.41883490916,10.5,10499896627.581165,47.655,-122.3035,60.0,8.6
2026-02-06T22:18:47+00:00,SAT-61670,62.303075466031174,48.166526845505096,628.5745609838557,3.0165385183207984,-105651.93885687541,10.5,10499894348.061144,47.655,-122.3035,60.0,8.616666666666667
2026-02-06T22:18:48+00:00,SAT-61670,63.05143862549867,47.82165012890065,631.5830125786912,3.0806940086293984,-107898.9355049375,10.5,10499892101.064495,47.655,-122.3035,60.0,8.633333333333333
2026-02-06T22:18:49+00:00,SAT-61670,63.7828943790492,47.47494720190165,634.6554476718192,3.1439192112866827,-110113.34954433766,10.5,10499889886.650455,47.655,-122.3035,60.0,8.65
2026-02-06T22:18:50+00:00,SAT-61670,64.49778581282254,47.126693531347975,637.7909384695613,3.206213391325932,-112295.15523343248,10.5,10499887704.844767,47.655,-122.3035,60.0,8.666666666666666
2026-02-06T22:18:51+00:00,SAT-61670,65.19646096365472,46.777152587088935,640.9885564452424,3.26757675589168,-114444.35982729973,10.5,10499885555.640173,47.655,-122.3035,60.0,8.683333333333334
2026-02-06T22:18:52+00:00,SAT-61670,65.87927124319542,46.42657597971314,644.2473732787771,3.328010371961219,-116561.00069599749,10.5,10499883438.999304,47.655,-122.3035,60.0,8.7
2026-02-06T22:18:53+00:00,SAT-61670,66.54657000721538,46.075203638914964,647.5664617141964,3.38751614819429,-118645.14468886354,10.5,10499881354.85531,47.655,-122.3035,60.0,8.716666666666667
2026-02-06T22:18:54+00:00,SAT-61670,67.19871127559448,45.72326402047761,650.9448963990749,3.4460968117435318,-120696.88732231912,10.5,10499879303.112679,47.655,-122.3035,60.0,8.733333333333333
2026-02-06T22:18:55+00:00,SAT-61670,67.83604859136645,45.370974338135966,654.3817547008274,3.503755826562081,-122716.34991865557,10.5,10499877283.650082,47.655,-122.3035,60.0,8.75
2026-02-06T22:18:56+00:00,SAT-61670,68.45893399969154,45.01854082220259,657.8761174415366,3.5604973834046096,-124703.67925582838,10.5,10499875296.320744,47.655,-122.3035,60.0,8.766666666666667
2026-02-06T22:18:57+00:00,SAT-61670,69.06771715073639,44.66615899368187,661.4270696228051,3.6163263524630187,-126659.04590855884,10.5,10499873340.954092,47.655,-122.3035,60.0,8.783333333333333
2026-02-06T22:18:58+00:00,SAT-61670,69.6627445106157,44.31401395440158,665.0337011033702,3.6712482514310536,-128582.6431298217,10.5,10499871417.35687,47.655,-122.3035,60.0,8.8
2026-02-06T22:18:59+00:00,SAT-61670,70.24435867407938,43.96228068851958,668.6951072448713,3.725269153283631,-130474.68362088724,10.5,10499869525.31638,47.655,-122.3035,60.0,8.816666666666666
2026-02-06T22:19:00+00:00,SAT-61670,70.81289776189648,43.61112437835874,672.4103894656423,3.778395741063185,-132335.40145017073,10.5,10499867664.598549,47.655,-122.3035,60.0,8.833333333333334
2026-02-06T22:19:01+00:00,SAT-61670,71.36869491697908,43.26070071800109,676.1786558491422,3.8306351928653437,-134165.04802494435,10.5,10499865834.951975,47.655,-122.3035,60.0,8.85
2026-02-06T22:19:02+00:00,SAT-61670,71.91207786569106,42.91115623880694,679.9990216376831,3.8819951675683697,-135963.8915915219,10.5,10499864036.108408,47.655,-122.3035,60.0,8.866666666666667
2026-02-06T22:19:03+00:00,SAT-61670,72.4433685527379,42.56262863512444,683.8706097119227,3.9324837742873715,-137732.216165416,10.5,10499862267.783834,47.655,-122.3035,60.0,8.883333333333333
2026-02-06T22:19:04+00:00,SAT-61670,72.9628828401624,42.21524709016291,687.7925510398937,3.9821095591090083,-139470.32106673138,10.5,10499860529.678934,47.655,-122.3035,60.0,8.9
2026-02-06T22:19:05+00:00,SAT-61670,73.47093026586991,41.86913259910118,691.763985112806,4.030881402866387,-141178.51733980933,10.5,10499858821.48266,47.655,-122.3035,60.0,8.916666666666666
2026-02-06T22:19:06+00:00,SAT-61670,73.96781384486786,41.524398295911936,695.7840602788931,4.078808573420644,-142857.12958434984,10.5,10499857142.870415,47.655,-122.3035,60.0,8.933333333333334
2026-02-06T22:19:07+00:00,SAT-61670,74.45382992709165,41.181149769235454,699.8519341294038,4.12590062533036,-144506.49244141017,10.5,10499855493.507559,47.655,-122.3035,60.0,8.95
2026-02-06T22:19:08+00:00,SAT-61670,74.92926808774607,40.83948537972552,703.9667737845319,4.172167404093034,-146126.95074195912,10.5,10499853873.049257,47.655,-122.3035,60.0,8.966666666666667
2026-02-06T22:19:09+00:00,SAT-61670,75.39441105832061,40.499496568977335,708.1277561835739,4.217619032093318,-147718.85901472493,10.5,10499852281.140985,47.655,-122.3035,60.0,8.983333333333333
2026-02-06T22:19:10+00:00,SAT-61670,75.84953469123037,40.16126816117351,712.3340683610736,4.262265833202003,-149282.5788453325,10.5,10499850717.421154,47.655,-122.3035,60.0,9.0
