DopplerPredictor/satellites_20260211_210343/SAT-45567.csv

timestamp,satellite,azimuth_deg,elevation_deg,distance_km,relative_velocity_kms,doppler_shift_hz,tx_freq_ghz,rx_freq_hz,ue_lat,ue_lon,ue_alt_m,time_minutes
2026-02-06T22:10:14+00:00,SAT-45567,302.6263384805252,40.112943663277896,815.8444572111176,-5.102394518572506,178707.4391478231,10.5,10500178707.439148,47.655,-122.3035,60.0,0.06666666666666667
2026-02-06T22:10:15+00:00,SAT-45567,302.6988411863273,40.476293716629755,810.7557415081185,-5.074111814775523,177716.8592251343,10.5,10500177716.859224,47.655,-122.3035,60.0,0.08333333333333333
2026-02-06T22:10:16+00:00,SAT-45567,302.7729840609496,40.84379716789597,805.6952326868911,-5.045286920087917,176707.2894839907,10.5,10500176707.289484,47.655,-122.3035,60.0,0.1
2026-02-06T22:10:17+00:00,SAT-45567,302.8488260338383,41.215506858552786,800.6634714847863,-5.015909307583242,175678.36122689935,10.5,10500175678.361227,47.655,-122.3035,60.0,0.11666666666666667
2026-02-06T22:10:18+00:00,SAT-45567,302.9264288795095,41.591475644674155,795.6610091378614,-4.985968243074273,174629.69849721793,10.5,10500174629.698498,47.655,-122.3035,60.0,0.13333333333333333
2026-02-06T22:10:19+00:00,SAT-45567,303.0058573892721,41.9717563378989,790.688407587583,-4.955452912462823,173560.9225394844,10.5,10500173560.922539,47.655,-122.3035,60.0,0.15
2026-02-06T22:10:20+00:00,SAT-45567,303.08717955780475,42.35640165162206,785.7462395605261,-4.9243523821873,172471.65041412303,10.5,10500172471.650414,47.655,-122.3035,60.0,0.16666666666666666
2026-02-06T22:10:21+00:00,SAT-45567,303.1704667827822,42.745464140025355,780.8350886875145,-4.892655576507187,171361.49420185035,10.5,10500171361.494202,47.655,-122.3035,60.0,0.18333333333333332
2026-02-06T22:10:22+00:00,SAT-45567,303.25579407902035,43.1389961306426,775.9555496454216,-4.860351322736501,170230.06258794296,10.5,10500170230.062588,47.655,-122.3035,60.0,0.2
2026-02-06T22:10:23+00:00,SAT-45567,303.3432403097168,43.53704965551802,771.108228253853,-4.827428357552587,169076.96108319765,10.5,10500169076.961082,47.655,-122.3035,60.0,0.21666666666666667
2026-02-06T22:10:24+00:00,SAT-45567,303.43288843550573,43.93967637780385,766.2937415655418,-4.793875298315873,167901.79101942806,10.5,10500167901.79102,47.655,-122.3035,60.0,0.23333333333333334
2026-02-06T22:10:25+00:00,SAT-45567,303.5248257822643,44.346927510500905,761.512717985346,-4.759680689155494,166704.15116357827,10.5,10500166704.151163,47.655,-122.3035,60.0,0.25
2026-02-06T22:10:26+00:00,SAT-45567,303.61914433088197,44.758853733178114,756.7657973432821,-4.724833002876262,165483.63778451274,10.5,10500165483.637785,47.655,-122.3035,60.0,0.26666666666666666
2026-02-06T22:10:27+00:00,SAT-45567,303.71594103017367,45.1755051028314,752.0536309656595,-4.689320653879009,164239.84510554164,10.5,10500164239.845106,47.655,-122.3035,60.0,0.2833333333333333
2026-02-06T22:10:28+00:00,SAT-45567,303.81531813520314,45.596930959468,747.3768817333273,-4.653131971292147,162972.36436337416,10.5,10500162972.364363,47.655,-122.3035,60.0,0.3
2026-02-06T22:10:29+00:00,SAT-45567,303.9173835726674,46.023179822428496,742.7362241667179,-4.616255275029054,161680.78647197012,10.5,10500161680.786472,47.655,-122.3035,60.0,0.31666666666666665
2026-02-06T22:10:30+00:00,SAT-45567,304.02225133824874,46.45429928631607,738.132344435038,-4.578678828522477,160364.70036709867,10.5,10500160364.700367,47.655,-122.3035,60.0,0.3333333333333333
2026-02-06T22:10:31+00:00,SAT-45567,304.1300419260461,46.89033590508549,733.5659404125971,-4.540390921946297,159023.6959211166,10.5,10500159023.69592,47.655,-122.3035,60.0,0.35
2026-02-06T22:10:32+00:00,SAT-45567,304.2408827967409,47.33133507591973,729.0377216521387,-4.501379802945925,157657.3615168538,10.5,10500157657.361517,47.655,-122.3035,60.0,0.36666666666666664
2026-02-06T22:10:33+00:00,SAT-45567,304.35490888404803,47.77734090813038,724.548409427254,-4.46163377340157,156265.28743667225,10.5,10500156265.287437,47.655,-122.3035,60.0,0.38333333333333336
2026-02-06T22:10:34+00:00,SAT-45567,304.47226314819227,48.228396092442864,720.0987366782933,-4.421141143478956,154847.06425312755,10.5,10500154847.064253,47.655,-122.3035,60.0,0.4
2026-02-06T22:10:35+00:00,SAT-45567,304.5930971769399,48.68454175644024,715.6894480041026,-4.379890290269989,153402.28488281346,10.5,10500153402.284883,47.655,-122.3035,60.0,0.4166666666666667
2026-02-06T22:10:36+00:00,SAT-45567,304.71757184242074,49.145817315891136,711.321299595276,-4.337869680094726,151930.5453674709,10.5,10500151930.545368,47.655,-122.3035,60.0,0.43333333333333335
2026-02-06T22:10:37+00:00,SAT-45567,304.84585801845685,49.61226031807067,706.9950591451676,-4.295067831094735,150431.4435638495,10.5,10500150431.443563,47.655,-122.3035,60.0,0.45
2026-02-06T22:10:38+00:00,SAT-45567,304.9781373630451,50.083906269945025,702.7115057982086,-4.251473445955337,148904.5837922015,10.5,10500148904.583792,47.655,-122.3035,60.0,0.4666666666666667
2026-02-06T22:10:39+00:00,SAT-45567,305.11460317864857,50.56078846894767,698.4714299658586,-4.207075307202668,147349.5731691423,10.5,10500147349.57317,47.655,-122.3035,60.0,0.48333333333333334
2026-02-06T22:10:40+00:00,SAT-45567,305.25546135095914,51.04293781004282,694.2756332469779,-4.161862397792544,145766.02583118252,10.5,10500145766.025831,47.655,-122.3035,60.0,0.5
2026-02-06T22:10:41+00:00,SAT-45567,305.4009313827448,51.53038259286564,690.1249282279367,-4.115823887027684,144153.56244148972,10.5,10500144153.56244,47.655,-122.3035,60.0,0.5166666666666667
2026-02-06T22:10:42+00:00,SAT-45567,305.551247528908,52.02314831355274,686.0201382967666,-4.0689491583616695,142511.81116370021,10.5,10500142511.811163,47.655,-122.3035,60.0,0.5333333333333333
2026-02-06T22:10:43+00:00,SAT-45567,305.706660045906,52.521257444907825,681.9620974295837,-4.021227877292382,140840.410039835,10.5,10500140840.41004,47.655,-122.3035,60.0,0.55
2026-02-06T22:10:44+00:00,SAT-45567,305.8674365709891,53.02472920908523,677.9516499093007,-3.9726499339949375,139139.00498106208,10.5,10500139139.004982,47.655,-122.3035,60.0,0.5666666666666667
2026-02-06T22:10:45+00:00,SAT-45567,306.03386364106797,53.53357932635089,673.9896501015533,-3.9232055764701665,137407.25443111965,10.5,10500137407.25443,47.655,-122.3035,60.0,0.5833333333333334
2026-02-06T22:10:46+00:00,SAT-45567,306.20624837695505,54.04781976229481,670.0769620978311,-3.8728853909336984,135644.82867945876,10.5,10500135644.82868,47.655,-122.3035,60.0,0.6
2026-02-06T22:10:47+00:00,SAT-45567,306.38492034655513,54.56745845366718,666.2144593781723,-3.8216803325890396,133851.41093904676,10.5,10500133851.410938,47.655,-122.3035,60.0,0.6166666666666667
2026-02-06T22:10:48+00:00,SAT-45567,306.5702336316239,55.09249901736221,662.403024443163,-3.769581752986193,132026.69830458183,10.5,10500132026.698305,47.655,-122.3035,60.0,0.6333333333333333
2026-02-06T22:10:49+00:00,SAT-45567,306.76256912411696,55.62294044044314,658.6435484186542,-3.716581513974818,130170.40574361476,10.5,10500130170.405745,47.655,-122.3035,60.0,0.65
2026-02-06T22:10:50+00:00,SAT-45567,306.96233708699464,56.15877676187375,654.93693054683,-3.6626719148830715,128282.26354604375,10.5,10500128282.263546,47.655,-122.3035,60.0,0.6666666666666666
2026-02-06T22:10:51+00:00,SAT-45567,307.1699800038682,56.69999671793454,651.284077749902,-3.607845799888188,126362.02108468642,10.5,10500126362.021084,47.655,-122.3035,60.0,0.6833333333333333
2026-02-06T22:10:52+00:00,SAT-45567,307.3859757668507,57.24658337392453,647.6859040867207,-3.5520965761472083,124409.44745029473,10.5,10500124409.44745,47.655,-122.3035,60.0,0.7
2026-02-06T22:10:53+00:00,SAT-45567,307.61084124390527,57.79851372719461,644.1433301913048,-3.4954182724524143,122424.33350591612,10.5,10500122424.333506,47.655,-122.3035,60.0,0.7166666666666667
2026-02-06T22:10:54+00:00,SAT-45567,307.8451362812665,58.355758284426386,640.657282652873,-3.4378055687403397,120406.4929204242,10.5,10500120406.49292,47.655,-122.3035,60.0,0.7333333333333333
2026-02-06T22:10:55+00:00,SAT-45567,308.0894682010864,58.91828060528483,637.2286933664453,-3.379253823396515,118355.76312484621,10.5,10500118355.763124,47.655,-122.3035,60.0,0.75
2026-02-06T22:10:56+00:00,SAT-45567,308.3444968654174,59.48603680754009,633.8584988562122,-3.31975914425834,116272.00779918408,10.5,10500116272.0078,47.655,-122.3035,60.0,0.7666666666666667
2026-02-06T22:10:57+00:00,SAT-45567,308.6109403940708,60.05897503593796,630.5476395280929,-3.259318415460909,114155.11781266874,10.5,10500114155.117813,47.655,-122.3035,60.0,0.7833333333333333
2026-02-06T22:10:58+00:00,SAT-45567,308.8895816305514,60.63703488195516,627.297058895518,-3.197929343353521,112005.01283195046,10.5,10500112005.012833,47.655,-122.3035,60.0,0.8
2026-02-06T22:10:59+00:00,SAT-45567,309.18127547292096,61.22014675058189,624.1077027594196,-3.135590514944822,109821.64336809512,10.5,10500109821.643368,47.655,-122.3035,60.0,0.8166666666666667
2026-02-06T22:11:00+00:00,SAT-45567,309.48695720516076,61.808231168409975,620.980518329934,-3.0723014047105432,107604.99101501983,10.5,10500107604.991014,47.655,-122.3035,60.0,0.8333333333333334
2026-02-06T22:11:01+00:00,SAT-45567,309.80765198324775,62.40119801372051,617.9164533413119,-3.008062456258314,105355.0713097402,10.5,10500105355.07131,47.655,-122.3035,60.0,0.85
2026-02-06T22:11:02+00:00,SAT-45567,310.14448567054103,62.99894567054265,614.9164550853861,-2.9428751235938373,103071.93517768645,10.5,10500103071.935177,47.655,-122.3035,60.0,0.8666666666666667
2026-02-06T22:11:03+00:00,SAT-45567,310.49869724128627,63.601360085727606,611.9814694038819,-2.8767418782909817,100755.66918383019,10.5,10500100755.669184,47.655,-122.3035,60.0,0.8833333333333333
2026-02-06T22:11:04+00:00,SAT-45567,310.8716530111854,64.20831370478835,609.1124396735761,-2.80966628589551,98406.39820866626,10.5,10500098406.398209,47.655,-122.3035,60.0,0.9
2026-02-06T22:11:05+00:00,SAT-45567,311.26486301634253,64.81966427968594,606.310305715259,-2.741653029345369,96024.28626849038,10.5,10500096024.286268,47.655,-122.3035,60.0,0.9166666666666666
2026-02-06T22:11:06+00:00,SAT-45567,311.67999990884175,65.43525351313423,603.5760026793373,-2.6727079654898103,93609.53849493775,10.5,10500093609.538494,47.655,-122.3035,60.0,0.9333333333333333
2026-02-06T22:11:07+00:00,SAT-45567,312.1189208201487,66.05490551603795,600.9104598750693,-2.6028381161865224,91162.40082316709,10.5,10500091162.400824,47.655,-122.3035,60.0,0.95
2026-02-06T22:11:08+00:00,SAT-45567,312.5836927171165,66.67842502593201,598.3145996086805,-2.5320517698506766,88683.16354853765,10.5,10500088683.16355,47.655,-122.3035,60.0,0.9666666666666667
2026-02-06T22:11:09+00:00,SAT-45567,313.0766219120007,67.30559536610075,595.7893359202016,-2.460358467511536,86172.16083825272,10.5,10500086172.16084,47.655,-122.3035,60.0,0.9833333333333333
2026-02-06T22:11:10+00:00,SAT-45567,313.6002884806206,67.93617606294835,593.3355733342119,-2.3877690352643173,83629.77186796117,10.5,10500083629.771868,47.655,-122.3035,60.0,1.0
2026-02-06T22:11:11+00:00,SAT-45567,314.15758652519133,68.56990006216526,590.9542055782191,-2.314295629593744,81056.42240917985,10.5,10500081056.42241,47.655,-122.3035,60.0,1.0166666666666666
2026-02-06T22:11:12+00:00,SAT-45567,314.7517714082038,69.2064704614375,588.6461142558354,-2.2399517489933425,78452.58523625066,10.5,10500078452.585236,47.655,-122.3035,60.0,1.0333333333333334
2026-02-06T22:11:13+00:00,SAT-45567,315.38651530087844,69.84555664433472,586.4121675083678,-2.164752258878504,75818.78099890122,10.5,10500075818.780998,47.655,-122.3035,60.0,1.05
2026-02-06T22:11:14+00:00,SAT-45567,316.06597267765346,70.48678968536476,584.2532186515595,-2.088713398061078,73155.57844901262,10.5,10500073155.57845,47.655,-122.3035,60.0,1.0666666666666667
2026-02-06T22:11:15+00:00,SAT-45567,316.79485770599246,71.129756854031,582.1701048058762,-2.0118528097642465,70463.59552689144,10.5,10500070463.595528,47.655,-122.3035,60.0,1.0833333333333333
2026-02-06T22:11:16+00:00,SAT-45567,317.5785358804821,71.77399501596128,580.1636454958592,-1.9341895295171083,67743.49893728693,10.5,10500067743.498938,47.655,-122.3035,60.0,1.1
2026-02-06T22:11:17+00:00,SAT-45567,318.42313266814506,72.41898265507267,578.2346412615526,-1.855744008296593,64996.004959918726,10.5,10500064996.00496,47.655,-122.3035,60.0,1.1166666666666667
2026-02-06T22:11:18+00:00,SAT-45567,319.33566244751705,73.06413019611033,576.3838722468496,-1.776538077614037,62221.878226661014,10.5,10500062221.878227,47.655,-122.3035,60.0,1.1333333333333333
2026-02-06T22:11:19+00:00,SAT-45567,320.3241814957245,73.70876819031379,574.6120968226593,-1.6965949893103118,59421.933115336324,10.5,10500059421.933115,47.655,-122.3035,60.0,1.15
2026-02-06T22:11:20+00:00,SAT-45567,321.39796931169735,74.35213286291683,572.9200501703853,-1.6159393707734067,56597.03218124576,10.5,10500056597.03218,47.655,-122.3035,60.0,1.1666666666666667
2026-02-06T22:11:21+00:00,SAT-45567,322.5677428066043,74.99334833138958,571.3084429100651,-1.5345972133360244,53748.08575080383,10.5,10500053748.08575,47.655,-122.3035,60.0,1.1833333333333333
2026-02-06T22:11:22+00:00,SAT-45567,323.84590789621905,75.63140467605112,569.7779597400837,-1.4525958471315985,50876.0510408897,10.5,10500050876.05104,47.655,-122.3035,60.0,1.2
2026-02-06T22:11:23+00:00,SAT-45567,325.2468522088786,76.26513082993657,568.32925810196,-1.3699639381471913,47981.93205562733,10.5,10500047981.932056,47.655,-122.3035,60.0,1.2166666666666666
2026-02-06T22:11:24+00:00,SAT-45567,326.78728044171186,76.89316104236659,566.9629668480759,-1.28673141167937,45066.776905486346,10.5,10500045066.776905,47.655,-122.3035,60.0,1.2333333333333334
2026-02-06T22:11:25+00:00,SAT-45567,328.48658905199164,77.51389338849359,565.6796849857423,-1.2029294499588519,42131.67772408719,10.5,10500042131.677725,47.655,-122.3035,60.0,1.25
2026-02-06T22:11:26+00:00,SAT-45567,330.36726798105377,78.125438649871,564.4799804236345,-1.1185904260539183,39177.76835321901,10.5,10500039177.768353,47.655,-122.3035,60.0,1.2666666666666666
2026-02-06T22:11:27+00:00,SAT-45567,332.4553005278302,78.7255577381436,563.3643887841473,-1.0337478592362679,36206.2227795631,10.5,10500036206.22278,47.655,-122.3035,60.0,1.2833333333333334
2026-02-06T22:11:28+00:00,SAT-45567,334.78050438110154,79.31158606968617,562.3334122602645,-0.9484363635819565,33218.253334480294,10.5,10500033218.253334,47.655,-122.3035,60.0,1.3
2026-02-06T22:11:29+00:00,SAT-45567,337.376710648748,79.88034409622162,561.387518523689,-0.8626915707611242,30215.107989780732,10.5,10500030215.10799,47.655,-122.3035,60.0,1.3166666666666667
2026-02-06T22:11:30+00:00,SAT-45567,340.2816060699773,80.42803514935672,560.5271397099776,-0.776550080119444,27198.068609364957,10.5,10500027198.06861,47.655,-122.3035,60.0,1.3333333333333333
2026-02-06T22:11:31+00:00,SAT-45567,343.53596073662015,80.95013577342914,559.752671453459,-0.6900493876603162,24168.448461879987,10.5,10500024168.448462,47.655,-122.3035,60.0,1.35
2026-02-06T22:11:32+00:00,SAT-45567,347.1818326356736,81.44129090239663,559.0644719929802,-0.6032277888529206,21127.58881664617,10.5,10500021127.588818,47.655,-122.3035,60.0,1.3666666666666667
2026-02-06T22:11:33+00:00,SAT-45567,351.25921179850496,81.89523793896781,558.4628613745838,-0.5161243209433011,18076.85692314735,10.5,10500018076.856924,47.655,-122.3035,60.0,1.3833333333333333
2026-02-06T22:11:34+00:00,SAT-45567,355.80052889234827,82.30480047387533,557.9481207117199,-0.42877866940114256,15017.642734401266,10.5,10500015017.642735,47.655,-122.3035,60.0,1.4
2026-02-06T22:11:35+00:00,SAT-45567,0.8226818648997827,82.66201123403229,557.5204915387599,-0.3412310795355908,11951.35581137169,10.5,10500011951.355812,47.655,-122.3035,60.0,1.4166666666666667
2026-02-06T22:11:36+00:00,SAT-45567,6.3169843351089146,82.95843576782693,557.1801752526586,-0.2535222680661542,8879.422225807359,10.5,10500008879.422226,47.655,-122.3035,60.0,1.4333333333333333
2026-02-06T22:11:37+00:00,SAT-45567,12.238876208091048,83.1857547482005,556.927332642807,-0.16569332837707226,5803.281241849182,10.5,10500005803.281242,47.655,-122.3035,60.0,1.45
2026-02-06T22:11:38+00:00,SAT-45567,18.50104164369023,83.33660105562079,556.7620835153776,-0.07778563731540014,2724.382051704921,10.5,10500002724.382051,47.655,-122.3035,60.0,1.4666666666666666
2026-02-06T22:11:39+00:00,SAT-45567,24.97454497598371,83.40553273498202,556.6845064106213,0.010159244052813658,-355.81970028926946,10.5,10499999644.1803,47.655,-122.3035,60.0,1.4833333333333334
2026-02-06T22:11:40+00:00,SAT-45567,31.50100411334207,83.38989735330051,556.694638419143,0.09809966637485297,-3435.865277624683,10.5,10499996564.134722,47.655,-122.3035,60.0,1.5
2026-02-06T22:11:41+00:00,SAT-45567,37.91421164270861,83.29029914098855,556.7924750938499,0.18599399162183686,-6514.296340401223,10.5,10499993485.70366,47.655,-122.3035,60.0,1.5166666666666666
2026-02-06T22:11:42+00:00,SAT-45567,44.06447529525557,83.1104895189273,556.9779704612473,0.2738006905824237,-9589.658359969311,10.5,10499990410.34164,47.655,-122.3035,60.0,1.5333333333333334
2026-02-06T22:11:43+00:00,SAT-45567,49.83731971874394,82.85672445172773,557.2510371299628,0.36147844126902345,-12660.504065531715,10.5,10499987339.495934,47.655,-122.3035,60.0,1.55
2026-02-06T22:11:44+00:00,SAT-45567,55.16150087939538,82.5368263410843,557.6115464974148,0.44898622428345897,-15725.396784252389,10.5,10499984274.603216,47.655,-122.3035,60.0,1.5666666666666667
2026-02-06T22:11:45+00:00,SAT-45567,60.006694381862005,82.159238535797,558.059329051591,0.5362834165563231,-18782.913724405273,10.5,10499981217.086275,47.655,-122.3035,60.0,1.5833333333333333
2026-02-06T22:11:46+00:00,SAT-45567,64.37484106661734,81.73227488651091,558.5941747663147,0.6233298907290363,-21831.64945615437,10.5,10499978168.350544,47.655,-122.3035,60.0,1.6
2026-02-06T22:11:47+00:00,SAT-45567,68.28961567839093,81.26363627689571,559.2158335956263,0.7100860976738097,-24870.21880175185,10.5,10499975129.781199,47.655,-122.3035,60.0,1.6166666666666667
2026-02-06T22:11:48+00:00,SAT-45567,71.78701442241622,80.76016872068722,559.9240160504639,0.7965131534341633,-27897.259880562822,10.5,10499972102.74012,47.655,-122.3035,60.0,1.6333333333333333
2026-02-06T22:11:49+00:00,SAT-45567,74.90829900637921,80.22779570389253,560.7183938620526,0.8825729285674856,-30911.43723821965,10.5,10499969088.562761,47.655,-122.3035,60.0,1.65
2026-02-06T22:11:50+00:00,SAT-45567,77.6953494016583,79.67155585330053,561.5986007343935,0.9682281233609232,-33911.444481000566,10.5,10499966088.55552,47.655,-122.3035,60.0,1.6666666666666667
2026-02-06T22:11:51+00:00,SAT-45567,80.18794866631997,79.0956931296785,562.5642331717714,1.0534423437390217,-36896.00693443639,10.5,10499963103.993065,47.655,-122.3035,60.0,1.6833333333333333
2026-02-06T22:11:52+00:00,SAT-45567,82.42241905315822,78.50376543971251,563.6148513819619,1.1381801710597705,-39863.88408786318,10.5,10499960136.115911,47.655,-122.3035,60.0,1.7
2026-02-06T22:11:53+00:00,SAT-45567,84.43111522817894,77.89875247235825,564.7499802490519,1.2224072324785187,-42813.87205886429,10.5,10499957186.127941,47.655,-122.3035,60.0,1.7166666666666666
2026-02-06T22:11:54+00:00,SAT-45567,86.24241614226959,77.28315349387456,565.9691103764324,1.306090251903678,-45744.80537795456,10.5,10499954255.194622,47.655,-122.3035,60.0,1.7333333333333334
2026-02-06T22:11:55+00:00,SAT-45567,87.88097933689114,76.65907171662563,567.2716991806111,1.3891971129934833,-48655.5591949934,10.5,10499951344.440805,47.655,-122.3035,60.0,1.75
2026-02-06T22:11:56+00:00,SAT-45567,89.36811263728185,76.02828496232232,568.6571720478538,1.4716969098412607,-51545.051054397234,10.5,10499948454.948946,47.655,-122.3035,60.0,1.7666666666666666
2026-02-06T22:11:57+00:00,SAT-45567,90.72217951851054,75.39230381361222,570.124923541374,1.5535599852079744,-54412.24223420501,10.5,10499945587.757767,47.655,-122.3035,60.0,1.7833333333333334
2026-02-06T22:11:58+00:00,SAT-45567,91.95899318552912,74.75241898259188,571.6743186466528,1.6347579691960343,-57256.139100598586,10.5,10499942743.860899,47.655,-122.3035,60.0,1.8
2026-02-06T22:11:59+00:00,SAT-45567,93.09217767386916,74.10973968276637,573.3046940553301,1.7152638179407036,-60075.79446303945,10.5,10499939924.205538,47.655,-122.3035,60.0,1.8166666666666667
2026-02-06T22:12:00+00:00,SAT-45567,94.13348761012385,73.46522464152446,575.0153594876813,1.7950518362014205,-62870.30836551236,10.5,10499937129.691635,47.655,-122.3035,60.0,1.8333333333333333
2026-02-06T22:12:01+00:00,SAT-45567,95.09308550953295,72.8197071677125,576.8055990376271,1.8740976981187625,-65638.82881352208,10.5,10499934361.171186,47.655,-122.3035,60.0,1.85
2026-02-06T22:12:02+00:00,SAT-45567,95.97977915454514,72.17391544398252,578.6746725384425,1.9523784716439385,-68380.55262971744,10.5,10499931619.44737,47.655,-122.3035,60.0,1.8666666666666667
2026-02-06T22:12:03+00:00,SAT-45567,96.8012231912091,71.52848899404712,580.6218169528322,2.0298726130146902,-71094.72526041415,10.5,10499928905.27474,47.655,-122.3035,60.0,1.8833333333333333
2026-02-06T22:12:04+00:00,SAT-45567,97.56408953197953,70.8839920990771,582.6462477574937,2.106559984417965,-73780.64139421623,10.5,10499926219.358606,47.655,-122.3035,60.0,1.9
2026-02-06T22:12:05+00:00,SAT-45567,98.27421105854309,70.24092476427197,584.7471603452989,2.182421865409739,-76437.64536198658,10.5,10499923562.354637,47.655,-122.3035,60.0,1.9166666666666667
2026-02-06T22:12:06+00:00,SAT-45567,98.93670270692525,69.59973172261941,586.9237314388615,2.2574409130259934,-79065.1297397646,10.5,10499920934.87026,47.655,-122.3035,60.0,1.9333333333333333
2026-02-06T22:12:07+00:00,SAT-45567,99.55606351374635,68.96080987490679,589.1751204643266,2.331601189944058,-81662.53633509554,10.5,10499918337.463665,47.655,-122.3035,60.0,1.95
2026-02-06T22:12:08+00:00,SAT-45567,100.13626273046816,68.32451444980829,591.5004709532412,2.4048881324647686,-84229.35506563034,10.5,10499915770.644934,47.655,-122.3035,60.0,1.9666666666666666
2026-02-06T22:12:09+00:00,SAT-45567,100.68081260015556,67.69116414433596,593.8989119124976,2.4772885379035348,-86765.12351750728,10.5,10499913234.876482,47.655,-122.3035,60.0,1.9833333333333334
2026-02-06T22:12:10+00:00,SAT-45567,101.19282999488829,67.0610454310981,596.3695591816968,2.548790540723064,-89269.42610941926,10.5,10499910730.57389,47.655,-122.3035,60.0,2.0
2026-02-06T22:12:11+00:00,SAT-45567,101.6750887404763,66.4344161891305,598.9115167667132,2.6193835974759625,-91741.89356523975,10.5,10499908258.106434,47.655,-122.3035,60.0,2.0166666666666666
2026-02-06T22:12:12+00:00,SAT-45567,102.13006415013952,65.8115087790689,601.5238781582393,2.68905844798817,-94182.2015545027,10.5,10499905817.798445,47.655,-122.3035,60.0,2.033333333333333
2026-02-06T22:12:13+00:00,SAT-45567,102.55997102537539,65.19253266729753,604.2057276116184,2.7578070876776324,-96590.06972288522,10.5,10499903409.930277,47.655,-122.3035,60.0,2.05
2026-02-06T22:12:14+00:00,SAT-45567,102.9667961731679,64.57767667553694,606.9561413990715,2.825622732670478,-98965.26047042858,10.5,10499901034.739529,47.655,-122.3035,60.0,2.066666666666667
2026-02-06T22:12:15+00:00,SAT-45567,103.352326308322,63.967110921811155,609.7741890271316,2.8924997985143572,-101307.57820598925,10.5,10499898692.421795,47.655,-122.3035,60.0,2.0833333333333335
2026-02-06T22:12:16+00:00,SAT-45567,103.71817206368198,63.36098850200945,612.6589344328511,2.9584338531301246,-103616.86769940793,10.5,10499896383.132301,47.655,-122.3035,60.0,2.1
2026-02-06T22:12:17+00:00,SAT-45567,104.06578870641935,62.75944696015979,615.6094371330848,3.023421564476261,-105893.01224849606,10.5,10499894106.987751,47.655,-122.3035,60.0,2.1166666666666667
2026-02-06T22:12:18+00:00,SAT-45567,104.39649406127651,62.16260958257508,618.624753321579,3.0874606833869196,-108135.93307795173,10.5,10499891864.066921,47.655,-122.3035,60.0,2.1333333333333333
2026-02-06T22:12:19+00:00,SAT-45567,104.71148406279485,61.57058653699109,621.7039369489432,3.150549989215034,-110345.58743555137,10.5,10499889654.412565,47.655,-122.3035,60.0,2.15
2026-02-06T22:12:20+00:00,SAT-45567,105.01184628291557,60.98347588770913,624.846040748413,3.212689247000441,-112521.96709199612,10.5,10499887478.032907,47.655,-122.3035,60.0,2.1666666666666665
2026-02-06T22:12:21+00:00,SAT-45567,105.29857172941128,60.401364503335536,628.0501172188932,3.273879184350455,-114665.09753117197,10.5,10499885334.90247,47.655,-122.3035,60.0,2.183333333333333
2026-02-06T22:12:22+00:00,SAT-45567,105.5725651638693,59.824328869525615,631.3152195849459,3.33412138551442,-116775.0342401923,10.5,10499883224.96576,47.655,-122.3035,60.0,2.2
2026-02-06T22:12:23+00:00,SAT-45567,105.83465414172336,59.252435834528136,634.6404026511343,3.393418361051871,-118851.86514947166,10.5,10499881148.134851,47.655,-122.3035,60.0,2.216666666666667
2026-02-06T22:12:24+00:00,SAT-45567,106.08559696385718,58.68574326753356,638.0247237258523,3.451773378879827,-120895.70471528733,10.5,10499879104.295284,47.655,-122.3035,60.0,2.2333333333333334
2026-02-06T22:12:25+00:00,SAT-45567,106.32608967166227,58.12430068078972,641.4672433766477,3.5091904944189904,-122906.69497562677,10.5,10499877093.305025,47.655,-122.3035,60.0,2.25
2026-02-06T22:12:26+00:00,SAT-45567,106.55677222741497,57.56814978816632,644.9670262156196,3.5656745020263605,-124885.00384915217,10.5,10499875114.996151,47.655,-122.3035,60.0,2.2666666666666666
2026-02-06T22:12:27+00:00,SAT-45567,106.77823398224817,57.01732502079987,648.5231416363691,3.6212308623259064,-126830.82259001331,10.5,10499873169.17741,47.655,-122.3035,60.0,2.283333333333333
2026-02-06T22:12:28+00:00,SAT-45567,106.99101852296577,56.47185400866341,652.1346644784832,3.6758657096416565,-128744.36604818588,10.5,10499871255.633951,47.655,-122.3035,60.0,2.3
2026-02-06T22:12:29+00:00,SAT-45567,107.19562798147106,55.93175802019049,655.8006756994266,3.729585731149525,-130625.86843685713,10.5,10499869374.131563,47.655,-122.3035,60.0,2.316666666666667
2026-02-06T22:12:30+00:00,SAT-45567,107.39252686819908,55.397052383327804,659.5202629259137,3.78239820177257,-132475.5845546054,10.5,10499867524.415445,47.655,-122.3035,60.0,2.3333333333333335
2026-02-06T22:12:31+00:00,SAT-45567,107.5821454959329,54.86774686784157,663.2925210400783,3.8343109335488275,-134293.78801204762,10.5,10499865706.211988,47.655,-122.3035,60.0,2.35
2026-02-06T22:12:32+00:00,SAT-45567,107.7648830397033,54.34384604513309,667.1165527151492,3.885332176961343,-136080.76777599956,10.5,10499863919.232224,47.655,-122.3035,60.0,2.3666666666666667
2026-02-06T22:12:33+00:00,SAT-45567,107.94111027492981,53.8253496340518,670.9914688527199,3.935470662645225,-137836.82963023326,10.5,10499862163.17037,47.655,-122.3035,60.0,2.3833333333333333
2026-02-06T22:12:34+00:00,SAT-45567,108.11117203736242,53.31225281544864,674.9163890616135,3.984735507626172,-139562.2928915537,10.5,10499860437.707108,47.655,-122.3035,60.0,2.4
2026-02-06T22:12:35+00:00,SAT-45567,108.27538943208829,52.80454653610306,678.8904420432373,4.033136219338854,-141257.49055053934,10.5,10499858742.509449,47.655,-122.3035,60.0,2.4166666666666665
2026-02-06T22:12:36+00:00,SAT-45567,108.43406182367002,52.302217790414545,682.9127659809449,4.080682628251691,-142922.7669117772,10.5,10499857077.233088,47.655,-122.3035,60.0,2.433333333333333
2026-02-06T22:12:37+00:00,SAT-45567,108.58746863024344,51.80524989067255,686.9825088622046,4.127384856744001,-144558.47650380855,10.5,10499855441.523497,47.655,-122.3035,60.0,2.45
2026-02-06T22:12:38+00:00,SAT-45567,108.735870944065,51.3136227222658,691.0988287697268,4.173253335711049,-146164.98466070823,10.5,10499853835.015339,47.655,-122.3035,60.0,2.466666666666667
2026-02-06T22:12:39+00:00,SAT-45567,108.87951299947764,50.827312979521146,695.2608941891538,4.218298726611278,-147742.6647918488,10.5,10499852257.335209,47.655,-122.3035,60.0,2.4833333333333334
2026-02-06T22:12:40+00:00,SAT-45567,109.01862350154315,50.34629439470745,699.4678842390042,4.262531894762781,-149291.89744663023,10.5,10499850708.102554,47.655,-122.3035,60.0,2.5
2026-02-06T22:12:41+00:00,SAT-45567,109.15341683205811,49.87053795460478,703.7189888739865,4.305963889712052,-150813.06962691018,10.5,10499849186.930372,47.655,-122.3035,60.0,2.5166666666666666
2026-02-06T22:12:42+00:00,SAT-45567,109.28409414581506,49.40001210477543,708.0134090687332,4.348605959024138,-152306.5752699938,10.5,10499847693.42473,47.655,-122.3035,60.0,2.533333333333333
2026-02-06T22:12:43+00:00,SAT-45567,109.41084436949063,48.934682938896295,712.350357015289,4.390469432189878,-153772.8111825739,10.5,10499846227.188818,47.655,-122.3035,60.0,2.55
2026-02-06T22:12:44+00:00,SAT-45567,109.53384510961435,48.47451438793537,716.7290562048157,4.43156581202846,-155212.1802420354,10.5,10499844787.819757,47.655,-122.3035,60.0,2.566666666666667
2026-02-06T22:12:45+00:00,SAT-45567,109.65326348407662,48.01946838734669,721.1487416004583,4.471906639319025,-156625.08665528125,10.5,10499843374.913345,47.655,-122.3035,60.0,2.5833333333333335
2026-02-06T22:12:46+00:00,SAT-45567,109.76925687938024,47.56950504717783,725.6086596752006,4.511503551808158,-158011.93802542443,10.5,10499841988.061975,47.655,-122.3035,60.0,2.6
2026-02-06T22:12:47+00:00,SAT-45567,109.88197364525942,47.124582805038415,730.1080685085736,4.5503682495188,-159373.14413675945,10.5,10499840626.855864,47.655,-122.3035,60.0,2.6166666666666667
2026-02-06T22:12:48+00:00,SAT-45567,109.99155373069833,46.68465857256336,734.6462378487662,4.588512414172396,-160709.11413258486,10.5,10499839290.885868,47.655,-122.3035,60.0,2.6333333333333333
2026-02-06T22:12:49+00:00,SAT-45567,110.09812926601752,46.24968787993865,739.222449094371,4.625947827831136,-162020.26067055672,10.5,10499837979.73933,47.655,-122.3035,60.0,2.65
2026-02-06T22:12:50+00:00,SAT-45567,110.20182510016406,45.819624999834524,743.8359953944564,4.662686168801356,-163306.99277436204,10.5,10499836693.007225,47.655,-122.3035,60.0,2.6666666666666665
2026-02-06T22:12:51+00:00,SAT-45567,110.30275929098248,45.39442308203707,748.4861815450902,4.69873920595923,-164569.72263982677,10.5,10499835430.27736,47.655,-122.3035,60.0,2.683333333333333
2026-02-06T22:12:52+00:00,SAT-45567,110.4010435603606,44.97403426158522,753.1723240796641,4.73411855615576,-165808.85713821222,10.5,10499834191.142862,47.655,-122.3035,60.0,2.7
2026-02-06T22:12:53+00:00,SAT-45567,110.49678370958966,44.55840978131617,757.8937511172792,4.768835897275455,-167024.80527843125,10.5,10499832975.194721,47.655,-122.3035,60.0,2.716666666666667
2026-02-06T22:12:54+00:00,SAT-45567,110.5900800062625,44.14750008764233,762.6498024236136,4.802902818891001,-168217.9729763432,10.5,10499831782.027023,47.655,-122.3035,60.0,2.7333333333333334
2026-02-06T22:12:55+00:00,SAT-45567,110.68102753922913,43.74125493287078,767.4398293228476,4.836330797063561,-169388.76217215377,10.5,10499830611.237827,47.655,-122.3035,60.0,2.75
2026-02-06T22:12:56+00:00,SAT-45567,110.76971654651558,43.33962347263603,772.263194584458,4.86913129196621,-170537.57424960038,10.5,10499829462.42575,47.655,-122.3035,60.0,2.7666666666666666
2026-02-06T22:12:57+00:00,SAT-45567,110.85623272029372,42.94255434874186,777.1192724073705,4.901315660066341,-171664.80696020904,10.5,10499828335.193039,47.655,-122.3035,60.0,2.783333333333333
2026-02-06T22:12:58+00:00,SAT-45567,110.94065748812353,42.549995773566295,782.0074483165338,4.9328951272017205,-172770.85348030357,10.5,10499827229.14652,47.655,-122.3035,60.0,2.8
2026-02-06T22:12:59+00:00,SAT-45567,111.02306827346874,42.16189561076127,786.927119032639,4.963880861438103,-173856.10496278756,10.5,10499826143.895037,47.655,-122.3035,60.0,2.816666666666667
2026-02-06T22:13:00+00:00,SAT-45567,111.10353873843498,41.77820144472943,791.8776924145031,4.99428388135742,-174920.94732500878,10.5,10499825079.052675,47.655,-122.3035,60.0,2.8333333333333335
2026-02-06T22:13:01+00:00,SAT-45567,111.1821390080486,41.39886065232709,796.8585873099858,5.024115121343309,-175965.76353533464,10.5,10499824034.236465,47.655,-122.3035,60.0,2.85
2026-02-06T22:13:02+00:00,SAT-45567,111.25893587966429,41.02382046462699,801.8692334720167,5.053385365635531,-176990.93130345887,10.5,10499823009.068697,47.655,-122.3035,60.0,2.8666666666666667
2026-02-06T22:13:03+00:00,SAT-45567,111.3339930170172,40.65302802920624,806.9090714088542,5.082105261271033,-177996.8235336522,10.5,10499822003.176466,47.655,-122.3035,60.0,2.8833333333333333
2026-02-06T22:13:04+00:00,SAT-45567,111.40737113101086,40.286430467020935,811.9775522472504,5.110285368035582,-178983.81007428016,10.5,10499821016.189926,47.655,-122.3035,60.0,2.9
