DopplerPredictor/satellites_20260211_210343/SAT-49746.csv

timestamp,satellite,azimuth_deg,elevation_deg,distance_km,relative_velocity_kms,doppler_shift_hz,tx_freq_ghz,rx_freq_hz,ue_lat,ue_lon,ue_alt_m,time_minutes
2026-02-06T22:10:10+00:00,SAT-49746,48.01433410802467,40.67261011016021,797.768344730327,4.886786879791942,-171155.94761831997,10.5,10499828844.052382,47.655,-122.3035,60.0,0.0
2026-02-06T22:10:11+00:00,SAT-49746,48.222107229398134,40.31767906314068,802.6420308088707,4.917713380534564,-172239.12449329504,10.5,10499827760.875507,47.655,-122.3035,60.0,0.016666666666666666
