DopplerPredictor/satellites_20260211_210343/SAT-60403.csv

timestamp,satellite,azimuth_deg,elevation_deg,distance_km,relative_velocity_kms,doppler_shift_hz,tx_freq_ghz,rx_freq_hz,ue_lat,ue_lon,ue_alt_m,time_minutes
2026-02-06T22:18:00+00:00,SAT-60403,15.3788832363816,40.014806058190146,549.6793817192773,-0.15505703342107865,5430.75320100723,10.5,10500005430.7532,47.655,-122.3035,60.0,7.833333333333333
2026-02-06T22:18:01+00:00,SAT-60403,16.386077506903405,40.02963804731876,549.524740372365,-0.0613566489789518,2148.969385610741,10.5,10500002148.969385,47.655,-122.3035,60.0,7.85
2026-02-06T22:18:02+00:00,SAT-60403,17.393966623901278,40.03519483886147,549.4635482120948,0.032375506053501764,-1133.927170248454,10.5,10499998866.07283,47.655,-122.3035,60.0,7.866666666666666
2026-02-06T22:18:03+00:00,SAT-60403,18.401935738395885,40.031465450978295,549.4958369238843,0.12609149574184725,-4416.257547377646,10.5,10499995583.742453,47.655,-122.3035,60.0,7.883333333333334
2026-02-06T22:18:04+00:00,SAT-60403,19.40936970743568,40.01845635234303,549.6215903857268,0.21974342704743116,-7696.344328975839,10.5,10499992303.65567,47.655,-122.3035,60.0,7.9
