DopplerPredictor/satellites_20260211_210343/SAT-45404.csv

timestamp,satellite,azimuth_deg,elevation_deg,distance_km,relative_velocity_kms,doppler_shift_hz,tx_freq_ghz,rx_freq_hz,ue_lat,ue_lon,ue_alt_m,time_minutes
2026-02-06T22:14:15+00:00,SAT-45404,314.63479504125644,40.189163532768696,811.5146458971174,-2.671118078186985,93553.85391637619,10.5,10500093553.853916,47.655,-122.3035,60.0,4.083333333333333
2026-02-06T22:14:16+00:00,SAT-45404,315.2115622903553,40.38062277314624,808.8506887178838,-2.619868888498697,91758.8905096349,10.5,10500091758.89051,47.655,-122.3035,60.0,4.1
2026-02-06T22:14:17+00:00,SAT-45404,315.79535598456937,40.57007897815479,806.2378433363331,-2.568117208364484,89946.32776194482,10.5,10500089946.327763,47.655,-122.3035,60.0,4.116666666666666
2026-02-06T22:14:18+00:00,SAT-45404,316.38618596761256,40.75742514894766,803.6766108958042,-2.515866614429881,88116.29094256186,10.5,10500088116.290943,47.655,-122.3035,60.0,4.133333333333334
2026-02-06T22:14:19+00:00,SAT-45404,316.9840564359938,40.942552714709805,801.167488972578,-2.463121076637855,86268.91909568144,10.5,10500086268.919096,47.655,-122.3035,60.0,4.15
2026-02-06T22:14:20+00:00,SAT-45404,317.5889656569135,41.12535163836608,798.7109711836359,-2.4098849318693465,84404.36411721917,10.5,10500084404.364117,47.655,-122.3035,60.0,4.166666666666667
2026-02-06T22:14:21+00:00,SAT-45404,318.2009056780119,41.3057105288835,796.3075468207046,-2.356162933384799,82522.79248646206,10.5,10500082522.792486,47.655,-122.3035,60.0,4.183333333333334
2026-02-06T22:14:22+00:00,SAT-45404,318.81986204863824,41.48351676593566,793.9577004349935,-2.3019602070595737,80624.38373324763,10.5,10500080624.383734,47.655,-122.3035,60.0,4.2
2026-02-06T22:14:23+00:00,SAT-45404,319.44581353119224,41.658656630137024,791.6619114655788,-2.247282297574901,78709.3320557666,10.5,10500078709.332056,47.655,-122.3035,60.0,4.216666666666667
2026-02-06T22:14:24+00:00,SAT-45404,320.0787318264752,41.8310154456507,789.4206538217187,-2.19213517637838,76777.84659937306,10.5,10500076777.8466,47.655,-122.3035,60.0,4.233333333333333
2026-02-06T22:14:25+00:00,SAT-45404,320.7185813059845,42.000477732442526,787.2343954572334,-2.1365251867449166,74830.14953238623,10.5,10500074830.149532,47.655,-122.3035,60.0,4.25
2026-02-06T22:14:26+00:00,SAT-45404,321.3653187350538,42.166927363283556,785.1035979996736,-2.080459125413964,72866.47890537202,10.5,10500072866.478905,47.655,-122.3035,60.0,4.266666666666667
2026-02-06T22:14:27+00:00,SAT-45404,322.01889302622396,42.3302477359633,783.0287162980716,-2.0239441826088007,70887.08655036414,10.5,10500070887.08655,47.655,-122.3035,60.0,4.283333333333333
2026-02-06T22:14:28+00:00,SAT-45404,322.67924498582664,42.49032194972139,781.010198030512,-1.9669879799675023,68892.23940936757,10.5,10500068892.239408,47.655,-122.3035,60.0,4.3
2026-02-06T22:14:29+00:00,SAT-45404,323.34630708313966,42.647032993294204,779.0484832738746,-1.909598548293975,66882.21875510536,10.5,10500066882.218756,47.655,-122.3035,60.0,4.316666666666666
2026-02-06T22:14:30+00:00,SAT-45404,324.0200032268552,42.80026393968075,777.1440040957641,-1.851784357859417,64857.32125230408,10.5,10500064857.321253,47.655,-122.3035,60.0,4.333333333333333
2026-02-06T22:14:31+00:00,SAT-45404,324.7002485677435,42.949898151511896,775.2971841162217,-1.7935542744636659,62817.85741877633,10.5,10500062817.857418,47.655,-122.3035,60.0,4.35
2026-02-06T22:14:32+00:00,SAT-45404,325.38694930502356,43.09581949072867,773.5084381132572,-1.7349176038946477,60764.15318257873,10.5,10500060764.153183,47.655,-122.3035,60.0,4.366666666666666
2026-02-06T22:14:33+00:00,SAT-45404,326.08000252888013,43.23791253927184,771.77817158404,-1.6758840463403017,58696.54828532467,10.5,10500058696.548285,47.655,-122.3035,60.0,4.383333333333334
2026-02-06T22:14:34+00:00,SAT-45404,326.779296069849,43.376062823011225,770.1067803515558,-1.6164637362786216,56615.39767930228,10.5,10500056615.397678,47.655,-122.3035,60.0,4.4
2026-02-06T22:14:35+00:00,SAT-45404,327.48470838877074,43.510157045328675,768.4946501314821,-1.556667198245003,54521.06997825987,10.5,10500054521.069979,47.655,-122.3035,60.0,4.416666666666667
2026-02-06T22:14:36+00:00,SAT-45404,328.1961084774974,43.640083322838855,766.9421561431755,-1.496505372795921,52413.94836676368,10.5,10500052413.948366,47.655,-122.3035,60.0,4.433333333333334
2026-02-06T22:14:37+00:00,SAT-45404,328.9133558004441,43.765731428329175,765.4496626947662,-1.435989586559919,50294.429551256915,10.5,10500050294.429552,47.655,-122.3035,60.0,4.45
2026-02-06T22:14:38+00:00,SAT-45404,329.6363002559216,43.88699303552578,764.0175227981214,-1.3751315693582638,48162.924359697434,10.5,10500048162.92436,47.655,-122.3035,60.0,4.466666666666667
2026-02-06T22:14:39+00:00,SAT-45404,330.36478218034057,44.00376196879277,762.6460777667322,-1.3139434156024774,46019.856389536035,10.5,10500046019.85639,47.655,-122.3035,60.0,4.483333333333333
2026-02-06T22:14:40+00:00,SAT-45404,331.09863237089286,44.115934452175374,761.3356568521028,-1.2524376084343942,43865.662853203394,10.5,10500043865.662853,47.655,-122.3035,60.0,4.5
2026-02-06T22:14:41+00:00,SAT-45404,331.8376721592524,44.22340936214428,760.0865768560602,-1.190626990821162,41700.79356573473,10.5,10500041700.793566,47.655,-122.3035,60.0,4.516666666666667
2026-02-06T22:14:42+00:00,SAT-45404,332.58171351212997,44.32608847854733,758.899141771895,-1.128524757366424,39525.71065796276,10.5,10500039525.710657,47.655,-122.3035,60.0,4.533333333333333
2026-02-06T22:14:43+00:00,SAT-45404,333.3305591700617,44.423876734461764,757.7736424336666,-1.0661444436059406,37340.88820160504,10.5,10500037340.8882,47.655,-122.3035,60.0,4.55
2026-02-06T22:14:44+00:00,SAT-45404,334.0840028242666,44.516682463637714,756.7103561761859,-1.0034999125368413,35146.8117374615,10.5,10500035146.811737,47.655,-122.3035,60.0,4.566666666666666
2026-02-06T22:14:45+00:00,SAT-45404,334.8418293312423,44.604417644160016,755.7095465084315,-0.940605351576059,32943.97816888582,10.5,10500032943.978168,47.655,-122.3035,60.0,4.583333333333333
2026-02-06T22:14:46+00:00,SAT-45404,335.6038149735472,44.6869981380945,754.7714627899994,-0.8774752402196362,30732.894629077626,10.5,10500030732.894629,47.655,-122.3035,60.0,4.6
2026-02-06T22:14:47+00:00,SAT-45404,336.3697277469425,44.76434392338437,753.8963399398075,-0.814124350380056,28514.078492897206,10.5,10500028514.078493,47.655,-122.3035,60.0,4.616666666666666
2026-02-06T22:14:48+00:00,SAT-45404,337.1393276967103,44.83637931965861,753.0843981444615,-0.7505677208424826,26288.056482214997,10.5,10500026288.056482,47.655,-122.3035,60.0,4.633333333333334
2026-02-06T22:14:49+00:00,SAT-45404,337.9123672846331,44.90303320452849,752.3358425921002,-0.6868206494250882,24055.36439133311,10.5,10500024055.364391,47.655,-122.3035,60.0,4.65
2026-02-06T22:14:50+00:00,SAT-45404,338.6885918004671,44.96423922074562,751.6508632140549,-0.6228986681014435,21816.54621566616,10.5,10500021816.546215,47.655,-122.3035,60.0,4.666666666666667
2026-02-06T22:14:51+00:00,SAT-45404,339.4677398026857,45.019935971603154,751.0296344513226,-0.5588175298086547,19572.15368970648,10.5,10500019572.15369,47.655,-122.3035,60.0,4.683333333333334
2026-02-06T22:14:52+00:00,SAT-45404,340.24954359818935,45.0700672044857,750.4723150341945,-0.49459318408381825,17322.74543370965,10.5,10500017322.745434,47.655,-122.3035,60.0,4.7
2026-02-06T22:14:53+00:00,SAT-45404,341.0337297471548,45.1145819805425,749.9790477861833,-0.43024176824793126,15068.886644917793,10.5,10500015068.886644,47.655,-122.3035,60.0,4.716666666666667
2026-02-06T22:14:54+00:00,SAT-45404,341.82001961166424,45.153434830861954,749.5499594367427,-0.36577957795658894,12811.148066120408,10.5,10500012811.148066,47.655,-122.3035,60.0,4.733333333333333
2026-02-06T22:14:55+00:00,SAT-45404,342.60812992020124,45.18658589638324,749.1851604633571,-0.3012230490194392,10550.105348894775,10.5,10500010550.105349,47.655,-122.3035,60.0,4.75
2026-02-06T22:14:56+00:00,SAT-45404,343.3977733577801,45.2140010517027,748.884744951763,-0.2365887418184186,8286.33850786665,10.5,10500008286.338509,47.655,-122.3035,60.0,4.766666666666667
2026-02-06T22:14:57+00:00,SAT-45404,344.18865918792034,45.23565201225534,748.6487904717122,-0.1718933148444945,6020.430993855062,10.5,10500006020.430994,47.655,-122.3035,60.0,4.783333333333333
2026-02-06T22:14:58+00:00,SAT-45404,344.98049388393486,45.25151642321833,748.4773579791234,-0.10715350631853279,3752.96905015734,10.5,10500003752.96905,47.655,-122.3035,60.0,4.8
2026-02-06T22:14:59+00:00,SAT-45404,345.772981780836,45.2615779303278,748.3704917365682,-0.04238611100872605,1484.5409005973845,10.5,10500001484.540901,47.655,-122.3035,60.0,4.816666666666666
2026-02-06T22:15:00+00:00,SAT-45404,346.5658257347369,45.26582623171145,748.3282192568737,0.02239203941514992,-784.2639385513633,10.5,10499999215.736061,47.655,-122.3035,60.0,4.833333333333333
2026-02-06T22:15:01+00:00,SAT-45404,347.35872779783904,45.264257110742804,748.3505512663211,0.08716410006642897,-3052.855488104054,10.5,10499996947.144512,47.655,-122.3035,60.0,4.85
2026-02-06T22:15:02+00:00,SAT-45404,348.1513898915484,45.2568724493317,748.4374816914637,0.1519132334680351,-5320.644028391029,10.5,10499994679.355972,47.655,-122.3035,60.0,4.866666666666666
2026-02-06T22:15:03+00:00,SAT-45404,348.94351448119454,45.24368022184967,748.588987666517,0.21662263160629794,-7587.040871675726,10.5,10499992412.959127,47.655,-122.3035,60.0,4.883333333333334
2026-02-06T22:15:04+00:00,SAT-45404,349.7348052502481,45.224694469599164,748.805029562742,0.2812755382736918,-9851.459144691904,10.5,10499990148.540855,47.655,-122.3035,60.0,4.9
2026-02-06T22:15:05+00:00,SAT-45404,350.52496776847937,45.19993525596057,749.0855510401135,0.3458552692423647,-12113.31449520598,10.5,10499987886.685505,47.655,-122.3035,60.0,4.916666666666667
2026-02-06T22:15:06+00:00,SAT-45404,351.3137101432541,45.16942860269788,749.430479119107,0.4103452352286845,-14372.025896332545,10.5,10499985627.974104,47.655,-122.3035,60.0,4.933333333333334
2026-02-06T22:15:07+00:00,SAT-45404,352.1007436641317,45.13320640756974,749.8397242753878,0.4747289605888649,-16627.016301334308,10.5,10499983372.983698,47.655,-122.3035,60.0,4.95
2026-02-06T22:15:08+00:00,SAT-45404,352.8857834230816,45.091306344151825,750.3131805531458,0.5389901079678783,-18877.71350693126,10.5,10499981122.286493,47.655,-122.3035,60.0,4.966666666666667
2026-02-06T22:15:09+00:00,SAT-45404,353.6685489216277,45.04377174395661,750.8507257030145,0.6031124934843008,-21123.55068513818,10.5,10499978876.449314,47.655,-122.3035,60.0,4.983333333333333
2026-02-06T22:15:10+00:00,SAT-45404,354.44876464484827,44.99065146241747,751.4522213351333,0.6670801101760143,-23363.967204432305,10.5,10499976636.032795,47.655,-122.3035,60.0,5.0
2026-02-06T22:15:11+00:00,SAT-45404,355.2261606149038,44.9319997288154,752.1175130955911,0.7308771481268522,-25598.40933467362,10.5,10499974401.590666,47.655,-122.3035,60.0,5.016666666666667
2026-02-06T22:15:12+00:00,SAT-45404,356.0004729153601,44.867875981350956,752.8464308629448,0.7944880075438578,-27826.330705125703,10.5,10499972173.669294,47.655,-122.3035,60.0,5.033333333333333
2026-02-06T22:15:13+00:00,SAT-45404,356.77144417696866,44.79834468894566,753.6387889577798,0.8578973254187461,-30047.19323825296,10.5,10499969952.806763,47.655,-122.3035,60.0,5.05
2026-02-06T22:15:14+00:00,SAT-45404,357.53882403995385,44.72347515961487,754.4943863788588,0.9210899839393233,-32260.46744432408,10.5,10499967739.532557,47.655,-122.3035,60.0,5.066666666666666
2026-02-06T22:15:15+00:00,SAT-45404,358.3023695707634,44.64334133809876,755.4130070476617,0.9840511341275491,-34465.63324931698,10.5,10499965534.36675,47.655,-122.3035,60.0,5.083333333333333
2026-02-06T22:15:16+00:00,SAT-45404,359.0618456496548,44.55802159254893,756.3944200764975,1.0467662086756453,-36662.18044449362,10.5,10499963337.819555,47.655,-122.3035,60.0,5.1
2026-02-06T22:15:17+00:00,SAT-45404,359.81702531703326,44.46759849236096,757.4383800494213,1.1092209387689305,-38849.609275606825,10.5,10499961150.390724,47.655,-122.3035,60.0,5.116666666666666
2026-02-06T22:15:18+00:00,SAT-45404,0.5676900829758823,44.37215857799289,758.544627319926,1.1714013637301808,-41027.43078068661,10.5,10499958972.56922,47.655,-122.3035,60.0,5.133333333333334
2026-02-06T22:15:19+00:00,SAT-45404,1.3136301942875412,44.27179212455428,759.7128883182532,1.2332938539346239,-43195.16759262019,10.5,10499956804.832407,47.655,-122.3035,60.0,5.15
2026-02-06T22:15:20+00:00,SAT-45404,2.0546448695806316,44.16659289921664,760.9428758815601,1.294885116472269,-45352.35413747074,10.5,10499954647.645863,47.655,-122.3035,60.0,5.166666666666667
2026-02-06T22:15:21+00:00,SAT-45404,2.790542490172679,44.05665791508845,762.2342895897293,1.3561622005298275,-47498.53682297501,10.5,10499952501.463177,47.655,-122.3035,60.0,5.183333333333334
2026-02-06T22:15:22+00:00,SAT-45404,3.5211407496746117,43.942087182704135,763.5868161065498,1.4171125315847553,-49633.27523616331,10.5,10499950366.724764,47.655,-122.3035,60.0,5.2
2026-02-06T22:15:23+00:00,SAT-45404,4.246266779605105,43.822983457805826,765.0001295549989,1.4777238865206532,-51756.141271795634,10.5,10499948243.858728,47.655,-122.3035,60.0,5.216666666666667
2026-02-06T22:15:24+00:00,SAT-45404,4.965757218581039,43.699451991489795,766.4738918677056,1.537984447435289,-53866.72101694611,10.5,10499946133.278982,47.655,-122.3035,60.0,5.233333333333333
2026-02-06T22:15:25+00:00,SAT-45404,5.679458270265128,43.571600277099066,768.0077531910792,1.597882753297589,-55964.61305782644,10.5,10499944035.386942,47.655,-122.3035,60.0,5.25
2026-02-06T22:15:26+00:00,SAT-45404,6.387225698488707,43.439537803418645,769.6013522412228,1.6574077648203678,-58049.430751903245,10.5,10499941950.569248,47.655,-122.3035,60.0,5.266666666666667
2026-02-06T22:15:27+00:00,SAT-45404,7.088924818688406,43.303375805610614,771.2543167245478,1.7165488314598392,-60120.80107208138,10.5,10499939879.198929,47.655,-122.3035,60.0,5.283333333333333
2026-02-06T22:15:28+00:00,SAT-45404,7.784430439163295,43.16322702291696,772.9662637254743,1.7752957120996529,-62178.36533114637,10.5,10499937821.634668,47.655,-122.3035,60.0,5.3
2026-02-06T22:15:29+00:00,SAT-45404,8.473626780972856,43.019205459440656,774.7368001147607,1.8336385784330966,-64221.779300223476,10.5,10499935778.2207,47.655,-122.3035,60.0,5.316666666666666
2026-02-06T22:15:30+00:00,SAT-45404,9.156407369990797,42.871426150166776,776.5655229612073,1.8915680122803327,-66250.7131148159,10.5,10499933749.286884,47.655,-122.3035,60.0,5.333333333333333
2026-02-06T22:15:31+00:00,SAT-45404,9.832674901479175,42.72000493335848,778.4520199406828,1.9490750191726003,-68264.85175058107,10.5,10499931735.148249,47.655,-122.3035,60.0,5.35
2026-02-06T22:15:32+00:00,SAT-45404,10.502341085726194,42.565058228599476,780.3958697587013,2.0061510157620925,-70263.89458237129,10.5,10499929736.105417,47.655,-122.3035,60.0,5.366666666666666
2026-02-06T22:15:33+00:00,SAT-45404,11.16532646729045,42.406702823090605,782.396642560439,2.062787846997747,-72247.55598580251,10.5,10499927752.444014,47.655,-122.3035,60.0,5.383333333333334
2026-02-06T22:15:34+00:00,SAT-45404,11.82156023096232,42.2450556642633,784.4539003578835,2.1189777767563447,-74215.5650091158,10.5,10499925784.434992,47.655,-122.3035,60.0,5.4
2026-02-06T22:15:35+00:00,SAT-45404,12.47097998713545,42.0802336612086,786.5671974476394,2.1747134892078397,-76167.66542099707,10.5,10499923832.33458,47.655,-122.3035,60.0,5.416666666666667
2026-02-06T22:15:36+00:00,SAT-45404,13.11353154300013,41.912353494353965,788.736080830093,2.2299880749072925,-78103.61522345759,10.5,10499921896.384777,47.655,-122.3035,60.0,5.433333333333334
2026-02-06T22:15:37+00:00,SAT-45404,13.749168656748385,41.741531434815045,790.9600906147097,2.284795059552737,-80023.18765905625,10.5,10499919976.812342,47.655,-122.3035,60.0,5.45
2026-02-06T22:15:38+00:00,SAT-45404,14.377852790159102,41.56788317031192,793.2387604540095,2.3391283647086896,-81926.16983527064,10.5,10499918073.830164,47.655,-122.3035,60.0,5.466666666666667
2026-02-06T22:15:39+00:00,SAT-45404,14.99955284069427,41.39152364301054,795.5716179383721,2.3929823376329296,-83812.36376915713,10.5,10499916187.63623,47.655,-122.3035,60.0,5.483333333333333
2026-02-06T22:15:40+00:00,SAT-45404,15.614244875756395,41.21256689405663,797.9581850205894,2.4463517169310074,-85681.58518442641,10.5,10499914318.414816,47.655,-122.3035,60.0,5.5
2026-02-06T22:15:41+00:00,SAT-45404,16.22191185243738,41.031125919695036,800.3979784061638,2.4992316501879146,-87533.66412897919,10.5,10499912466.33587,47.655,-122.3035,60.0,5.516666666666667
2026-02-06T22:15:42+00:00,SAT-45404,16.82254333915776,40.84731253500407,802.8905099611916,2.55161767625154,-89368.4443543979,10.5,10499910631.555645,47.655,-122.3035,60.0,5.533333333333333
2026-02-06T22:15:43+00:00,SAT-45404,17.416135231034186,40.6612372478318,805.4352871025764,2.6035057345501196,-91185.78364228313,10.5,10499908814.216358,47.655,-122.3035,60.0,5.55
2026-02-06T22:15:44+00:00,SAT-45404,18.002689467370995,40.47300914081247,808.0318131975358,2.654892123447438,-92985.55234567674,10.5,10499907014.447655,47.655,-122.3035,60.0,5.566666666666666
2026-02-06T22:15:45+00:00,SAT-45404,18.582213740723326,40.282735765008745,810.6795879215753,2.7057735513250103,-94767.63517817586,10.5,10499905232.364822,47.655,-122.3035,60.0,5.583333333333333
2026-02-06T22:15:46+00:00,SAT-45404,19.154721220234077,40.090523038283116,813.378107667406,2.756147064122782,-96531.92867610168,10.5,10499903468.071323,47.655,-122.3035,60.0,5.6
