DopplerPredictor/satellites_20260211_210343/SAT-45405.csv

timestamp,satellite,azimuth_deg,elevation_deg,distance_km,relative_velocity_kms,doppler_shift_hz,tx_freq_ghz,rx_freq_hz,ue_lat,ue_lon,ue_alt_m,time_minutes
2026-02-06T22:10:17+00:00,SAT-45405,309.65872626904724,40.045583798487144,815.7764933267479,-2.9759322211804555,104229.73456655399,10.5,10500104229.734566,47.655,-122.3035,60.0,0.11666666666666667
2026-02-06T22:10:18+00:00,SAT-45405,310.20545675056235,40.257119032145106,812.8085391691741,-2.9270440520360506,102517.46408636648,10.5,10500102517.464087,47.655,-122.3035,60.0,0.13333333333333333
2026-02-06T22:10:19+00:00,SAT-45405,310.7595595158131,40.46722782102794,809.8893421183091,-2.877622403035744,100786.50888500773,10.5,10500100786.508884,47.655,-122.3035,60.0,0.15
2026-02-06T22:10:20+00:00,SAT-45405,311.32108291844344,40.675806096240024,807.0194342238241,-2.8276687422122295,99036.9203791925,10.5,10500099036.92038,47.655,-122.3035,60.0,0.16666666666666666
2026-02-06T22:10:21+00:00,SAT-45405,311.89007102050465,40.88274744770923,804.1993460712912,-2.777184925225936,97268.76356199836,10.5,10500097268.763561,47.655,-122.3035,60.0,0.18333333333333332
2026-02-06T22:10:22+00:00,SAT-45405,312.46656328776527,41.08794318364161,801.4296063955984,-2.726173122572827,95482.11445337524,10.5,10500095482.114454,47.655,-122.3035,60.0,0.2
2026-02-06T22:10:23+00:00,SAT-45405,313.05059426083113,41.29128239282462,798.7107417669553,-2.674635901214288,93677.06295916898,10.5,10500093677.06296,47.655,-122.3035,60.0,0.21666666666666667
2026-02-06T22:10:24+00:00,SAT-45405,313.6421932328506,41.49265202144831,796.0432761954921,-2.622576215689117,91853.71255982606,10.5,10500091853.71256,47.655,-122.3035,60.0,0.23333333333333334
2026-02-06T22:10:25+00:00,SAT-45405,314.2413839175323,41.69193695826077,793.4277307447219,-2.5699974130698173,90012.18048398363,10.5,10500090012.180485,47.655,-122.3035,60.0,0.25
2026-02-06T22:10:26+00:00,SAT-45405,314.84818411112474,41.889020129410426,790.8646231400569,-2.5169032149157093,88152.59707639125,10.5,10500088152.597076,47.655,-122.3035,60.0,0.26666666666666666
2026-02-06T22:10:27+00:00,SAT-45405,315.4626053437293,42.083782601503486,788.3544673953277,-2.4632977891279646,86275.10831457817,10.5,10500086275.108315,47.655,-122.3035,60.0,0.2833333333333333
2026-02-06T22:10:28+00:00,SAT-45405,316.08465254239115,42.27610370011114,785.8977733676372,-2.409185682038996,84379.87343033645,10.5,10500084379.87343,47.655,-122.3035,60.0,0.3
2026-02-06T22:10:29+00:00,SAT-45405,316.7143236748236,42.465861133264546,783.4950463799441,-2.3545718673052276,82467.0666221526,10.5,10500082467.066622,47.655,-122.3035,60.0,0.31666666666666665
2026-02-06T22:10:30+00:00,SAT-45405,317.3516094024866,42.65293112914596,781.1467867948843,-2.2994617733106897,80536.87801499743,10.5,10500080536.878016,47.655,-122.3035,60.0,0.3333333333333333
2026-02-06T22:10:31+00:00,SAT-45405,317.9964927412421,42.83718858664276,778.853489561262,-2.2438612124798736,78589.51118456315,10.5,10500078589.511185,47.655,-122.3035,60.0,0.35
2026-02-06T22:10:32+00:00,SAT-45405,318.6489487049509,43.0185072310735,776.61564383104,-2.18777646620964,76625.18613193806,10.5,10500076625.186132,47.655,-122.3035,60.0,0.36666666666666664
2026-02-06T22:10:33+00:00,SAT-45405,319.308943975261,43.196759787559245,774.433732491623,-2.1312142554967846,74644.13825485976,10.5,10500074644.138254,47.655,-122.3035,60.0,0.38333333333333336
2026-02-06T22:10:34+00:00,SAT-45405,319.9764365700654,43.37181816303792,772.3082317274375,-2.0741817305059382,72646.6179823388,10.5,10500072646.617983,47.655,-122.3035,60.0,0.4
2026-02-06T22:10:35+00:00,SAT-45405,320.65137551701775,43.54355363832671,770.2396105919139,-2.016686491784946,70632.891517711,10.5,10500070632.891518,47.655,-122.3035,60.0,0.4166666666666667
2026-02-06T22:10:36+00:00,SAT-45405,321.3337005437629,43.71183707274151,768.2283305583109,-1.9587365871325855,68603.2407289317,10.5,10500068603.240728,47.655,-122.3035,60.0,0.43333333333333335
2026-02-06T22:10:37+00:00,SAT-45405,322.02334178090126,43.87653911914484,766.2748450736627,-1.9003405236872037,66557.96357197098,10.5,10500066557.963572,47.655,-122.3035,60.0,0.45
2026-02-06T22:10:38+00:00,SAT-45405,322.720219485253,44.0375304504684,764.3795991006724,-1.841507243244266,64497.37322632977,10.5,10500064497.373226,47.655,-122.3035,60.0,0.4666666666666667
2026-02-06T22:10:39+00:00,SAT-45405,323.42424377417416,44.19468199429935,762.5430286842193,-1.7822461284559998,62421.79831217767,10.5,10500062421.798311,47.655,-122.3035,60.0,0.48333333333333334
2026-02-06T22:10:40+00:00,SAT-45405,324.13531438285065,44.347865177686366,760.7655605116837,-1.7225670377203004,60331.584112309974,10.5,10500060331.584112,47.655,-122.3035,60.0,0.5
2026-02-06T22:10:41+00:00,SAT-45405,324.8533204604626,44.496952184205774,759.0476114384771,-1.6624802415161712,58227.09034234543,10.5,10500058227.090342,47.655,-122.3035,60.0,0.5166666666666667
2026-02-06T22:10:42+00:00,SAT-45405,325.5781403703897,44.64181621425426,757.3895880770664,-1.6019964593063176,56108.69244321128,10.5,10500056108.692444,47.655,-122.3035,60.0,0.5333333333333333
2026-02-06T22:10:43+00:00,SAT-45405,326.3096415351655,44.782331756494365,755.7918863491919,-1.5411268548359918,53976.78141648884,10.5,10500053976.781416,47.655,-122.3035,60.0,0.55
2026-02-06T22:10:44+00:00,SAT-45405,327.04768031478574,44.91837486618448,754.2548910427781,-1.479882997824019,51831.76248267126,10.5,10500051831.762484,47.655,-122.3035,60.0,0.5666666666666667
2026-02-06T22:10:45+00:00,SAT-45405,327.7921019052979,45.049823446540024,752.7789754070474,-1.4182769072460992,49674.05659712774,10.5,10500049674.056597,47.655,-122.3035,60.0,0.5833333333333334
2026-02-06T22:10:46+00:00,SAT-45405,328.542740297625,45.176557539378415,751.3645007044672,-1.3563209945284127,47504.09846050341,10.5,10500047504.098461,47.655,-122.3035,60.0,0.6
2026-02-06T22:10:47+00:00,SAT-45405,329.29941825332014,45.29845961518408,750.0118158193529,-1.294028088990374,45322.33740983212,10.5,10500045322.33741,47.655,-122.3035,60.0,0.6166666666666667
2026-02-06T22:10:48+00:00,SAT-45405,330.0619473387204,45.41541486875555,748.7212568410932,-1.2314114047081932,43129.23625795826,10.5,10500043129.236258,47.655,-122.3035,60.0,0.6333333333333333
2026-02-06T22:10:49+00:00,SAT-45405,330.83012799077216,45.52731151402831,747.4931466804262,-1.1684845547408393,40925.27179179008,10.5,10500040925.271791,47.655,-122.3035,60.0,0.65
2026-02-06T22:10:50+00:00,SAT-45405,331.603749642746,45.63404108106759,746.3277946715258,-1.1052615052773058,38710.933166343064,10.5,10500038710.933167,47.655,-122.3035,60.0,0.6666666666666666
2026-02-06T22:10:51+00:00,SAT-45405,332.38259087658037,45.73549870845577,745.2254962198181,-1.0417566013578698,36486.72280560718,10.5,10500036486.722805,47.655,-122.3035,60.0,0.6833333333333333
2026-02-06T22:10:52+00:00,SAT-45405,333.1664196471431,45.831583436198216,744.186532424146,-0.977984520778051,34253.15478806853,10.5,10500034253.154789,47.655,-122.3035,60.0,0.7
2026-02-06T22:10:53+00:00,SAT-45405,333.9549935348975,45.92219849116566,743.2111697449061,-0.913960281715971,32010.75511385178,10.5,10500032010.755114,47.655,-122.3035,60.0,0.7166666666666667
2026-02-06T22:10:54+00:00,SAT-45405,334.7480600632304,46.00725156852686,742.2996596645787,-0.8496992076120837,29760.060474659702,10.5,10500029760.060474,47.655,-122.3035,60.0,0.7333333333333333
2026-02-06T22:10:55+00:00,SAT-45405,335.54535705040007,46.08665510374127,741.4522383832838,-0.7852169322019467,27501.61843004216,10.5,10500027501.61843,47.655,-122.3035,60.0,0.75
2026-02-06T22:10:56+00:00,SAT-45405,336.34661302808274,46.16032653733791,740.6691265093172,-0.7205293626923966,25235.986117669992,10.5,10500025235.986118,47.655,-122.3035,60.0,0.7666666666666667
2026-02-06T22:10:57+00:00,SAT-45405,337.15154769199455,46.228188567101974,739.9505287864132,-0.6556526707308641,22963.729937042222,10.5,10500022963.729937,47.655,-122.3035,60.0,0.7833333333333333
2026-02-06T22:10:58+00:00,SAT-45405,337.95987240727385,46.2901693887801,739.2966338300124,-0.5906032729984941,20685.424869775037,10.5,10500020685.42487,47.655,-122.3035,60.0,0.8
2026-02-06T22:10:59+00:00,SAT-45405,338.77129075831965,46.3462029229067,738.7076138828854,-0.5253978130007595,18401.653841832052,10.5,10500018401.653841,47.655,-122.3035,60.0,0.8166666666666667
2026-02-06T22:11:00+00:00,SAT-45405,339.5854991455525,46.39622902647881,738.1836245889166,-0.46005313408708814,16113.006778557537,10.5,10500016113.006779,47.655,-122.3035,60.0,0.8333333333333334
2026-02-06T22:11:01+00:00,SAT-45405,340.40218741408745,46.44019368733525,737.7248047937948,-0.3945862613908943,13820.079972139893,10.5,10500013820.079971,47.655,-122.3035,60.0,0.85
2026-02-06T22:11:02+00:00,SAT-45405,341.2210395219079,46.47804920083344,737.3312763637176,-0.3290143872683184,11523.475571614757,10.5,10500011523.47557,47.655,-122.3035,60.0,0.8666666666666667
2026-02-06T22:11:03+00:00,SAT-45405,342.0417342557787,46.509754328036294,737.0031440186175,-0.2633548372581759,9223.800390638404,10.5,10500009223.80039,47.655,-122.3035,60.0,0.8833333333333333
2026-02-06T22:11:04+00:00,SAT-45405,342.863945956811,46.53527443250287,736.7404951993348,-0.19762505686227178,6921.665444478439,10.5,10500006921.665445,47.655,-122.3035,60.0,0.9
2026-02-06T22:11:05+00:00,SAT-45405,343.68734529120997,46.55458159676851,736.5433999479778,-0.13184258184274986,4617.684909701343,10.5,10500004617.68491,47.655,-122.3035,60.0,0.9166666666666666
2026-02-06T22:11:06+00:00,SAT-45405,344.5116000244368,46.5676547161515,736.4119108179027,-0.06602502190645983,2312.4755527299762,10.5,10500002312.475554,47.655,-122.3035,60.0,0.9333333333333333
2026-02-06T22:11:07+00:00,SAT-45405,345.3363758346975,46.57447957053832,736.3460627999685,-0.0001900317191508348,6.655714638037243,10.5,10500000006.655714,47.655,-122.3035,60.0,0.95
2026-02-06T22:11:08+00:00,SAT-45405,346.1613371208903,46.57504887244184,736.345873277698,0.06564471024930343,-2299.1554297796447,10.5,10499997700.84457,47.655,-122.3035,60.0,0.9666666666666667
2026-02-06T22:11:09+00:00,SAT-45405,346.9861478310035,46.569362291754125,736.411342003538,0.13146152562177937,-4604.338708976739,10.5,10499995395.661291,47.655,-122.3035,60.0,0.9833333333333333
2026-02-06T22:11:10+00:00,SAT-45405,347.810472278602,46.55742645675448,736.5424510989515,0.19724275979453065,-6908.275784051151,10.5,10499993091.724216,47.655,-122.3035,60.0,1.0
2026-02-06T22:11:11+00:00,SAT-45405,348.6339759744522,46.53925493140095,736.7391650781261,0.26297080593011646,-9210.349989078853,10.5,10499990789.650011,47.655,-122.3035,60.0,1.0166666666666666
2026-02-06T22:11:12+00:00,SAT-45405,349.4563264413244,46.514868169021,737.0014308956157,0.3286281274411709,-11509.947118590604,10.5,10499988490.052881,47.655,-122.3035,60.0,1.0333333333333334
2026-02-06T22:11:13+00:00,SAT-45405,350.27719401395694,46.484293442854344,737.3291780163979,0.3941972816372341,-13806.456255783987,10.5,10499986193.543745,47.655,-122.3035,60.0,1.05
2026-02-06T22:11:14+00:00,SAT-45405,351.0962526280018,46.44756475382706,737.722318509522,0.4596609440073648,-16099.27062300323,10.5,10499983900.729378,47.655,-122.3035,60.0,1.0666666666666667
2026-02-06T22:11:15+00:00,SAT-45405,351.91318058695146,46.40472271611705,738.1807471659719,0.5250019276276564,-18387.788261472517,10.5,10499981612.211739,47.655,-122.3035,60.0,1.0833333333333333
2026-02-06T22:11:16+00:00,SAT-45405,352.72766129670674,46.355814421724425,738.7043416358816,0.5902032075825945,-20671.4128866352,10.5,10499979328.587112,47.655,-122.3035,60.0,1.1
2026-02-06T22:11:17+00:00,SAT-45405,353.5393839765261,46.30089328449811,739.2929625901129,0.6552479445108783,-22949.554712828103,10.5,10499977050.445288,47.655,-122.3035,60.0,1.1166666666666667
2026-02-06T22:11:18+00:00,SAT-45405,354.3480443362877,46.24001886470794,739.9464539053087,0.7201194975002263,-25221.630904912145,10.5,10499974778.369095,47.655,-122.3035,60.0,1.1333333333333333
2026-02-06T22:11:19+00:00,SAT-45405,355.1533452063079,46.173256676298436,740.6646428618125,0.7848014576605029,-27487.066754145235,10.5,10499972512.933247,47.655,-122.3035,60.0,1.15
2026-02-06T22:11:20+00:00,SAT-45405,355.9549971440331,46.10067797612338,741.4473403750675,0.8492776545122931,-29745.295901937192,10.5,10499970254.704098,47.655,-122.3035,60.0,1.1666666666666667
2026-02-06T22:11:21+00:00,SAT-45405,356.75271898047157,46.022359539012506,742.2943412333883,0.9135321829930672,-31995.761285719887,10.5,10499968004.238714,47.655,-122.3035,60.0,1.1833333333333333
2026-02-06T22:11:22+00:00,SAT-45405,357.54623833183257,45.9383834181143,743.2054243626663,0.9775494230419364,-34237.9158248882,10.5,10499965762.084175,47.655,-122.3035,60.0,1.2
2026-02-06T22:11:23+00:00,SAT-45405,358.33529206455506,45.84883669266628,744.1803531106068,1.0413140460507415,-36471.222646744456,10.5,10499963528.777353,47.655,-122.3035,60.0,1.2166666666666666
2026-02-06T22:11:24+00:00,SAT-45405,359.1196267021826,45.75381120584118,745.2188755374013,1.1048110478113051,-38695.15624045053,10.5,10499961304.84376,47.655,-122.3035,60.0,1.2333333333333334
2026-02-06T22:11:25+00:00,SAT-45405,359.8989987980365,45.653403291744446,746.3207247392573,1.1680257469746358,-40909.2024030627,10.5,10499959090.797598,47.655,-122.3035,60.0,1.25
2026-02-06T22:11:26+00:00,SAT-45405,0.6731752440671971,45.54771349621113,747.4856191703918,1.2309438175476437,-43112.85937770409,10.5,10499956887.140623,47.655,-122.3035,60.0,1.2666666666666666
2026-02-06T22:11:27+00:00,SAT-45405,1.441933543860707,45.43684628978775,748.7132629974349,1.293551290522875,-45305.63791064479,10.5,10499954694.36209,47.655,-122.3035,60.0,1.2833333333333334
2026-02-06T22:11:28+00:00,SAT-45405,2.205062027067458,45.32090977719062,750.003346455458,1.3558345595685397,-47487.06145059082,10.5,10499952512.938549,47.655,-122.3035,60.0,1.3
2026-02-06T22:11:29+00:00,SAT-45405,2.962360012669051,45.200015404263624,751.3555462096772,1.417780417903541,-49656.66744020351,10.5,10499950343.33256,47.655,-122.3035,60.0,1.3166666666666667
2026-02-06T22:11:30+00:00,SAT-45405,3.7136379399712656,45.07427766106361,752.7695257539342,1.479376052070638,-51814.007098009446,10.5,10499948185.992903,47.655,-122.3035,60.0,1.3333333333333333
2026-02-06T22:11:31+00:00,SAT-45405,4.458717442746232,44.9438137862732,754.2449358029629,1.5406090376613037,-53958.6452686668,10.5,10499946041.35473,47.655,-122.3035,60.0,1.35
2026-02-06T22:11:32+00:00,SAT-45405,5.197431373095686,44.80874347399347,755.7814146803985,1.601467389120244,-56090.162167330316,10.5,10499943909.837833,47.655,-122.3035,60.0,1.3666666666666667
2026-02-06T22:11:33+00:00,SAT-45405,5.9296238041851765,44.66918857936567,757.3785887564509,1.6619395255679994,-58208.15218261426,10.5,10499941791.847816,47.655,-122.3035,60.0,1.3833333333333333
2026-02-06T22:11:34+00:00,SAT-45405,6.655149971417457,44.52527283154813,759.0360728514985,1.7220142966669183,-60312.22478252819,10.5,10499939687.775217,47.655,-122.3035,60.0,1.4
2026-02-06T22:11:35+00:00,SAT-45405,7.3738761861642965,44.37712154977883,760.753470665474,1.781680995026546,-62402.004948966176,10.5,10499937597.99505,47.655,-122.3035,60.0,1.4166666666666667
2026-02-06T22:11:36+00:00,SAT-45405,8.085679716619474,44.22486136470061,762.5303752196246,1.8409293424214688,-64477.13269499736,10.5,10499935522.867306,47.655,-122.3035,60.0,1.4333333333333333
2026-02-06T22:11:37+00:00,SAT-45405,8.790448628117773,44.06861994804912,764.3663692845273,1.8997495075810364,-66537.26368793735,10.5,10499933462.736313,47.655,-122.3035,60.0,1.45
2026-02-06T22:11:38+00:00,SAT-45405,9.488081599596608,43.90852574874605,766.261025825844,1.9581321115280863,-68582.06943633287,10.5,10499931417.930563,47.655,-122.3035,60.0,1.4666666666666666
2026-02-06T22:11:39+00:00,SAT-45405,10.178487713180848,43.74470773717875,768.2139084554032,2.0160682030124857,-70611.23642954054,10.5,10499929388.76357,47.655,-122.3035,60.0,1.4833333333333334
2026-02-06T22:11:40+00:00,SAT-45405,10.861586209675833,43.577295160730095,770.2245718577809,2.0735493090878987,-72624.4679091391,10.5,10499927375.532091,47.655,-122.3035,60.0,1.5
2026-02-06T22:11:41+00:00,SAT-45405,11.537306239902943,43.40641730477465,772.2925622673209,2.130567374846695,-74621.48175819119,10.5,10499925378.518242,47.655,-122.3035,60.0,1.5166666666666666
2026-02-06T22:11:42+00:00,SAT-45405,12.205586575486105,43.23220326879628,774.4174178850536,2.1871148188734724,-76602.01244346,10.5,10499923397.987556,47.655,-122.3035,60.0,1.5333333333333334
2026-02-06T22:11:43+00:00,SAT-45405,12.866375322110853,43.054781748331145,776.5986693509197,2.2431844746053797,-78565.80896159999,10.5,10499921434.191038,47.655,-122.3035,60.0,1.55
2026-02-06T22:11:44+00:00,SAT-45405,13.519629600250902,42.874280832372314,778.835840157508,2.298769651777798,-80512.63699124439,10.5,10499919487.363008,47.655,-122.3035,60.0,1.5666666666666667
2026-02-06T22:11:45+00:00,SAT-45405,14.16531523399985,42.69082780660035,781.1284471250796,2.353864090052207,-82442.27726885703,10.5,10499917557.72273,47.655,-122.3035,60.0,1.5833333333333333
2026-02-06T22:11:46+00:00,SAT-45405,14.80340641668004,42.50454897132017,783.4760008303394,2.408461944764941,-84354.52508959343,10.5,10499915645.47491,47.655,-122.3035,60.0,1.6
2026-02-06T22:11:47+00:00,SAT-45405,15.43388536705154,42.31556947141946,785.8780060209983,2.462557826151208,-86249.19168109188,10.5,10499913750.80832,47.655,-122.3035,60.0,1.6166666666666667
2026-02-06T22:11:48+00:00,SAT-45405,16.056741992598194,42.12401313411435,788.3339620694506,2.516146769217062,-88126.1031482625,10.5,10499911873.896852,47.655,-122.3035,60.0,1.6333333333333333
2026-02-06T22:11:49+00:00,SAT-45405,16.671973542076966,41.93000231992406,790.8433633964074,2.5692242119217816,-89985.09970914181,10.5,10499910014.900291,47.655,-122.3035,60.0,1.65
2026-02-06T22:11:50+00:00,SAT-45405,17.279584252914372,41.73365778596859,793.40569987277,2.62178601601996,-91826.03642487091,10.5,10499908173.963575,47.655,-122.3035,60.0,1.6666666666666667
2026-02-06T22:11:51+00:00,SAT-45405,17.879585005903397,41.535098558102185,796.0204572422875,2.6738284610556233,-93648.78298934406,10.5,10499906351.21701,47.655,-122.3035,60.0,1.6833333333333333
2026-02-06T22:11:52+00:00,SAT-45405,18.471992981234163,41.33444181378149,798.6871175382272,2.725348208058181,-95453.22245768737,10.5,10499904546.777542,47.655,-122.3035,60.0,1.7
2026-02-06T22:11:53+00:00,SAT-45405,19.056831310983718,41.131802777641134,801.4051594638377,2.7763423103981295,-97239.2516264714,10.5,10499902760.748373,47.655,-122.3035,60.0,1.7166666666666666
2026-02-06T22:11:54+00:00,SAT-45405,19.634128740536248,40.92729462586785,804.174058783637,2.8268082136937966,-99006.78103044495,10.5,10499900993.21897,47.655,-122.3035,60.0,1.7333333333333334
2026-02-06T22:11:55+00:00,SAT-45405,20.203919297112428,40.72102839992909,806.9932887146093,2.8767437395868027,-100755.73437428313,10.5,10499899244.265625,47.655,-122.3035,60.0,1.75
2026-02-06T22:11:56+00:00,SAT-45405,20.766241962729676,40.51311293049917,809.8623203012208,2.926147050467925,-102486.04729713783,10.5,10499897513.952703,47.655,-122.3035,60.0,1.7666666666666666
2026-02-06T22:11:57+00:00,SAT-45405,21.321140349575845,40.303654772525135,812.7806227552549,2.975016700148007,-104197.6691473475,10.5,10499895802.330853,47.655,-122.3035,60.0,1.7833333333333334
2026-02-06T22:11:58+00:00,SAT-45405,21.868662395143794,40.09275814485078,815.7476638461818,3.0233515564585014,-105890.5602715805,10.5,10499894109.439728,47.655,-122.3035,60.0,1.8
