DopplerPredictor/satellites_20260211_210343/SAT-52313.csv

timestamp,satellite,azimuth_deg,elevation_deg,distance_km,relative_velocity_kms,doppler_shift_hz,tx_freq_ghz,rx_freq_hz,ue_lat,ue_lon,ue_alt_m,time_minutes
2026-02-06T22:17:26+00:00,SAT-52313,306.10493240125544,40.33390343485131,800.1871834989773,-5.046999460218069,176767.26988338618,10.5,10500176767.269884,47.655,-122.3035,60.0,7.266666666666667
2026-02-06T22:17:27+00:00,SAT-52313,306.22564982130774,40.701846488310586,795.1537143478262,-5.017287579667465,175726.63414537392,10.5,10500175726.634146,47.655,-122.3035,60.0,7.283333333333333
2026-02-06T22:17:28+00:00,SAT-52313,306.34918864452715,41.073952119795294,790.1498774237742,-4.987001771570062,174665.89703696166,10.5,10500174665.897038,47.655,-122.3035,60.0,7.3
2026-02-06T22:17:29+00:00,SAT-52313,306.4756509671777,41.45026827862648,785.1762451157474,-4.956130944220885,173584.6700797233,10.5,10500173584.67008,47.655,-122.3035,60.0,7.316666666666666
2026-02-06T22:17:30+00:00,SAT-52313,306.6051438142112,41.83084251383843,780.233400874642,-4.924663885474505,172482.5605768985,10.5,10500172482.560577,47.655,-122.3035,60.0,7.333333333333333
2026-02-06T22:17:31+00:00,SAT-52313,306.7377794369162,42.215721893005636,775.3219393334406,-4.8925892459090985,171359.17102372713,10.5,10500171359.171024,47.655,-122.3035,60.0,7.35
2026-02-06T22:17:32+00:00,SAT-52313,306.87367563127316,42.60495291361763,770.4424664441226,-4.859895590349528,170214.1009120051,10.5,10500170214.100912,47.655,-122.3035,60.0,7.366666666666666
2026-02-06T22:17:33+00:00,SAT-52313,307.01295608107137,42.99858141197481,765.5955995631851,-4.826571370148141,169046.9457592408,10.5,10500169046.945759,47.655,-122.3035,60.0,7.383333333333334
2026-02-06T22:17:34+00:00,SAT-52313,307.1557507252457,43.39665246306345,760.7819675648133,-4.792604907987727,167857.29657639062,10.5,10500167857.296576,47.655,-122.3035,60.0,7.4
2026-02-06T22:17:35+00:00,SAT-52313,307.3021961518845,43.79921027167946,756.0022109692047,-4.757984514903442,166644.74396646142,10.5,10500166644.743967,47.655,-122.3035,60.0,7.416666666666667
2026-02-06T22:17:36+00:00,SAT-52313,307.4524360256608,44.20629806549263,751.2569819541837,-4.722698331225519,165408.87255365163,10.5,10500165408.872553,47.655,-122.3035,60.0,7.433333333333334
2026-02-06T22:17:37+00:00,SAT-52313,307.60662154216567,44.617957966481725,746.5469445254521,-4.686734526506831,164149.26798566006,10.5,10500164149.267986,47.655,-122.3035,60.0,7.45
2026-02-06T22:17:38+00:00,SAT-52313,307.7649119239987,45.03423087049558,741.8727744874412,-4.650081148023334,162865.5116275307,10.5,10500162865.511627,47.655,-122.3035,60.0,7.466666666666667
2026-02-06T22:17:39+00:00,SAT-52313,307.92747494981614,45.45515630446386,737.2351595652643,-4.612726216679717,161557.18392067432,10.5,10500161557.18392,47.655,-122.3035,60.0,7.483333333333333
2026-02-06T22:17:40+00:00,SAT-52313,308.09448752827024,45.88077228178989,732.6347994310154,-4.574657778698903,160223.8661932532,10.5,10500160223.866194,47.655,-122.3035,60.0,7.5
2026-02-06T22:17:41+00:00,SAT-52313,308.2661363194663,46.31111515209495,728.0724056785183,-4.53586379151973,158865.1366638355,10.5,10500158865.136663,47.655,-122.3035,60.0,7.516666666666667
2026-02-06T22:17:42+00:00,SAT-52313,308.44261840164893,46.74621942908768,723.5487019118746,-4.496332280966708,157480.57594614482,10.5,10500157480.575947,47.655,-122.3035,60.0,7.533333333333333
2026-02-06T22:17:43+00:00,SAT-52313,308.624141998224,47.18611762096655,719.064423677259,-4.456051257706182,156069.76412300175,10.5,10500156069.764124,47.655,-122.3035,60.0,7.55
2026-02-06T22:17:44+00:00,SAT-52313,308.8109272609596,47.63084004019651,714.6203184780396,-4.415008801306521,154632.2836904672,10.5,10500154632.283691,47.655,-122.3035,60.0,7.566666666666666
2026-02-06T22:17:45+00:00,SAT-52313,309.0032071217811,48.08041460770369,710.2171457060584,-4.3731930417126135,153167.71890900083,10.5,10500153167.718908,47.655,-122.3035,60.0,7.583333333333333
2026-02-06T22:17:46+00:00,SAT-52313,309.20122821527895,48.5348666407498,705.8556765913901,-4.330592180430507,151675.65654543694,10.5,10500151675.656546,47.655,-122.3035,60.0,7.6
2026-02-06T22:17:47+00:00,SAT-52313,309.4052518804561,48.99421862723796,701.5366941309734,-4.2871945440007595,150155.68774584707,10.5,10500150155.687746,47.655,-122.3035,60.0,7.616666666666666
2026-02-06T22:17:48+00:00,SAT-52313,309.6155552513877,49.458489988924526,697.2609929639123,-4.242988597408715,148607.408505225,10.5,10500148607.408504,47.655,-122.3035,60.0,7.633333333333334
2026-02-06T22:17:49+00:00,SAT-52313,309.8324324434043,49.92769682842773,693.0293792334006,-4.197962895613162,147030.41796981497,10.5,10500147030.41797,47.655,-122.3035,60.0,7.65
2026-02-06T22:17:50+00:00,SAT-52313,310.05619584115107,50.401851651581936,688.8426704969919,-4.152106271288316,145424.3250126303,10.5,10500145424.325012,47.655,-122.3035,60.0,7.666666666666667
2026-02-06T22:17:51+00:00,SAT-52313,310.28717751194176,50.88096309009758,684.7016954496262,-4.105407679098666,143788.74277929962,10.5,10500143788.742779,47.655,-122.3035,60.0,7.683333333333334
2026-02-06T22:17:52+00:00,SAT-52313,310.525730737792,51.36503558488221,680.6072938019689,-4.057856382585875,142123.2952336369,10.5,10500142123.295233,47.655,-122.3035,60.0,7.7
2026-02-06T22:17:53+00:00,SAT-52313,310.77223169876066,51.85406906691006,676.5603159723607,-4.009441832223221,140427.61288659176,10.5,10500140427.612886,47.655,-122.3035,60.0,7.716666666666667
2026-02-06T22:17:54+00:00,SAT-52313,311.02708130415124,52.34805859825318,672.5616229003864,-3.9601538661129836,138701.3398255213,10.5,10500138701.339825,47.655,-122.3035,60.0,7.733333333333333
2026-02-06T22:17:55+00:00,SAT-52313,311.2907072087259,52.8469940094763,668.6120856602873,-3.9099825829036754,136944.1292632138,10.5,10500136944.129263,47.655,-122.3035,60.0,7.75
2026-02-06T22:17:56+00:00,SAT-52313,311.5635660112954,53.35085949178444,664.7125852011106,-3.8589185104113883,135155.64944372143,10.5,10500135155.649445,47.655,-122.3035,60.0,7.766666666666667
2026-02-06T22:17:57+00:00,SAT-52313,311.84614567661646,53.85963317765794,660.864011918695,-3.8069525135160194,133335.58041649667,10.5,10500133335.580416,47.655,-122.3035,60.0,7.783333333333333
2026-02-06T22:17:58+00:00,SAT-52313,312.13896818554946,54.37328667440502,657.0672653195082,-3.7540759686672884,131483.6201483312,10.5,10500131483.620148,47.655,-122.3035,60.0,7.8
2026-02-06T22:17:59+00:00,SAT-52313,312.442592460002,54.89178458202087,653.3232535104504,-3.7002806816585965,129599.48164344837,10.5,10500129599.481644,47.655,-122.3035,60.0,7.816666666666666
2026-02-06T22:18:00+00:00,SAT-52313,312.75761757206925,55.41508395817858,649.6328927706606,-3.645559001763145,127682.89694103319,10.5,10500127682.89694,47.655,-122.3035,60.0,7.833333333333333
2026-02-06T22:18:01+00:00,SAT-52313,313.084686286547,55.94313375241166,645.9971070094938,-3.5899038223088633,125733.61713536856,10.5,10500125733.617136,47.655,-122.3035,60.0,7.85
2026-02-06T22:18:02+00:00,SAT-52313,313.42448896431165,56.47587418972288,642.416827223926,-3.5333086580168716,123751.41508455542,10.5,10500123751.415085,47.655,-122.3035,60.0,7.866666666666666
2026-02-06T22:18:03+00:00,SAT-52313,313.7777678756821,57.013236109326456,638.8929908788247,-3.4757676588547994,121736.08589571452,10.5,10500121736.085896,47.655,-122.3035,60.0,7.883333333333334
2026-02-06T22:18:04+00:00,SAT-52313,314.1453219646459,57.555140243643734,635.4265412734072,-3.417275658086416,119687.44860788783,10.5,10500119687.448608,47.655,-122.3035,60.0,7.9
2026-02-06T22:18:05+00:00,SAT-52313,314.52801211982677,58.1014964356852,632.0184268597764,-3.357828227838984,117605.34813824215,10.5,10500117605.348139,47.655,-122.3035,60.0,7.916666666666667
2026-02-06T22:18:06+00:00,SAT-52313,314.9267670122778,58.652202788584916,628.6696005060359,-3.2974217239405714,115489.65685246157,10.5,10500115489.656853,47.655,-122.3035,60.0,7.933333333333334
2026-02-06T22:18:07+00:00,SAT-52313,315.342589565649,59.2071447370718,625.3810187146928,-3.236053322146712,113340.27583355842,10.5,10500113340.275833,47.655,-122.3035,60.0,7.95
2026-02-06T22:18:08+00:00,SAT-52313,315.776564131658,59.766194029378276,622.1536408049274,-3.1737210473040935,111157.13590330876,10.5,10500111157.135902,47.655,-122.3035,60.0,7.966666666666667
2026-02-06T22:18:09+00:00,SAT-52313,316.2298644519877,60.32920760649845,618.9884280657777,-3.1104238748365813,108940.20117672242,10.5,10500108940.201178,47.655,-122.3035,60.0,7.983333333333333
2026-02-06T22:18:10+00:00,SAT-52313,316.70376251004797,60.896026378298494,615.8863428081111,-3.046161708534488,106689.46828412918,10.5,10500106689.468285,47.655,-122.3035,60.0,8.0
2026-02-06T22:18:11+00:00,SAT-52313,317.1996383565592,61.46647385954294,612.8483474387466,-2.9809354735120377,104404.96962694236,10.5,10500104404.969627,47.655,-122.3035,60.0,8.016666666666667
2026-02-06T22:18:12+00:00,SAT-52313,317.7189910396158,62.04035466820974,609.87540344187,-2.9147471298183762,102086.77385437413,10.5,10500102086.773855,47.655,-122.3035,60.0,8.033333333333333
2026-02-06T22:18:13+00:00,SAT-52313,318.2634507503903,62.617452851355814,606.9684703468716,-2.8475997431757984,99734.98834098715,10.5,10500099734.98834,47.655,-122.3035,60.0,8.05
2026-02-06T22:18:14+00:00,SAT-52313,318.8347923302877,63.19753002541014,604.1285046256384,-2.779497517191344,97349.76031488128,10.5,10500097349.760315,47.655,-122.3035,60.0,8.066666666666666
2026-02-06T22:18:15+00:00,SAT-52313,319.43495027826305,63.78032329633405,601.35645855772,-2.710445800012197,94931.27709079348,10.5,10500094931.27709,47.655,-122.3035,60.0,8.083333333333334
2026-02-06T22:18:16+00:00,SAT-52313,320.06603540605386,64.36554292186418,598.653279088856,-2.640451192262029,92479.76985048538,10.5,10500092479.76985,47.655,-122.3035,60.0,8.1
2026-02-06T22:18:17+00:00,SAT-52313,320.73035332480356,64.95286970052926,596.0199065818582,-2.569521524746166,89995.51286188375,10.5,10500089995.512861,47.655,-122.3035,60.0,8.116666666666667
2026-02-06T22:18:18+00:00,SAT-52313,321.43042489590545,65.54195201797293,593.4572735897259,-2.4976659235368754,87478.82575864265,10.5,10500087478.825758,47.655,-122.3035,60.0,8.133333333333333
2026-02-06T22:18:19+00:00,SAT-52313,322.1690088207283,66.1324025202575,590.9663035638522,-2.4248948164106086,84930.07376560284,10.5,10500084930.073765,47.655,-122.3035,60.0,8.15
2026-02-06T22:18:20+00:00,SAT-52313,322.94912649100246,66.72379434553106,588.5479095558089,-2.3512200030003667,82349.67015582444,10.5,10500082349.670156,47.655,-122.3035,60.0,8.166666666666666
2026-02-06T22:18:21+00:00,SAT-52313,323.77408922123,67.31565686572007,586.202992849168,-2.276654653757285,79738.07621421714,10.5,10500079738.076214,47.655,-122.3035,60.0,8.183333333333334
2026-02-06T22:18:22+00:00,SAT-52313,324.647527884469,67.90747085035264,583.9324415923592,-2.2012133065902795,77095.8011198465,10.5,10500077095.80112,47.655,-122.3035,60.0,8.2
2026-02-06T22:18:23+00:00,SAT-52313,325.5734248910999,68.49866297054254,581.7371294348767,-2.1249119507913026,74423.40488535131,10.5,10500074423.404886,47.655,-122.3035,60.0,8.216666666666667
2026-02-06T22:18:24+00:00,SAT-52313,326.55614834823956,69.08859957815717,579.6179140797873,-2.0477679934666644,71721.49718122653,10.5,10500071721.49718,47.655,-122.3035,60.0,8.233333333333333
2026-02-06T22:18:25+00:00,SAT-52313,327.60048794102124,69.67657963503886,577.5756358697193,-1.9698002747604992,68990.73786901351,10.5,10500068990.73787,47.655,-122.3035,60.0,8.25
2026-02-06T22:18:26+00:00,SAT-52313,328.71169182695735,70.2618267043373,575.6111163576629,-1.8910290884051457,66231.83772106112,10.5,10500066231.83772,47.655,-122.3035,60.0,8.266666666666667
2026-02-06T22:18:27+00:00,SAT-52313,329.8955033871777,70.84347990604886,573.7251568572817,-1.8114761724226254,63445.55809485229,10.5,10500063445.558094,47.655,-122.3035,60.0,8.283333333333333
2026-02-06T22:18:28+00:00,SAT-52313,331.15819604540786,71.42058373542127,571.9185370024934,-1.731164708120974,60632.71089785129,10.5,10500060632.710897,47.655,-122.3035,60.0,8.3
2026-02-06T22:18:29+00:00,SAT-52313,332.50660355129816,71.9920766722775,570.1920133080542,-1.6501193013294986,57794.15793028301,10.5,10500057794.15793,47.655,-122.3035,60.0,8.316666666666666
2026-02-06T22:18:30+00:00,SAT-52313,333.94814198444317,72.55677853765086,568.5463177488551,-1.5683659896914748,54930.81114055406,10.5,10500054930.81114,47.655,-122.3035,60.0,8.333333333333334
2026-02-06T22:18:31+00:00,SAT-52313,335.4908182969878,73.11337663118191,566.9821563319475,-1.4859321859770613,52043.630639831325,10.5,10500052043.63064,47.655,-122.3035,60.0,8.35
2026-02-06T22:18:32+00:00,SAT-52313,337.14321823917635,73.6604107518189,565.5002077251024,-1.4028466870785996,49133.62501709531,10.5,10500049133.625017,47.655,-122.3035,60.0,8.366666666666667
2026-02-06T22:18:33+00:00,SAT-52313,338.91446427982436,74.19625740008333,564.101121876399,-1.3191396140670424,46201.84923966281,10.5,10500046201.84924,47.655,-122.3035,60.0,8.383333333333333
2026-02-06T22:18:34+00:00,SAT-52313,340.8141312182418,74.71911363437636,562.785518693596,-1.2348423898203131,43249.40386963734,10.5,10500043249.40387,47.655,-122.3035,60.0,8.4
2026-02-06T22:18:35+00:00,SAT-52313,342.8521042046524,75.22698140115244,561.5539867458145,-1.1499876818412118,40277.43306115033,10.5,10500040277.433062,47.655,-122.3035,60.0,8.416666666666666
2026-02-06T22:18:36+00:00,SAT-52313,345.0383607579757,75.71765354979986,560.40708202225,-1.0646093661496066,37287.12329571303,10.5,10500037287.123295,47.655,-122.3035,60.0,8.433333333333334
2026-02-06T22:18:37+00:00,SAT-52313,347.3826561147985,76.1887033013841,559.345326726895,-0.978742461838213,34279.70109008291,10.5,10500034279.70109,47.655,-122.3035,60.0,8.45
2026-02-06T22:18:38+00:00,SAT-52313,349.8940906709873,76.63747956863237,558.3692081385304,-0.8924230535759399,31256.430282003188,10.5,10500031256.430283,47.655,-122.3035,60.0,8.466666666666667
2026-02-06T22:18:39+00:00,SAT-52313,352.5805413265527,77.06111124799891,557.479177548007,-0.8056882644434789,28218.611078790138,10.5,10500028218.611078,47.655,-122.3035,60.0,8.483333333333333
2026-02-06T22:18:40+00:00,SAT-52313,355.4479476173477,77.45652432108287,556.6756492226152,-0.7185761426522622,25167.576089751907,10.5,10500025167.57609,47.655,-122.3035,60.0,8.5
2026-02-06T22:18:41+00:00,SAT-52313,358.49946036828993,77.82047601003003,555.9589994834379,-0.6311256067975676,22104.68840872061,10.5,10500022104.688408,47.655,-122.3035,60.0,8.516666666666667
2026-02-06T22:18:42+00:00,SAT-52313,1.734488540996146,78.14961027070714,555.329565837297,-0.5433763544960413,19031.338414151942,10.5,10500019031.338413,47.655,-122.3035,60.0,8.533333333333333
2026-02-06T22:18:43+00:00,SAT-52313,5.147717456579051,78.44053797757302,554.7876461998212,-0.45536878360972805,15948.941010057513,10.5,10500015948.94101,47.655,-122.3035,60.0,8.55
2026-02-06T22:18:44+00:00,SAT-52313,8.728215547508043,78.68994307005808,554.3334981970795,-0.36714389639385364,12858.932268854687,10.5,10500012858.932268,47.655,-122.3035,60.0,8.566666666666666
2026-02-06T22:18:45+00:00,SAT-52313,12.458786310888826,78.89471238215489,553.9673385628059,-0.27874320534968433,9762.766133935516,10.5,10500009762.766134,47.655,-122.3035,60.0,8.583333333333334
2026-02-06T22:18:46+00:00,SAT-52313,16.315741586476822,79.05208211088123,553.6893426295233,-0.19020864277633714,6661.911251788529,10.5,10500006661.911251,47.655,-122.3035,60.0,8.6
2026-02-06T22:18:47+00:00,SAT-52313,20.26925317798242,79.15978863898457,553.4996439098693,-0.10158246025793288,3557.8474516136603,10.5,10500003557.847452,47.655,-122.3035,60.0,8.616666666666667
2026-02-06T22:18:48+00:00,SAT-52313,24.284369799355392,79.21620710436979,553.3983337781691,-0.012907126245178906,452.06215819604944,10.5,10500000452.062159,47.655,-122.3035,60.0,8.633333333333333
2026-02-06T22:18:49+00:00,SAT-52313,28.322669864513955,79.22045941205099,553.3854612541481,0.07577477246188934,-2653.9530585850766,10.5,10499997346.046942,47.655,-122.3035,60.0,8.65
2026-02-06T22:18:50+00:00,SAT-52313,32.3443843632539,79.17247560293205,553.4610328849019,0.16442063437320756,-5758.706114343541,10.5,10499994241.293886,47.655,-122.3035,60.0,8.666666666666666
2026-02-06T22:18:51+00:00,SAT-52313,36.31071048552135,79.07299877460942,553.6250127302444,0.2529879430721596,-8860.707904325183,10.5,10499991139.292095,47.655,-122.3035,60.0,8.683333333333334
2026-02-06T22:18:52+00:00,SAT-52313,40.1859879545432,78.92353275327069,553.8773224475534,0.3414343726394154,-11958.475995796605,10.5,10499988041.524004,47.655,-122.3035,60.0,8.7
2026-02-06T22:18:53+00:00,SAT-52313,43.939445402676526,78.72624093772974,554.2178414817578,0.4297178838656043,-15050.537997819962,10.5,10499984949.462002,47.655,-122.3035,60.0,8.716666666666667
2026-02-06T22:18:54+00:00,SAT-52313,47.54632898023556,78.4838116200036,554.6464073512777,0.5177968236846385,-18135.43504382857,10.5,10499981864.564957,47.655,-122.3035,60.0,8.733333333333333
2026-02-06T22:18:55+00:00,SAT-52313,50.98836151216656,78.19930800550628,555.1628160331342,0.6056300296755783,-21211.72545172425,10.5,10499978788.274548,47.655,-122.3035,60.0,8.75
2026-02-06T22:18:56+00:00,SAT-52313,54.2536026046016,77.8760200421293,555.7668224522769,0.6931769091256188,-24277.987492997563,10.5,10499975722.012506,47.655,-122.3035,60.0,8.766666666666667
2026-02-06T22:18:57+00:00,SAT-52313,57.3358585149025,77.51733119046074,556.4581410497676,0.7803975431175634,-27332.823038311442,10.5,10499972667.176962,47.655,-122.3035,60.0,8.783333333333333
2026-02-06T22:18:58+00:00,SAT-52313,60.233818041239296,77.12660804246195,557.236446454767,0.8672527694331745,-30374.860461127184,10.5,10499969625.13954,47.655,-122.3035,60.0,8.8
2026-02-06T22:18:59+00:00,SAT-52313,62.95007618462763,76.70711579667834,558.1013742392063,0.9537042667188776,-33402.75758554345,10.5,10499966597.242414,47.655,-122.3035,60.0,8.816666666666666
2026-02-06T22:19:00+00:00,SAT-52313,65.49016997390964,76.261958818278,559.0525217563971,1.039714631398279,-36415.204380097945,10.5,10499963584.79562,47.655,-122.3035,60.0,8.833333333333334
2026-02-06T22:19:01+00:00,SAT-52313,67.86170680196314,75.79404317727625,560.0894490563493,1.125247443231627,-39410.92525393712,10.5,10499960589.074745,47.655,-122.3035,60.0,8.85
2026-02-06T22:19:02+00:00,SAT-52313,70.07362640875219,75.30605699255,561.2116798664698,1.2102673649480422,-42388.682546358265,10.5,10499957611.317453,47.655,-122.3035,60.0,8.866666666666667
2026-02-06T22:19:03+00:00,SAT-52313,72.13560837718164,74.80046424525882,562.4187026716294,1.2947401647495504,-45347.27731499597,10.5,10499954652.722685,47.655,-122.3035,60.0,8.883333333333333
2026-02-06T22:19:04+00:00,SAT-52313,74.05761794977113,74.27950818305294,563.7099718166713,1.3786328040714269,-48285.55240956055,10.5,10499951714.44759,47.655,-122.3035,60.0,8.9
2026-02-06T22:19:05+00:00,SAT-52313,75.84957316861887,73.74522103863116,565.0849086964462,1.4619134773259332,-51202.39386383195,10.5,10499948797.606136,47.655,-122.3035,60.0,8.916666666666666
2026-02-06T22:19:06+00:00,SAT-52313,77.52111225748855,73.1994375578003,566.5429029854834,1.5445516654021068,-54096.73276944852,10.5,10499945903.267231,47.655,-122.3035,60.0,8.933333333333334
2026-02-06T22:19:07+00:00,SAT-52313,79.08144032177745,72.64381046936738,568.0833139210187,1.6265181718496082,-56967.54654321853,10.5,10499943032.453457,47.655,-122.3035,60.0,8.95
2026-02-06T22:19:08+00:00,SAT-52313,80.53923651348494,72.07982659845243,569.705471622109,1.7077851481386432,-59813.8598118294,10.5,10499940186.140188,47.655,-122.3035,60.0,8.966666666666667
2026-02-06T22:19:09+00:00,SAT-52313,81.90260580852157,71.50882275815914,571.4086784339399,1.7883261532967551,-62634.74650058051,10.5,10499937365.2535,47.655,-122.3035,60.0,8.983333333333333
2026-02-06T22:19:10+00:00,SAT-52313,83.17906268504197,70.9320008664901,573.1922103316087,1.8681161323868642,-65429.32907959304,10.5,10499934570.670921,47.655,-122.3035,60.0,9.0
2026-02-06T22:19:11+00:00,SAT-52313,84.37553675257757,70.35044200856173,575.0553183024446,1.9471314834015643,-68196.78090673123,10.5,10499931803.219093,47.655,-122.3035,60.0,9.016666666666667
2026-02-06T22:19:12+00:00,SAT-52313,85.49839293906416,69.76511926906858,576.9972297950433,2.025350018752582,-70936.32487880035,10.5,10499929063.675121,47.655,-122.3035,60.0,9.033333333333333
2026-02-06T22:19:13+00:00,SAT-52313,86.55346067278039,69.17690933058888,579.0171501298942,2.1027510167970807,-73647.23523621581,10.5,10499926352.764763,47.655,-122.3035,60.0,9.05
2026-02-06T22:19:14+00:00,SAT-52313,87.54606816521307,68.58660283887932,581.1142639613946,2.1793151843985092,-76328.83625172568,10.5,10499923671.163748,47.655,-122.3035,60.0,9.066666666666666
2026-02-06T22:19:15+00:00,SAT-52313,88.48107897098156,67.99491363164545,583.2877367025295,2.2550246934016602,-78980.50350792159,10.5,10499921019.496492,47.655,-122.3035,60.0,9.083333333333334
2026-02-06T22:19:16+00:00,SAT-52313,89.36292896591112,67.40248689998772,585.5367159859214,2.3298631244633348,-81601.66192995093,10.5,10499918398.33807,47.655,-122.3035,60.0,9.1
2026-02-06T22:19:17+00:00,SAT-52313,90.195662451376,66.80990640764689,587.8603330688692,2.4038154920308306,-84191.7866603693,10.5,10499915808.213339,47.655,-122.3035,60.0,9.116666666666667
2026-02-06T22:19:18+00:00,SAT-52313,90.98296663161918,66.21770084581834,590.2577042632922,2.476868219808274,-86750.40219986747,10.5,10499913249.5978,47.655,-122.3035,60.0,9.133333333333333
2026-02-06T22:19:19+00:00,SAT-52313,91.72820398425404,65.62634943347736,592.7279323412112,2.5490090917317048,-89277.08069021169,10.5,10499910722.91931,47.655,-122.3035,60.0,9.15
2026-02-06T22:19:20+00:00,SAT-52313,92.43444228918085,65.03628685772902,595.2701078913311,2.620227266859661,-91771.44243577482,10.5,10499908228.557564,47.655,-122.3035,60.0,9.166666666666666
2026-02-06T22:19:21+00:00,SAT-52313,93.1044822607365,64.4479076200487,597.8833106904797,2.690513228409664,-94233.1541185785,10.5,10499905766.84588,47.655,-122.3035,60.0,9.183333333333334
2026-02-06T22:19:22+00:00,SAT-52313,93.74088279127815,63.86156987740929,600.5666110242149,2.7598587584772085,-96661.92791284526,10.5,10499903338.072086,47.655,-122.3035,60.0,9.2
2026-02-06T22:19:23+00:00,SAT-52313,94.34598390844803,63.27759883652531,603.3190709822209,2.8282568771392147,-99057.51935214379,10.5,10499900942.480648,47.655,-122.3035,60.0,9.216666666666667
2026-02-06T22:19:24+00:00,SAT-52313,94.92192757093717,62.6962897655824,606.1397456929722,2.895701861322199,-101419.72799023215,10.5,10499898580.272009,47.655,-122.3035,60.0,9.233333333333333
2026-02-06T22:19:25+00:00,SAT-52313,95.4706764718492,62.11791065640678,609.027684577211,2.9621891759952876,-103748.39499114592,10.5,10499896251.60501,47.655,-122.3035,60.0,9.25
2026-02-06T22:19:26+00:00,SAT-52313,95.99403099185038,61.542704599437634,611.9819325328076,3.0277154000960405,-106043.4005348074,10.5,10499893956.599464,47.655,-122.3035,60.0,9.266666666666667
2026-02-06T22:19:27+00:00,SAT-52313,96.49364446493534,60.970891908789035,615.0015310457408,3.0922782419837644,-108304.6643582659,10.5,10499891695.335642,47.655,-122.3035,60.0,9.283333333333333
2026-02-06T22:19:28+00:00,SAT-52313,96.97103692759481,60.40267201261282,618.0855193164921,3.1558764730270052,-110532.14342965078,10.5,10499889467.856571,47.655,-122.3035,60.0,9.3
2026-02-06T22:19:29+00:00,SAT-52313,97.42760748336913,59.83822515341532,621.2329353202058,3.218509873297724,-112725.8300461518,10.5,10499887274.169954,47.655,-122.3035,60.0,9.316666666666666
2026-02-06T22:19:30+00:00,SAT-52313,97.8646454236682,59.277713919767,624.4428168126876,3.280179202614586,-114885.75081983267,10.5,10499885114.24918,47.655,-122.3035,60.0,9.333333333333334
2026-02-06T22:19:31+00:00,SAT-52313,98.28334023345562,58.72128462588325,627.7142023075246,3.340886135856115,-117011.96441202403,10.5,10499882988.035587,47.655,-122.3035,60.0,9.35
2026-02-06T22:19:32+00:00,SAT-52313,98.68479059304232,58.16906856358794,631.0461319886928,3.4006332540768818,-119104.56122217477,10.5,10499880895.438778,47.655,-122.3035,60.0,9.366666666666667
2026-02-06T22:19:33+00:00,SAT-52313,99.07001248584768,57.621183132934384,634.4376486143029,3.4594239425818727,-121163.65981798536,10.5,10499878836.340181,47.655,-122.3035,60.0,9.383333333333333
2026-02-06T22:19:34+00:00,SAT-52313,99.43994649618162,57.07773288058968,637.8877983186952,3.51726240475337,-123189.4074196836,10.5,10499876810.59258,47.655,-122.3035,60.0,9.4
2026-02-06T22:19:35+00:00,SAT-52313,99.7954643938542,56.538810438647985,641.3956314283237,3.5741535907531783,-125181.97740287507,10.5,10499874818.022596,47.655,-122.3035,60.0,9.416666666666666
2026-02-06T22:19:36+00:00,SAT-52313,100.13737507189487,56.00449738832991,644.9602032065334,3.6301031162302113,-127141.56645133888,10.5,10499872858.433548,47.655,-122.3035,60.0,9.433333333333334
2026-02-06T22:19:37+00:00,SAT-52313,100.46642990485658,55.474865058120336,648.5805745172631,3.6851173289414887,-129068.39689037685,10.5,10499870931.60311,47.655,-122.3035,60.0,9.45
2026-02-06T22:19:38+00:00,SAT-52313,100.78332760104554,54.949975242423506,652.255812555192,3.7392030915556584,-130962.7090796741,10.5,10499869037.29092,47.655,-122.3035,60.0,9.466666666666667
2026-02-06T22:19:39+00:00,SAT-52313,101.08871857784632,54.42988088911955,655.9849913592691,3.792367935526183,-132824.76680258889,10.5,10499867175.233198,47.655,-122.3035,60.0,9.483333333333333
2026-02-06T22:19:40+00:00,SAT-52313,101.38320893908995,53.914626708029246,659.7671924797071,3.8446198520394606,-134654.84994427155,10.5,10499865345.150055,47.655,-122.3035,60.0,9.5
2026-02-06T22:19:41+00:00,SAT-52313,101.66736406820614,53.404249757539866,663.6015054364806,3.8959673846438436,-136453.25773592462,10.5,10499863546.742264,47.655,-122.3035,60.0,9.516666666666667
2026-02-06T22:19:42+00:00,SAT-52313,101.94171189772266,52.89877997152962,667.48702827021,3.9464194648120947,-138220.3029955043,10.5,10499861779.697004,47.655,-122.3035,60.0,9.533333333333333
2026-02-06T22:19:43+00:00,SAT-52313,102.20674587136355,52.39824066564452,671.4228679290427,3.995985497889596,-139956.31513799043,10.5,10499860043.684862,47.655,-122.3035,60.0,9.55
2026-02-06T22:19:44+00:00,SAT-52313,102.46292764503917,51.90264899320716,675.4081407412584,4.044675236260236,-141661.63573311933,10.5,10499858338.364267,47.655,-122.3035,60.0,9.566666666666666
2026-02-06T22:19:45+00:00,SAT-52313,102.71068954043444,51.412016381843706,679.4419727613753,4.092498790848944,-143336.6189082512,10.5,10499856663.381092,47.655,-122.3035,60.0,9.583333333333334
2026-02-06T22:19:46+00:00,SAT-52313,102.95043678340298,50.92634893563653,683.5235001277307,4.1394665497600265,-144981.62849874052,10.5,10499855018.371502,47.655,-122.3035,60.0,9.6
2026-02-06T22:19:47+00:00,SAT-52313,103.18254954366256,50.445647816834786,687.6518693389174,4.185589240297006,-146597.0402201331,10.5,10499853402.95978,47.655,-122.3035,60.0,9.616666666666667
2026-02-06T22:19:48+00:00,SAT-52313,103.40738480204541,49.96990959236444,691.8262375920726,4.230877777923514,-148183.2363781376,10.5,10499851816.763622,47.655,-122.3035,60.0,9.633333333333333
2026-02-06T22:19:49+00:00,SAT-52313,103.62527805184875,49.49912657222292,696.0457729705345,4.27534331043661,-149740.6074157623,10.5,10499850259.392584,47.655,-122.3035,60.0,9.65
2026-02-06T22:19:50+00:00,SAT-52313,103.83654485911897,49.03328711848125,700.3096546755532,4.318997198983889,-151269.5512484535,10.5,10499848730.448751,47.655,-122.3035,60.0,9.666666666666666
2026-02-06T22:19:51+00:00,SAT-52313,104.04148229259067,48.572375934423775,704.6170732390681,4.3618509498865565,-152770.47087625146,10.5,10499847229.529123,47.655,-122.3035,60.0,9.683333333333334
2026-02-06T22:19:52+00:00,SAT-52313,104.24037023286225,48.116374340504024,708.9672306684935,4.403916186038472,-154243.77338206404,10.5,10499845756.226618,47.655,-122.3035,60.0,9.7
2026-02-06T22:19:53+00:00,SAT-52313,104.43347257433734,47.66526053380928,713.3593405629778,4.445204676994158,-155689.87098547575,10.5,10499844310.129015,47.655,-122.3035,60.0,9.716666666666667
2026-02-06T22:19:54+00:00,SAT-52313,104.62103833163074,47.21900982641057,717.7926282596712,4.485728263381912,-157109.17839537535,10.5,10499842890.821604,47.655,-122.3035,60.0,9.733333333333333
2026-02-06T22:19:55+00:00,SAT-52313,104.80330265513233,46.777594874781755,722.2663309046094,4.525498861132316,-158502.1129580562,10.5,10499841497.887041,47.655,-122.3035,60.0,9.75
2026-02-06T22:19:56+00:00,SAT-52313,104.98048776702088,46.34098589294545,726.7796975278139,4.564528415527043,-159869.09304781095,10.5,10499840130.906952,47.655,-122.3035,60.0,9.766666666666667
2026-02-06T22:19:57+00:00,SAT-52313,105.15280382278678,45.90915085536461,731.3319890725636,4.602828942632363,-161210.53951810824,10.5,10499838789.460482,47.655,-122.3035,60.0,9.783333333333333
2026-02-06T22:19:58+00:00,SAT-52313,105.32044970811707,45.48205568208403,735.9224784659914,4.64041241604071,-162526.87173480346,10.5,10499837473.128265,47.655,-122.3035,60.0,9.8
2026-02-06T22:19:59+00:00,SAT-52313,105.48361377121145,45.05966442165368,740.5504505767216,4.677290846019565,-163818.5103482671,10.5,10499836181.489653,47.655,-122.3035,60.0,9.816666666666666
2026-02-06T22:20:00+00:00,SAT-52313,105.64247450282451,44.64193941438176,745.2152022514491,4.713476211239114,-165085.87490219885,10.5,10499834914.125097,47.655,-122.3035,60.0,9.833333333333334
2026-02-06T22:20:01+00:00,SAT-52313,105.79720116333591,44.22884145058977,749.9160422834256,4.748980425597954,-166329.3826717232,10.5,10499833670.617329,47.655,-122.3035,60.0,9.85
2026-02-06T22:20:02+00:00,SAT-52313,105.94795436290161,43.8203299208993,754.6522913478618,4.7838154079778965,-167549.4511064982,10.5,10499832450.548893,47.655,-122.3035,60.0,9.866666666666667
2026-02-06T22:20:03+00:00,SAT-52313,106.09488660116497,43.41636295035794,759.4232820068976,4.817992970150142,-168746.49390471485,10.5,10499831253.506096,47.655,-122.3035,60.0,9.883333333333333
2026-02-06T22:20:04+00:00,SAT-52313,106.23814276511318,43.01689753283489,764.2283586027777,4.851524868300998,-169920.92281774638,10.5,10499830079.077183,47.655,-122.3035,60.0,9.9
2026-02-06T22:20:05+00:00,SAT-52313,106.37786059268818,42.621889651940606,769.0668772024172,4.884422787571972,-171073.14710867644,10.5,10499828926.852892,47.655,-122.3035,60.0,9.916666666666666
2026-02-06T22:20:06+00:00,SAT-52313,106.51417110333485,42.23129439496659,773.9382055265459,4.916698295417262,-172203.57191868135,10.5,10499827796.428082,47.655,-122.3035,60.0,9.933333333333334
2026-02-06T22:20:07+00:00,SAT-52313,106.64719899724221,41.845066062681745,778.8417228323375,4.948362874008743,-173312.59940198963,10.5,10499826687.400599,47.655,-122.3035,60.0,9.95
2026-02-06T22:20:08+00:00,SAT-52313,106.77706302783437,41.46315826903006,783.7768198283553,4.979427896113181,-174400.62788100028,10.5,10499825599.37212,47.655,-122.3035,60.0,9.966666666666667
2026-02-06T22:20:09+00:00,SAT-52313,106.90387634809497,41.08552403580448,788.7428985654401,5.00990459598789,-175468.0508269252,10.5,10499824531.949173,47.655,-122.3035,60.0,9.983333333333333
