DopplerPredictor/satellites_20260211_210343/SAT-53480.csv

timestamp,satellite,azimuth_deg,elevation_deg,distance_km,relative_velocity_kms,doppler_shift_hz,tx_freq_ghz,rx_freq_hz,ue_lat,ue_lon,ue_alt_m,time_minutes
2026-02-06T22:17:53+00:00,SAT-53480,11.494951441416443,40.27755338073992,819.028296635727,-5.380701228962369,188454.9173818938,10.5,10500188454.917381,47.655,-122.3035,60.0,7.716666666666667
2026-02-06T22:17:54+00:00,SAT-53480,11.469937857190198,40.6607835741576,813.6620203242226,-5.3497309549770415,187370.2073827986,10.5,10500187370.207382,47.655,-122.3035,60.0,7.733333333333333
2026-02-06T22:17:55+00:00,SAT-53480,11.444215213205615,41.0486618618315,808.326631259673,-5.318136210126503,186263.62577249453,10.5,10500186263.625772,47.655,-122.3035,60.0,7.75
2026-02-06T22:17:56+00:00,SAT-53480,11.417756577300176,41.4412528787299,803.0227522388232,-5.285904125618546,185134.72183144357,10.5,10500185134.721832,47.655,-122.3035,60.0,7.766666666666667
2026-02-06T22:17:57+00:00,SAT-53480,11.390533632669243,41.838621465299966,797.7510188927106,-5.253021738277434,183983.0415343973,10.5,10500183983.041534,47.655,-122.3035,60.0,7.783333333333333
2026-02-06T22:17:58+00:00,SAT-53480,11.362516587785565,42.240832617122905,792.5120797807964,-5.219475869320409,182808.12330463727,10.5,10500182808.123304,47.655,-122.3035,60.0,7.8
2026-02-06T22:17:59+00:00,SAT-53480,11.333674079294374,42.64795142103407,787.306596605994,-5.185253184788946,181609.50013053342,10.5,10500181609.50013,47.655,-122.3035,60.0,7.816666666666666
2026-02-06T22:18:00+00:00,SAT-53480,11.303973066828663,43.06004299074803,782.1352443694286,-5.150340194239468,180386.69951968707,10.5,10500180386.69952,47.655,-122.3035,60.0,7.833333333333333
2026-02-06T22:18:01+00:00,SAT-53480,11.273378719689353,43.47717239721382,776.9987115265029,-5.1147232813239345,179139.24456999285,10.5,10500179139.24457,47.655,-122.3035,60.0,7.85
2026-02-06T22:18:02+00:00,SAT-53480,11.241854293854699,43.89940459597479,771.8977001124646,-5.07838870001657,177866.65383748244,10.5,10500177866.653837,47.655,-122.3035,60.0,7.866666666666666
2026-02-06T22:18:03+00:00,SAT-53480,11.209360998929824,44.32680434858742,766.8329258717349,-5.041322544195128,176568.44027093184,10.5,10500176568.440271,47.655,-122.3035,60.0,7.883333333333334
2026-02-06T22:18:04+00:00,SAT-53480,11.175857853729573,44.75943613534533,761.8051184175785,-5.003510838970782,175244.11441062074,10.5,10500175244.11441,47.655,-122.3035,60.0,7.9
2026-02-06T22:18:05+00:00,SAT-53480,11.141301529588318,45.197364069280844,756.8150213006826,-4.964939487026086,173893.18250886054,10.5,10500173893.182508,47.655,-122.3035,60.0,7.916666666666667
2026-02-06T22:18:06+00:00,SAT-53480,11.105646179887291,45.64065179901382,751.8633921312595,-4.925594324344961,172515.1484818944,10.5,10500172515.148481,47.655,-122.3035,60.0,7.933333333333334
2026-02-06T22:18:07+00:00,SAT-53480,11.068843254622514,46.08936240939045,746.9510026455663,-4.88546111887658,171109.5138631009,10.5,10500171109.513863,47.655,-122.3035,60.0,7.95
2026-02-06T22:18:08+00:00,SAT-53480,11.030841298360825,46.54355831475539,742.0786387737558,-4.844525544021804,169675.77687437666,10.5,10500169675.776875,47.655,-122.3035,60.0,7.966666666666667
2026-02-06T22:18:09+00:00,SAT-53480,10.991585729694133,47.003301141907286,737.2471007341729,-4.802773316946071,168213.4372704391,10.5,10500168213.437271,47.655,-122.3035,60.0,7.983333333333333
2026-02-06T22:18:10+00:00,SAT-53480,10.951018600537298,47.46865161793623,732.4572029897068,-4.760190086045703,166721.99239742008,10.5,10500166721.992397,47.655,-122.3035,60.0,8.0
2026-02-06T22:18:11+00:00,SAT-53480,10.909078332505947,47.93966943922529,727.7097743163756,-4.716761516464509,165200.9401880195,10.5,10500165200.940187,47.655,-122.3035,60.0,8.016666666666667
2026-02-06T22:18:12+00:00,SAT-53480,10.865699428644454,48.41641313962037,723.0056577866237,-4.672473316865671,163649.7800991696,10.5,10500163649.7801,47.655,-122.3035,60.0,8.033333333333333
2026-02-06T22:18:13+00:00,SAT-53480,10.820812156683184,48.898939952233015,718.3457107259192,-4.627311266529119,162068.01406110005,10.5,10500162068.014061,47.655,-122.3035,60.0,8.05
2026-02-06T22:18:14+00:00,SAT-53480,10.774342201636015,49.38730566464038,713.7308046423267,-4.581261191988684,160455.14565907186,10.5,10500160455.145658,47.655,-122.3035,60.0,8.066666666666666
2026-02-06T22:18:15+00:00,SAT-53480,10.726210283304825,49.88156446172357,709.1618251793798,-4.5343090227425,158810.6820845915,10.5,10500158810.682085,47.655,-122.3035,60.0,8.083333333333334
2026-02-06T22:18:16+00:00,SAT-53480,10.676331735116356,50.38176876378871,704.6396720133927,-4.486440898644171,157134.13789670382,10.5,10500157134.137897,47.655,-122.3035,60.0,8.1
2026-02-06T22:18:17+00:00,SAT-53480,10.624616039021301,50.88796906599939,700.165258643669,-4.4376430365287405,155425.03035066937,10.5,10500155425.03035,47.655,-122.3035,60.0,8.116666666666667
2026-02-06T22:18:18+00:00,SAT-53480,10.57096631200282,51.40021375209274,695.7395123157263,-4.3879019386005975,153682.8866965902,10.5,10500153682.886696,47.655,-122.3035,60.0,8.133333333333333
2026-02-06T22:18:19+00:00,SAT-53480,10.515278736940708,51.91854891989109,691.3633737366928,-4.3372042656131935,151907.23973762718,10.5,10500151907.239738,47.655,-122.3035,60.0,8.15
2026-02-06T22:18:20+00:00,SAT-53480,10.457441931963675,52.44301818057748,687.0377969171815,-4.285537051306282,150097.63534049934,10.5,10500150097.63534,47.655,-122.3035,60.0,8.166666666666666
2026-02-06T22:18:21+00:00,SAT-53480,10.397336249186411,52.97366247102054,682.7637487993056,-4.232887536589306,148253.6266278844,10.5,10500148253.626627,47.655,-122.3035,60.0,8.183333333333334
2026-02-06T22:18:22+00:00,SAT-53480,10.334832994928526,53.51051983365861,678.5422090500635,-4.179243413408621,146374.7825196807,10.5,10500146374.78252,47.655,-122.3035,60.0,8.2
2026-02-06T22:18:23+00:00,SAT-53480,10.269793558897415,54.05362521322103,674.3741696115109,-4.124592701133581,144460.68340352515,10.5,10500144460.683403,47.655,-122.3035,60.0,8.216666666666667
2026-02-06T22:18:24+00:00,SAT-53480,10.202068442022671,54.60301022487143,670.2606343742151,-4.068923899576179,142510.92649418776,10.5,10500142510.926495,47.655,-122.3035,60.0,8.233333333333333
2026-02-06T22:18:25+00:00,SAT-53480,10.131496167352074,55.158702927999315,666.2026186981022,-4.012225999782578,140525.12621153754,10.5,10500140525.126211,47.655,-122.3035,60.0,8.25
2026-02-06T22:18:26+00:00,SAT-53480,10.05790205740636,55.72072758770878,662.201148922538,-3.954488482596892,138502.91413023925,10.5,10500138502.914131,47.655,-122.3035,60.0,8.266666666666667
2026-02-06T22:18:27+00:00,SAT-53480,9.98109685994195,56.28910442114195,658.2572618778436,-3.8957014844732085,136443.94478719236,10.5,10500136443.944788,47.655,-122.3035,60.0,8.283333333333333
2026-02-06T22:18:28+00:00,SAT-53480,9.900875197238387,56.863849351970636,654.3720042314433,-3.835855713755162,134347.89274928725,10.5,10500134347.89275,47.655,-122.3035,60.0,8.3
2026-02-06T22:18:29+00:00,SAT-53480,9.817013814828172,57.44497373758821,650.5464319175087,-3.7749426238003565,132214.4586769549,10.5,10500132214.458677,47.655,-122.3035,60.0,8.316666666666666
2026-02-06T22:18:30+00:00,SAT-53480,9.72926959617398,58.03248410539033,646.7816093939407,-3.7129543618961436,130043.36753498152,10.5,10500130043.367535,47.655,-122.3035,60.0,8.333333333333334
2026-02-06T22:18:31+00:00,SAT-53480,9.637377308363732,58.626381864864946,643.0786089503013,-3.649883928290489,127834.37416244185,10.5,10500127834.374163,47.655,-122.3035,60.0,8.35
2026-02-06T22:18:32+00:00,SAT-53480,9.541047033022506,59.22666302687392,639.4385098571385,-3.5857251189297026,125587.26126713259,10.5,10500125587.261267,47.655,-122.3035,60.0,8.366666666666667
2026-02-06T22:18:33+00:00,SAT-53480,9.439961232912246,59.83331789572302,635.8623975724225,-3.520472713353389,123301.84600644819,10.5,10500123301.846006,47.655,-122.3035,60.0,8.383333333333333
2026-02-06T22:18:34+00:00,SAT-53480,9.333771389115196,60.4463307728367,632.3513627605885,-3.4541223929169287,120977.97712318617,10.5,10500120977.977123,47.655,-122.3035,60.0,8.4
2026-02-06T22:18:35+00:00,SAT-53480,9.222094137715414,61.0656796266255,628.9065003931381,-3.3866709347248407,118615.541737914,10.5,10500118615.541739,47.655,-122.3035,60.0,8.416666666666666
2026-02-06T22:18:36+00:00,SAT-53480,9.10450681304727,61.69133577405633,625.5289086558286,-3.3181161632784972,116214.46365546735,10.5,10500116214.463655,47.655,-122.3035,60.0,8.433333333333334
2026-02-06T22:18:37+00:00,SAT-53480,8.980542292610423,62.323263530760144,622.2196879040838,-3.248457073002068,113774.70765632708,10.5,10500113774.707657,47.655,-122.3035,60.0,8.45
2026-02-06T22:18:38+00:00,SAT-53480,8.849683009568524,62.961419857717395,618.9799394962074,-3.177693856212393,111296.28047624243,10.5,10500111296.280476,47.655,-122.3035,60.0,8.466666666666667
2026-02-06T22:18:39+00:00,SAT-53480,8.711353974315479,63.60575398527119,615.8107645987021,-3.1058279753024545,108779.23333440152,10.5,10500108779.233334,47.655,-122.3035,60.0,8.483333333333333
2026-02-06T22:18:40+00:00,SAT-53480,8.564914608206587,64.2562070194799,612.7132629195967,-3.0328622372770107,106223.66454398466,10.5,10500106223.664543,47.655,-122.3035,60.0,8.5
2026-02-06T22:18:41+00:00,SAT-53480,8.40964914634438,64.91271152796828,609.6885313674431,-2.9588007862896513,103629.71925078027,10.5,10500103629.719252,47.655,-122.3035,60.0,8.516666666666667
2026-02-06T22:18:42+00:00,SAT-53480,8.244755312631042,65.5751910824077,606.7376627177472,-2.883649244309381,100997.59435992381,10.5,10500100997.59436,47.655,-122.3035,60.0,8.533333333333333
2026-02-06T22:18:43+00:00,SAT-53480,8.069330888976069,66.24355978241252,603.8617441391182,-2.80741469288303,98327.53789714021,10.5,10500098327.537897,47.655,-122.3035,60.0,8.55
2026-02-06T22:18:44+00:00,SAT-53480,7.8823577148656705,66.91772171804398,601.0618557376037,-2.7301057805055753,95619.85276930663,10.5,10500095619.85277,47.655,-122.3035,60.0,8.566666666666666
2026-02-06T22:18:45+00:00,SAT-53480,7.6826825218542085,67.59757038727226,598.3390689939408,-2.6517326846011047,92874.89543286509,10.5,10500092874.895433,47.655,-122.3035,60.0,8.583333333333334
2026-02-06T22:18:46+00:00,SAT-53480,7.468993857875425,68.28298801872656,595.6944452387282,-2.572307266917749,90093.0813364103,10.5,10500090093.081337,47.655,-122.3035,60.0,8.6
2026-02-06T22:18:47+00:00,SAT-53480,7.23979413284945,68.97384482720304,593.1290339726146,-2.4918430345802585,87274.88355658605,10.5,10500087274.883556,47.655,-122.3035,60.0,8.616666666666667
2026-02-06T22:18:48+00:00,SAT-53480,6.993365554819223,69.66999812845293,590.6438712253357,-2.410355183112077,84420.83430490039,10.5,10500084420.834305,47.655,-122.3035,60.0,8.633333333333333
2026-02-06T22:18:49+00:00,SAT-53480,6.727728344603398,70.37129129734508,588.2399778718406,-2.327860664076598,81531.52729680837,10.5,10500081531.527296,47.655,-122.3035,60.0,8.65
2026-02-06T22:18:50+00:00,SAT-53480,6.440589117917261,71.07755253125956,585.9183578809598,-2.2443781700267427,78607.61722458273,10.5,10500078607.617224,47.655,-122.3035,60.0,8.666666666666666
2026-02-06T22:18:51+00:00,SAT-53480,6.1292766501862985,71.78859333322356,583.6799965790825,-2.1599281864091946,75649.82157521968,10.5,10500075649.821575,47.655,-122.3035,60.0,8.683333333333334
2026-02-06T22:18:52+00:00,SAT-53480,5.7906612956103345,72.50420664973672,581.5258588620711,-2.074532986138896,72658.92044041483,10.5,10500072658.92044,47.655,-122.3035,60.0,8.7
2026-02-06T22:18:53+00:00,SAT-53480,5.421053039473918,73.22416453134466,579.4568874125822,-1.9882166389110323,69635.7568427083,10.5,10500069635.756844,47.655,-122.3035,60.0,8.716666666666667
2026-02-06T22:18:54+00:00,SAT-53480,5.016071328831855,73.9482151610524,577.4740009081065,-1.901005029031544,66581.23735998459,10.5,10500066581.23736,47.655,-122.3035,60.0,8.733333333333333
2026-02-06T22:18:55+00:00,SAT-53480,4.570477223641688,74.67607903299098,575.5780922112191,-1.8129258248085702,63496.3310534316,10.5,10500063496.331053,47.655,-122.3035,60.0,8.75
2026-02-06T22:18:56+00:00,SAT-53480,4.077954655715186,75.40744395157758,573.770026590363,-1.7240084912407958,60382.06991194007,10.5,10500060382.069912,47.655,-122.3035,60.0,8.766666666666667
2026-02-06T22:18:57+00:00,SAT-53480,3.5308220737502367,76.14195841987377,572.0506399279741,-1.6342842448183488,57239.54726903991,10.5,10500057239.54727,47.655,-122.3035,60.0,8.783333333333333
2026-02-06T22:18:58+00:00,SAT-53480,2.9196475927489356,76.87922274562979,570.4207369736849,-1.543786048615054,54069.91763101015,10.5,10500054069.917631,47.655,-122.3035,60.0,8.8
2026-02-06T22:18:59+00:00,SAT-53480,2.232728415564244,77.61877692268466,568.8810896024238,-1.4525485549512034,50874.39466868655,10.5,10500050874.394669,47.655,-122.3035,60.0,8.816666666666666
2026-02-06T22:19:00+00:00,SAT-53480,1.4553763783818703,78.36008382514473,567.4324351296966,-1.3606080762796786,47654.250197770576,10.5,10500047654.250198,47.655,-122.3035,60.0,8.833333333333334
2026-02-06T22:19:01+00:00,SAT-53480,0.5689218868045173,79.10250551960058,566.0754746559056,-1.2680025229506928,44410.811999087295,10.5,10500044410.811998,47.655,-122.3035,60.0,8.85
2026-02-06T22:19:02+00:00,SAT-53480,359.5493015062957,79.8452692258273,564.8108714727347,-1.1747713597690375,41145.46229703648,10.5,10500041145.462297,47.655,-122.3035,60.0,8.866666666666667
2026-02-06T22:19:03+00:00,SAT-53480,358.3650183514173,80.58741740437105,563.6392495128628,-1.0809555072464727,37859.63430103357,10.5,10500037859.6343,47.655,-122.3035,60.0,8.883333333333333
2026-02-06T22:19:04+00:00,SAT-53480,356.9741392150451,81.3277328546962,562.5611918981593,-0.9865972923229617,34554.81047955882,10.5,10500034554.81048,47.655,-122.3035,60.0,8.9
2026-02-06T22:19:05+00:00,SAT-53480,355.319783398746,82.06462353377417,561.5772395370267,-0.89174036095814,31232.519498740927,10.5,10500031232.519499,47.655,-122.3035,60.0,8.916666666666666
2026-02-06T22:19:06+00:00,SAT-53480,353.32320771946877,82.79594051959054,560.6878898089159,-0.7964295765386319,27894.332664151392,10.5,10500027894.332664,47.655,-122.3035,60.0,8.933333333333334
2026-02-06T22:19:07+00:00,SAT-53480,350.8730108493274,83.51868178871435,559.8935953501648,-0.7007109321750074,24541.86084907305,10.5,10500024541.86085,47.655,-122.3035,60.0,8.95
2026-02-06T22:19:08+00:00,SAT-53480,347.8080678306131,84.22849542623013,559.1947629273008,-0.604631436113218,21176.750481123807,10.5,10500021176.75048,47.655,-122.3035,60.0,8.966666666666667
2026-02-06T22:19:09+00:00,SAT-53480,343.89062835223166,84.91882224638691,558.5917524246287,-0.5082390220925705,17800.6804026137,10.5,10500017800.680403,47.655,-122.3035,60.0,8.983333333333333
2026-02-06T22:19:10+00:00,SAT-53480,338.7656753971076,85.57938533033912,558.0848759212174,-0.41158240942291385,14415.35696985611,10.5,10500014415.35697,47.655,-122.3035,60.0,9.0
2026-02-06T22:19:11+00:00,SAT-53480,331.90887943621385,86.19353805537206,557.6743969074358,-0.3147110022253061,11022.510524149724,10.5,10500011022.510525,47.655,-122.3035,60.0,9.016666666666667
2026-02-06T22:19:12+00:00,SAT-53480,322.6005099860123,86.7339285056142,557.3605296019774,-0.21767475419149396,7623.890655083413,10.5,10500007623.890656,47.655,-122.3035,60.0,9.033333333333333
2026-02-06T22:19:13+00:00,SAT-53480,310.08318006725494,87.15723174337293,557.1434384037627,-0.12052404950763981,4221.262029981482,10.5,10500004221.26203,47.655,-122.3035,60.0,9.05
2026-02-06T22:19:14+00:00,SAT-53480,294.24712057062203,87.40478744908266,557.0232374625995,-0.023309567467878902,816.3996520977472,10.5,10500000816.399652,47.655,-122.3035,60.0,9.066666666666666
2026-02-06T22:19:15+00:00,SAT-53480,276.7099676812374,87.4250020924416,556.9999903848653,0.07391784720227432,-2588.9156812072983,10.5,10499997411.084318,47.655,-122.3035,60.0,9.083333333333334
2026-02-06T22:19:16+00:00,SAT-53480,260.4163188858454,87.2128630576773,557.0737100685199,0.1711073155391749,-5992.901973409006,10.5,10499994007.098026,47.655,-122.3035,60.0,9.1
2026-02-06T22:19:17+00:00,SAT-53480,247.31151369813043,86.81466391326128,557.244358668959,0.26820805898136013,-9393.780744491849,10.5,10499990606.219255,47.655,-122.3035,60.0,9.116666666666667
2026-02-06T22:19:18+00:00,SAT-53480,237.50925233991663,86.29023661707045,557.5118476991468,0.36516953111173894,-12789.781645118166,10.5,10499987210.218355,47.655,-122.3035,60.0,9.133333333333333
2026-02-06T22:19:19+00:00,SAT-53480,230.2937748980783,85.68590055861478,557.8760382611391,0.4619415454389071,-16179.146932070335,10.5,10499983820.853067,47.655,-122.3035,60.0,9.15
2026-02-06T22:19:20+00:00,SAT-53480,224.91853989863253,85.03135261560712,558.3367414050426,0.5584744103316557,-19560.136194228024,10.5,10499980439.863806,47.655,-122.3035,60.0,9.166666666666666
2026-02-06T22:19:21+00:00,SAT-53480,220.82603396082828,84.34469146077575,558.8937186225496,0.65471904657014,-22931.03046970738,10.5,10499977068.96953,47.655,-122.3035,60.0,9.183333333333334
2026-02-06T22:19:22+00:00,SAT-53480,217.6364049653693,83.6370431703512,559.5466824577071,0.7506271177497996,-26290.136813157907,10.5,10499973709.863188,47.655,-122.3035,60.0,9.2
2026-02-06T22:19:23+00:00,SAT-53480,215.0953669932968,82.91546540036586,560.2952972477407,0.8461511365696773,-29635.792018429,10.5,10499970364.207981,47.655,-122.3035,60.0,9.216666666666667
2026-02-06T22:19:24+00:00,SAT-53480,213.0310755695027,82.18461038873325,561.1391799698823,0.9412445916171807,-32966.36705910859,10.5,10499967033.63294,47.655,-122.3035,60.0,9.233333333333333
2026-02-06T22:19:25+00:00,SAT-53480,211.3251481371886,81.44766722335793,562.077901214641,1.0358620438167567,-36280.27046656373,10.5,10499963719.729534,47.655,-122.3035,60.0,9.25
2026-02-06T22:19:26+00:00,SAT-53480,209.89421977414978,80.70690549259339,563.1109862552672,1.129959225070524,-39575.9517847527,10.5,10499960424.048216,47.655,-122.3035,60.0,9.266666666666667
2026-02-06T22:19:27+00:00,SAT-53480,208.67828684568116,79.96399781010223,564.2379162155896,1.223493143698053,-42851.90526317229,10.5,10499957148.094736,47.655,-122.3035,60.0,9.283333333333333
2026-02-06T22:19:28+00:00,SAT-53480,207.63326067740198,79.22021701046332,565.4581293430116,1.3164221638680689,-46106.67263889181,10.5,10499953893.327362,47.655,-122.3035,60.0,9.3
2026-02-06T22:19:29+00:00,SAT-53480,206.72612574368083,78.47656032845015,566.7710223607244,1.408706087133291,-49338.845992248265,10.5,10499950661.154007,47.655,-122.3035,60.0,9.316666666666666
2026-02-06T22:19:30+00:00,SAT-53480,205.9317277486243,77.73382977704115,568.1759519012396,1.5003062164635206,-52547.06998955579,10.5,10499947452.93001,47.655,-122.3035,60.0,9.333333333333334
2026-02-06T22:19:31+00:00,SAT-53480,205.2305993692429,76.99268550908943,569.6722360037791,1.5911854343411023,-55730.044618339176,10.5,10499944269.955381,47.655,-122.3035,60.0,9.35
2026-02-06T22:19:32+00:00,SAT-53480,204.60745939234943,76.25368205811255,571.2591556895542,1.6813082641405335,-58886.527337107334,10.5,10499941113.472662,47.655,-122.3035,60.0,9.366666666666667
2026-02-06T22:19:33+00:00,SAT-53480,204.050157430515,75.51729347317472,572.9359565982593,1.7706408792235644,-62015.33339390221,10.5,10499937984.666607,47.655,-122.3035,60.0,9.383333333333333
2026-02-06T22:19:34+00:00,SAT-53480,203.54891910079584,74.78393110367172,574.7018506336341,1.8591511958953884,-65115.339082017796,10.5,10499934884.660917,47.655,-122.3035,60.0,9.4
2026-02-06T22:19:35+00:00,SAT-53480,203.09579742534294,74.05395637292241,576.5560177017359,1.946808863792111,-68185.48140332858,10.5,10499931814.518597,47.655,-122.3035,60.0,9.416666666666666
2026-02-06T22:19:36+00:00,SAT-53480,202.68426823754208,73.32769013232638,578.497607439624,2.0335853238338104,-71224.76009805093,10.5,10499928775.239902,47.655,-122.3035,60.0,9.433333333333334
2026-02-06T22:19:37+00:00,SAT-53480,202.30892768951796,72.60541959252167,580.5257410018393,2.11945379303436,-74232.23711271875,10.5,10499925767.762888,47.655,-122.3035,60.0,9.45
2026-02-06T22:19:38+00:00,SAT-53480,201.96526325742855,71.88740355315682,582.6395128317391,2.20438929668025,-77207.03772722202,10.5,10499922792.962273,47.655,-122.3035,60.0,9.466666666666667
2026-02-06T22:19:39+00:00,SAT-53480,201.64947834826066,71.1738763886333,584.8379924649206,2.28836865941298,-80148.35024247438,10.5,10499919851.649757,47.655,-122.3035,60.0,9.483333333333333
2026-02-06T22:19:40+00:00,SAT-53480,201.35835651786024,70.46505113678988,587.1202263237527,2.371370511761088,-83055.42620919243,10.5,10499916944.573792,47.655,-122.3035,60.0,9.5
2026-02-06T22:19:41+00:00,SAT-53480,201.08915529724717,69.76112191957674,589.4852395184207,2.4533752618056197,-85927.5794355007,10.5,10499914072.420565,47.655,-122.3035,60.0,9.516666666666667
2026-02-06T22:19:42+00:00,SAT-53480,200.83952240007358,69.06226587442467,591.9320376197153,2.5343650847146177,-88764.18562038505,10.5,10499911235.814379,47.655,-122.3035,60.0,9.533333333333333
2026-02-06T22:19:43+00:00,SAT-53480,200.60742901888298,68.36864471166224,594.4596084213802,2.6143239204910715,-91564.68227481643,10.5,10499908435.317726,47.655,-122.3035,60.0,9.55
2026-02-06T22:19:44+00:00,SAT-53480,200.39111629189486,67.6804059854223,597.0669237002171,2.6932374072172314,-94328.56638368445,10.5,10499905671.433617,47.655,-122.3035,60.0,9.566666666666666
2026-02-06T22:19:45+00:00,SAT-53480,200.18905202419108,66.99768416105327,599.7529409096123,2.771092880232571,-97055.39437700596,10.5,10499902944.605623,47.655,-122.3035,60.0,9.583333333333334
2026-02-06T22:19:46+00:00,SAT-53480,199.99989544193193,66.32060150940069,602.5166048722436,2.8478793087220535,-99744.77990897809,10.5,10499900255.22009,47.655,-122.3035,60.0,9.6
2026-02-06T22:19:47+00:00,SAT-53480,199.82246830542712,65.64926888108366,605.3568494095465,2.9235872902207585,-102396.39366550697,10.5,10499897603.606335,47.655,-122.3035,60.0,9.616666666666667
2026-02-06T22:19:48+00:00,SAT-53480,199.65573107959494,64.98378637378607,608.2725989656971,2.998208957399385,-105009.96009944167,10.5,10499894990.0399,47.655,-122.3035,60.0,9.633333333333333
2026-02-06T22:19:49+00:00,SAT-53480,199.4987631694986,64.32424393435338,611.2627701386344,3.071737980979401,-107585.2575326752,10.5,10499892414.742468,47.655,-122.3035,60.0,9.65
2026-02-06T22:19:50+00:00,SAT-53480,199.35074642735344,63.67072188885598,614.3262732139867,3.1441694529727284,-110122.11406670426,10.5,10499889877.885933,47.655,-122.3035,60.0,9.666666666666666
2026-02-06T22:19:51+00:00,SAT-53480,199.21095132801605,63.02329143952821,617.4620135825514,3.2154999203516827,-112620.4087618931,10.5,10499887379.591238,47.655,-122.3035,60.0,9.683333333333334
2026-02-06T22:19:52+00:00,SAT-53480,199.07872531223114,62.382015105192544,620.6688931913556,3.285727257908651,-115080.06718448146,10.5,10499884919.932816,47.655,-122.3035,60.0,9.7
2026-02-06T22:19:53+00:00,SAT-53480,198.95348292312238,61.74694714673997,623.9458118679162,3.3548506246834893,-117501.05988048782,10.5,10499882498.940119,47.655,-122.3035,60.0,9.716666666666667
2026-02-06T22:19:54+00:00,SAT-53480,198.8346974170835,61.11813396451122,627.2916686010443,3.4228704386311786,-119883.40148846364,10.5,10499880116.59851,47.655,-122.3035,60.0,9.733333333333333
2026-02-06T22:19:55+00:00,SAT-53480,198.72189359812745,60.49561446907303,630.7053627963857,3.4897882979295893,-122227.14798335817,10.5,10499877772.852016,47.655,-122.3035,60.0,9.75
2026-02-06T22:19:56+00:00,SAT-53480,198.61464167577054,59.87942043913801,634.1857954534792,3.555606894997965,-124532.39366508224,10.5,10499875467.606335,47.655,-122.3035,60.0,9.766666666666667
2026-02-06T22:19:57+00:00,SAT-53480,198.51255197973813,59.269576869461744,637.7318702570651,3.620330011976567,-126799.27100018624,10.5,10499873200.729,47.655,-122.3035,60.0,9.783333333333333
2026-02-06T22:19:58+00:00,SAT-53480,198.4152703930761,58.666102296340206,641.3424946638854,3.6839624183653648,-129027.94703673408,10.5,10499870972.052963,47.655,-122.3035,60.0,9.8
2026-02-06T22:19:59+00:00,SAT-53480,198.32247439504147,58.069009119600985,645.0165808873936,3.7465098301821005,-131218.62197384585,10.5,10499868781.378027,47.655,-122.3035,60.0,9.816666666666666
2026-02-06T22:20:00+00:00,SAT-53480,198.23386962020345,57.47830391120588,648.7530468417395,3.807978842246706,-133371.52679001156,10.5,10499866628.47321,47.655,-122.3035,60.0,9.833333333333334
2026-02-06T22:20:01+00:00,SAT-53480,198.14918685663415,56.893987715967974,652.5508170182112,3.868376909118864,-135486.92257544407,10.5,10499864513.077425,47.655,-122.3035,60.0,9.85
2026-02-06T22:20:02+00:00,SAT-53480,198.06817941857548,56.3160563375738,656.4088233426728,3.927712191080998,-137565.09513775186,10.5,10499862434.904861,47.655,-122.3035,60.0,9.866666666666667
2026-02-06T22:20:03+00:00,SAT-53480,197.9906208441897,55.74450063087936,660.3260058793937,3.9859936481626077,-139606.35829506887,10.5,10499860393.641705,47.655,-122.3035,60.0,9.883333333333333
2026-02-06T22:20:04+00:00,SAT-53480,197.9163028651756,55.179306763552184,664.3013136286527,4.043230823366246,-141611.04628371133,10.5,10499858388.953716,47.655,-122.3035,60.0,9.9
2026-02-06T22:20:05+00:00,SAT-53480,197.84503362046908,54.620456493705774,668.3337051081472,4.099433946298992,-143579.51738779037,10.5,10499856420.482613,47.655,-122.3035,60.0,9.916666666666666
2026-02-06T22:20:06+00:00,SAT-53480,197.77663607181552,54.06792741707055,672.4221490377579,4.15461374128569,-145512.1472185259,10.5,10499854487.852781,47.655,-122.3035,60.0,9.933333333333334
2026-02-06T22:20:07+00:00,SAT-53480,197.71094660296416,53.521693226102734,676.5656248329399,4.208781501855038,-147409.33132306449,10.5,10499852590.668676,47.655,-122.3035,60.0,9.95
2026-02-06T22:20:08+00:00,SAT-53480,197.64781377147827,52.9817239442282,680.7631231724005,4.261948935367531,-149271.4797426928,10.5,10499850728.520258,47.655,-122.3035,60.0,9.966666666666667
2026-02-06T22:20:09+00:00,SAT-53480,197.58709719973209,52.44798616665466,685.0136464108213,4.314128206441949,-151099.0185338167,10.5,10499848900.981466,47.655,-122.3035,60.0,9.983333333333333
