DopplerPredictor/satellites_20260211_210343/SAT-53482.csv

timestamp,satellite,azimuth_deg,elevation_deg,distance_km,relative_velocity_kms,doppler_shift_hz,tx_freq_ghz,rx_freq_hz,ue_lat,ue_lon,ue_alt_m,time_minutes
2026-02-06T22:10:10+00:00,SAT-53482,181.60958752645178,41.59319039967792,817.2683404890805,5.1689685977103785,-181039.1450073069,10.5,10499818960.854992,47.655,-122.3035,60.0,0.0
2026-02-06T22:10:11+00:00,SAT-53482,181.7521926641281,41.21235457853902,822.423451795298,5.201599783751356,-182182.02717224206,10.5,10499817817.972828,47.655,-122.3035,60.0,0.016666666666666666
2026-02-06T22:10:12+00:00,SAT-53482,181.89146189827215,40.835711145064295,827.6111068078499,5.233615434271756,-183303.35067953388,10.5,10499816696.64932,47.655,-122.3035,60.0,0.03333333333333333
2026-02-06T22:10:13+00:00,SAT-53482,182.0275119973873,40.463215558760744,832.8306916413811,5.265027128116884,-184403.52106932353,10.5,10499815596.478931,47.655,-122.3035,60.0,0.05
2026-02-06T22:10:14+00:00,SAT-53482,182.16045440895942,40.09482273831146,838.0816039583412,5.295846265634852,-185482.93763002518,10.5,10499814517.06237,47.655,-122.3035,60.0,0.06666666666666667
