DopplerPredictor/satellites_20260211_210343/SAT-48326.csv

timestamp,satellite,azimuth_deg,elevation_deg,distance_km,relative_velocity_kms,doppler_shift_hz,tx_freq_ghz,rx_freq_hz,ue_lat,ue_lon,ue_alt_m,time_minutes
2026-02-06T22:16:00+00:00,SAT-48326,332.7153223563283,40.02186986524284,818.1714363035084,-3.4865810247518,122114.81570991989,10.5,10500122114.81571,47.655,-122.3035,60.0,5.833333333333333
2026-02-06T22:16:01+00:00,SAT-48326,333.2069710167122,40.26828485035592,814.6942023213358,-3.441834227738538,120547.59359975177,10.5,10500120547.5936,47.655,-122.3035,60.0,5.85
2026-02-06T22:16:02+00:00,SAT-48326,333.70637787825336,40.5143273946242,811.2615951761887,-3.3965130189414725,118960.2531591554,10.5,10500118960.253159,47.655,-122.3035,60.0,5.866666666666666
2026-02-06T22:16:03+00:00,SAT-48326,334.21365427502275,40.75990559559751,807.8741877399322,-3.350615367524954,117352.72325967591,10.5,10500117352.723259,47.655,-122.3035,60.0,5.883333333333334
2026-02-06T22:16:04+00:00,SAT-48326,334.72891026524945,41.00492419694658,804.5325549098228,-3.304139518363194,115724.94242938404,10.5,10500115724.942429,47.655,-122.3035,60.0,5.9
2026-02-06T22:16:05+00:00,SAT-48326,335.25225435730243,41.24928455358633,801.2372733335368,-3.2570840194587194,114076.85981318634,10.5,10500114076.859814,47.655,-122.3035,60.0,5.916666666666667
2026-02-06T22:16:06+00:00,SAT-48326,335.7837932200998,41.49288460377942,797.9889211068567,-3.2094477369245653,112408.43569756493,10.5,10500112408.435698,47.655,-122.3035,60.0,5.933333333333334
2026-02-06T22:16:07+00:00,SAT-48326,336.3236313757162,41.7356188479237,794.7880774564111,-3.1612298460789923,110719.64119867691,10.5,10500110719.6412,47.655,-122.3035,60.0,5.95
2026-02-06T22:16:08+00:00,SAT-48326,336.8718708696842,41.97737833281589,791.6353224312996,-3.1124298529538588,109010.45901566849,10.5,10500109010.459015,47.655,-122.3035,60.0,5.966666666666667
2026-02-06T22:16:09+00:00,SAT-48326,337.42861092332254,42.21805064424375,788.5312365732663,-3.063047649932612,107280.88537935275,10.5,10500107280.88538,47.655,-122.3035,60.0,5.983333333333333
2026-02-06T22:16:10+00:00,SAT-48326,337.9939475748322,42.45751991131404,785.4764005313824,-3.013083435078152,105530.92722673027,10.5,10500105530.927227,47.655,-122.3035,60.0,6.0
2026-02-06T22:16:11+00:00,SAT-48326,338.5679732837586,42.695666812591114,782.4713947571881,-2.9625378284941934,103760.6062764562,10.5,10500103760.606276,47.655,-122.3035,60.0,6.016666666666667
2026-02-06T22:16:12+00:00,SAT-48326,339.1507765351029,42.93236860002739,779.5167990837818,-2.9114118181556465,101969.95713159099,10.5,10500101969.957132,47.655,-122.3035,60.0,6.033333333333333
2026-02-06T22:16:13+00:00,SAT-48326,339.7424414117326,43.167499128164486,776.613192358936,-2.8597067720649787,100159.02770536768,10.5,10500100159.027706,47.655,-122.3035,60.0,6.05
2026-02-06T22:16:14+00:00,SAT-48326,340.3430471468888,43.40092889436766,773.7611520660873,-2.807424528173952,98327.88237063155,10.5,10500098327.88237,47.655,-122.3035,60.0,6.066666666666666
2026-02-06T22:16:15+00:00,SAT-48326,340.9526676746075,43.632525097278396,770.9612538556487,-2.754567259865983,96476.59724846322,10.5,10500096476.597248,47.655,-122.3035,60.0,6.083333333333333
2026-02-06T22:16:16+00:00,SAT-48326,341.5713711303704,43.862151695882375,768.2140712104762,-2.7011376595620957,94605.26663883588,10.5,10500094605.26664,47.655,-122.3035,60.0,6.1
2026-02-06T22:16:17+00:00,SAT-48326,342.1992193718962,44.08966949596988,765.5201749282224,-2.647138812517882,92713.99860045098,10.5,10500092713.9986,47.655,-122.3035,60.0,6.116666666666666
2026-02-06T22:16:18+00:00,SAT-48326,342.83626745316,44.31493623927229,762.8801327295556,-2.5925742833916248,90802.9179827201,10.5,10500090802.917982,47.655,-122.3035,60.0,6.133333333333334
2026-02-06T22:16:19+00:00,SAT-48326,343.4825631001804,44.53780671352074,760.2945087800426,-2.537448095897848,88872.16571314614,10.5,10500088872.165712,47.655,-122.3035,60.0,6.15
2026-02-06T22:16:20+00:00,SAT-48326,344.13814616607795,44.758132875267044,757.7638632323219,-2.481764745292622,86921.8992346116,10.5,10500086921.899235,47.655,-122.3035,60.0,6.166666666666667
2026-02-06T22:16:21+00:00,SAT-48326,344.8030480744954,44.97576398882548,755.2887517558281,-2.4255292177410572,84952.29318371012,10.5,10500084952.293184,47.655,-122.3035,60.0,6.183333333333334
2026-02-06T22:16:22+00:00,SAT-48326,345.4772912555872,45.19054678259139,752.8697250471965,-2.368746990179961,82963.53938593609,10.5,10500082963.539387,47.655,-122.3035,60.0,6.2
2026-02-06T22:16:23+00:00,SAT-48326,346.1608885721657,45.40232562162633,750.5073283408099,-2.311424035815372,80955.84704823163,10.5,10500080955.847048,47.655,-122.3035,60.0,6.216666666666667
2026-02-06T22:16:24+00:00,SAT-48326,346.8538427397478,45.61094269748526,748.2021009138581,-2.2535668525573356,78929.44375489267,10.5,10500078929.443754,47.655,-122.3035,60.0,6.233333333333333
2026-02-06T22:16:25+00:00,SAT-48326,347.55614575108524,45.8162382378235,745.9545755630403,-2.1951824182509454,76884.57389957063,10.5,10500076884.5739,47.655,-122.3035,60.0,6.25
2026-02-06T22:16:26+00:00,SAT-48326,348.26777828564383,46.01805072952266,743.7652781259175,-2.1362782653479364,74821.50130058752,10.5,10500074821.5013,47.655,-122.3035,60.0,6.266666666666667
2026-02-06T22:16:27+00:00,SAT-48326,348.98870914550366,46.21621716644988,741.6347269277925,-2.076862418442277,72740.50701316813,10.5,10500072740.507013,47.655,-122.3035,60.0,6.283333333333333
2026-02-06T22:16:28+00:00,SAT-48326,349.718894677885,46.41057330953772,739.5634322908869,-2.0169434462292912,70641.8911492682,10.5,10500070641.89115,47.655,-122.3035,60.0,6.3
2026-02-06T22:16:29+00:00,SAT-48326,350.45827822623755,46.600953969724785,737.5518959916989,-1.9565304440260747,68525.9722653656,10.5,10500068525.972265,47.655,-122.3035,60.0,6.316666666666666
2026-02-06T22:16:30+00:00,SAT-48326,351.2067895918615,46.78719330733234,735.600610735792,-1.8956330178358805,66393.08680432763,10.5,10500066393.086803,47.655,-122.3035,60.0,6.333333333333333
2026-02-06T22:16:31+00:00,SAT-48326,351.9643445099178,46.969125147717186,733.7100596484795,-1.8342613315743175,64243.5907494722,10.5,10500064243.59075,47.655,-122.3035,60.0,6.35
2026-02-06T22:16:32+00:00,SAT-48326,352.73084417055,47.146583318910594,731.880715718407,-1.7724260505517493,62077.85764508248,10.5,10500062077.857645,47.655,-122.3035,60.0,6.366666666666666
2026-02-06T22:16:33+00:00,SAT-48326,353.506174749564,47.319402000841094,730.113041297502,-1.7101383723114412,59896.27967648917,10.5,10500059896.279676,47.655,-122.3035,60.0,6.383333333333334
2026-02-06T22:16:34+00:00,SAT-48326,354.2902069887781,47.48741609380103,728.4074875701675,-1.647410027314762,57699.26769406922,10.5,10500057699.267694,47.655,-122.3035,60.0,6.4
2026-02-06T22:16:35+00:00,SAT-48326,355.08279582176937,47.6504616024972,726.7644940217933,-1.5842532479122111,55487.250126479885,10.5,10500055487.250126,47.655,-122.3035,60.0,6.416666666666667
2026-02-06T22:16:36+00:00,SAT-48326,355.88378003495563,47.80837603153235,725.1844879382119,-1.5206807843879127,53260.67354260487,10.5,10500053260.673542,47.655,-122.3035,60.0,6.433333333333334
2026-02-06T22:16:37+00:00,SAT-48326,356.69298199238784,47.96099879571468,723.6678838891529,-1.4567058887064968,51020.002082301275,10.5,10500051020.002083,47.655,-122.3035,60.0,6.45
2026-02-06T22:16:38+00:00,SAT-48326,357.5102074150506,48.10817164066083,722.2150832279087,-1.3923423061154017,48765.717162276705,10.5,10500048765.717163,47.655,-122.3035,60.0,6.466666666666667
2026-02-06T22:16:39+00:00,SAT-48326,358.33524522403593,48.24973907288148,720.8264735993728,-1.3276042709850946,46498.31733039626,10.5,10500046498.317331,47.655,-122.3035,60.0,6.483333333333333
2026-02-06T22:16:40+00:00,SAT-48326,359.1678674566746,48.38554879804103,719.5024284522286,-1.2625064838245792,44218.317460668346,10.5,10500044218.317461,47.655,-122.3035,60.0,6.5
2026-02-06T22:16:41+00:00,SAT-48326,0.007829248805681926,48.51545216354666,718.2433065740613,-1.197064111384691,41926.2487568625,10.5,10500041926.248756,47.655,-122.3035,60.0,6.516666666666667
2026-02-06T22:16:42+00:00,SAT-48326,0.8548689037280064,48.63930460573143,717.0494516263643,-1.1312927610544938,39622.657855762955,10.5,10500039622.657856,47.655,-122.3035,60.0,6.533333333333333
2026-02-06T22:16:43+00:00,SAT-48326,1.7087080346108285,48.75696609674994,715.9211917050837,-1.0652084804098536,37308.106811357684,10.5,10500037308.106812,47.655,-122.3035,60.0,6.55
2026-02-06T22:16:44+00:00,SAT-48326,2.5690518038385632,48.86830159139961,714.858838901611,-0.9988277274522157,34983.1720524746,10.5,10500034983.172052,47.655,-122.3035,60.0,6.566666666666666
2026-02-06T22:16:45+00:00,SAT-48326,3.4355892403179586,48.973181468327226,713.8626888934579,-0.9321673497689257,32648.443652887756,10.5,10500032648.443653,47.655,-122.3035,60.0,6.583333333333333
2026-02-06T22:16:46+00:00,SAT-48326,4.307993642619818,49.07148196390962,712.9330205557144,-0.8652445888354381,30304.52548199895,10.5,10500030304.525482,47.655,-122.3035,60.0,6.6
2026-02-06T22:16:47+00:00,SAT-48326,5.1859230944170776,49.16308559879366,712.0700955682182,-0.7980770316216123,27952.03350988546,10.5,10500027952.03351,47.655,-122.3035,60.0,6.616666666666666
2026-02-06T22:16:48+00:00,SAT-48326,6.069021045366903,49.24788158881454,711.2741580709836,-0.7306826090542216,25591.59575345063,10.5,10500025591.595753,47.655,-122.3035,60.0,6.633333333333334
2026-02-06T22:16:49+00:00,SAT-48326,6.956917001152142,49.32576624247786,710.54543432117,-0.6630795656304923,23223.851212161477,10.5,10500023223.851212,47.655,-122.3035,60.0,6.65
2026-02-06T22:16:50+00:00,SAT-48326,7.849227295036556,49.396643339215686,709.88413238035,-0.5952864324960521,20849.44892512455,10.5,10500020849.448925,47.655,-122.3035,60.0,6.666666666666667
2026-02-06T22:16:51+00:00,SAT-48326,8.745555938756636,49.4604244860948,709.2904418286299,-0.5273220160761798,18469.047572904212,10.5,10500018469.047573,47.655,-122.3035,60.0,6.683333333333334
2026-02-06T22:16:52+00:00,SAT-48326,9.645495574469773,49.51702945201503,708.7645334901083,-0.45920536177531984,16083.314206126088,10.5,10500016083.314207,47.655,-122.3035,60.0,6.7
2026-02-06T22:16:53+00:00,SAT-48326,10.548628490363583,49.56638647423657,708.3065591945375,-0.39095573053328464,13692.923424376102,10.5,10500013692.923424,47.655,-122.3035,60.0,6.716666666666667
2026-02-06T22:16:54+00:00,SAT-48326,11.45452770892483,49.608432536260054,707.9166515623659,-0.3225925748375365,11298.556536049127,10.5,10500011298.556536,47.655,-122.3035,60.0,6.733333333333333
2026-02-06T22:16:55+00:00,SAT-48326,12.362758147951457,49.64311361481158,707.5949238137036,-0.25413551007788815,8900.90055506942,10.5,10500008900.900555,47.655,-122.3035,60.0,6.75
2026-02-06T22:16:56+00:00,SAT-48326,13.272877836387421,49.67038489348984,707.3414696058577,-0.18560428592432782,6500.647198420989,10.5,10500006500.647198,47.655,-122.3035,60.0,6.766666666666667
2026-02-06T22:16:57+00:00,SAT-48326,14.184439177917964,49.69021094133052,707.1563628994103,-0.1170187604963683,4098.491981448936,10.5,10500004098.491982,47.655,-122.3035,60.0,6.783333333333333
2026-02-06T22:16:58+00:00,SAT-48326,15.096990263415938,49.70256585513941,707.0396578500624,-0.04839886925859943,1695.1331284501296,10.5,10500001695.13313,47.655,-122.3035,60.0,6.8
2026-02-06T22:16:59+00:00,SAT-48326,16.01007620745984,49.7074333638545,706.9913887314932,0.02023540218075823,-708.7293800365098,10.5,10499999291.27062,47.655,-122.3035,60.0,6.816666666666666
2026-02-06T22:17:00+00:00,SAT-48326,16.923240515175824,49.704806894474494,707.0115698853532,0.08886404736872343,-3112.3948334003653,10.5,10499996887.605167,47.655,-122.3035,60.0,6.833333333333333
2026-02-06T22:17:01+00:00,SAT-48326,17.83602644905507,49.69468959879964,707.100195700474,0.15746706835241753,-5515.16281874037,10.5,10499994484.837181,47.655,-122.3035,60.0,6.85
2026-02-06T22:17:02+00:00,SAT-48326,18.747978413077586,49.67709434073084,707.2572406213466,0.22602450421687512,-7916.33422037985,10.5,10499992083.66578,47.655,-122.3035,60.0,6.866666666666666
2026-02-06T22:17:03+00:00,SAT-48326,19.65864331584562,49.652043644341546,707.4826591850591,0.29451646106149776,-10315.21226976873,10.5,10499989684.787731,47.655,-122.3035,60.0,6.883333333333334
2026-02-06T22:17:04+00:00,SAT-48326,20.56757192333195,49.61956960299055,707.7763860881317,0.36292313872339266,-12711.103481447897,10.5,10499987288.896519,47.655,-122.3035,60.0,6.9
2026-02-06T22:17:05+00:00,SAT-48326,21.4743201745594,49.57971375059346,708.1383362800036,0.43122486120334685,-15103.318718695524,10.5,10499984896.681282,47.655,-122.3035,60.0,6.916666666666667
2026-02-06T22:17:06+00:00,SAT-48326,22.378450467166953,49.532526895710824,708.568405086863,0.4994021017737897,-17491.17407291411,10.5,10499982508.825928,47.655,-122.3035,60.0,6.933333333333334
2026-02-06T22:17:07+00:00,SAT-48326,23.279532888053506,49.47806892039784,709.0664683605195,0.5674355150577516,-19873.99198717131,10.5,10499980126.008013,47.655,-122.3035,60.0,6.95
2026-02-06T22:17:08+00:00,SAT-48326,24.177146396878097,49.41640854468866,709.6323826592674,0.6353059582499615,-22251.101999452552,10.5,10499977748.898,47.655,-122.3035,60.0,6.966666666666667
2026-02-06T22:17:09+00:00,SAT-48326,25.070879937152654,49.34762305978341,710.2659854499157,0.7029945241736205,-24621.84190044906,10.5,10499975378.1581,47.655,-122.3035,60.0,6.983333333333333
2026-02-06T22:17:10+00:00,SAT-48326,25.960333486109988,49.2717980307476,710.9670953427831,0.7704825563881245,-26985.55826269421,10.5,10499973014.441738,47.655,-122.3035,60.0,7.0
2026-02-06T22:17:11+00:00,SAT-48326,26.84511901627793,49.189026972972705,711.7355123417641,0.8377516830744891,-29341.60762737445,10.5,10499970658.392372,47.655,-122.3035,60.0,7.016666666666667
2026-02-06T22:17:12+00:00,SAT-48326,27.724861387225875,49.099411002806235,712.5710181281859,0.9047838420484027,-31689.357380392234,10.5,10499968310.64262,47.655,-122.3035,60.0,7.033333333333333
2026-02-06T22:17:13+00:00,SAT-48326,28.599199152277922,49.00305846591117,713.4733763696138,0.971561287332652,-34028.18598256013,10.5,10499965971.814018,47.655,-122.3035,60.0,7.05
2026-02-06T22:17:14+00:00,SAT-48326,29.467785261666453,48.900084547971176,714.4423330352106,1.0380666398803755,-36357.48474614376,10.5,10499963642.515253,47.655,-122.3035,60.0,7.066666666666666
2026-02-06T22:17:15+00:00,SAT-48326,30.330287702350365,48.79061086577418,715.4776167616827,1.104282870467372,-38676.657235678045,10.5,10499961323.342764,47.655,-122.3035,60.0,7.083333333333333
2026-02-06T22:17:16+00:00,SAT-48326,31.186390013866426,48.67476504862728,716.5789392021655,1.1701933477197561,-40985.120950098884,10.5,10499959014.87905,47.655,-122.3035,60.0,7.1
2026-02-06T22:17:17+00:00,SAT-48326,32.035791738347854,48.5526803059244,717.7459954230067,1.2357818597991879,-43282.3080822516,10.5,10499956717.691917,47.655,-122.3035,60.0,7.116666666666666
2026-02-06T22:17:18+00:00,SAT-48326,32.878208779276044,48.42449498640928,718.9784643221776,1.3010326010680766,-45567.66505184999,10.5,10499954432.334948,47.655,-122.3035,60.0,7.133333333333334
2026-02-06T22:17:19+00:00,SAT-48326,33.713373651395536,48.29035213539207,720.2760090343846,1.3659302109922786,-47840.65386801334,10.5,10499952159.346132,47.655,-122.3035,60.0,7.15
2026-02-06T22:17:20+00:00,SAT-48326,34.54103566088655,48.150399046996405,721.6382773749796,1.4304597948037883,-50100.75285296129,10.5,10499949899.247147,47.655,-122.3035,60.0,7.166666666666667
2026-02-06T22:17:21+00:00,SAT-48326,35.36096100465863,48.004786815829576,723.064902304477,1.4946069082361029,-52347.45610738173,10.5,10499947652.543892,47.655,-122.3035,60.0,7.183333333333334
2026-02-06T22:17:22+00:00,SAT-48326,36.17293277377095,47.85366989401212,724.5555023778478,1.5583576025808286,-54580.27508850373,10.5,10499945419.72491,47.655,-122.3035,60.0,7.2
2026-02-06T22:17:23+00:00,SAT-48326,36.976750900102935,47.697205649573625,726.1096822387493,1.6216984049687522,-56798.73791945726,10.5,10499943201.262081,47.655,-122.3035,60.0,7.216666666666667
2026-02-06T22:17:24+00:00,SAT-48326,37.772232016435986,47.535553934764415,727.7270330940888,1.684616360287808,-59002.39085741772,10.5,10499940997.609142,47.655,-122.3035,60.0,7.233333333333333
2026-02-06T22:17:25+00:00,SAT-48326,38.55920926649062,47.36887665990251,729.4071332303918,1.7470989996700228,-61190.79718988541,10.5,10499938809.20281,47.655,-122.3035,60.0,7.25
2026-02-06T22:17:26+00:00,SAT-48326,39.337532036114126,47.197337381719684,731.1495484987432,1.8091343851052037,-63363.53879724566,10.5,10499936636.461203,47.655,-122.3035,60.0,7.266666666666667
2026-02-06T22:17:27+00:00,SAT-48326,40.107065646669675,47.02110090008263,732.9538328442223,1.8707110920266659,-65520.21554284728,10.5,10499934479.784456,47.655,-122.3035,60.0,7.283333333333333
2026-02-06T22:17:28+00:00,SAT-48326,40.867690988320625,46.840332870513144,734.8195288179696,1.931818211061664,-67660.44533431015,10.5,10499932339.554667,47.655,-122.3035,60.0,7.3
2026-02-06T22:17:29+00:00,SAT-48326,41.61930410877838,46.65519943165177,736.7461680909981,1.9924453864280327,-69783.86546833791,10.5,10499930216.134531,47.655,-122.3035,60.0,7.316666666666666
2026-02-06T22:17:30+00:00,SAT-48326,42.3618157767366,46.46586684508396,738.7332720063029,2.052582751449103,-71890.13037217762,10.5,10499928109.869627,47.655,-122.3035,60.0,7.333333333333333
2026-02-06T22:17:31+00:00,SAT-48326,43.095150986954614,46.272501158102855,740.7803520666515,2.112220994660388,-73978.91391895547,10.5,10499926021.08608,47.655,-122.3035,60.0,7.35
2026-02-06T22:17:32+00:00,SAT-48326,43.819248462107204,46.07526787746041,742.8869104883119,2.171351334426165,-76049.90853864221,10.5,10499923950.091461,47.655,-122.3035,60.0,7.366666666666666
2026-02-06T22:17:33+00:00,SAT-48326,44.534060121209826,45.874331663308716,745.0524407294567,2.2299655021025373,-78102.82462835219,10.5,10499921897.175371,47.655,-122.3035,60.0,7.383333333333334
2026-02-06T22:17:34+00:00,SAT-48326,45.23955052529162,45.669856042656015,747.2764280017834,2.288055754038406,-80137.39097266836,10.5,10499919862.609028,47.655,-122.3035,60.0,7.4
2026-02-06T22:17:35+00:00,SAT-48326,45.93569631435885,45.46200313976733,749.558349794097,2.345614878809346,-82153.35499700307,10.5,10499917846.645002,47.655,-122.3035,60.0,7.416666666666667
2026-02-06T22:17:36+00:00,SAT-48326,46.62248563764842,45.250933423984904,751.8976764031112,2.4026361618279752,-84150.48152810348,10.5,10499915849.518473,47.655,-122.3035,60.0,7.433333333333334
2026-02-06T22:17:37+00:00,SAT-48326,47.29991756923179,45.03680547869774,754.2938714289531,2.459113423335797,-86128.5541246867,10.5,10499913871.445875,47.655,-122.3035,60.0,7.45
2026-02-06T22:17:38+00:00,SAT-48326,47.96800153394118,44.81977578458073,756.7463923085585,2.5150409546388963,-88087.3728441441,10.5,10499911912.627155,47.655,-122.3035,60.0,7.466666666666667
2026-02-06T22:17:39+00:00,SAT-48326,48.62675671886748,44.599998525880395,759.2546907854737,2.570413578299968,-90026.7563507207,10.5,10499909973.243649,47.655,-122.3035,60.0,7.483333333333333
2026-02-06T22:17:40+00:00,SAT-48326,49.276211507028314,44.37762540831571,761.8182134396873,2.625226573521615,-91946.53930212266,10.5,10499908053.460697,47.655,-122.3035,60.0,7.5
2026-02-06T22:17:41+00:00,SAT-48326,49.91640290080364,44.15280549999421,764.4364021430466,2.6794757198941612,-93846.57388175085,10.5,10499906153.426119,47.655,-122.3035,60.0,7.516666666666667
2026-02-06T22:17:42+00:00,SAT-48326,50.54737596789219,43.9256850844037,767.1086945583033,2.7331572475835055,-95726.72805406869,10.5,10499904273.271946,47.655,-122.3035,60.0,7.533333333333333
2026-02-06T22:17:43+00:00,SAT-48326,51.169183289112226,43.69640753300867,769.8345245884815,2.786267876284011,-97586.88692889705,10.5,10499902413.113071,47.655,-122.3035,60.0,7.55
2026-02-06T22:17:44+00:00,SAT-48326,51.78188443039695,43.465113189224255,772.6133228650941,2.8388047568147736,-99426.95071586865,10.5,10499900573.049284,47.655,-122.3035,60.0,7.566666666666666
2026-02-06T22:17:45+00:00,SAT-48326,52.385545418694875,43.23193927133955,775.4445171781111,2.8907654714065156,-101246.83473447626,10.5,10499898753.165266,47.655,-122.3035,60.0,7.583333333333333
2026-02-06T22:17:46+00:00,SAT-48326,52.98023823691019,42.997019788657575,778.3275329062144,2.9421480446430497,-103046.46979728896,10.5,10499896953.530203,47.655,-122.3035,60.0,7.6
2026-02-06T22:17:47+00:00,SAT-48326,53.566040340535444,42.76048546934325,781.2617934579662,2.9929509080226007,-104825.80096873987,10.5,10499895174.199032,47.655,-122.3035,60.0,7.616666666666666
2026-02-06T22:17:48+00:00,SAT-48326,54.14303418720818,42.52246370304968,784.2467206776316,3.043172914619446,-106584.78807863867,10.5,10499893415.211922,47.655,-122.3035,60.0,7.633333333333334
2026-02-06T22:17:49+00:00,SAT-48326,54.71130679016323,42.28307849353692,787.2817352656248,3.0928132902068888,-108323.40401029146,10.5,10499891676.59599,47.655,-122.3035,60.0,7.65
2026-02-06T22:17:50+00:00,SAT-48326,55.27094928357175,42.04245042561046,790.3662571502089,3.1418716438749885,-110041.63507237857,10.5,10499889958.364927,47.655,-122.3035,60.0,7.666666666666667
2026-02-06T22:17:51+00:00,SAT-48326,55.82205651200497,41.80069664089796,793.499705869785,3.1903479550206435,-111739.48054329224,10.5,10499888260.519457,47.655,-122.3035,60.0,7.683333333333334
2026-02-06T22:17:52+00:00,SAT-48326,56.364726638990206,41.557930823666595,796.6815009422063,3.238242566102153,-113416.95241737072,10.5,10499886583.047583,47.655,-122.3035,60.0,7.7
2026-02-06T22:17:53+00:00,SAT-48326,56.89906077586906,41.31426319555001,799.9110622268661,3.285556140708296,-115074.07393629999,10.5,10499884925.926064,47.655,-122.3035,60.0,7.716666666666667
2026-02-06T22:17:54+00:00,SAT-48326,57.4251626253708,41.069800521097676,803.187810244968,3.3322896913524827,-116710.88056258264,10.5,10499883289.119438,47.655,-122.3035,60.0,7.733333333333333
2026-02-06T22:17:55+00:00,SAT-48326,57.94313815085021,40.82464611822567,806.5111665275139,3.378444534494676,-118327.41840421516,10.5,10499881672.581596,47.655,-122.3035,60.0,7.75
2026-02-06T22:17:56+00:00,SAT-48326,58.4530952592443,40.57889987841356,809.8805539184367,3.424022298095947,-119923.74447928055,10.5,10499880076.25552,47.655,-122.3035,60.0,7.766666666666667
2026-02-06T22:17:57+00:00,SAT-48326,58.95514350562774,40.33265829210583,813.2953968852668,3.4690248754840662,-121499.92510012609,10.5,10499878500.0749,47.655,-122.3035,60.0,7.783333333333333
2026-02-06T22:17:58+00:00,SAT-48326,59.4493938110196,40.086014482634546,816.755121783785,3.513454477124832,-123056.0376866143,10.5,10499876943.962313,47.655,-122.3035,60.0,7.8
