DopplerPredictor/satellites_20260211_210343/SAT-52282.csv

timestamp,satellite,azimuth_deg,elevation_deg,distance_km,relative_velocity_kms,doppler_shift_hz,tx_freq_ghz,rx_freq_hz,ue_lat,ue_lon,ue_alt_m,time_minutes
2026-02-06T22:10:10+00:00,SAT-52282,8.731026045579997,48.96262191632604,702.6521953446518,-0.5918956752936018,20730.690265005996,10.5,10500020730.690266,47.655,-122.3035,60.0,0.0
2026-02-06T22:10:11+00:00,SAT-52282,9.629781705938488,49.02561577947892,702.0618864599819,-0.5230051037918939,18317.851044187664,10.5,10500018317.851044,47.655,-122.3035,60.0,0.016666666666666666
2026-02-06T22:10:12+00:00,SAT-52282,10.532099744572147,49.08137089208503,701.5402834606987,-0.4539598942468133,15899.595744972143,10.5,10500015899.595745,47.655,-122.3035,60.0,0.03333333333333333
2026-02-06T22:10:13+00:00,SAT-52282,11.437558336034368,49.129815570865794,701.0875405702818,-0.3847800482016842,13476.624906013094,10.5,10500013476.624907,47.655,-122.3035,60.0,0.05
2026-02-06T22:10:14+00:00,SAT-52282,12.345726489239079,49.170887090562175,700.7037920642897,-0.3154857672256025,11049.646071712805,10.5,10500011049.646072,47.655,-122.3035,60.0,0.06666666666666667
2026-02-06T22:10:15+00:00,SAT-52282,13.256165235548478,49.204531932556925,700.3891520708689,-0.24609741628718057,8619.372509415818,10.5,10500008619.372509,47.655,-122.3035,60.0,0.08333333333333333
2026-02-06T22:10:16+00:00,SAT-52282,14.168428851177708,49.23070599821055,700.1437144077934,-0.17663550385888704,6186.522512578732,10.5,10500006186.522512,47.655,-122.3035,60.0,0.1
2026-02-06T22:10:17+00:00,SAT-52282,15.082066160678751,49.249374786977945,699.9675524393447,-0.10712064394845563,3751.8180709495505,10.5,10500003751.818071,47.655,-122.3035,60.0,0.11666666666666667
2026-02-06T22:10:18+00:00,SAT-52282,15.996621854322388,49.260513535901914,699.8607189710601,-0.037573529937891925,1315.9839542990278,10.5,10500001315.983953,47.655,-122.3035,60.0,0.13333333333333333
2026-02-06T22:10:19+00:00,SAT-52282,16.911637844919746,49.26410732059377,699.8232461705707,0.03198509680608569,-1120.2533869744639,10.5,10499998879.746613,47.655,-122.3035,60.0,0.15
2026-02-06T22:10:20+00:00,SAT-52282,17.826654655935076,49.26015111628274,699.8551455197461,0.10153447806889228,-3556.166912389,10.5,10499996443.833088,47.655,-122.3035,60.0,0.16666666666666666
2026-02-06T22:10:21+00:00,SAT-52282,18.741212804110663,49.248649818467044,699.9564077978908,0.1710538705323726,-5991.030103198635,10.5,10499994008.969896,47.655,-122.3035,60.0,0.18333333333333332
2026-02-06T22:10:22+00:00,SAT-52282,19.65485419572895,49.22961822291325,700.1270030966019,0.24052257368025906,-8424.11793976058,10.5,10499991575.882061,47.655,-122.3035,60.0,0.2
2026-02-06T22:10:23+00:00,SAT-52282,20.56712349663657,49.203080965595824,700.3668808624544,0.3099199628567243,-10854.708059385553,10.5,10499989145.29194,47.655,-122.3035,60.0,0.21666666666666667
2026-02-06T22:10:24+00:00,SAT-52282,21.477569497103477,49.16907242252054,700.6759699726596,0.37922552081031147,-13282.08186113965,10.5,10499986717.918139,47.655,-122.3035,60.0,0.23333333333333334
2026-02-06T22:10:25+00:00,SAT-52282,22.38574644200502,49.12763657043659,701.0541788421816,0.4484188656743551,-15705.525485837034,10.5,10499984294.474514,47.655,-122.3035,60.0,0.25
2026-02-06T22:10:26+00:00,SAT-52282,23.29121531565752,49.078826809979596,701.5013955587588,0.5174797755782852,-18124.330678031914,10.5,10499981875.669321,47.655,-122.3035,60.0,0.26666666666666666
2026-02-06T22:10:27+00:00,SAT-52282,24.193545071058715,49.02270575306968,702.017488042471,0.5863882324223751,-20537.796319195393,10.5,10499979462.20368,47.655,-122.3035,60.0,0.2833333333333333
2026-02-06T22:10:28+00:00,SAT-52282,25.09231382661553,48.95934497421463,702.6023042489637,0.6551244337413696,-22945.228843229877,10.5,10499977054.771156,47.655,-122.3035,60.0,0.3
2026-02-06T22:10:29+00:00,SAT-52282,25.987109967244624,48.88882473117368,703.2556723845056,0.7236688291219887,-25345.943511964135,10.5,10499974654.056488,47.655,-122.3035,60.0,0.31666666666666665
2026-02-06T22:10:30+00:00,SAT-52282,26.877533190064845,48.81123365451612,703.9774011573629,0.792002144134361,-27739.265253333324,10.5,10499972260.734747,47.655,-122.3035,60.0,0.3333333333333333
2026-02-06T22:10:31+00:00,SAT-52282,27.763195467242323,48.72666840983811,704.7672800530452,0.8601054071035169,-30124.5295990299,10.5,10499969875.470402,47.655,-122.3035,60.0,0.35
2026-02-06T22:10:32+00:00,SAT-52282,28.64372192678535,48.63523333488019,705.6250796362468,0.9279599802532235,-32501.08377529246,10.5,10499967498.916225,47.655,-122.3035,60.0,0.36666666666666664
2026-02-06T22:10:33+00:00,SAT-52282,29.518751652181095,48.537040053770745,706.5505518838513,0.9955475625421033,-34868.28680223865,10.5,10499965131.713198,47.655,-122.3035,60.0,0.38333333333333336
2026-02-06T22:10:34+00:00,SAT-52282,30.38793837298078,48.432207074154874,707.5434305207635,1.0628502443253403,-37225.51140834929,10.5,10499962774.488592,47.655,-122.3035,60.0,0.4
2026-02-06T22:10:35+00:00,SAT-52282,31.250951093019538,48.32085936454829,708.6034314102573,1.1298504996265621,-39572.14375979699,10.5,10499960427.85624,47.655,-122.3035,60.0,0.4166666666666667
2026-02-06T22:10:36+00:00,SAT-52282,32.10747460007292,48.203127921343885,709.7302529366139,1.196531218694018,-41907.584600701295,10.5,10499958092.4154,47.655,-122.3035,60.0,0.43333333333333335
2026-02-06T22:10:37+00:00,SAT-52282,32.95720989516422,48.079149324033466,710.9235764202319,1.2628757320621153,-44231.250095865355,10.5,10499955768.749905,47.655,-122.3035,60.0,0.45
2026-02-06T22:10:38+00:00,SAT-52282,33.79987453297944,47.94906528233343,712.183066556733,1.3288678173193837,-46542.572067818764,10.5,10499953457.427933,47.655,-122.3035,60.0,0.4666666666666667
2026-02-06T22:10:39+00:00,SAT-52282,34.635202865828084,47.81302217970709,713.508371862818,1.3944917231709015,-48840.99883958543,10.5,10499951159.00116,47.655,-122.3035,60.0,0.48333333333333334
2026-02-06T22:10:40+00:00,SAT-52282,35.46294620557306,47.67117061409363,714.8991251461188,1.4597321786253843,-51125.99555645438,10.5,10499948874.004444,47.655,-122.3035,60.0,0.5
2026-02-06T22:10:41+00:00,SAT-52282,36.28287289884606,47.52366493984864,716.3549439842164,1.5245744076373784,-53397.04469881119,10.5,10499946602.955301,47.655,-122.3035,60.0,0.5166666666666667
2026-02-06T22:10:42+00:00,SAT-52282,37.09476832345802,47.370662812670375,717.8754312182582,1.5890041461591777,-55653.646679368314,10.5,10499944346.353321,47.655,-122.3035,60.0,0.5333333333333333
2026-02-06T22:10:43+00:00,SAT-52282,37.898434812149645,47.21232473945212,719.4601754635843,1.6530076543228502,-57895.32026983122,10.5,10499942104.67973,47.655,-122.3035,60.0,0.55
2026-02-06T22:10:44+00:00,SAT-52282,38.6936915057562,47.04881363558556,721.1087516325007,1.7165717121710655,-60121.60245137384,10.5,10499939878.397549,47.655,-122.3035,60.0,0.5666666666666667
2026-02-06T22:10:45+00:00,SAT-52282,39.48037413465359,46.88029439315075,722.8207214527982,1.7796836319337797,-62332.04884461999,10.5,10499937667.951155,47.655,-122.3035,60.0,0.5833333333333334
2026-02-06T22:10:46+00:00,SAT-52282,40.25833474297656,46.706933459968084,724.5956339985111,1.8423312809911276,-64526.23451390108,10.5,10499935473.765486,47.655,-122.3035,60.0,0.6
2026-02-06T22:10:47+00:00,SAT-52282,41.02744136495082,46.528898429953564,726.4330262435795,1.9045030664432365,-66703.75342682564,10.5,10499933296.246572,47.655,-122.3035,60.0,0.6166666666666667
2026-02-06T22:10:48+00:00,SAT-52282,41.78757764323156,46.34635764978932,728.3324236001232,1.9661879468440022,-68864.21886524584,10.5,10499931135.781136,47.655,-122.3035,60.0,0.6333333333333333
2026-02-06T22:10:49+00:00,SAT-52282,42.53864240731709,46.15947984030775,730.2933404684156,2.0273754448598305,-71007.26386862014,10.5,10499928992.736132,47.655,-122.3035,60.0,0.65
2026-02-06T22:10:50+00:00,SAT-52282,43.28054921765115,45.968433733414095,732.3152807994855,2.0880556115680844,-73132.53998359386,10.5,10499926867.460016,47.655,-122.3035,60.0,0.6666666666666666
2026-02-06T22:10:51+00:00,SAT-52282,44.01322586391004,45.77338772983393,734.3977386221106,2.148219090519331,-75239.71950773016,10.5,10499924760.280493,47.655,-122.3035,60.0,0.6833333333333333
2026-02-06T22:10:52+00:00,SAT-52282,44.73661385871476,45.574509568781124,736.5401986337026,2.2078570443698458,-77328.49291986987,10.5,10499922671.50708,47.655,-122.3035,60.0,0.7
2026-02-06T22:10:53+00:00,SAT-52282,45.45066788386998,45.371966022867554,738.7421367180207,2.2669612069357705,-79398.57070328831,10.5,10499920601.429296,47.655,-122.3035,60.0,0.7166666666666667
2026-02-06T22:10:54+00:00,SAT-52282,46.15535523788511,45.165922606685314,741.0030205148012,2.3255238608793385,-81449.68256417263,10.5,10499918550.317436,47.655,-122.3035,60.0,0.7333333333333333
2026-02-06T22:10:55+00:00,SAT-52282,46.85065526358661,44.95654330613429,743.3223099671319,2.383537815192075,-83481.5766429881,10.5,10499916518.423357,47.655,-122.3035,60.0,0.75
2026-02-06T22:10:56+00:00,SAT-52282,47.536558762211456,44.74399032833512,745.6994578463698,2.4409964291680315,-85494.02035412223,10.5,10499914505.979647,47.655,-122.3035,60.0,0.7666666666666667
2026-02-06T22:10:57+00:00,SAT-52282,48.213067411269336,44.52842386777083,748.1339103009686,2.4978935968104556,-87486.79983974042,10.5,10499912513.200161,47.655,-122.3035,60.0,0.7833333333333333
2026-02-06T22:10:58+00:00,SAT-52282,48.88019317837696,44.310001891992265,750.6251073897553,2.5542237197355515,-89459.719020761,10.5,10499910540.28098,47.655,-122.3035,60.0,0.8
2026-02-06T22:10:59+00:00,SAT-52282,49.53795773180052,44.08887994744765,753.1724835881811,2.609981740886887,-91412.60077767636,10.5,10499908587.399221,47.655,-122.3035,60.0,0.8166666666666667
2026-02-06T22:11:00+00:00,SAT-52282,50.18639186710837,43.86521097968182,755.7754683281983,2.6651630814902214,-93345.28474244446,10.5,10499906654.715258,47.655,-122.3035,60.0,0.8333333333333334
2026-02-06T22:11:01+00:00,SAT-52282,50.82553492763078,43.63914517577736,758.4334864752598,2.719763677704413,-95257.62858215845,10.5,10499904742.371418,47.655,-122.3035,60.0,0.85
2026-02-06T22:11:02+00:00,SAT-52282,51.45543424666223,43.41082981981614,761.1459588418712,2.773779947805414,-97149.50684969149,10.5,10499902850.49315,47.655,-122.3035,60.0,0.8666666666666667
2026-02-06T22:11:03+00:00,SAT-52282,52.07614459609821,43.180409166723884,763.9123026684183,2.827208784677574,-99020.81072071043,10.5,10499900979.18928,47.655,-122.3035,60.0,0.8833333333333333
2026-02-06T22:11:04+00:00,SAT-52282,52.687727649685414,42.9480243316174,766.7319320964989,2.8800475572623254,-100871.44804441484,10.5,10499899128.551956,47.655,-122.3035,60.0,0.9
2026-02-06T22:11:05+00:00,SAT-52282,53.29025146446925,42.713813193242856,769.604258643707,2.9322940632106462,-102701.34168522607,10.5,10499897298.658316,47.655,-122.3035,60.0,0.9166666666666666
2026-02-06T22:11:06+00:00,SAT-52282,53.88378997131808,42.477910314737755,772.5286916311906,2.983946565495216,-104510.43080509974,10.5,10499895489.569195,47.655,-122.3035,60.0,0.9333333333333333
2026-02-06T22:11:07+00:00,SAT-52282,54.468422493234726,42.240446874123414,775.5046386477283,3.0350037430611305,-106298.66913510502,10.5,10499893701.330864,47.655,-122.3035,60.0,0.95
2026-02-06T22:11:08+00:00,SAT-52282,55.04423327439919,42.00155061077881,778.5315059645849,3.085464691990235,-108066.0250162046,10.5,10499891933.974983,47.655,-122.3035,60.0,0.9666666666666667
2026-02-06T22:11:09+00:00,SAT-52282,55.61131103120349,41.76134578301007,781.6086989515298,3.135328908666089,-109812.4808096204,10.5,10499890187.51919,47.655,-122.3035,60.0,0.9833333333333333
2026-02-06T22:11:10+00:00,SAT-52282,56.16974852183232,41.51995313741966,784.7356224760672,3.184596290581145,-111538.03292510453,10.5,10499888461.967075,47.655,-122.3035,60.0,1.0
2026-02-06T22:11:11+00:00,SAT-52282,56.719642138098436,41.277489887965615,787.9116813034676,3.2332670840070143,-113242.68998813056,10.5,10499886757.310013,47.655,-122.3035,60.0,1.0166666666666666
2026-02-06T22:11:12+00:00,SAT-52282,57.261091510175085,41.0340697080408,791.1362804446132,3.2813419263229466,-114926.47432241587,10.5,10499885073.525677,47.655,-122.3035,60.0,1.0333333333333334
2026-02-06T22:11:13+00:00,SAT-52282,57.79419914071122,40.78980272761397,794.408825546057,3.328821778174459,-116589.41957383005,10.5,10499883410.580425,47.655,-122.3035,60.0,1.05
2026-02-06T22:11:14+00:00,SAT-52282,58.319070049315684,40.544795543128544,797.7287232124215,3.375707950714938,-118231.57166451082,10.5,10499881768.428335,47.655,-122.3035,60.0,1.0666666666666667
2026-02-06T22:11:15+00:00,SAT-52282,58.83581144314558,40.29915123227604,801.0953813559681,3.422002081792235,-119852.98795881806,10.5,10499880147.012041,47.655,-122.3035,60.0,1.0833333333333333
2026-02-06T22:11:16+00:00,SAT-52282,59.344532404529666,40.05296937689278,804.5082095224155,3.4677060747625656,-121453.7351203376,10.5,10499878546.26488,47.655,-122.3035,60.0,1.1
