DopplerPredictor/satellites_20260211_210343/SAT-65205.csv

timestamp,satellite,azimuth_deg,elevation_deg,distance_km,relative_velocity_kms,doppler_shift_hz,tx_freq_ghz,rx_freq_hz,ue_lat,ue_lon,ue_alt_m,time_minutes
2026-02-06T22:10:10+00:00,SAT-65205,70.63853478356732,43.769579750241945,647.8176744555518,4.8959581392949705,-171477.16392050526,10.5,10499828522.836079,47.655,-122.3035,60.0,0.0
2026-02-06T22:10:11+00:00,SAT-65205,70.47411345531756,43.30129506478438,652.7005072067176,4.9361482204423925,-172884.7905661627,10.5,10499827115.209435,47.655,-122.3035,60.0,0.016666666666666666
2026-02-06T22:10:12+00:00,SAT-65205,70.3146982878341,42.83929097358374,657.6234222949693,4.975436545541138,-174260.83390057113,10.5,10499825739.1661,47.655,-122.3035,60.0,0.03333333333333333
2026-02-06T22:10:13+00:00,SAT-65205,70.16007045863167,42.3834914967152,662.5855203817421,5.013842825275527,-175605.98427527165,10.5,10499824394.015724,47.655,-122.3035,60.0,0.05
2026-02-06T22:10:14+00:00,SAT-65205,70.01002357508685,41.933819168222726,667.5859217863135,5.0513865356970165,-176920.92382396982,10.5,10499823079.076176,47.655,-122.3035,60.0,0.06666666666666667
2026-02-06T22:10:15+00:00,SAT-65205,69.86436281473813,41.49019527034373,672.6237662517995,5.08808691139333,-178206.32622329,10.5,10499821793.673777,47.655,-122.3035,60.0,0.08333333333333333
2026-02-06T22:10:16+00:00,SAT-65205,69.72290413476074,41.05254004908085,677.6982127043394,5.123962973523529,-179462.85767468193,10.5,10499820537.142324,47.655,-122.3035,60.0,0.1
2026-02-06T22:10:17+00:00,SAT-65205,69.58547354363353,40.62077290968575,682.8084390402378,5.159033403126816,-180691.1724671592,10.5,10499819308.827534,47.655,-122.3035,60.0,0.11666666666666667
2026-02-06T22:10:18+00:00,SAT-65205,69.45190643302664,40.194812606414175,687.9536417867577,5.193316671485865,-181891.91754317444,10.5,10499818108.082457,47.655,-122.3035,60.0,0.13333333333333333
