DopplerPredictor/satellites_20260211_210343/SAT-63515.csv

timestamp,satellite,azimuth_deg,elevation_deg,distance_km,relative_velocity_kms,doppler_shift_hz,tx_freq_ghz,rx_freq_hz,ue_lat,ue_lon,ue_alt_m,time_minutes
2026-02-06T22:19:12+00:00,SAT-63515,301.4679630398152,40.06550374598702,699.3046061366468,-3.338565766573987,116930.69526461157,10.5,10500116930.695265,47.655,-122.3035,60.0,9.033333333333333
2026-02-06T22:19:13+00:00,SAT-63515,302.07512649344847,40.336398775804135,695.974990604171,-3.282700186954066,114974.04635515445,10.5,10500114974.046354,47.655,-122.3035,60.0,9.05
2026-02-06T22:19:14+00:00,SAT-63515,302.69295299012066,40.60620543740912,692.7010908834054,-3.2260353955900993,112989.4056697585,10.5,10500112989.40567,47.655,-122.3035,60.0,9.066666666666666
2026-02-06T22:19:15+00:00,SAT-63515,303.3215836327976,40.874762197702296,689.4837040435181,-3.168570358648473,110976.73699919751,10.5,10500110976.737,47.655,-122.3035,60.0,9.083333333333334
2026-02-06T22:19:16+00:00,SAT-63515,303.9611542805322,41.14190167671771,686.3236281847385,-3.110304662493185,108936.02585618895,10.5,10500108936.025856,47.655,-122.3035,60.0,9.1
2026-02-06T22:19:17+00:00,SAT-63515,304.6117948374894,41.40745065934108,683.2216618198232,-3.0512386211894396,106867.28324062479,10.5,10500106867.283241,47.655,-122.3035,60.0,9.116666666666667
2026-02-06T22:19:18+00:00,SAT-63515,305.27362851814104,41.671230134966535,680.1786031483064,-2.991373170360302,104770.54192198248,10.5,10500104770.541922,47.655,-122.3035,60.0,9.133333333333333
2026-02-06T22:19:19+00:00,SAT-63515,305.9467710462622,41.93305534862502,677.1952494366061,-2.9307100376319166,102645.8624090374,10.5,10500102645.86241,47.655,-122.3035,60.0,9.15
2026-02-06T22:19:20+00:00,SAT-63515,306.6313298444359,42.19273588904744,674.2723962281469,-2.8692516524826903,100493.32979240007,10.5,10500100493.329792,47.655,-122.3035,60.0,9.166666666666666
2026-02-06T22:19:21+00:00,SAT-63515,307.32740316152905,42.45007579302103,671.4108366433879,-2.8070012536578273,98313.05750662743,10.5,10500098313.057507,47.655,-122.3035,60.0,9.183333333333334
2026-02-06T22:19:22+00:00,SAT-63515,308.0350791818107,42.70487368503726,668.6113605727251,-2.743962862683457,96105.18640257553,10.5,10500096105.186403,47.655,-122.3035,60.0,9.2
2026-02-06T22:19:23+00:00,SAT-63515,308.75443508884234,42.95692294226259,665.8747538958096,-2.6801413550207025,93869.88723951615,10.5,10500093869.88724,47.655,-122.3035,60.0,9.216666666666667
2026-02-06T22:19:24+00:00,SAT-63515,309.48553610979866,43.20601189534726,663.2017976299021,-2.6155424234730975,91607.35940350949,10.5,10500091607.359404,47.655,-122.3035,60.0,9.233333333333333
2026-02-06T22:19:25+00:00,SAT-63515,310.22843451723185,43.45192405695194,660.5932671147217,-2.5501726638685,89317.83390834751,10.5,10500089317.833908,47.655,-122.3035,60.0,9.25
2026-02-06T22:19:26+00:00,SAT-63515,310.9831686240101,43.694438390860434,658.049931111841,-2.4840395390626453,87001.57213480593,10.5,10500087001.572134,47.655,-122.3035,60.0,9.266666666666667
2026-02-06T22:19:27+00:00,SAT-63515,311.74976174450325,43.93332961191862,655.572550939985,-2.4171514443735913,84658.86812243526,10.5,10500084658.868122,47.655,-122.3035,60.0,9.283333333333333
2026-02-06T22:19:28+00:00,SAT-63515,312.52822115582035,44.16836852766655,653.161879545067,-2.3495176813226317,82290.0476498566,10.5,10500082290.04765,47.655,-122.3035,60.0,9.3
2026-02-06T22:19:29+00:00,SAT-63515,313.3185370395137,44.39932241416364,650.8186605964145,-2.2811485339243114,79895.47090676067,10.5,10500079895.470907,47.655,-122.3035,60.0,9.316666666666666
2026-02-06T22:19:30+00:00,SAT-63515,314.1206814434448,44.625955436928855,648.5436275069111,-2.2120551997235474,77475.53007853603,10.5,10500077475.530079,47.655,-122.3035,60.0,9.333333333333334
2026-02-06T22:19:31+00:00,SAT-63515,314.9346072255581,44.848029103548306,646.3375025219145,-2.1422498649850876,75030.651979722,10.5,10500075030.65198,47.655,-122.3035,60.0,9.35
2026-02-06T22:19:32+00:00,SAT-63515,315.7602470357983,45.06530276253334,644.2009957331867,-2.07174570479719,72561.2980576399,10.5,10500072561.298058,47.655,-122.3035,60.0,9.366666666666667
2026-02-06T22:19:33+00:00,SAT-63515,316.5975123232058,45.27753414133775,642.1348040927234,-2.0005568598434382,70067.96357884393,10.5,10500070067.96358,47.655,-122.3035,60.0,9.383333333333333
2026-02-06T22:19:34+00:00,SAT-63515,317.4462923697538,45.48447992087835,640.1396104497442,-1.9286984640204208,67551.1785964089,10.5,10500067551.178596,47.655,-122.3035,60.0,9.4
2026-02-06T22:19:35+00:00,SAT-63515,318.3064533809768,45.68589635112392,638.2160825601455,-1.8561866336500006,65011.50757209845,10.5,10500065011.507572,47.655,-122.3035,60.0,9.416666666666666
2026-02-06T22:19:36+00:00,SAT-63515,319.1778376321704,45.88153990289107,636.3648721067063,-1.783038489225409,62449.550138005114,10.5,10500062449.550138,47.655,-122.3035,60.0,9.433333333333334
2026-02-06T22:19:37+00:00,SAT-63515,320.06026269722696,46.07116795783667,634.5866136976113,-1.709272102965375,59865.93925967423,10.5,10500059865.93926,47.655,-122.3035,60.0,9.45
2026-02-06T22:19:38+00:00,SAT-63515,320.95352074093364,46.254539526914186,632.8819239172742,-1.6349065440104933,57261.34281907178,10.5,10500057261.34282,47.655,-122.3035,60.0,9.466666666666667
2026-02-06T22:19:39+00:00,SAT-63515,321.85737793232715,46.431416005247115,631.2514003320912,-1.5599618284398087,54636.46186395386,10.5,10500054636.461864,47.655,-122.3035,60.0,9.483333333333333
2026-02-06T22:19:40+00:00,SAT-63515,322.7715739498164,46.60156195044689,629.6956205460389,-1.4844589249671976,51992.030807377996,10.5,10500051992.030807,47.655,-122.3035,60.0,9.5
2026-02-06T22:19:41+00:00,SAT-63515,323.6958216186159,46.76474588691261,628.2151412505939,-1.4084197259832607,49328.816413467735,10.5,10500049328.816414,47.655,-122.3035,60.0,9.516666666666667
2026-02-06T22:19:42+00:00,SAT-63515,324.62980667583,46.92074112849279,626.8104973035341,-1.3318670373949915,46647.61744155488,10.5,10500046647.617441,47.655,-122.3035,60.0,9.533333333333333
2026-02-06T22:19:43+00:00,SAT-63515,325.57318768825286,47.069326617170894,625.4822008178687,-1.2548245330641299,43949.26305041791,10.5,10500043949.26305,47.655,-122.3035,60.0,9.55
2026-02-06T22:19:44+00:00,SAT-63515,326.5255961114729,47.21028776899271,624.2307402962118,-1.1773167648366247,41234.61314955615,10.5,10500041234.61315,47.655,-122.3035,60.0,9.566666666666666
2026-02-06T22:19:45+00:00,SAT-63515,327.4866365407434,47.34341732813969,623.056579755152,-1.0993690825419804,38504.55559722851,10.5,10500038504.555597,47.655,-122.3035,60.0,9.583333333333334
2026-02-06T22:19:46+00:00,SAT-63515,328.4558871000089,47.46851621337288,621.9601579294075,-1.0210076467569433,35760.00664749179,10.5,10500035760.006647,47.655,-122.3035,60.0,9.6
2026-02-06T22:19:47+00:00,SAT-63515,329.43290004538625,47.585394361225696,620.9418874632522,-0.9422593518493402,33001.90825487035,10.5,10500033001.908255,47.655,-122.3035,60.0,9.616666666666667
2026-02-06T22:19:48+00:00,SAT-63515,330.4172025207791,47.69387154949387,620.0021541786936,-0.8631518122194235,30231.22759246981,10.5,10500030231.227592,47.655,-122.3035,60.0,9.633333333333333
2026-02-06T22:19:49+00:00,SAT-63515,331.40829752168383,47.79377820167176,619.1413163573676,-0.783713310198581,27448.955227169525,10.5,10500027448.955227,47.655,-122.3035,60.0,9.65
2026-02-06T22:19:50+00:00,SAT-63515,332.4056650380344,47.88495616134741,618.3597040744013,-0.7039727438859104,24656.103292638734,10.5,10500024656.103292,47.655,-122.3035,60.0,9.666666666666666
2026-02-06T22:19:51+00:00,SAT-63515,333.40876337461805,47.96725942985339,617.6576185842935,-0.6239595853066147,21853.704023866583,10.5,10500021853.704023,47.655,-122.3035,60.0,9.683333333333334
2026-02-06T22:19:52+00:00,SAT-63515,334.4170306560071,48.04055486178718,617.0353317485284,-0.5437038251246784,19042.8078207662,10.5,10500019042.807821,47.655,-122.3035,60.0,9.7
2026-02-06T22:19:53+00:00,SAT-63515,335.4298864983491,48.10472281043758,616.4930855183278,-0.46323592346523634,16224.481525766007,10.5,10500016224.481525,47.655,-122.3035,60.0,9.716666666666667
2026-02-06T22:19:54+00:00,SAT-63515,336.4467338486483,48.15965771770103,616.0310914664469,-0.3825867476899234,13399.806244439264,10.5,10500013399.806244,47.655,-122.3035,60.0,9.733333333333333
2026-02-06T22:19:55+00:00,SAT-63515,337.46696096234535,48.20526864121987,615.6495303810304,-0.3017875169401882,10569.87540317634,10.5,10500010569.875402,47.655,-122.3035,60.0,9.75
2026-02-06T22:19:56+00:00,SAT-63515,338.48994351509447,48.24147971428258,615.3485519147765,-0.22086974719530497,7735.792824883881,10.5,10500007735.792826,47.655,-122.3035,60.0,9.766666666666667
2026-02-06T22:19:57+00:00,SAT-63515,339.51504684069465,48.26823053389455,615.1282742888933,-0.13986518339644757,4898.670351682761,10.5,10500004898.670351,47.655,-122.3035,60.0,9.783333333333333
2026-02-06T22:19:58+00:00,SAT-63515,340.5416282491724,48.28547647148404,614.9887840647523,-0.05880574393168409,2059.6259005377747,10.5,10500002059.6259,47.655,-122.3035,60.0,9.8
2026-02-06T22:19:59+00:00,SAT-63515,341.5690394364898,48.29318890446224,614.9301359709048,0.022276546792589086,-780.2188983759739,10.5,10499999219.781101,47.655,-122.3035,60.0,9.816666666666666
2026-02-06T22:20:00+00:00,SAT-63515,342.5966289294607,48.291355364793596,614.9523527973496,0.10334961746256152,-3619.7407719873195,10.5,10499996380.259228,47.655,-122.3035,60.0,9.833333333333334
2026-02-06T22:20:01+00:00,SAT-63515,343.6237445812804,48.27997960397829,615.0554253487498,0.1843814155394587,-6457.817104806273,10.5,10499993542.182896,47.655,-122.3035,60.0,9.85
2026-02-06T22:20:02+00:00,SAT-63515,344.64973605407056,48.25908157296836,615.2393124631587,0.26533996881575533,-9293.328094882998,10.5,10499990706.671906,47.655,-122.3035,60.0,9.866666666666667
2026-02-06T22:20:03+00:00,SAT-63515,345.67395729657244,48.228697317734834,615.503941092135,0.3461934490794852,-12125.15898360123,10.5,10499987874.841017,47.655,-122.3035,60.0,9.883333333333333
2026-02-06T22:20:04+00:00,SAT-63515,346.6957689773491,48.188878791329294,615.8492064443521,0.4269102348608317,-14952.20225332931,10.5,10499985047.797747,47.655,-122.3035,60.0,9.9
2026-02-06T22:20:05+00:00,SAT-63515,347.7145408574577,48.139693584550095,616.274972191787,0.5074589707847013,-17773.359706198356,10.5,10499982226.640293,47.655,-122.3035,60.0,9.916666666666666
2026-02-06T22:20:06+00:00,SAT-63515,348.72965407083933,48.08122457840975,616.7810707351001,0.5878086286799574,-20587.54460440614,10.5,10499979412.455395,47.655,-122.3035,60.0,9.933333333333334
2026-02-06T22:20:07+00:00,SAT-63515,349.74050330582185,48.01356952184038,617.3673035299643,0.667928565853678,-23393.68371122805,10.5,10499976606.316288,47.655,-122.3035,60.0,9.95
2026-02-06T22:20:08+00:00,SAT-63515,350.74649886112053,47.93684053924893,618.0334414715072,0.7477885799138385,-26190.719211139407,10.5,10499973809.280788,47.655,-122.3035,60.0,9.966666666666667
2026-02-06T22:20:09+00:00,SAT-63515,351.7470685596603,47.85116357330843,618.7792253334328,0.8273589711912772,-28977.610896096692,10.5,10499971022.389105,47.655,-122.3035,60.0,9.983333333333333
