DopplerPredictor/satellites_20260211_210343/SAT-52264.csv

timestamp,satellite,azimuth_deg,elevation_deg,distance_km,relative_velocity_kms,doppler_shift_hz,tx_freq_ghz,rx_freq_hz,ue_lat,ue_lon,ue_alt_m,time_minutes
2026-02-06T22:14:03+00:00,SAT-52264,9.228172021381663,40.002490692312655,807.9399266443137,0.019961621910275215,-699.1404368747988,10.5,10499999300.859564,47.655,-122.3035,60.0,3.8833333333333333
2026-02-06T22:14:04+00:00,SAT-52264,9.90329244890954,40.000932858808106,807.9598347518702,0.07989527666860131,-2798.2705456196422,10.5,10499997201.729454,47.655,-122.3035,60.0,3.9
