DopplerPredictor/satellites_20260211_204923/SAT-48586.csv

timestamp,satellite,azimuth_deg,elevation_deg,distance_km,relative_velocity_kms,doppler_shift_hz,tx_freq_ghz,rx_freq_hz,ue_lat,ue_lon,ue_alt_m,time_minutes
2026-02-06T21:23:08+00:00,SAT-48586,244.94769192547824,30.159604868341948,991.2934762160779,-5.79631558486855,203011.49017271065,10.5,10500203011.490173,47.655,-122.3035,60.0,0.016666666666666666
2026-02-06T21:23:09+00:00,SAT-48586,244.97504844051906,30.41605549772603,985.5126997534011,-5.780855064185191,202469.99734044183,10.5,10500202469.997341,47.655,-122.3035,60.0,0.03333333333333333
2026-02-06T21:23:10+00:00,SAT-48586,245.00282340733753,30.675167549156548,979.7473423638847,-5.765113747394668,201918.66984073367,10.5,10500201918.66984,47.655,-122.3035,60.0,0.05
2026-02-06T21:23:11+00:00,SAT-48586,245.03102770098795,30.936980803045625,973.9976840908613,-5.749085797877671,201357.30325048917,10.5,10500201357.303251,47.655,-122.3035,60.0,0.06666666666666667
2026-02-06T21:23:12+00:00,SAT-48586,245.05967257726252,31.201535626649466,968.264010798634,-5.732765200491513,200785.68689396745,10.5,10500200785.686893,47.655,-122.3035,60.0,0.08333333333333333
2026-02-06T21:23:13+00:00,SAT-48586,245.08876968940922,31.468872974443595,962.5466143505232,-5.716145896088541,200203.60855418743,10.5,10500200203.608555,47.655,-122.3035,60.0,0.1
2026-02-06T21:23:14+00:00,SAT-48586,245.1183311059566,31.739034394341907,956.845792652754,-5.6992215677902776,199610.84698734453,10.5,10500199610.846987,47.655,-122.3035,60.0,0.11666666666666667
2026-02-06T21:23:15+00:00,SAT-48586,245.14836932910762,32.01206202353271,951.1618499114946,-5.6819858895375095,199007.18062808586,10.5,10500199007.180628,47.655,-122.3035,60.0,0.13333333333333333
2026-02-06T21:23:16+00:00,SAT-48586,245.1788973146532,32.28799859553671,945.4950966420125,-5.664432333168409,198392.38083257017,10.5,10500198392.380833,47.655,-122.3035,60.0,0.15
2026-02-06T21:23:17+00:00,SAT-48586,245.2099284925862,32.566887437700686,939.845849870238,-5.6465541993579444,197766.21296209664,10.5,10500197766.212961,47.655,-122.3035,60.0,0.16666666666666666
2026-02-06T21:23:18+00:00,SAT-48586,245.24147678878836,32.84877246945607,934.214433303464,-5.628344753625484,197128.44114666682,10.5,10500197128.441147,47.655,-122.3035,60.0,0.18333333333333332
2026-02-06T21:23:19+00:00,SAT-48586,245.27355664856464,33.1336982067837,928.6011773654114,-5.609797013270659,196478.8208225769,10.5,10500196478.820822,47.655,-122.3035,60.0,0.2
2026-02-06T21:23:20+00:00,SAT-48586,245.306183060597,33.42170975547173,923.0064194437813,-5.590903922629633,195817.104870634,10.5,10500195817.10487,47.655,-122.3035,60.0,0.21666666666666667
2026-02-06T21:23:21+00:00,SAT-48586,245.33937158303107,33.712852812423506,917.4305039630233,-5.571658222032678,195143.03902649586,10.5,10500195143.039026,47.655,-122.3035,60.0,0.23333333333333334
2026-02-06T21:23:22+00:00,SAT-48586,245.37313837050613,34.007173659550645,911.8737825877952,-5.5520525462289365,194456.3653279224,10.5,10500194456.365328,47.655,-122.3035,60.0,0.25
2026-02-06T21:23:23+00:00,SAT-48586,245.40750020318342,34.30471916191156,906.3366143282594,-5.532079376038451,193756.82042142542,10.5,10500193756.820421,47.655,-122.3035,60.0,0.26666666666666666
2026-02-06T21:23:24+00:00,SAT-48586,245.44247451719684,34.60553676251053,900.8193656936013,-5.511731010318133,193044.13458039827,10.5,10500193044.13458,47.655,-122.3035,60.0,0.2833333333333333
2026-02-06T21:23:25+00:00,SAT-48586,245.47807943696114,34.90967447457846,895.3224108735027,-5.4909996335065845,192318.03407082087,10.5,10500192318.034071,47.655,-122.3035,60.0,0.3
2026-02-06T21:23:26+00:00,SAT-48586,245.51433380954325,35.21718087648465,889.846131852256,-5.469877242305767,191578.23858334206,10.5,10500191578.238583,47.655,-122.3035,60.0,0.31666666666666665
2026-02-06T21:23:27+00:00,SAT-48586,245.5512572408391,35.528105101543204,884.3909185959936,-5.4483556910213276,190824.46282128931,10.5,10500190824.462822,47.655,-122.3035,60.0,0.3333333333333333
2026-02-06T21:23:28+00:00,SAT-48586,245.5888701342127,35.84249682909423,878.9571691947068,-5.4264266960527126,190056.4166579317,10.5,10500190056.416658,47.655,-122.3035,60.0,0.35
2026-02-06T21:23:29+00:00,SAT-48586,245.6271937314536,36.16040627464818,873.5452899997795,-5.404081773444276,189273.8029492553,10.5,10500189273.80295,47.655,-122.3035,60.0,0.36666666666666664
2026-02-06T21:23:30+00:00,SAT-48586,245.66625015604697,36.48188417501657,868.1556958238066,-5.381312307888172,188476.31995073674,10.5,10500188476.31995,47.655,-122.3035,60.0,0.38333333333333336
2026-02-06T21:23:31+00:00,SAT-48586,245.70606245951768,36.80698177594564,862.7888100715948,-5.358109539165697,187663.66084246125,10.5,10500187663.660843,47.655,-122.3035,60.0,0.4
2026-02-06T21:23:32+00:00,SAT-48586,245.74665467055317,37.135750817492514,857.4450648846843,-5.334464482228703,186835.51093003608,10.5,10500186835.51093,47.655,-122.3035,60.0,0.4166666666666667
2026-02-06T21:23:33+00:00,SAT-48586,245.78805184696688,37.46824351278291,852.1249013655764,-5.310368111793164,185991.5541098376,10.5,10500185991.55411,47.655,-122.3035,60.0,0.43333333333333335
2026-02-06T21:23:34+00:00,SAT-48586,245.83028013192907,37.80451253636979,846.8287696178603,-5.285811109269857,185131.46400545374,10.5,10500185131.464005,47.655,-122.3035,60.0,0.45
2026-02-06T21:23:35+00:00,SAT-48586,245.87336681258358,38.14461099498342,841.5571290387325,-5.260784074382388,184254.91137944197,10.5,10500184254.911379,47.655,-122.3035,60.0,0.4666666666666667
2026-02-06T21:23:36+00:00,SAT-48586,245.91734038367136,38.48859240937038,836.3104484004652,-5.235277421722596,183361.56051026226,10.5,10500183361.56051,47.655,-122.3035,60.0,0.48333333333333334
2026-02-06T21:23:37+00:00,SAT-48586,245.96223061475396,38.8365106874978,831.0892060350419,-5.209281433471891,182451.0710388013,10.5,10500182451.07104,47.655,-122.3035,60.0,0.5
2026-02-06T21:23:38+00:00,SAT-48586,246.00806862247757,39.18842009886639,825.8938899662126,-5.1827862233217115,181523.0967047142,10.5,10500181523.096704,47.655,-122.3035,60.0,0.5166666666666667
2026-02-06T21:23:39+00:00,SAT-48586,246.05488694731483,39.54437524402192,820.724998077531,-5.15578171285807,180577.28451931148,10.5,10500180577.28452,47.655,-122.3035,60.0,0.5333333333333333
2026-02-06T21:23:40+00:00,SAT-48586,246.1027196357156,39.90443101970813,815.5830383039472,-5.128257717113248,179613.27776194122,10.5,10500179613.277761,47.655,-122.3035,60.0,0.55
2026-02-06T21:23:41+00:00,SAT-48586,246.15160232830314,40.268642587087584,810.4685287380743,-5.100203908940085,178630.71473222613,10.5,10500178630.714733,47.655,-122.3035,60.0,0.5666666666666667
2026-02-06T21:23:42+00:00,SAT-48586,246.2015723542261,40.63706533474451,805.3819977719857,-5.071609761131093,177629.22672282992,10.5,10500177629.226723,47.655,-122.3035,60.0,0.5833333333333334
2026-02-06T21:23:43+00:00,SAT-48586,246.25266883181374,41.009754834326074,800.3239842967419,-5.042464664468124,176608.44215405613,10.5,10500176608.442154,47.655,-122.3035,60.0,0.6
2026-02-06T21:23:44+00:00,SAT-48586,246.3049327773101,41.38676680136425,795.2950377841794,-5.01275779534433,175567.98193740906,10.5,10500175567.981937,47.655,-122.3035,60.0,0.6166666666666667
2026-02-06T21:23:45+00:00,SAT-48586,246.3584072206788,41.76815704290212,790.2957185007235,-4.9824782827682315,174507.46532478288,10.5,10500174507.465324,47.655,-122.3035,60.0,0.6333333333333333
2026-02-06T21:23:46+00:00,SAT-48586,246.41313733108652,42.153981413848236,785.3265975546497,-4.95161505971337,173426.5047020976,10.5,10500173426.504702,47.655,-122.3035,60.0,0.65
2026-02-06T21:23:47+00:00,SAT-48586,246.469170550821,42.54429575830185,780.3882570915883,-4.920156957196404,172324.70888431172,10.5,10500172324.708885,47.655,-122.3035,60.0,0.6666666666666666
2026-02-06T21:23:48+00:00,SAT-48586,246.52655673995662,42.939155853786424,775.4812903962127,-4.8880926921878185,171201.6826920045,10.5,10500171201.682692,47.655,-122.3035,60.0,0.6833333333333333
2026-02-06T21:23:49+00:00,SAT-48586,246.58534833212116,43.33861735030124,770.6063020059757,-4.855410883676884,170057.02751403867,10.5,10500170057.027514,47.655,-122.3035,60.0,0.7
2026-02-06T21:23:50+00:00,SAT-48586,246.64560050244722,43.742735706133736,765.7639078088312,-4.822099992151326,168890.33918788217,10.5,10500168890.339188,47.655,-122.3035,60.0,0.7166666666666667
2026-02-06T21:23:51+00:00,SAT-48586,246.7073713483335,44.15156611374247,760.9547352013092,-4.788148464259536,167701.2130662911,10.5,10500167701.213066,47.655,-122.3035,60.0,0.7333333333333333
2026-02-06T21:23:52+00:00,SAT-48586,246.77072208574702,44.56516343260166,756.179423102318,-4.75354457767433,166489.23858378205,10.5,10500166489.238585,47.655,-122.3035,60.0,0.75
2026-02-06T21:23:53+00:00,SAT-48586,246.8357172601084,44.98358210364019,751.4386221216671,-4.718276598177069,165254.00475838262,10.5,10500165254.004759,47.655,-122.3035,60.0,0.7666666666666667
2026-02-06T21:23:54+00:00,SAT-48586,246.90242497583557,45.4068760713923,746.7329945719275,-4.682332730722577,163995.09847771775,10.5,10500163995.098478,47.655,-122.3035,60.0,0.7833333333333333
2026-02-06T21:23:55+00:00,SAT-48586,246.9709171445907,45.835098696302545,742.0632145290941,-4.645701056107209,162712.10228085757,10.5,10500162712.102282,47.655,-122.3035,60.0,0.8
2026-02-06T21:23:56+00:00,SAT-48586,247.0412697536295,46.268302654841996,737.4299679564116,-4.608369697813588,161404.60020192593,10.5,10500161404.600203,47.655,-122.3035,60.0,0.8166666666666667
2026-02-06T21:23:57+00:00,SAT-48586,247.1135631588864,46.706539848268676,732.8339526618029,-4.570326714046806,160072.17398875146,10.5,10500160072.173988,47.655,-122.3035,60.0,0.8333333333333334
2026-02-06T21:23:58+00:00,SAT-48586,247.1878824022627,47.14986129481079,728.2758783629715,-4.531560166203583,158714.405500947,10.5,10500158714.4055,47.655,-122.3035,60.0,0.85
2026-02-06T21:23:59+00:00,SAT-48586,247.26431755746827,47.598317020991715,723.756466684218,-4.492058102620656,157330.87614070962,10.5,10500157330.87614,47.655,-122.3035,60.0,0.8666666666666667
2026-02-06T21:24:00+00:00,SAT-48586,247.3429641065518,48.05195594385706,719.2764511694666,-4.451808635333632,155921.16954124023,10.5,10500155921.16954,47.655,-122.3035,60.0,0.8833333333333333
2026-02-06T21:24:01+00:00,SAT-48586,247.42392335136353,48.5108257529994,714.8365772187345,-4.410799888038078,154484.86974412084,10.5,10500154484.869743,47.655,-122.3035,60.0,0.9
2026-02-06T21:24:02+00:00,SAT-48586,247.5073028620979,48.974972779224444,710.4376020765061,-4.369020035659253,153021.56258521407,10.5,10500153021.562586,47.655,-122.3035,60.0,0.9166666666666666
2026-02-06T21:24:03+00:00,SAT-48586,247.59321696818643,49.444441858409384,706.0802947806379,-4.326457378410284,151530.8382884935,10.5,10500151530.83829,47.655,-122.3035,60.0,0.9333333333333333
2026-02-06T21:24:04+00:00,SAT-48586,247.68178729670487,49.91927619428942,701.7654360374077,-4.283100296801367,150012.28989027583,10.5,10500150012.28989,47.655,-122.3035,60.0,0.95
2026-02-06T21:24:05+00:00,SAT-48586,247.7731433616678,50.399517207187394,697.4938181414343,-4.238937295845102,148465.51478747863,10.5,10500148465.514788,47.655,-122.3035,60.0,0.9666666666666667
2026-02-06T21:24:06+00:00,SAT-48586,247.86742321186316,50.8852043775282,693.266244851506,-4.193957043940527,146890.1160995035,10.5,10500146890.1161,47.655,-122.3035,60.0,0.9833333333333333
2026-02-06T21:24:07+00:00,SAT-48586,247.9647741432411,51.37637508343392,689.0835312276341,-4.148148400104154,145285.70362198245,10.5,10500145285.703623,47.655,-122.3035,60.0,1.0
2026-02-06T21:24:08+00:00,SAT-48586,248.0653534839523,51.873064430816044,684.9465034409463,-4.101500406746269,143651.89357377306,10.5,10500143651.893574,47.655,-122.3035,60.0,1.0166666666666666
2026-02-06T21:24:09+00:00,SAT-48586,248.1693294595886,52.37530507130002,680.8559985907834,-4.05400237221751,141988.31148808904,10.5,10500141988.311487,47.655,-122.3035,60.0,1.0333333333333334
2026-02-06T21:24:10+00:00,SAT-48586,248.27688215036093,52.883127018196774,676.8128644394736,-4.005643844306218,140294.59128426536,10.5,10500140294.591284,47.655,-122.3035,60.0,1.05
2026-02-06T21:24:11+00:00,SAT-48586,248.3882045493214,53.396557446955434,672.817959173535,-3.956414698623325,138570.3783633707,10.5,10500138570.378363,47.655,-122.3035,60.0,1.0666666666666667
2026-02-06T21:24:12+00:00,SAT-48586,248.50350373677466,53.91562049364657,668.8721510767334,-3.9063051183946422,136815.328900448,10.5,10500136815.328901,47.655,-122.3035,60.0,1.0833333333333333
2026-02-06T21:24:13+00:00,SAT-48586,248.623002183565,54.44033703733025,664.9763182232915,-3.855305668830692,135029.1124492607,10.5,10500135029.11245,47.655,-122.3035,60.0,1.1
2026-02-06T21:24:14+00:00,SAT-48586,248.7469392018598,54.97072447768854,661.1313480969267,-3.803407313803432,133211.41252638196,10.5,10500133211.412527,47.655,-122.3035,60.0,1.1166666666666667
2026-02-06T21:24:15+00:00,SAT-48586,248.87557256219887,55.50679649988351,657.3381371932612,-3.7506014606507856,131361.9281804389,10.5,10500131361.92818,47.655,-122.3035,60.0,1.1333333333333333
2026-02-06T21:24:16+00:00,SAT-48586,249.0091802996613,56.0485628295421,653.5975905775435,-3.696879978641655,129480.37463883556,10.5,10500129480.37464,47.655,-122.3035,60.0,1.15
2026-02-06T21:24:17+00:00,SAT-48586,249.14806273472624,56.59602897323219,649.9106214239553,-3.6422352908469477,127566.48652546473,10.5,10500127566.486525,47.655,-122.3035,60.0,1.1666666666666667
2026-02-06T21:24:18+00:00,SAT-48586,249.29254474110465,57.14919595419904,646.2781504632944,-3.5866603296539488,125620.01630263314,10.5,10500125620.016302,47.655,-122.3035,60.0,1.1833333333333333
2026-02-06T21:24:19+00:00,SAT-48586,249.44297829222168,57.70806002212483,642.7011054750251,-3.530148675854257,123640.73914250937,10.5,10500123640.739143,47.655,-122.3035,60.0,1.2
2026-02-06T21:24:20+00:00,SAT-48586,249.59974533247777,58.27261236295019,639.1804206406105,-3.47269452628505,121628.45179378403,10.5,10500121628.451794,47.655,-122.3035,60.0,1.2166666666666666
2026-02-06T21:24:21+00:00,SAT-48586,249.763261016856,58.84283878150089,635.7170359291185,-3.414292740562819,119582.97421848285,10.5,10500119582.974218,47.655,-122.3035,60.0,1.2333333333333334
2026-02-06T21:24:22+00:00,SAT-48586,249.93397737711186,59.41871936639452,632.3118964362209,-3.3549389705949118,117504.15412800868,10.5,10500117504.154127,47.655,-122.3035,60.0,1.25
2026-02-06T21:24:23+00:00,SAT-48586,250.1123874851779,60.00022814963406,628.9659515940244,-3.294629585905154,115391.8643677291,10.5,10500115391.864368,47.655,-122.3035,60.0,1.2666666666666666
2026-02-06T21:24:24+00:00,SAT-48586,250.29903018412764,60.58733272427126,625.6801544553801,-3.2333618127981456,113246.00779109837,10.5,10500113246.007792,47.655,-122.3035,60.0,1.2833333333333334
2026-02-06T21:24:25+00:00,SAT-48586,250.4944954888008,61.17999385272563,622.4554608393981,-3.1711336992209405,111066.5160289652,10.5,10500111066.51603,47.655,-122.3035,60.0,1.3
2026-02-06T21:24:26+00:00,SAT-48586,250.6994307592866,61.7781650319886,619.2928285120083,-3.1079442455747532,108853.3540711518,10.5,10500108853.35407,47.655,-122.3035,60.0,1.3166666666666667
2026-02-06T21:24:27+00:00,SAT-48586,250.9145477874292,62.38179204081829,616.1932162360597,-3.043793393569572,106606.51987609542,10.5,10500106606.519876,47.655,-122.3035,60.0,1.3333333333333333
2026-02-06T21:24:28+00:00,SAT-48586,251.14063094871096,62.9908124379099,613.1575828325348,-2.9786820663104994,104326.04577484149,10.5,10500104326.045774,47.655,-122.3035,60.0,1.35
2026-02-06T21:24:29+00:00,SAT-48586,251.37854661135742,63.605155012741506,610.186886201786,-2.912612245213005,102012.0011649411,10.5,10500102012.001165,47.655,-122.3035,60.0,1.3666666666666667
2026-02-06T21:24:30+00:00,SAT-48586,251.62925403639468,64.22473918836614,607.2820822680619,-2.8455870056184573,99664.49375785765,10.5,10500099664.493757,47.655,-122.3035,60.0,1.3833333333333333
2026-02-06T21:24:31+00:00,SAT-48586,251.89381804467033,64.8494743581306,604.4441238885147,-2.7776105223969916,97283.669775203,10.5,10500097283.669775,47.655,-122.3035,60.0,1.4
2026-02-06T21:24:32+00:00,SAT-48586,252.17342378882782,65.47925913629481,601.6739597566178,-2.7086881765995905,94869.71768414434,10.5,10500094869.717684,47.655,-122.3035,60.0,1.4166666666666667
2026-02-06T21:24:33+00:00,SAT-48586,252.46939405289348,66.1139805287824,598.9725331992208,-2.638826512871425,92422.86670583942,10.5,10500092422.866705,47.655,-122.3035,60.0,1.4333333333333333
2026-02-06T21:24:34+00:00,SAT-48586,252.78320957864656,66.75351297094855,596.3407810160724,-2.5680333716696744,89943.39144626375,10.5,10500089943.391447,47.655,-122.3035,60.0,1.45
2026-02-06T21:24:35+00:00,SAT-48586,253.11653306410065,67.39771724737051,593.7796321874835,-2.4963178320547565,87431.60989251753,10.5,10500087431.609892,47.655,-122.3035,60.0,1.4666666666666666
2026-02-06T21:24:36+00:00,SAT-48586,253.47123759857632,68.04643921782005,591.2900066390447,-2.423690281249723,84887.88584908996,10.5,10500084887.885849,47.655,-122.3035,60.0,1.4833333333333334
2026-02-06T21:24:37+00:00,SAT-48586,253.8494405205554,68.69950833858802,588.8728139369697,-2.3501624848283416,82312.63139614268,10.5,10500082312.631395,47.655,-122.3035,60.0,1.5
2026-02-06T21:24:38+00:00,SAT-48586,254.25354392362516,69.35673593091686,586.5289519134407,-2.2757475297806224,79706.3048954238,10.5,10500079706.304895,47.655,-122.3035,60.0,1.5166666666666666
2026-02-06T21:24:39+00:00,SAT-48586,254.6862833336608,70.01791309713217,584.2593053487341,-2.2004599360060806,77069.41489523345,10.5,10500077069.414896,47.655,-122.3035,60.0,1.5333333333333334
2026-02-06T21:24:40+00:00,SAT-48586,255.15078653354223,70.68280824647968,582.0647445421531,-2.124315580529525,74402.51747614014,10.5,10500074402.517477,47.655,-122.3035,60.0,1.55
2026-02-06T21:24:41+00:00,SAT-48586,255.65064499555874,71.35116406972978,579.9461239585393,-2.047331803344302,71706.21995805902,10.5,10500071706.219957,47.655,-122.3035,60.0,1.5666666666666667
2026-02-06T21:24:42+00:00,SAT-48586,256.1900011425529,72.02269387408974,577.9042807692281,-1.9695273556906483,68981.17908874081,10.5,10500068981.179089,47.655,-122.3035,60.0,1.5833333333333333
2026-02-06T21:24:43+00:00,SAT-48586,256.7736555260761,72.69707704693866,575.9400334445833,-1.8909224319250044,66228.1021599701,10.5,10500066228.10216,47.655,-122.3035,60.0,1.6
2026-02-06T21:24:44+00:00,SAT-48586,257.40719927146455,73.37395342851619,574.0541803147511,-1.8115386550588781,63447.74650107515,10.5,10500063447.746502,47.655,-122.3035,60.0,1.6166666666666667
2026-02-06T21:24:45+00:00,SAT-48586,258.09717873973693,74.05291625309272,572.2474981448341,-1.7313990962937291,60640.92016312217,10.5,10500060640.920162,47.655,-122.3035,60.0,1.6333333333333333
2026-02-06T21:24:46+00:00,SAT-48586,258.8513015362592,74.73350323359541,570.5207406905844,-1.650528240366421,57808.48070516644,10.5,10500057808.480705,47.655,-122.3035,60.0,1.65
2026-02-06T21:24:47+00:00,SAT-48586,259.67869586092274,75.41518517871135,568.8746372886575,-1.5689519732980073,54951.334765163025,10.5,10500054951.334764,47.655,-122.3035,60.0,1.6666666666666667
2026-02-06T21:24:48+00:00,SAT-48586,260.59023906851974,76.09735134234423,567.3098914590845,-1.4866975801156384,52070.437980178285,10.5,10500052070.43798,47.655,-122.3035,60.0,1.6833333333333333
2026-02-06T21:24:49+00:00,SAT-48586,261.5989764472657,76.77929040015283,565.8271795100169,-1.403793699672396,49166.793403989366,10.5,10500049166.793404,47.655,-122.3035,60.0,1.7
2026-02-06T21:24:50+00:00,SAT-48586,262.7206579575778,77.46016549499848,564.4271491875297,-1.320270296102939,46241.450507340174,10.5,10500046241.450508,47.655,-122.3035,60.0,1.7166666666666666
2026-02-06T21:24:51+00:00,SAT-48586,263.9744294467168,78.13898120455627,563.1104183538935,-1.236158620204708,43295.50382534784,10.5,10500043295.503826,47.655,-122.3035,60.0,1.7333333333333334
2026-02-06T21:24:52+00:00,SAT-48586,265.3837257309539,78.81453939859749,561.8775737043595,-1.1514911753988921,40330.09176531175,10.5,10500040330.091764,47.655,-122.3035,60.0,1.75
2026-02-06T21:24:53+00:00,SAT-48586,266.9774255116825,79.48537971224854,560.729169517896,-1.0663016504926346,37346.394251761536,10.5,10500037346.39425,47.655,-122.3035,60.0,1.7666666666666666
2026-02-06T21:24:54+00:00,SAT-48586,268.7913400870143,80.14969857234111,559.6657264749787,-0.9806248759133692,34345.63119359853,10.5,10500034345.631193,47.655,-122.3035,60.0,1.7833333333333334
2026-02-06T21:24:55+00:00,SAT-48586,270.8701130614247,80.80523829178536,558.6877305190316,-0.8944967523984736,31329.05998650564,10.5,10500031329.059986,47.655,-122.3035,60.0,1.8
2026-02-06T21:24:56+00:00,SAT-48586,273.2695907490748,81.44913446773015,557.7956317889857,-0.8079541956784044,28297.973575516855,10.5,10500028297.973576,47.655,-122.3035,60.0,1.8166666666666667
2026-02-06T21:24:57+00:00,SAT-48586,276.05964660272446,82.07770604817675,556.9898436070082,-0.7210350627812108,25253.69787388952,10.5,10500025253.697874,47.655,-122.3035,60.0,1.8333333333333333
2026-02-06T21:24:58+00:00,SAT-48586,279.327228935236,82.68616887166914,556.2707415397274,-0.6337780600148343,22197.58854025527,10.5,10500022197.588541,47.655,-122.3035,60.0,1.85
2026-02-06T21:24:59+00:00,SAT-48586,283.1788919189034,83.26825357860213,555.63866255123,-0.5462226793689325,19131.02875114287,10.5,10500019131.028751,47.655,-122.3035,60.0,1.8666666666666667
2026-02-06T21:25:00+00:00,SAT-48586,287.7409877341194,83.81572121047368,555.0939042194858,-0.45840910753108866,16055.426014340997,10.5,10500016055.426014,47.655,-122.3035,60.0,1.8833333333333333
2026-02-06T21:25:01+00:00,SAT-48586,293.1536805251806,84.31781383926742,554.6367240435114,-0.3703781355206989,12972.20900389475,10.5,10500012972.209003,47.655,-122.3035,60.0,1.9
2026-02-06T21:25:02+00:00,SAT-48586,299.5519653374765,84.76078842700512,554.2673388406599,-0.28217106357685084,9882.82422887681,10.5,10500009882.824228,47.655,-122.3035,60.0,1.9166666666666667
2026-02-06T21:25:03+00:00,SAT-48586,307.0247437619475,85.12789713246487,553.9859242387649,-0.1938296126893942,6788.732934831333,10.5,10500006788.732935,47.655,-122.3035,60.0,1.9333333333333333
2026-02-06T21:25:04+00:00,SAT-48586,315.54818313602095,85.40045472905601,553.7926142565187,-0.10539582172185658,3691.4075005832674,10.5,10500003691.407501,47.655,-122.3035,60.0,1.95
2026-02-06T21:25:05+00:00,SAT-48586,324.91250323677605,85.56066565341848,553.6875009864502,-0.0169119503997853,592.3280404797431,10.5,10500000592.328041,47.655,-122.3035,60.0,1.9666666666666666
2026-02-06T21:25:06+00:00,SAT-48586,334.6978972460949,85.59606054543396,553.6706343746557,0.07157962200756428,-2507.0211442057857,10.5,10499997492.978855,47.655,-122.3035,60.0,1.9833333333333334
2026-02-06T21:25:07+00:00,SAT-48586,344.35735903186423,85.5036585650685,553.7420221015747,0.1600364975579261,-5605.155098192043,10.5,10499994394.844902,47.655,-122.3035,60.0,2.0
2026-02-06T21:25:08+00:00,SAT-48586,353.3835129460826,85.29109348544686,553.9016295633676,0.24841636008254767,-8700.591730252101,10.5,10499991299.40827,47.655,-122.3035,60.0,2.0166666666666666
2026-02-06T21:25:09+00:00,SAT-48586,1.4479132362397427,84.97383440903283,554.1493799534701,0.33667707769043287,-11791.855403345555,10.5,10499988208.144596,47.655,-122.3035,60.0,2.033333333333333
2026-02-06T21:25:10+00:00,SAT-48586,8.431972498687953,84.5705575772887,554.4851544463767,0.4247768015588323,-14877.480394679373,10.5,10499985122.519606,47.655,-122.3035,60.0,2.05
2026-02-06T21:25:11+00:00,SAT-48586,14.372085291656562,84.09931440502902,554.9087924799497,0.5126740623376412,-17956.01427219771,10.5,10499982043.985727,47.655,-122.3035,60.0,2.066666666666667
2026-02-06T21:25:12+00:00,SAT-48586,19.384660867405238,83.57555371736076,555.4200921338753,0.6003278720806252,-21026.0214646446,10.5,10499978973.978535,47.655,-122.3035,60.0,2.0833333333333335
2026-02-06T21:25:13+00:00,SAT-48586,23.610563939153746,83.01163703378704,556.0188106097762,0.6876978111296544,-24086.08630461735,10.5,10499975913.913696,47.655,-122.3035,60.0,2.1
2026-02-06T21:25:14+00:00,SAT-48586,27.185123432841536,82.4171223942841,556.7046647979764,0.7747441183221254,-27134.81618801203,10.5,10499972865.183811,47.655,-122.3035,60.0,2.1166666666666667
2026-02-06T21:25:15+00:00,SAT-48586,30.226040138291985,81.79929760199799,557.477331934232,0.8614277881292914,-30170.844976218716,10.5,10499969829.155024,47.655,-122.3035,60.0,2.1333333333333333
2026-02-06T21:25:16+00:00,SAT-48586,32.83082838564629,81.16371018369375,558.3364503533383,0.9477106393358752,-33192.83540157201,10.5,10499966807.164598,47.655,-122.3035,60.0,2.15
2026-02-06T21:25:17+00:00,SAT-48586,35.0783886208629,80.51460681489787,559.2816203112342,1.0335554025856888,-36199.48213356899,10.5,10499963800.517866,47.655,-122.3035,60.0,2.1666666666666665
2026-02-06T21:25:18+00:00,SAT-48586,37.03191402254173,79.85527045696219,560.3124048944161,1.1189257947063609,-39189.51438203555,10.5,10499960810.485619,47.655,-122.3035,60.0,2.183333333333333
2026-02-06T21:25:19+00:00,SAT-48586,38.74188945187228,79.18826993647363,561.4283310034787,1.2037865773165406,-42161.697949798574,10.5,10499957838.30205,47.655,-122.3035,60.0,2.2
2026-02-06T21:25:20+00:00,SAT-48586,40.24872291745308,78.5156419411051,562.6288903951041,1.2881036405204198,-45114.83816402215,10.5,10499954885.161837,47.655,-122.3035,60.0,2.216666666666667
2026-02-06T21:25:21+00:00,SAT-48586,41.584899837800364,77.83902319167949,563.9135408075225,1.3718440291569016,-48047.78079556447,10.5,10499951952.219204,47.655,-122.3035,60.0,2.2333333333333334
2026-02-06T21:25:22+00:00,SAT-48586,42.77668867812785,77.15974667328715,565.2817071121516,1.4549760334280823,-50959.41523317062,10.5,10499949040.584766,47.655,-122.3035,60.0,2.25
2026-02-06T21:25:23+00:00,SAT-48586,43.84547007775533,76.47891207914374,566.7327825556206,1.5374692029209704,-53848.67497457254,10.5,10499946151.325026,47.655,-122.3035,60.0,2.2666666666666666
2026-02-06T21:25:24+00:00,SAT-48586,44.808765772958736,75.79743780957277,568.2661300157793,1.6192944058924668,-56714.53970289973,10.5,10499943285.460297,47.655,-122.3035,60.0,2.283333333333333
2026-02-06T21:25:25+00:00,SAT-48586,45.68103427670678,75.11609967842848,569.8810833168324,1.7004238578874096,-59556.03628900431,10.5,10499940443.96371,47.655,-122.3035,60.0,2.3
2026-02-06T21:25:26+00:00,SAT-48586,46.474287471687575,74.43556000365234,571.5769485730152,1.7808311499271117,-62372.23977874277,10.5,10499937627.760221,47.655,-122.3035,60.0,2.316666666666667
2026-02-06T21:25:27+00:00,SAT-48586,47.19857036287777,73.7563896776322,573.353005560384,1.8604912797035715,-65162.274485529255,10.5,10499934837.725515,47.655,-122.3035,60.0,2.3333333333333335
2026-02-06T21:25:28+00:00,SAT-48586,47.86233630362792,73.07908506735939,575.2085091197143,1.939380655465576,-67925.31412644326,10.5,10499932074.685873,47.655,-122.3035,60.0,2.35
2026-02-06T21:25:29+00:00,SAT-48586,48.472742178675574,72.4040810835212,577.1426905632771,2.0174771143951022,-70660.582465849,10.5,10499929339.417534,47.655,-122.3035,60.0,2.3666666666666667
2026-02-06T21:25:30+00:00,SAT-48586,49.035882062670375,71.7317613738694,579.1547590999404,2.0947599391042564,-73367.35389318797,10.5,10499926632.646107,47.655,-122.3035,60.0,2.3833333333333333
2026-02-06T21:25:31+00:00,SAT-48586,49.55697334596022,71.06246634377885,581.2439032767248,2.171209844769565,-76044.95297236742,10.5,10499923955.047028,47.655,-122.3035,60.0,2.4
2026-02-06T21:25:32+00:00,SAT-48586,50.04050592441672,70.39649952982496,583.4092924075273,2.2468089732260794,-78692.75423491086,10.5,10499921307.245766,47.655,-122.3035,60.0,2.4166666666666665
2026-02-06T21:25:33+00:00,SAT-48586,50.490362530123946,69.73413270592819,585.6500779959559,2.3215409105489844,-81310.18279574043,10.5,10499918689.817204,47.655,-122.3035,60.0,2.433333333333333
2026-02-06T21:25:34+00:00,SAT-48586,50.90991637758059,69.0756100018183,587.9653951756964,2.3953906372173126,-83896.71260769937,10.5,10499916103.287392,47.655,-122.3035,60.0,2.45
2026-02-06T21:25:35+00:00,SAT-48586,51.3021108557019,68.4211512696508,590.3543641011792,2.468344540306521,-86451.86688858755,10.5,10499913548.133112,47.655,-122.3035,60.0,2.466666666666667
2026-02-06T21:25:36+00:00,SAT-48586,51.66952494646837,67.77095484391019,592.8160913504046,2.5403903718039222,-88975.2166611916,10.5,10499911024.783339,47.655,-122.3035,60.0,2.4833333333333334
2026-02-06T21:25:37+00:00,SAT-48586,52.01442721194435,67.12519983545498,595.3496712861956,2.6115172457198352,-91466.38065210523,10.5,10499908533.619349,47.655,-122.3035,60.0,2.5
2026-02-06T21:25:38+00:00,SAT-48586,52.33882058569435,66.48404804548863,597.9541874145691,2.6817155924176874,-93925.02369217612,10.5,10499906074.976307,47.655,-122.3035,60.0,2.5166666666666666
2026-02-06T21:25:39+00:00,SAT-48586,52.64447971665854,65.84764558549841,600.6287136975601,2.7509771281645365,-96350.85565003652,10.5,10499903649.14435,47.655,-122.3035,60.0,2.533333333333333
2026-02-06T21:25:40+00:00,SAT-48586,52.93298225527494,65.21612425696489,603.3723158356789,2.81929483354469,-98743.63067605672,10.5,10499901256.369324,47.655,-122.3035,60.0,2.55
2026-02-06T21:25:41+00:00,SAT-48586,53.20573518658889,64.58960273462336,606.1840525288375,2.8866629029674336,-101103.14543389232,10.5,10499898896.854567,47.655,-122.3035,60.0,2.566666666666667
2026-02-06T21:25:42+00:00,SAT-48586,53.46399708887117,63.96818759600703,609.0629766869217,2.953076733818066,-103429.23872050742,10.5,10499896570.76128,47.655,-122.3035,60.0,2.5833333333333335
2026-02-06T21:25:43+00:00,SAT-48586,53.70889703158722,63.351974216901105,612.0081366295408,3.018532837313736,-105721.78834396905,10.5,10499894278.211657,47.655,-122.3035,60.0,2.6
2026-02-06T21:25:44+00:00,SAT-48586,53.94145067803953,62.741047572177585,615.0185771968752,3.083028842726624,-107980.71127136078,10.5,10499892019.288729,47.655,-122.3035,60.0,2.6166666666666667
2026-02-06T21:25:45+00:00,SAT-48586,54.16257406678493,62.13548293992778,618.0933408647326,3.146563444521078,-110205.96177730168,10.5,10499889794.038223,47.655,-122.3035,60.0,2.6333333333333333
2026-02-06T21:25:46+00:00,SAT-48586,54.3730954458204,61.53534653605604,621.2314688068844,3.2091363361764156,-112397.52912614087,10.5,10499887602.470875,47.655,-122.3035,60.0,2.65
2026-02-06T21:25:47+00:00,SAT-48586,54.57376546950162,60.94069609300015,624.4320018914045,3.270748193308562,-114555.4369808059,10.5,10499885444.563019,47.655,-122.3035,60.0,2.6666666666666665
2026-02-06T21:25:48+00:00,SAT-48586,54.76526601831623,60.351581382445566,627.69398166017,3.331400614060445,-116679.74131502226,10.5,10499883320.258684,47.655,-122.3035,60.0,2.683333333333333
2026-02-06T21:25:49+00:00,SAT-48586,54.948217849017674,59.76804469805567,631.0164512489172,3.3910960786103486,-118770.52899512456,10.5,10499881229.471004,47.655,-122.3035,60.0,2.7
2026-02-06T21:25:50+00:00,SAT-48586,55.12318725279195,59.19012130075358,634.3984562669124,3.4498379019798966,-120827.91612719261,10.5,10499879172.083874,47.655,-122.3035,60.0,2.716666666666667
2026-02-06T21:25:51+00:00,SAT-48586,55.29069186634347,58.617839832891505,637.8390456295546,3.50763018761389,-122852.04643122091,10.5,10499877147.95357,47.655,-122.3035,60.0,2.7333333333333334
2026-02-06T21:25:52+00:00,SAT-48586,55.45120575893847,58.05122270530327,641.3372723446884,3.564477799934412,-124843.0902798473,10.5,10499875156.90972,47.655,-122.3035,60.0,2.75
2026-02-06T21:25:53+00:00,SAT-48586,55.605163898374656,57.49028645772581,644.8921942715391,3.620386278239756,-126801.24168272917,10.5,10499873198.758318,47.655,-122.3035,60.0,2.7666666666666666
2026-02-06T21:25:54+00:00,SAT-48586,55.75296607961128,56.9350421047951,648.50287479378,3.675361834625426,-128726.7182137283,10.5,10499871273.281786,47.655,-122.3035,60.0,2.783333333333333
2026-02-06T21:25:55+00:00,SAT-48586,55.894980393198345,56.385495456451295,652.1683834905269,3.729411309978533,-130619.75946964814,10.5,10499869380.24053,47.655,-122.3035,60.0,2.8
2026-02-06T21:25:56+00:00,SAT-48586,56.03154629314559,55.841647421911176,655.8877967634423,3.7825421063477154,-132480.62470154272,10.5,10499867519.375298,47.655,-122.3035,60.0,2.816666666666667
2026-02-06T21:25:57+00:00,SAT-48586,56.162977315812064,55.303494302147826,659.6601983963933,3.8347621383110853,-134309.59111141614,10.5,10499865690.408888,47.655,-122.3035,60.0,2.8333333333333335
2026-02-06T21:25:58+00:00,SAT-48586,56.289563495904915,54.77102806904864,663.4846800666089,3.886079863064361,-136106.95490603632,10.5,10499863893.045094,47.655,-122.3035,60.0,2.85
2026-02-06T21:25:59+00:00,SAT-48586,56.41157352093279,54.2442366217868,667.3603418858394,3.936504124488498,-137873.02583552393,10.5,10499862126.974165,47.655,-122.3035,60.0,2.8666666666666667
2026-02-06T21:26:00+00:00,SAT-48586,56.52925664957518,53.7231040473895,671.2862927860075,3.9860442577591026,-139608.13085721649,10.5,10499860391.869143,47.655,-122.3035,60.0,2.8833333333333333
2026-02-06T21:26:01+00:00,SAT-48586,56.642844432627385,53.20761085051125,675.2616510091859,4.03470991638972,-141312.6080779926,10.5,10499858687.391922,47.655,-122.3035,60.0,2.9
2026-02-06T21:26:02+00:00,SAT-48586,56.75255225025159,52.697734190945845,679.2855444250796,4.082511130825501,-142986.80880647025,10.5,10499857013.191193,47.655,-122.3035,60.0,2.9166666666666665
2026-02-06T21:26:03+00:00,SAT-48586,56.85858069554404,52.193448098476274,683.3571109069497,4.129458235200103,-144631.0949877234,10.5,10499855368.905012,47.655,-122.3035,60.0,2.933333333333333
2026-02-06T21:26:04+00:00,SAT-48586,56.961116817491025,51.69472368334581,687.4754986344868,4.175561840156848,-146245.83825136424,10.5,10499853754.161749,47.655,-122.3035,60.0,2.95
2026-02-06T21:26:05+00:00,SAT-48586,57.060335241394085,51.20152933676719,691.6398663695775,4.2208328188490585,-147831.41942121545,10.5,10499852168.580578,47.655,-122.3035,60.0,2.966666666666667
2026-02-06T21:26:06+00:00,SAT-48586,57.15639918057111,50.713830920607,695.8493837181139,4.265282230502524,-149388.22583814466,10.5,10499850611.774162,47.655,-122.3035,60.0,2.9833333333333334
2026-02-06T21:26:07+00:00,SAT-48586,57.249461349912686,50.23159195402025,700.1032313155655,4.308921388098817,-150916.65373062046,10.5,10499849083.34627,47.655,-122.3035,60.0,3.0
2026-02-06T21:26:08+00:00,SAT-48586,57.3396647957448,49.75477378091727,704.4006010800541,4.351761679641134,-152417.10195468596,10.5,10499847582.898045,47.655,-122.3035,60.0,3.0166666666666666
2026-02-06T21:26:09+00:00,SAT-48586,57.427143644737924,49.2833357466961,708.7406962871752,4.393814716755212,-153889.9771985916,10.5,10499846110.022802,47.655,-122.3035,60.0,3.033333333333333
2026-02-06T21:26:10+00:00,SAT-48586,57.51202378846983,48.81723534784574,713.1227317930211,4.435092162520868,-155335.6879527273,10.5,10499844664.312048,47.655,-122.3035,60.0,3.05
2026-02-06T21:26:11+00:00,SAT-48586,57.59442350285293,48.356428390536145,717.5459340854969,4.475605808830787,-156754.64721905466,10.5,10499843245.352781,47.655,-122.3035,60.0,3.066666666666667
2026-02-06T21:26:12+00:00,SAT-48586,57.67445401468861,47.90086913115782,722.0095414127878,4.5153675107140545,-158147.2702108389,10.5,10499841852.72979,47.655,-122.3035,60.0,3.0833333333333335
2026-02-06T21:26:13+00:00,SAT-48586,57.75222001764509,47.450510414790706,726.5128038463263,4.554389177427313,-159513.97404062375,10.5,10499840486.025959,47.655,-122.3035,60.0,3.1
2026-02-06T21:26:14+00:00,SAT-48586,57.82782014389928,47.00530380581108,731.0549833348748,4.592682701566107,-160855.17523741082,10.5,10499839144.824762,47.655,-122.3035,60.0,3.1166666666666667
2026-02-06T21:26:15+00:00,SAT-48586,57.901347394601615,46.56519971700259,735.635353687908,4.630260083999409,-162171.29412239516,10.5,10499837828.705877,47.655,-122.3035,60.0,3.1333333333333333
2026-02-06T21:26:16+00:00,SAT-48586,57.97288953691893,46.13014751861306,740.2532006835983,4.667133218155739,-163462.74725375263,10.5,10499836537.252747,47.655,-122.3035,60.0,3.15
2026-02-06T21:26:17+00:00,SAT-48586,58.04252946439245,45.70009566060298,744.9078219616604,4.703314064576825,-164729.95354024772,10.5,10499835270.04646,47.655,-122.3035,60.0,3.1666666666666665
2026-02-06T21:26:18+00:00,SAT-48586,58.11034553141039,45.274991770918106,749.5985270902873,4.738814474611484,-165973.32806624702,10.5,10499834026.671934,47.655,-122.3035,60.0,3.183333333333333
2026-02-06T21:26:19+00:00,SAT-48586,58.17641185772068,44.854782763276916,754.3246374572487,4.773646336509218,-167193.28720853542,10.5,10499832806.712791,47.655,-122.3035,60.0,3.2
2026-02-06T21:26:20+00:00,SAT-48586,58.24079861151274,44.43941492501097,759.0854863066928,4.807821396400065,-168390.2423662729,10.5,10499831609.757633,47.655,-122.3035,60.0,3.216666666666667
2026-02-06T21:26:21+00:00,SAT-48586,58.30357226741348,44.02883401461459,763.8804185974086,4.841351370927535,-169564.60390587652,10.5,10499830435.396093,47.655,-122.3035,60.0,3.2333333333333334
2026-02-06T21:26:22+00:00,SAT-48586,58.36479584656959,43.62298534315906,768.7087909734174,4.874247915774558,-170716.780058666,10.5,10499829283.219942,47.655,-122.3035,60.0,3.25
2026-02-06T21:26:23+00:00,SAT-48586,58.424529137856005,43.22181385297326,773.5699717031758,4.906522537617077,-171847.173837106,10.5,10499828152.826162,47.655,-122.3035,60.0,3.2666666666666666
2026-02-06T21:26:24+00:00,SAT-48586,58.48282890130911,42.825264198140545,778.4633405309696,4.93818671415844,-172956.18723891853,10.5,10499827043.812761,47.655,-122.3035,60.0,3.283333333333333
2026-02-06T21:26:25+00:00,SAT-48586,58.5397490581326,42.43328080987807,783.3882886480172,4.9692517392161415,-174044.21582136495,10.5,10499825955.784178,47.655,-122.3035,60.0,3.3
2026-02-06T21:26:26+00:00,SAT-48586,58.59534086467514,42.04580796959882,788.3442185090772,4.999728841494435,-175111.6528611656,10.5,10499824888.34714,47.655,-122.3035,60.0,3.316666666666667
2026-02-06T21:26:27+00:00,SAT-48586,58.64965307540045,41.66278986766411,793.3305437675101,5.02962913708674,-176158.88769093307,10.5,10499823841.112309,47.655,-122.3035,60.0,3.3333333333333335
2026-02-06T21:26:28+00:00,SAT-48586,58.7027320935822,41.28417066167653,798.3466891629694,5.0589635663082575,-177186.3034867832,10.5,10499822813.696514,47.655,-122.3035,60.0,3.35
2026-02-06T21:26:29+00:00,SAT-48586,58.754622110512614,40.909894535274375,803.3920903460929,5.087742961601103,-178194.27964666006,10.5,10499821805.720354,47.655,-122.3035,60.0,3.3666666666666667
2026-02-06T21:26:30+00:00,SAT-48586,58.80536523584877,40.53990574769455,808.4661937709228,5.115978048460812,-179183.19182278606,10.5,10499820816.808178,47.655,-122.3035,60.0,3.3833333333333333
2026-02-06T21:26:31+00:00,SAT-48586,58.855001618937436,40.174148679698554,813.5684565882403,5.143679335031927,-180153.40805483251,10.5,10499819846.591946,47.655,-122.3035,60.0,3.4
2026-02-06T21:26:32+00:00,SAT-48586,58.90356956053468,39.81256788385391,818.698346428803,5.1708572630442005,-181105.29405634382,10.5,10499818894.705944,47.655,-122.3035,60.0,3.4166666666666665
2026-02-06T21:26:33+00:00,SAT-48586,58.951105618729386,39.4551081205661,823.8553413371033,5.197522067363004,-182039.20829559877,10.5,10499817960.791704,47.655,-122.3035,60.0,3.433333333333333
2026-02-06T21:26:34+00:00,SAT-48586,58.99764470615823,39.10171440095596,829.0389295650618,5.223683871213078,-182955.5053307489,10.5,10499817044.494669,47.655,-122.3035,60.0,3.45
2026-02-06T21:26:35+00:00,SAT-48586,59.04322018185386,38.752332020012624,834.2486094606844,5.249352616651518,-183854.53337468865,10.5,10499816145.466625,47.655,-122.3035,60.0,3.466666666666667
2026-02-06T21:26:36+00:00,SAT-48586,59.0878639362975,38.406906591722155,839.4838892873812,5.274538085437949,-184736.6350260168,10.5,10499815263.364973,47.655,-122.3035,60.0,3.4833333333333334
2026-02-06T21:26:37+00:00,SAT-48586,59.1316064712208,38.065384080001785,844.7442870640983,5.29924994237932,-185602.14878715482,10.5,10499814397.851213,47.655,-122.3035,60.0,3.5
2026-02-06T21:26:38+00:00,SAT-48586,59.17447697466173,37.727710824351554,850.0293304486787,5.323497648714645,-186451.406030714,10.5,10499813548.59397,47.655,-122.3035,60.0,3.5166666666666666
2026-02-06T21:26:39+00:00,SAT-48586,59.21650339043184,37.393833568774475,855.3385565348397,5.347290528672094,-187284.73333060628,10.5,10499812715.26667,47.655,-122.3035,60.0,3.533333333333333
2026-02-06T21:26:40+00:00,SAT-48586,59.25771248382008,37.063699484117414,860.6715117155306,5.370637742488375,-188102.45151706898,10.5,10499811897.548483,47.655,-122.3035,60.0,3.55
2026-02-06T21:26:41+00:00,SAT-48586,59.29812990298111,36.73725619007793,866.0277515193791,5.39354828535049,-188904.87563960048,10.5,10499811095.124361,47.655,-122.3035,60.0,3.566666666666667
2026-02-06T21:26:42+00:00,SAT-48586,59.33778023648116,36.41445177528558,871.4068404460862,5.416031015888185,-189692.3159648864,10.5,10499810307.684034,47.655,-122.3035,60.0,3.5833333333333335
2026-02-06T21:26:43+00:00,SAT-48586,59.376687067603555,36.095234813843724,876.808351830233,5.438094591350902,-190465.07570642247,10.5,10499809534.924294,47.655,-122.3035,60.0,3.6
2026-02-06T21:26:44+00:00,SAT-48586,59.414873024795234,35.779554384005884,882.2318676404417,5.459747532425747,-191223.4532947135,10.5,10499808776.546705,47.655,-122.3035,60.0,3.6166666666666667
2026-02-06T21:26:45+00:00,SAT-48586,59.45235982962295,35.467360081335634,887.6769783431781,5.48099822556539,-191967.74245880664,10.5,10499808032.257542,47.655,-122.3035,60.0,3.6333333333333333
2026-02-06T21:26:46+00:00,SAT-48586,59.48916834191919,35.15860203034601,893.1432827688785,5.501854861715441,-192698.23008026482,10.5,10499807301.76992,47.655,-122.3035,60.0,3.65
2026-02-06T21:26:47+00:00,SAT-48586,59.525318601732465,34.85323089822055,898.6303879169658,5.522325484796827,-193415.19789122476,10.5,10499806584.802109,47.655,-122.3035,60.0,3.6666666666666665
2026-02-06T21:26:48+00:00,SAT-48586,59.56082986924414,34.55119790439633,904.1379088092185,5.542417983062006,-194118.9221716547,10.5,10499805881.077827,47.655,-122.3035,60.0,3.683333333333333
2026-02-06T21:26:49+00:00,SAT-48586,59.59572066228456,34.25245482943018,909.6654683345215,5.562140124935503,-194809.675004642,10.5,10499805190.324995,47.655,-122.3035,60.0,3.7
2026-02-06T21:26:50+00:00,SAT-48586,59.63000879199702,33.956954020829436,915.2126971293576,5.581499473343432,-195487.72127585023,10.5,10499804512.278725,47.655,-122.3035,60.0,3.716666666666667
2026-02-06T21:26:51+00:00,SAT-48586,59.66371139578196,33.6646484024298,920.77923337286,5.600503449892254,-196153.3209213311,10.5,10499803846.67908,47.655,-122.3035,60.0,3.7333333333333334
2026-02-06T21:26:52+00:00,SAT-48586,59.696844968903804,33.375491479254094,926.3647226458727,5.61915938039739,-196806.73052212872,10.5,10499803193.269478,47.655,-122.3035,60.0,3.75
2026-02-06T21:26:53+00:00,SAT-48586,59.72942539464089,33.08943733920342,931.968817835415,5.637474375624496,-197448.19912733498,10.5,10499802551.800873,47.655,-122.3035,60.0,3.7666666666666666
2026-02-06T21:26:54+00:00,SAT-48586,59.76146797190007,32.80644066006986,937.59117892021,5.65545546378388,-198077.9728946041,10.5,10499801922.027105,47.655,-122.3035,60.0,3.783333333333333
2026-02-06T21:26:55+00:00,SAT-48586,59.79298744224733,32.5264567089669,943.2314728883482,5.673109437426505,-198696.28972780332,10.5,10499801303.710272,47.655,-122.3035,60.0,3.8
2026-02-06T21:26:56+00:00,SAT-48586,59.82399801442796,32.24944134871997,948.8893735022621,5.690443059272233,-199303.3864859884,10.5,10499800696.613514,47.655,-122.3035,60.0,3.816666666666667
2026-02-06T21:26:57+00:00,SAT-48586,59.85451338892427,31.97535103337394,954.5645612689738,5.707462870142007,-199899.49225637648,10.5,10499800100.507744,47.655,-122.3035,60.0,3.8333333333333335
2026-02-06T21:26:58+00:00,SAT-48586,59.88454677994191,31.704142812595144,960.2567232187903,5.724175331876625,-200484.83335996585,10.5,10499799515.16664,47.655,-122.3035,60.0,3.85
2026-02-06T21:26:59+00:00,SAT-48586,59.914110937129564,31.43577432853484,965.9655528265388,5.74058669267781,-201059.62863521068,10.5,10499798940.371365,47.655,-122.3035,60.0,3.8666666666666667
2026-02-06T21:27:00+00:00,SAT-48586,59.94321816532196,31.170203818587638,971.6907497984944,5.7567031613899875,-201624.09554210622,10.5,10499798375.904457,47.655,-122.3035,60.0,3.8833333333333333
2026-02-06T21:27:01+00:00,SAT-48586,59.97188034432493,30.90739010948457,977.4320200331335,5.772530766530403,-202178.44522482695,10.5,10499797821.554775,47.655,-122.3035,60.0,3.9
2026-02-06T21:27:02+00:00,SAT-48586,60.00010894678794,30.647292617611765,983.1890754412884,5.788075388592601,-202722.88364313124,10.5,10499797277.116358,47.655,-122.3035,60.0,3.9166666666666665
2026-02-06T21:27:03+00:00,SAT-48586,60.02791505538793,30.389871347332416,988.9616337985183,5.803342825310979,-203257.61385820215,10.5,10499796742.386143,47.655,-122.3035,60.0,3.933333333333333
2026-02-06T21:27:04+00:00,SAT-48586,60.0553093794652,30.135086886045634,994.7494186625761,5.818338717033421,-203782.83341888114,10.5,10499796217.16658,47.655,-122.3035,60.0,3.95
