DopplerPredictor/satellites_20260211_204923/SAT-61588.csv

timestamp,satellite,azimuth_deg,elevation_deg,distance_km,relative_velocity_kms,doppler_shift_hz,tx_freq_ghz,rx_freq_hz,ue_lat,ue_lon,ue_alt_m,time_minutes
2026-02-06T21:27:02+00:00,SAT-61588,290.49983306163944,30.02214715736236,878.2979380584577,-5.816469541927715,203717.36700007645,10.5,10500203717.367,47.655,-122.3035,60.0,3.9166666666666665
2026-02-06T21:27:03+00:00,SAT-61588,290.3995904172824,30.30254420287347,872.4970616686992,-5.797809427076304,203063.8108457725,10.5,10500203063.810846,47.655,-122.3035,60.0,3.933333333333333
2026-02-06T21:27:04+00:00,SAT-61588,290.2973602165851,30.58618818516851,866.7147953685991,-5.778766477136902,202396.84618729624,10.5,10500202396.846188,47.655,-122.3035,60.0,3.95
2026-02-06T21:27:05+00:00,SAT-61588,290.193085143425,30.873130181576542,860.9515209669175,-5.75933164577476,201716.1561837389,10.5,10500201716.156183,47.655,-122.3035,60.0,3.966666666666667
2026-02-06T21:27:06+00:00,SAT-61588,290.0867056854882,31.163421901593622,855.2076292944972,-5.7394957541140865,201021.41935204357,10.5,10500201021.419352,47.655,-122.3035,60.0,3.9833333333333334
2026-02-06T21:27:07+00:00,SAT-61588,289.9781600281612,31.457115677905705,849.4835203364495,-5.719249333586831,200312.30406290514,10.5,10500200312.304064,47.655,-122.3035,60.0,4.0
2026-02-06T21:27:08+00:00,SAT-61588,289.8673839449351,31.754264447680608,843.7796035210697,-5.6985827552483155,199588.47306995065,10.5,10500199588.47307,47.655,-122.3035,60.0,4.016666666666667
2026-02-06T21:27:09+00:00,SAT-61588,289.754310679252,32.054921738366254,838.0962978797838,-5.677486097860798,198849.57888946752,10.5,10500198849.57889,47.655,-122.3035,60.0,4.033333333333333
2026-02-06T21:27:10+00:00,SAT-61588,289.6388708217471,32.35914164444172,832.4340323386582,-5.65594925367051,198095.26750516306,10.5,10500198095.267506,47.655,-122.3035,60.0,4.05
2026-02-06T21:27:11+00:00,SAT-61588,289.5209921784319,32.666978807235324,826.7932459044158,-5.633961844789887,197325.1754395163,10.5,10500197325.17544,47.655,-122.3035,60.0,4.066666666666666
2026-02-06T21:27:12+00:00,SAT-61588,289.40059963251144,32.97848838769199,821.1743879338452,-5.611513299206153,196538.93241592022,10.5,10500196538.932415,47.655,-122.3035,60.0,4.083333333333333
2026-02-06T21:27:13+00:00,SAT-61588,289.27761499655713,33.29372604041917,815.5779183274053,-5.588592769525613,195736.1585127633,10.5,10500195736.158512,47.655,-122.3035,60.0,4.1
2026-02-06T21:27:14+00:00,SAT-61588,289.15195685731527,33.61274788021692,810.0043078038689,-5.565189178469114,194916.46575687273,10.5,10500194916.465757,47.655,-122.3035,60.0,4.116666666666666
2026-02-06T21:27:15+00:00,SAT-61588,289.023540410193,33.93561044776895,804.4540381295911,-5.541291183283187,194079.45687704213,10.5,10500194079.456877,47.655,-122.3035,60.0,4.133333333333334
2026-02-06T21:27:16+00:00,SAT-61588,288.8922772843765,34.26237066969963,798.9276023832721,-5.516887224844754,193224.72702388637,10.5,10500193224.727024,47.655,-122.3035,60.0,4.15
2026-02-06T21:27:17+00:00,SAT-61588,288.75807535605264,34.59308581761798,793.4255051717467,-5.491965455145659,192351.8612300428,10.5,10500192351.86123,47.655,-122.3035,60.0,4.166666666666667
2026-02-06T21:27:18+00:00,SAT-61588,288.62083855163354,34.92781345870894,787.948262918095,-5.466513805928642,191460.43681409338,10.5,10500191460.436813,47.655,-122.3035,60.0,4.183333333333334
2026-02-06T21:27:19+00:00,SAT-61588,288.4804666370691,35.26661140588023,782.4964040813012,-5.44051994527304,190550.02186001264,10.5,10500190550.02186,47.655,-122.3035,60.0,4.2
2026-02-06T21:27:20+00:00,SAT-61588,288.33685499485006,35.60953766048131,777.0704694192095,-5.413971252283669,189620.17433066486,10.5,10500189620.17433,47.655,-122.3035,60.0,4.216666666666667
2026-02-06T21:27:21+00:00,SAT-61588,288.18989438736963,35.95665034809547,771.6710122767255,-5.386854912023989,188670.4453927653,10.5,10500188670.445393,47.655,-122.3035,60.0,4.233333333333333
2026-02-06T21:27:22+00:00,SAT-61588,288.0394707028507,36.308007654707055,766.2985987793346,-5.359157791518103,187700.37507394562,10.5,10500187700.375074,47.655,-122.3035,60.0,4.25
2026-02-06T21:27:23+00:00,SAT-61588,287.8854646877654,36.663667748911905,760.9538081502916,-5.330866567605127,186709.4967407547,10.5,10500186709.49674,47.655,-122.3035,60.0,4.266666666666667
2026-02-06T21:27:24+00:00,SAT-61588,287.72775165860025,37.023688705883785,755.6372329002947,-5.301967579937005,185697.33195002042,10.5,10500185697.33195,47.655,-122.3035,60.0,4.283333333333333
2026-02-06T21:27:25+00:00,SAT-61588,287.5662011985247,37.388128414581146,750.3494791637679,-5.272446991924089,184663.3960858446,10.5,10500184663.396086,47.655,-122.3035,60.0,4.3
2026-02-06T21:27:26+00:00,SAT-61588,287.4006768294504,37.7570444881712,745.0911668746315,-5.242290680451697,183607.1944970104,10.5,10500183607.194496,47.655,-122.3035,60.0,4.316666666666666
2026-02-06T21:27:27+00:00,SAT-61588,287.2310356653012,38.13049415897713,739.8629300520579,-5.21148427024251,182528.22370049867,10.5,10500182528.2237,47.655,-122.3035,60.0,4.333333333333333
2026-02-06T21:27:28+00:00,SAT-61588,287.0571280408915,38.508534166963436,734.6654170519593,-5.180013146553292,181425.97182618108,10.5,10500181425.971827,47.655,-122.3035,60.0,4.35
2026-02-06T21:27:29+00:00,SAT-61588,286.8787971151516,38.89122063977177,729.49929080581,-5.147862490822708,180299.91986535708,10.5,10500180299.919865,47.655,-122.3035,60.0,4.366666666666666
2026-02-06T21:27:30+00:00,SAT-61588,286.6958784459767,39.278608965454424,724.3652290239203,-5.115017176776318,179149.53803191186,10.5,10500179149.538033,47.655,-122.3035,60.0,4.383333333333334
2026-02-06T21:27:31+00:00,SAT-61588,286.5081995391527,39.67075364668563,719.2639245023223,-5.081461929022419,177974.29131701303,10.5,10500177974.291317,47.655,-122.3035,60.0,4.4
2026-02-06T21:27:32+00:00,SAT-61588,286.31557936038865,40.06770815528346,714.1960852714899,-5.047181197927946,176773.63510673586,10.5,10500176773.635107,47.655,-122.3035,60.0,4.416666666666667
2026-02-06T21:27:33+00:00,SAT-61588,286.1178278175446,40.46952476495232,709.1624348698425,-5.012159256771042,175547.01858475688,10.5,10500175547.018585,47.655,-122.3035,60.0,4.433333333333334
2026-02-06T21:27:34+00:00,SAT-61588,285.91474520253877,40.876254378182345,704.163712520361,-4.976380163093093,174293.8833787389,10.5,10500174293.883379,47.655,-122.3035,60.0,4.45
2026-02-06T21:27:35+00:00,SAT-61588,285.70612159501854,41.28794633596552,699.2006733457446,-4.939827792681869,173013.6647505643,10.5,10500173013.664751,47.655,-122.3035,60.0,4.466666666666667
2026-02-06T21:27:36+00:00,SAT-61588,285.49173622161675,41.70464821497124,694.2740885496786,-4.90248582549701,171705.79110338594,10.5,10500171705.791103,47.655,-122.3035,60.0,4.483333333333333
2026-02-06T21:27:37+00:00,SAT-61588,285.2713567695112,42.126405607163015,689.3847456121367,-4.864337825937236,170369.6867929245,10.5,10500170369.686792,47.655,-122.3035,60.0,4.5
2026-02-06T21:27:38+00:00,SAT-61588,285.0447386463687,42.55326188874836,684.5334484046322,-4.825367158067772,169004.76915837423,10.5,10500169004.76916,47.655,-122.3035,60.0,4.516666666666667
2026-02-06T21:27:39+00:00,SAT-61588,284.8116241894149,42.985257963110556,679.7210173900145,-4.785557091196393,167610.45222012268,10.5,10500167610.45222,47.655,-122.3035,60.0,4.533333333333333
2026-02-06T21:27:40+00:00,SAT-61588,284.5717418112355,43.42243199268746,674.9482897169727,-4.744890773918513,166186.14577069978,10.5,10500166186.145771,47.655,-122.3035,60.0,4.55
2026-02-06T21:27:41+00:00,SAT-61588,284.32480508289757,43.86481910711886,670.216119340424,-4.703351282661833,164731.25707501706,10.5,10500164731.257074,47.655,-122.3035,60.0,4.566666666666666
2026-02-06T21:27:42+00:00,SAT-61588,284.07051174564884,44.31245109270219,665.5253770934887,-4.660921601444962,163245.19016142862,10.5,10500163245.19016,47.655,-122.3035,60.0,4.583333333333333
2026-02-06T21:27:43+00:00,SAT-61588,283.8085426488162,44.76535605514165,660.8769507796499,-4.617584703213033,161727.34867044867,10.5,10500161727.348671,47.655,-122.3035,60.0,4.6
2026-02-06T21:27:44+00:00,SAT-61588,283.5385606024569,45.223558063402024,656.2717451837995,-4.5733235315902006,160177.13521564676,10.5,10500160177.135216,47.655,-122.3035,60.0,4.616666666666666
2026-02-06T21:27:45+00:00,SAT-61588,283.26020914270106,45.68707676338348,651.7106821014789,-4.52812105690859,158593.95334601848,10.5,10500158593.953346,47.655,-122.3035,60.0,4.633333333333334
2026-02-06T21:27:46+00:00,SAT-61588,282.9731111988043,46.155926966479875,647.1947003122431,-4.481960281570262,156977.2077337841,10.5,10500156977.207733,47.655,-122.3035,60.0,4.65
2026-02-06T21:27:47+00:00,SAT-61588,282.67686765602934,46.63011820579902,642.7247555476773,-4.434824319606602,155326.30696089537,10.5,10500155326.306961,47.655,-122.3035,60.0,4.666666666666667
2026-02-06T21:27:48+00:00,SAT-61588,282.37105580159323,47.10965426537801,638.3018203800656,-4.386696369372827,153640.6625626809,10.5,10500153640.662563,47.655,-122.3035,60.0,4.683333333333334
2026-02-06T21:27:49+00:00,SAT-61588,282.0552276500616,47.59453266860361,633.9268841382949,-4.337559838626828,151919.69340863705,10.5,10500151919.693409,47.655,-122.3035,60.0,4.7
2026-02-06T21:27:50+00:00,SAT-61588,281.7289081285241,48.08474413941938,629.6009526990124,-4.287398267515208,150162.82300507266,10.5,10500150162.823006,47.655,-122.3035,60.0,4.716666666666667
2026-02-06T21:27:51+00:00,SAT-61588,281.3915931231725,48.58027201117512,625.3250483545914,-4.2361955059246945,148369.48570670612,10.5,10500148369.485706,47.655,-122.3035,60.0,4.733333333333333
2026-02-06T21:27:52+00:00,SAT-61588,281.0427473581886,49.08109160812813,621.100209504223,-4.1839356657612035,146539.12504527593,10.5,10500146539.125046,47.655,-122.3035,60.0,4.75
2026-02-06T21:27:53+00:00,SAT-61588,280.68180210886425,49.58716957095848,616.9274903925985,-4.130603195179005,144671.19632936048,10.5,10500144671.19633,47.655,-122.3035,60.0,4.766666666666667
2026-02-06T21:27:54+00:00,SAT-61588,280.3081527269054,50.09846313592105,612.8079607745626,-4.07618296209891,142765.16956953786,10.5,10500142765.169569,47.655,-122.3035,60.0,4.783333333333333
2026-02-06T21:27:55+00:00,SAT-61588,279.9211559611907,50.61491936504967,608.7427054964718,-4.020660253865459,140820.5294663794,10.5,10500140820.529467,47.655,-122.3035,60.0,4.8
2026-02-06T21:27:56+00:00,SAT-61588,279.52012706519207,51.13647431246413,604.7328240778959,-3.9640209118653296,138836.78012535578,10.5,10500138836.780125,47.655,-122.3035,60.0,4.816666666666666
2026-02-06T21:27:57+00:00,SAT-61588,279.10433666209826,51.66305213868429,600.7794301590603,-3.9062512821371382,136813.44332698308,10.5,10500136813.443327,47.655,-122.3035,60.0,4.833333333333333
2026-02-06T21:27:58+00:00,SAT-61588,278.67300736672263,52.19456414382727,596.883650997548,-3.847338422268342,134750.06577322766,10.5,10500134750.065773,47.655,-122.3035,60.0,4.85
2026-02-06T21:27:59+00:00,SAT-61588,278.2253101209486,52.73090774728081,593.0466267586569,-3.787270009482424,132646.21586833065,10.5,10500132646.215868,47.655,-122.3035,60.0,4.866666666666666
2026-02-06T21:28:00+00:00,SAT-61588,277.7603602533951,53.271965367424606,589.2695098974266,-3.726034568995374,130501.49171681773,10.5,10500130501.491716,47.655,-122.3035,60.0,4.883333333333334
2026-02-06T21:28:01+00:00,SAT-61588,277.27721321044163,53.81760323781264,585.5534643129179,-3.6636213869981784,128315.51807577786,10.5,10500128315.518076,47.655,-122.3035,60.0,4.9
2026-02-06T21:28:02+00:00,SAT-61588,276.7748599738998,54.36767010796525,581.8996645892785,-3.6000207369374726,126087.95428016892,10.5,10500126087.95428,47.655,-122.3035,60.0,4.916666666666667
2026-02-06T21:28:03+00:00,SAT-61588,276.2522221109531,54.92199586482635,578.3092950111339,-3.5352238193466428,123818.49213544841,10.5,10500123818.492136,47.655,-122.3035,60.0,4.933333333333334
2026-02-06T21:28:04+00:00,SAT-61588,275.70814647375767,55.48039002371654,574.7835486389861,-3.469222941037003,121506.86219360639,10.5,10500121506.862194,47.655,-122.3035,60.0,4.95
2026-02-06T21:28:05+00:00,SAT-61588,275.1413995046812,56.04264011396279,571.3236262059011,-3.4020115243655624,119152.83407776192,10.5,10500119152.834078,47.655,-122.3035,60.0,4.966666666666667
2026-02-06T21:28:06+00:00,SAT-61588,274.5506611590348,56.6085099222357,567.9307350049548,-3.3335842334315178,116756.22090209801,10.5,10500116756.220901,47.655,-122.3035,60.0,4.983333333333333
2026-02-06T21:28:07+00:00,SAT-61588,273.9345184248308,57.177737599581754,564.6060876508185,-3.26393703761002,114316.88149708293,10.5,10500114316.881496,47.655,-122.3035,60.0,5.0
2026-02-06T21:28:08+00:00,SAT-61588,273.29145845180545,57.75003360929571,561.350900777983,-3.1930672664426987,111834.72233196853,10.5,10500111834.722332,47.655,-122.3035,60.0,5.016666666666667
2026-02-06T21:28:09+00:00,SAT-61588,272.61986130832275,58.325078499476966,558.1663936842383,-3.1209737448504233,109309.70225051307,10.5,10500109309.702251,47.655,-122.3035,60.0,5.033333333333333
2026-02-06T21:28:10+00:00,SAT-61588,271.91799238071684,58.90252049953472,555.0537868393034,-3.0476568173780545,106741.833320135,10.5,10500106741.83332,47.655,-122.3035,60.0,5.05
2026-02-06T21:28:11+00:00,SAT-61588,271.1839944874694,59.481972905550556,552.0143003692762,-2.9731184909868547,104131.18583310717,10.5,10500104131.185833,47.655,-122.3035,60.0,5.066666666666666
2026-02-06T21:28:12+00:00,SAT-61588,270.41587976057394,60.06301125998256,549.0491523986733,-2.89736241731673,101477.8876853055,10.5,10500101477.887686,47.655,-122.3035,60.0,5.083333333333333
2026-02-06T21:28:13+00:00,SAT-61588,269.6115214424734,60.645170279379755,546.1595574101611,-2.820394099818248,98782.13163084847,10.5,10500098782.13163,47.655,-122.3035,60.0,5.1
2026-02-06T21:28:14+00:00,SAT-61588,268.7686457007768,61.22794055806928,543.3467243977102,-2.7422208373512977,96044.17330668347,10.5,10500096044.173307,47.655,-122.3035,60.0,5.116666666666666
2026-02-06T21:28:15+00:00,SAT-61588,267.88482373828725,61.810764982251364,540.6118550759974,-2.6628518859802166,93264.33689933679,10.5,10500093264.336899,47.655,-122.3035,60.0,5.133333333333334
2026-02-06T21:28:16+00:00,SAT-61588,266.957464427226,62.3930348862351,537.9561419284498,-2.582298481327972,90443.01592785133,10.5,10500090443.015928,47.655,-122.3035,60.0,5.15
2026-02-06T21:28:17+00:00,SAT-61588,265.9838078764808,62.97408591569309,535.3807662329931,-2.50057390577373,87580.67559732994,10.5,10500087580.675598,47.655,-122.3035,60.0,5.166666666666667
2026-02-06T21:28:18+00:00,SAT-61588,264.9609204054306,63.553193605873496,532.8868960207816,-2.4176935636160914,84677.85543146972,10.5,10500084677.85543,47.655,-122.3035,60.0,5.183333333333334
2026-02-06T21:28:19+00:00,SAT-61588,263.88569153708687,64.12956868546519,530.4756839599678,-2.3336750101565347,81735.1702911873,10.5,10500081735.170292,47.655,-122.3035,60.0,5.2
2026-02-06T21:28:20+00:00,SAT-61588,262.75483380879274,64.70235211716304,528.1482652104664,-2.2485380059528315,78753.3122748029,10.5,10500078753.312275,47.655,-122.3035,60.0,5.216666666666667
2026-02-06T21:28:21+00:00,SAT-61588,261.5648863650177,65.27060991972458,525.9057552246092,-2.16230455435946,75733.05203286445,10.5,10500075733.052032,47.655,-122.3035,60.0,5.233333333333333
2026-02-06T21:28:22+00:00,SAT-61588,260.3122235365182,65.83332783087597,523.7492475103621,-2.074998919077642,72675.23938282409,10.5,10500072675.239384,47.655,-122.3035,60.0,5.25
2026-02-06T21:28:23+00:00,SAT-61588,258.99306986648634,66.3894059001984,521.6798113770366,-1.9866476663341526,69580.80478631855,10.5,10500069580.804787,47.655,-122.3035,60.0,5.266666666666667
2026-02-06T21:28:24+00:00,SAT-61588,257.6035232978429,66.93765315300443,519.6984896389383,-1.8972796462567176,66450.75869685666,10.5,10500066450.758698,47.655,-122.3035,60.0,5.283333333333333
2026-02-06T21:28:25+00:00,SAT-61588,256.1395885678722,67.4767824943517,517.8062963375887,-1.8069260221200927,63286.1925841409,10.5,10500063286.192585,47.655,-122.3035,60.0,5.3
2026-02-06T21:28:26+00:00,SAT-61588,254.59722306718012,68.00540611347333,516.0042144347781,-1.7156202412132526,60088.277913713064,10.5,10500060088.277914,47.655,-122.3035,60.0,5.316666666666666
2026-02-06T21:28:27+00:00,SAT-61588,252.9723977033918,68.52203169508967,514.2931935346759,-1.6233980175214235,56858.26554040578,10.5,10500056858.265541,47.655,-122.3035,60.0,5.333333333333333
2026-02-06T21:28:28+00:00,SAT-61588,251.2611753865297,69.02505984965514,512.6741476232105,-1.5302973115404186,53597.485001355155,10.5,10500053597.485,47.655,-122.3035,60.0,5.35
2026-02-06T21:28:29+00:00,SAT-61588,249.4598096843738,69.5127832678819,511.14795282758126,-1.4363582733468752,50307.34252207969,10.5,10500050307.342522,47.655,-122.3035,60.0,5.366666666666666
2026-02-06T21:28:30+00:00,SAT-61588,247.56486588599878,69.98338819589632,509.7154452325478,-1.3416231961154605,46989.319388456184,10.5,10500046989.31939,47.655,-122.3035,60.0,5.383333333333334
2026-02-06T21:28:31+00:00,SAT-61588,245.57336591580307,70.4349589392179,508.3774187430771,-1.2461364408569857,43644.96931073012,10.5,10500043644.96931,47.655,-122.3035,60.0,5.4
2026-02-06T21:28:32+00:00,SAT-61588,243.48295729953486,70.86548617177628,507.13462302205113,-1.1499443776279235,40275.91636442434,10.5,10500040275.916365,47.655,-122.3035,60.0,5.416666666666667
2026-02-06T21:28:33+00:00,SAT-61588,241.29210438574773,71.27287988446601,505.9877614866073,-1.0530952613758158,36883.85064191997,10.5,10500036883.850641,47.655,-122.3035,60.0,5.433333333333334
2026-02-06T21:28:34+00:00,SAT-61588,239.00029748271,71.65498776089603,504.9374894283001,-0.9556391727563792,33470.52617962118,10.5,10500033470.52618,47.655,-122.3035,60.0,5.45
2026-02-06T21:28:35+00:00,SAT-61588,236.60827197197995,72.00961970326729,503.9844121922876,-0.8576278687581892,30037.75572619971,10.5,10500030037.755726,47.655,-122.3035,60.0,5.466666666666667
2026-02-06T21:28:36+00:00,SAT-61588,234.11822579430924,72.3345789455651,503.12908350549293,-0.7591146785580288,26587.407095008715,10.5,10500026587.407095,47.655,-122.3035,60.0,5.483333333333333
2026-02-06T21:28:37+00:00,SAT-61588,231.5340193815332,72.62769986269625,502.3720039086303,-0.6601543652813008,23121.398322347584,10.5,10500023121.398323,47.655,-122.3035,60.0,5.5
2026-02-06T21:28:38+00:00,SAT-61588,228.86133863962252,72.88689202563182,501.7136193261011,-0.560802991047572,19641.692940786077,10.5,10500019641.692942,47.655,-122.3035,60.0,5.516666666666667
2026-02-06T21:28:39+00:00,SAT-61588,226.10779925055522,73.11018939955298,501.15431977048166,-0.4611177446406184,16150.293943440342,10.5,10500016150.293943,47.655,-122.3035,60.0,5.533333333333333
2026-02-06T21:28:40+00:00,SAT-61588,223.28297078679302,73.29580281572636,500.6944382188802,-0.3611568112825094,12649.239222910499,10.5,10500012649.239223,47.655,-122.3035,60.0,5.55
2026-02-06T21:28:41+00:00,SAT-61588,220.3983020777378,73.4421731389272,500.33424961916904,-0.26097918119204977,9140.59486618747,10.5,10500009140.594866,47.655,-122.3035,60.0,5.566666666666666
2026-02-06T21:28:42+00:00,SAT-61588,217.4669366144477,73.54802190616553,500.07397008714656,-0.16064449692896499,5626.449808000615,10.5,10500005626.449808,47.655,-122.3035,60.0,5.583333333333333
2026-02-06T21:28:43+00:00,SAT-61588,214.5034165871582,73.61239592184161,499.91375625594486,-0.06021286685558348,2108.909297456798,10.5,10500002108.909298,47.655,-122.3035,60.0,5.6
2026-02-06T21:28:44+00:00,SAT-61588,211.52328700215563,73.63470232815436,499.8537048114759,0.040255309281138546,-1409.9112108148988,10.5,10499998590.088789,47.655,-122.3035,60.0,5.616666666666666
2026-02-06T21:28:45+00:00,SAT-61588,208.54262369473312,73.61473120687707,499.8938522018281,0.14069952248598933,-4927.892435849363,10.5,10499995072.107565,47.655,-122.3035,60.0,5.633333333333334
2026-02-06T21:28:46+00:00,SAT-61588,205.57751969540993,73.55266371044809,500.0341745283108,0.2410593360039573,-8442.917626838871,10.5,10499991557.082373,47.655,-122.3035,60.0,5.65
2026-02-06T21:28:47+00:00,SAT-61588,202.64357014251254,73.44906498561946,500.27458761750114,0.3412745668297144,-11952.87892036297,10.5,10499988047.12108,47.655,-122.3035,60.0,5.666666666666667
2026-02-06T21:28:48+00:00,SAT-61588,199.75539645055412,73.30486253389603,500.6149472743132,0.4412854627150342,-15455.683539937017,10.5,10499984544.31646,47.655,-122.3035,60.0,5.683333333333334
2026-02-06T21:28:49+00:00,SAT-61588,196.9262445327668,73.12131193133952,501.0550497116,0.5410328853273216,-18949.260210998626,10.5,10499981050.739788,47.655,-122.3035,60.0,5.7
2026-02-06T21:28:50+00:00,SAT-61588,194.16768176661708,72.89995280175056,501.5946321624243,0.6404584719310287,-22431.56482367479,10.5,10499977568.435177,47.655,-122.3035,60.0,5.716666666666667
2026-02-06T21:28:51+00:00,SAT-61588,191.48940496675306,72.64255849837502,502.2333736535753,0.739504815548196,-25900.58674276608,10.5,10499974099.413258,47.655,-122.3035,60.0,5.733333333333333
2026-02-06T21:28:52+00:00,SAT-61588,188.89915877636008,72.35108302536005,502.9708959587646,0.838115606811292,-29354.353776033175,10.5,10499970645.646223,47.655,-122.3035,60.0,5.75
2026-02-06T21:28:53+00:00,SAT-61588,186.4027537867071,72.02760844632883,503.8067646932939,0.9362358136189033,-32790.93846649899,10.5,10499967209.061533,47.655,-122.3035,60.0,5.766666666666667
2026-02-06T21:28:54+00:00,SAT-61588,184.0041661692215,71.67429540640234,504.74049058789706,1.033811793882572,-36208.46204131995,10.5,10499963791.537958,47.655,-122.3035,60.0,5.783333333333333
2026-02-06T21:28:55+00:00,SAT-61588,181.70569752807256,71.2933386998928,505.77153087502626,1.1307914586664247,-39605.10012562577,10.5,10499960394.899874,47.655,-122.3035,60.0,5.8
2026-02-06T21:28:56+00:00,SAT-61588,179.50817299853693,70.88692901753627,506.8992908378412,1.2271243768183757,-42979.08640714687,10.5,10499957020.913593,47.655,-122.3035,60.0,5.816666666666666
2026-02-06T21:28:57+00:00,SAT-61588,177.41115810505812,70.45722137480315,508.1231254635485,1.3227619113896563,-46328.71741420323,10.5,10499953671.282585,47.655,-122.3035,60.0,5.833333333333333
2026-02-06T21:28:58+00:00,SAT-61588,175.41317818427768,70.00631014848305,509.4423412327947,1.4176572923433353,-49652.355062264505,10.5,10499950347.644938,47.655,-122.3035,60.0,5.85
2026-02-06T21:28:59+00:00,SAT-61588,173.51192846327476,69.53621029645136,510.856197981574,1.5117657441096075,-52948.43112147564,10.5,10499947051.568878,47.655,-122.3035,60.0,5.866666666666666
2026-02-06T21:29:00+00:00,SAT-61588,171.70446661905638,69.04884405351606,512.3639108903475,1.60504454666536,-56215.44935592169,10.5,10499943784.550644,47.655,-122.3035,60.0,5.883333333333334
2026-02-06T21:29:01+00:00,SAT-61588,169.98738329190033,68.54603232123728,513.9646525340793,1.697453096814992,-59451.987669941365,10.5,10499940548.012331,47.655,-122.3035,60.0,5.9
2026-02-06T21:29:02+00:00,SAT-61588,168.35694860944662,68.02948992158277,515.6575549933902,1.7889529892525495,-62656.70094726589,10.5,10499937343.299053,47.655,-122.3035,60.0,5.916666666666667
2026-02-06T21:29:03+00:00,SAT-61588,166.80923476684566,67.50082391935996,517.4417120465541,1.879508040797837,-65828.3218998701,10.5,10499934171.6781,47.655,-122.3035,60.0,5.933333333333334
2026-02-06T21:29:04+00:00,SAT-61588,165.3402161124997,66.96153432033425,519.3161813856665,1.969084343757333,-68965.66293689748,10.5,10499931034.337063,47.655,-122.3035,60.0,5.95
2026-02-06T21:29:05+00:00,SAT-61588,163.94584887235146,66.41301652220488,521.2799868860319,2.0576502528679588,-72067.6157073757,10.5,10499927932.384293,47.655,-122.3035,60.0,5.966666666666667
2026-02-06T21:29:06+00:00,SAT-61588,162.62213310876112,65.85656502514719,523.3321208625277,2.1451764564031266,-75133.15359065113,10.5,10499924866.846409,47.655,-122.3035,60.0,5.983333333333333
2026-02-06T21:29:07+00:00,SAT-61588,161.36515947000387,65.29337796324961,525.4715463968856,2.23163590688186,-78161.32926952929,10.5,10499921838.67073,47.655,-122.3035,60.0,6.0
2026-02-06T21:29:08+00:00,SAT-61588,160.17114334971868,64.72456216788555,527.6971995958668,2.3170038880589634,-81151.27707655379,10.5,10499918848.722923,47.655,-122.3035,60.0,6.016666666666667
2026-02-06T21:29:09+00:00,SAT-61588,159.0364486636508,64.15113847420032,530.0079919162484,2.401257910313632,-84102.20933007305,10.5,10499915897.79067,47.655,-122.3035,60.0,6.033333333333333
2026-02-06T21:29:10+00:00,SAT-61588,157.95760337968994,63.57404712648247,532.4028123854781,2.4843777725504306,-87013.41850227439,10.5,10499912986.581497,47.655,-122.3035,60.0,6.05
2026-02-06T21:29:11+00:00,SAT-61588,156.93130845221313,62.994153102489356,534.8805298840643,2.5663454577354825,-89884.27356041947,10.5,10499910115.72644,47.655,-122.3035,60.0,6.066666666666666
2026-02-06T21:29:12+00:00,SAT-61588,155.95444171853575,62.41225130159778,537.4399953237834,2.6471451344011814,-92714.22001954567,10.5,10499907285.77998,47.655,-122.3035,60.0,6.083333333333333
2026-02-06T21:29:13+00:00,SAT-61588,155.02405791571778,61.82907150571571,540.0800438273852,2.726763082324512,-95502.77733940652,10.5,10499904497.22266,47.655,-122.3035,60.0,6.1
2026-02-06T21:29:14+00:00,SAT-61588,154.137385841615,61.245283090408854,542.7994968341793,2.805187645539722,-98249.53727877665,10.5,10499901750.46272,47.655,-122.3035,60.0,6.116666666666666
2026-02-06T21:29:15+00:00,SAT-61588,153.29182343842325,60.66149945709059,545.5971641587572,2.8824091858653054,-100954.16226777028,10.5,10499899045.837732,47.655,-122.3035,60.0,6.133333333333334
2026-02-06T21:29:16+00:00,SAT-61588,152.48493142956278,60.07828217739099,548.4718460033678,2.958419969537134,-103616.38143725386,10.5,10499896383.618563,47.655,-122.3035,60.0,6.15
2026-02-06T21:29:17+00:00,SAT-61588,151.71442602078255,59.49614486354392,551.4223348572285,3.0332141696702775,-106235.99070506942,10.5,10499893764.009295,47.655,-122.3035,60.0,6.166666666666667
2026-02-06T21:29:18+00:00,SAT-61588,150.9781710100839,58.91555674796933,554.4474173982935,3.106787730659739,-108812.84802677478,10.5,10499891187.151974,47.655,-122.3035,60.0,6.183333333333334
2026-02-06T21:29:19+00:00,SAT-61588,150.27416963735297,58.33694601129443,557.545876259784,3.179138337228224,-111346.87231156546,10.5,10499888653.12769,47.655,-122.3035,60.0,6.2
2026-02-06T21:29:20+00:00,SAT-61588,149.60055635995582,57.76070285170154,560.7164917658512,3.250265276114761,-113838.03857802518,10.5,10499886161.961422,47.655,-122.3035,60.0,6.216666666666667
2026-02-06T21:29:21+00:00,SAT-61588,148.95558874056644,57.18718233122441,563.9580435292974,3.320169450114213,-116286.37844584881,10.5,10499883713.621553,47.655,-122.3035,60.0,6.233333333333333
2026-02-06T21:29:22+00:00,SAT-61588,148.33763952657938,56.61670698714,567.2693120632991,3.388853206530806,-118691.97412755947,10.5,10499881308.025873,47.655,-122.3035,60.0,6.25
2026-02-06T21:29:23+00:00,SAT-61588,147.74518904241356,56.049569258115035,570.6490802220449,3.4563202987720865,-121054.95708336635,10.5,10499878945.042917,47.655,-122.3035,60.0,6.266666666666667
2026-02-06T21:29:24+00:00,SAT-61588,147.1768179161385,55.486033716374756,574.0961346030682,3.522575817533047,-123375.50561094166,10.5,10499876624.494389,47.655,-122.3035,60.0,6.283333333333333
2026-02-06T21:29:25+00:00,SAT-61588,146.6312001807811,54.92633912689253,577.6092668809499,3.5876260638548287,-125653.84039939959,10.5,10499874346.159601,47.655,-122.3035,60.0,6.3
2026-02-06T21:29:26+00:00,SAT-61588,146.10709677561997,54.37070035690983,581.1872750144198,3.6514785493064807,-127890.22453566208,10.5,10499872109.775465,47.655,-122.3035,60.0,6.316666666666666
2026-02-06T21:29:27+00:00,SAT-61588,145.60334943091428,53.81931012866039,584.8289644536397,3.714141793988748,-130084.95642969731,10.5,10499869915.04357,47.655,-122.3035,60.0,6.333333333333333
2026-02-06T21:29:28+00:00,SAT-61588,145.1188749640701,53.27234065905641,588.5331491460306,3.775625382014336,-132238.37175767287,10.5,10499867761.628242,47.655,-122.3035,60.0,6.35
2026-02-06T21:29:29+00:00,SAT-61588,144.65265993772329,52.72994515783962,592.2986525974319,3.835939804786394,-134350.83797290572,10.5,10499865649.162027,47.655,-122.3035,60.0,6.366666666666666
2026-02-06T21:29:30+00:00,SAT-61588,144.20375569823557,52.192259227289924,596.1243087769612,3.895096407842675,-136422.75244411948,10.5,10499863577.247557,47.655,-122.3035,60.0,6.383333333333334
2026-02-06T21:29:31+00:00,SAT-61588,143.7712737619596,51.65940215691042,600.0089629688581,3.953107320033066,-138454.53997494225,10.5,10499861545.460026,47.655,-122.3035,60.0,6.4
2026-02-06T21:29:32+00:00,SAT-61588,143.3543815335485,51.13147812458811,603.9514725536948,4.009985363155205,-140446.6496389634,10.5,10499859553.35036,47.655,-122.3035,60.0,6.416666666666667
2026-02-06T21:29:33+00:00,SAT-61588,142.95229833963563,50.60857731463502,607.9507076994695,4.065744056152998,-142399.55492678366,10.5,10499857600.445074,47.655,-122.3035,60.0,6.433333333333334
2026-02-06T21:29:34+00:00,SAT-61588,142.56429174783204,50.09077694756866,612.0055520568806,4.120397457868606,-144313.74823852428,10.5,10499855686.251762,47.655,-122.3035,60.0,6.45
2026-02-06T21:29:35+00:00,SAT-61588,142.1896741698516,49.57814224953662,616.1149032977793,4.173960154135055,-146189.7404317559,10.5,10499853810.25957,47.655,-122.3035,60.0,6.466666666666667
2026-02-06T21:29:36+00:00,SAT-61588,141.8277997138538,49.07072734806547,620.2776736407477,4.226447211052793,-148028.0591850457,10.5,10499851971.940815,47.655,-122.3035,60.0,6.483333333333333
2026-02-06T21:29:37+00:00,SAT-61588,141.4780612723999,48.56857610460814,624.4927903300775,4.277874087137942,-149829.24592101778,10.5,10499850170.75408,47.655,-122.3035,60.0,6.5
2026-02-06T21:29:38+00:00,SAT-61588,141.13988783284358,48.07172289379339,628.7591960271343,4.328256597612611,-151593.85455564866,10.5,10499848406.145445,47.655,-122.3035,60.0,6.516666666666667
2026-02-06T21:29:39+00:00,SAT-61588,140.81274198878296,47.58019332748572,633.0758491661082,4.3776108639263445,-153322.44973029513,10.5,10499846677.55027,47.655,-122.3035,60.0,6.533333333333333
2026-02-06T21:29:40+00:00,SAT-61588,140.4961176390918,47.09400492979151,637.4417242594186,4.42595324027594,-155015.6042381072,10.5,10499844984.395761,47.655,-122.3035,60.0,6.55
2026-02-06T21:29:41+00:00,SAT-61588,140.18953786190278,46.613167769288815,641.855812129839,4.473300353867372,-156673.90043417105,10.5,10499843326.099566,47.655,-122.3035,60.0,6.566666666666666
2026-02-06T21:29:42+00:00,SAT-61588,139.8925529418553,46.13768503963615,646.317120182773,4.519668895188744,-158297.92288998078,10.5,10499841702.07711,47.655,-122.3035,60.0,6.583333333333333
2026-02-06T21:29:43+00:00,SAT-61588,139.60473855682955,45.66755361886696,650.8246724693681,4.565075778996774,-159888.2640318661,10.5,10499840111.735968,47.655,-122.3035,60.0,6.6
2026-02-06T21:29:44+00:00,SAT-61588,139.32569408570419,45.20276457038476,655.3775099101819,4.609537974666435,-161445.51819911881,10.5,10499838554.4818,47.655,-122.3035,60.0,6.616666666666666
2026-02-06T21:29:45+00:00,SAT-61588,139.0550410505713,44.74330362410459,659.9746903496545,4.6530724985538034,-162970.28137650795,10.5,10499837029.718624,47.655,-122.3035,60.0,6.633333333333334
2026-02-06T21:29:46+00:00,SAT-61588,138.7924216722161,44.28915162261317,664.6152886029638,4.695696390835726,-164463.1503831065,10.5,10499835536.849617,47.655,-122.3035,60.0,6.65
2026-02-06T21:29:47+00:00,SAT-61588,138.53749753066984,43.84028493658304,669.2983964797816,4.737426697077578,-165924.7222267165,10.5,10499834075.277773,47.655,-122.3035,60.0,6.666666666666667
2026-02-06T21:29:48+00:00,SAT-61588,138.28994832287847,43.39667585130564,674.0231227896493,4.7782804449343015,-167355.59328784104,10.5,10499832644.406712,47.655,-122.3035,60.0,6.683333333333334
2026-02-06T21:29:49+00:00,SAT-61588,138.0494707102959,42.958292926953575,678.7885933241134,4.81827456284758,-168756.35647211506,10.5,10499831243.643528,47.655,-122.3035,60.0,6.7
2026-02-06T21:29:50+00:00,SAT-61588,137.81577725238446,42.52510133965138,683.5939507577798,4.857425911624952,-170127.60231633976,10.5,10499829872.397684,47.655,-122.3035,60.0,6.716666666666667
2026-02-06T21:29:51+00:00,SAT-61588,137.5885954133438,42.09706319453907,688.4383545808605,4.89575126384548,-171469.9182671818,10.5,10499828530.081734,47.655,-122.3035,60.0,6.733333333333333
2026-02-06T21:29:52+00:00,SAT-61588,137.36766663940568,41.67413781761529,693.3209810111814,4.933267251473857,-172783.88684639792,10.5,10499827216.113153,47.655,-122.3035,60.0,6.75
2026-02-06T21:29:53+00:00,SAT-61588,137.1527455028291,41.2562820305354,698.2410228539449,4.969990373206208,-174070.08590811575,10.5,10499825929.914091,47.655,-122.3035,60.0,6.766666666666667
2026-02-06T21:29:54+00:00,SAT-61588,136.94359890438994,40.84345040446077,703.1976893688192,5.005936947202357,-175329.08698331812,10.5,10499824670.913017,47.655,-122.3035,60.0,6.783333333333333
2026-02-06T21:29:55+00:00,SAT-61588,136.740005332914,40.43559549899107,708.1902060898855,5.04112316187374,-176561.45705865047,10.5,10499823438.542942,47.655,-122.3035,60.0,6.8
2026-02-06T21:29:56+00:00,SAT-61588,136.54175417258625,40.0326680792956,713.2178146962372,5.075564980909472,-177767.75525003186,10.5,10499822232.24475,47.655,-122.3035,60.0,6.816666666666666
2026-02-06T21:29:57+00:00,SAT-61588,136.3486450614855,39.634617324603454,718.2797727878608,5.109278170096613,-178948.5337420144,10.5,10499821051.466257,47.655,-122.3035,60.0,6.833333333333333
2026-02-06T21:29:58+00:00,SAT-61588,136.1604872917146,39.24139101900371,723.3753536882639,5.14227832559219,-180104.33877798886,10.5,10499819895.661222,47.655,-122.3035,60.0,6.85
2026-02-06T21:29:59+00:00,SAT-61588,135.97709924844762,38.85293572582828,728.5038462752996,5.174580783585349,-181235.70749617112,10.5,10499818764.292503,47.655,-122.3035,60.0,6.866666666666666
2026-02-06T21:30:00+00:00,SAT-61588,135.7983078895847,38.46919695567275,733.6645547218963,5.2062006805722225,-182343.17004068306,10.5,10499817656.82996,47.655,-122.3035,60.0,6.883333333333334
2026-02-06T21:30:01+00:00,SAT-61588,135.62394825721543,38.09011931725978,738.8567982968993,5.237152899052136,-183427.24765960398,10.5,10499816572.75234,47.655,-122.3035,60.0,6.9
2026-02-06T21:30:02+00:00,SAT-61588,135.4538630229174,37.715646660749684,744.0799111117562,5.26745211006662,-184488.45419486676,10.5,10499815511.545805,47.655,-122.3035,60.0,6.916666666666667
2026-02-06T21:30:03+00:00,SAT-61588,135.28790206085236,37.34572220709724,749.3332419096242,5.297112719654779,-185527.2942068982,10.5,10499814472.705793,47.655,-122.3035,60.0,6.933333333333334
2026-02-06T21:30:04+00:00,SAT-61588,135.12592205020474,36.980288671166896,754.6161538010795,5.326148913975317,-186544.26455498367,10.5,10499813455.735445,47.655,-122.3035,60.0,6.95
2026-02-06T21:30:05+00:00,SAT-61588,134.9677861013336,36.61928837224094,759.9280240448247,5.354574583356536,-187539.85173717624,10.5,10499812460.148262,47.655,-122.3035,60.0,6.966666666666667
2026-02-06T21:30:06+00:00,SAT-61588,134.81336340818487,36.262663340960295,765.2682437526547,5.382403411660929,-188514.5350202231,10.5,10499811485.46498,47.655,-122.3035,60.0,6.983333333333333
2026-02-06T21:30:07+00:00,SAT-61588,134.66252891936819,35.91035541197652,770.6362176835406,5.409648799988312,-189468.7837673264,10.5,10499810531.216232,47.655,-122.3035,60.0,7.0
2026-02-06T21:30:08+00:00,SAT-61588,134.51516303243636,35.56230631417117,776.0313639616277,5.436323927162865,-190403.05955665532,10.5,10499809596.940443,47.655,-122.3035,60.0,7.016666666666667
2026-02-06T21:30:09+00:00,SAT-61588,134.37115130492091,35.218457749806234,781.4531138545544,5.462441646283354,-191317.81255809718,10.5,10499808682.187443,47.655,-122.3035,60.0,7.033333333333333
2026-02-06T21:30:10+00:00,SAT-61588,134.23038418637918,34.87875147367011,786.9009114486012,5.488014646576889,-192213.48720206073,10.5,10499807786.512798,47.655,-122.3035,60.0,7.05
2026-02-06T21:30:11+00:00,SAT-61588,134.0927567618939,34.54312935583515,792.3742134852566,5.5130552924948955,-193090.51654393654,10.5,10499806909.483456,47.655,-122.3035,60.0,7.066666666666666
2026-02-06T21:30:12+00:00,SAT-61588,133.9581685157867,34.21153344887749,797.8724890373138,5.537575717092148,-193949.32553462553,10.5,10499806050.674465,47.655,-122.3035,60.0,7.083333333333333
2026-02-06T21:30:13+00:00,SAT-61588,133.82652310676937,33.88390604389695,803.3952192780941,5.561587818549275,-194790.33089874257,10.5,10499805209.669102,47.655,-122.3035,60.0,7.1
2026-02-06T21:30:14+00:00,SAT-61588,133.6977281566958,33.56018972194781,808.9418972472008,5.58510318696306,-195613.93857050315,10.5,10499804386.06143,47.655,-122.3035,60.0,7.116666666666666
2026-02-06T21:30:15+00:00,SAT-61588,133.57169505368512,33.240327405164194,814.5120275432639,5.60813326249187,-196420.5492326449,10.5,10499803579.450768,47.655,-122.3035,60.0,7.133333333333334
2026-02-06T21:30:16+00:00,SAT-61588,133.4483387626457,32.92426239448767,820.1051261744013,5.630689090213414,-197210.54973051004,10.5,10499802789.45027,47.655,-122.3035,60.0,7.15
2026-02-06T21:30:17+00:00,SAT-61588,133.32757765318917,32.61193841748794,825.7207201641991,5.652781642411693,-197984.3243598969,10.5,10499802015.67564,47.655,-122.3035,60.0,7.166666666666667
2026-02-06T21:30:18+00:00,SAT-61588,133.20933332930034,32.303299654298236,831.3583474791113,5.674421496058312,-198742.2435710917,10.5,10499801257.75643,47.655,-122.3035,60.0,7.183333333333334
2026-02-06T21:30:19+00:00,SAT-61588,133.09353047684291,31.998290778270682,837.0175566342089,5.6956191194249275,-199484.6740072485,10.5,10499800515.325993,47.655,-122.3035,60.0,7.2
2026-02-06T21:30:20+00:00,SAT-61588,132.98009671272646,31.69685697766867,842.6979065847703,5.716384614607929,-200211.96948651475,10.5,10499799788.030514,47.655,-122.3035,60.0,7.216666666666667
2026-02-06T21:30:21+00:00,SAT-61588,132.86896244874328,31.398943988437008,848.3989663610873,5.736727977465193,-200924.48010611572,10.5,10499799075.519894,47.655,-122.3035,60.0,7.233333333333333
2026-02-06T21:30:22+00:00,SAT-61588,132.76006075701915,31.104498110429386,854.1203149625134,5.756658872427969,-201622.5443553142,10.5,10499798377.455645,47.655,-122.3035,60.0,7.25
2026-02-06T21:30:23+00:00,SAT-61588,132.65332724813632,30.813466233063448,859.8615410269233,5.776186827588526,-202306.49594820532,10.5,10499797693.504051,47.655,-122.3035,60.0,7.266666666666667
2026-02-06T21:30:24+00:00,SAT-61588,132.54869995154715,30.52579584858978,865.622242694741,5.795321050973258,-202976.65738882334,10.5,10499797023.342611,47.655,-122.3035,60.0,7.283333333333333
2026-02-06T21:30:25+00:00,SAT-61588,132.4461192066671,30.24143507261155,871.402027289731,5.81407063138312,-203633.3470054232,10.5,10499796366.652994,47.655,-122.3035,60.0,7.3
