DopplerPredictor/satellites_20260211_204923/SAT-64687.csv

timestamp,satellite,azimuth_deg,elevation_deg,distance_km,relative_velocity_kms,doppler_shift_hz,tx_freq_ghz,rx_freq_hz,ue_lat,ue_lon,ue_alt_m,time_minutes
2026-02-06T21:28:30+00:00,SAT-64687,288.24140568990526,30.195121575156534,839.0491724283402,-4.759151491516542,166685.6164237584,10.5,10500166685.616425,47.655,-122.3035,60.0,5.383333333333334
2026-02-06T21:28:31+00:00,SAT-64687,288.58851382631843,30.43501357602879,834.3027795652094,-4.72630260909386,165535.10961068116,10.5,10500165535.109612,47.655,-122.3035,60.0,5.4
2026-02-06T21:28:32+00:00,SAT-64687,288.9412641074076,30.676283905413868,829.5891475211806,-4.692885463335468,164364.6998118359,10.5,10500164364.699812,47.655,-122.3035,60.0,5.416666666666667
2026-02-06T21:28:33+00:00,SAT-64687,289.29977066296783,30.918908212277884,824.9088430361539,-4.658891176736464,163174.076099449,10.5,10500163174.0761,47.655,-122.3035,60.0,5.433333333333334
2026-02-06T21:28:34+00:00,SAT-64687,289.66414966805905,31.16285996897747,820.2624417037357,-4.624310824688742,161962.92589599363,10.5,10500161962.925896,47.655,-122.3035,60.0,5.45
2026-02-06T21:28:35+00:00,SAT-64687,290.03451932726296,31.40811037160961,815.6505280182126,-4.589135560902001,160730.9393669637,10.5,10500160730.939367,47.655,-122.3035,60.0,5.466666666666667
2026-02-06T21:28:36+00:00,SAT-64687,290.41099986238925,31.654628243895242,811.0736952964489,-4.553356451931974,159477.80362535245,10.5,10500159477.803625,47.655,-122.3035,60.0,5.483333333333333
2026-02-06T21:28:37+00:00,SAT-64687,290.7937134804261,31.902379929274176,806.5325457648012,-4.5169646460519335,158203.20864624722,10.5,10500158203.208647,47.655,-122.3035,60.0,5.5
2026-02-06T21:28:38+00:00,SAT-64687,291.1827843472466,32.15132918896043,802.0276904776247,-4.479951258352724,156906.84324254617,10.5,10500156906.843243,47.655,-122.3035,60.0,5.516666666666667
2026-02-06T21:28:39+00:00,SAT-64687,291.5783385437752,32.40143709086131,797.5597493503622,-4.442307484000173,155588.39903171218,10.5,10500155588.399033,47.655,-122.3035,60.0,5.533333333333333
2026-02-06T21:28:40+00:00,SAT-64687,291.98050402268024,32.65266190182153,793.129351079688,-4.404024529445883,154247.5680264838,10.5,10500154247.568026,47.655,-122.3035,60.0,5.55
2026-02-06T21:28:41+00:00,SAT-64687,292.3894105494434,32.90495897331659,788.7371331322502,-4.365093713067083,152884.04615970814,10.5,10500152884.04616,47.655,-122.3035,60.0,5.566666666666666
2026-02-06T21:28:42+00:00,SAT-64687,292.805189641994,33.15828063022072,784.3837416330449,-4.325506338715442,151497.52885548622,10.5,10500151497.528856,47.655,-122.3035,60.0,5.583333333333333
2026-02-06T21:28:43+00:00,SAT-64687,293.22797448742534,33.41257604984077,780.0698313799036,-4.285253918415676,150087.71882901934,10.5,10500150087.718828,47.655,-122.3035,60.0,5.6
2026-02-06T21:28:44+00:00,SAT-64687,293.6578998670896,33.66779115158826,775.7960656358782,-4.2443279565517935,148654.31852789916,10.5,10500148654.318527,47.655,-122.3035,60.0,5.616666666666666
2026-02-06T21:28:45+00:00,SAT-64687,294.0951020485133,33.923868472015066,771.5631161368608,-4.202720162899743,147197.0375934117,10.5,10500147197.037594,47.655,-122.3035,60.0,5.633333333333334
2026-02-06T21:28:46+00:00,SAT-64687,294.5397186834173,34.18074705059548,767.3716628867423,-4.1604223070615785,145715.58776220639,10.5,10500145715.587763,47.655,-122.3035,60.0,5.65
2026-02-06T21:28:47+00:00,SAT-64687,294.9918886764706,34.438362305287264,763.2223940977478,-4.117426393346805,144209.6889913803,10.5,10500144209.688992,47.655,-122.3035,60.0,5.666666666666667
2026-02-06T21:28:48+00:00,SAT-64687,295.4517520554964,34.69664591753251,759.1160059563567,-4.07372453555821,142679.06507294858,10.5,10500142679.065073,47.655,-122.3035,60.0,5.683333333333334
2026-02-06T21:28:49+00:00,SAT-64687,295.9194498118023,34.95552570877434,755.0532025141042,-4.029309052331982,141123.44697305828,10.5,10500141123.446974,47.655,-122.3035,60.0,5.7
2026-02-06T21:28:50+00:00,SAT-64687,296.3951237316149,35.21492552237183,751.0346954832969,-3.984172513150025,139542.57444353474,10.5,10500139542.574444,47.655,-122.3035,60.0,5.716666666666667
2026-02-06T21:28:51+00:00,SAT-64687,296.87891621375604,35.47476510858794,747.0612039868388,-3.93830765841872,137936.1932227013,10.5,10500137936.193222,47.655,-122.3035,60.0,5.733333333333333
2026-02-06T21:28:52+00:00,SAT-64687,297.3709700571492,35.73496000494475,743.133454387766,-3.8917075413130537,136304.06000336094,10.5,10500136304.060003,47.655,-122.3035,60.0,5.75
2026-02-06T21:28:53+00:00,SAT-64687,297.87142824302873,35.99542142685278,739.2521799773153,-3.844365420709838,134645.9386828647,10.5,10500134645.938683,47.655,-122.3035,60.0,5.766666666666667
2026-02-06T21:28:54+00:00,SAT-64687,298.3804336808227,36.25605615287342,735.4181207697759,-3.7962749414503376,132961.60667667145,10.5,10500132961.606676,47.655,-122.3035,60.0,5.783333333333333
2026-02-06T21:28:55+00:00,SAT-64687,298.89812895213674,36.516766424365706,731.6320231175579,-3.7474299670746016,131250.84905999643,10.5,10500131250.84906,47.655,-122.3035,60.0,5.8
2026-02-06T21:28:56+00:00,SAT-64687,299.4246560075864,36.777449836884514,727.8946394930795,-3.6978248136889524,129513.46675884021,10.5,10500129513.466759,47.655,-122.3035,60.0,5.816666666666666
2026-02-06T21:28:57+00:00,SAT-64687,299.9601558671668,37.037999251387404,724.2067280374162,-3.6474540567095723,127749.26978133155,10.5,10500127749.269781,47.655,-122.3035,60.0,5.833333333333333
2026-02-06T21:28:58+00:00,SAT-64687,300.50476826651334,37.29830269674358,720.5690523016839,-3.596312755171398,125958.08507397368,10.5,10500125958.085073,47.655,-122.3035,60.0,5.85
2026-02-06T21:28:59+00:00,SAT-64687,301.0586313044978,37.55824329344503,716.9823807647181,-3.5443963411316264,124139.75264808722,10.5,10500124139.752647,47.655,-122.3035,60.0,5.866666666666666
2026-02-06T21:29:00+00:00,SAT-64687,301.62188104496,37.81769917610388,713.4474864610504,-3.4917007192707445,122294.12906825969,10.5,10500122294.129068,47.655,-122.3035,60.0,5.883333333333334
2026-02-06T21:29:01+00:00,SAT-64687,302.1946511013525,38.07654343058024,709.9651465095532,-3.4382222219033967,120421.08587663558,10.5,10500120421.085876,47.655,-122.3035,60.0,5.9
2026-02-06T21:29:02+00:00,SAT-64687,302.77707218155075,38.33464403638693,706.536141686952,-3.383957738891041,118520.51414300733,10.5,10500118520.514143,47.655,-122.3035,60.0,5.916666666666667
2026-02-06T21:29:03+00:00,SAT-64687,303.36927161960864,38.59186382844522,703.1612558717728,-3.3289046546206693,116592.32225754335,10.5,10500116592.322258,47.655,-122.3035,60.0,5.933333333333334
2026-02-06T21:29:04+00:00,SAT-64687,303.97137286371833,38.84806046515054,699.8412755511424,-3.273060897929522,114636.43767936277,10.5,10500114636.43768,47.655,-122.3035,60.0,5.95
2026-02-06T21:29:05+00:00,SAT-64687,304.58349493671153,39.10308641226949,696.5769892777977,-3.2164250007951956,112652.8089921113,10.5,10500112652.808992,47.655,-122.3035,60.0,5.966666666666667
2026-02-06T21:29:06+00:00,SAT-64687,305.205751871908,39.35678894484259,693.369187068563,-3.1589961071951795,110641.40621425968,10.5,10500110641.406214,47.655,-122.3035,60.0,5.983333333333333
2026-02-06T21:29:07+00:00,SAT-64687,305.8382521153357,39.609010164662266,690.2186597939898,-3.1007739609470715,108602.22037321649,10.5,10500108602.220373,47.655,-122.3035,60.0,6.0
2026-02-06T21:29:08+00:00,SAT-64687,306.48109788996743,39.8595870329088,687.1261985801252,-3.041759011179673,106535.26719937219,10.5,10500106535.267199,47.655,-122.3035,60.0,6.016666666666667
2026-02-06T21:29:09+00:00,SAT-64687,307.13438454501846,40.1083514287666,684.0925941050916,-2.9819523851126126,104440.58617272631,10.5,10500104440.586172,47.655,-122.3035,60.0,6.033333333333333
2026-02-06T21:29:10+00:00,SAT-64687,307.7981998663406,40.355130224983675,681.1186359228142,-2.921355904118764,102318.24108546127,10.5,10500102318.241085,47.655,-122.3035,60.0,6.05
2026-02-06T21:29:11+00:00,SAT-64687,308.47262335601204,40.5997453851081,678.2051117707271,-2.8599721702663143,100168.32307301172,10.5,10500100168.323072,47.655,-122.3035,60.0,6.066666666666666
2026-02-06T21:29:12+00:00,SAT-64687,309.1577254989176,40.842014089792514,675.3528067911732,-2.7978045163676275,97990.94886456445,10.5,10500097990.948864,47.655,-122.3035,60.0,6.083333333333333
2026-02-06T21:29:13+00:00,SAT-64687,309.85356698831197,41.081748882264904,672.5625028026167,-2.734857091737389,95786.26378667133,10.5,10500095786.263786,47.655,-122.3035,60.0,6.1
2026-02-06T21:29:14+00:00,SAT-64687,310.5601979432729,41.31875784569129,669.834977485332,-2.671134859316973,93554.44166253248,10.5,10500093554.441662,47.655,-122.3035,60.0,6.116666666666666
2026-02-06T21:29:15+00:00,SAT-64687,311.2776571011289,41.55284480638366,667.1710035699562,-2.606643607964848,91295.6852424583,10.5,10500091295.685242,47.655,-122.3035,60.0,6.133333333333334
2026-02-06T21:29:16+00:00,SAT-64687,312.0059709914416,41.783809565329385,664.5713480137875,-2.5413899953508294,89010.22770620769,10.5,10500089010.227707,47.655,-122.3035,60.0,6.15
2026-02-06T21:29:17+00:00,SAT-64687,312.7451531034833,42.01144816189227,662.0367711343024,-2.4753815560132755,86698.332945185,10.5,10500086698.332945,47.655,-122.3035,60.0,6.166666666666667
2026-02-06T21:29:18+00:00,SAT-64687,313.49520304337454,42.235553167771975,659.568025734638,-2.4086267255404317,84360.2964093731,10.5,10500084360.29641,47.655,-122.3035,60.0,6.183333333333334
2026-02-06T21:29:19+00:00,SAT-64687,314.25610569055465,42.45591401353425,657.1658562049581,-2.3411348342038405,81996.44488434837,10.5,10500081996.444885,47.655,-122.3035,60.0,6.2
2026-02-06T21:29:20+00:00,SAT-64687,315.0278303503116,42.67231734569925,654.8309976301682,-2.2729161735764176,79607.13882452769,10.5,10500079607.138824,47.655,-122.3035,60.0,6.216666666666667
2026-02-06T21:29:21+00:00,SAT-64687,315.8103299316254,42.88454742166355,652.5641748311909,-2.2039819451312375,77192.77055288026,10.5,10500077192.770554,47.655,-122.3035,60.0,6.233333333333333
2026-02-06T21:29:22+00:00,SAT-64687,316.60354012110724,43.09238653197385,650.366101457505,-2.1343443228061774,74753.76645220628,10.5,10500074753.766453,47.655,-122.3035,60.0,6.25
2026-02-06T21:29:23+00:00,SAT-64687,317.40737859688755,43.29561546056059,648.2374790172886,-2.064016420699184,72290.58583368843,10.5,10500072290.585835,47.655,-122.3035,60.0,6.266666666666667
2026-02-06T21:29:24+00:00,SAT-64687,318.2217442597049,43.494013973953194,646.178995939779,-1.9930123273957259,69803.72213918444,10.5,10500069803.72214,47.655,-122.3035,60.0,6.283333333333333
2026-02-06T21:29:25+00:00,SAT-64687,319.04651651300173,43.687361345267746,644.1913266033976,-1.9213471075385526,67293.7029962068,10.5,10500067293.702995,47.655,-122.3035,60.0,6.3
2026-02-06T21:29:26+00:00,SAT-64687,319.8815545910929,43.87543690915941,642.2751303623081,-1.8490367761146995,64761.08931734481,10.5,10500064761.089317,47.655,-122.3035,60.0,6.316666666666666
2026-02-06T21:29:27+00:00,SAT-64687,320.7266969335082,44.05802064392082,640.4310505986233,-1.7760983292442027,62206.47637861566,10.5,10500062206.47638,47.655,-122.3035,60.0,6.333333333333333
2026-02-06T21:29:28+00:00,SAT-64687,321.5817606385092,44.23489378476177,638.6597137438981,-1.7025497098449012,59630.49261690053,10.5,10500059630.492617,47.655,-122.3035,60.0,6.35
2026-02-06T21:29:29+00:00,SAT-64687,322.4465409796039,44.405839460052775,636.9617283348734,-1.6284098280002277,57033.80034331081,10.5,10500057033.800343,47.655,-122.3035,60.0,6.366666666666666
2026-02-06T21:29:30+00:00,SAT-64687,323.32081101948177,44.57064335372241,635.3376840489015,-1.5536985116713002,54417.094016917035,10.5,10500054417.094017,47.655,-122.3035,60.0,6.383333333333334
2026-02-06T21:29:31+00:00,SAT-64687,324.20432129914525,44.729094384223586,633.7881507885296,-1.4784365368578536,51781.10130111233,10.5,10500051781.101301,47.655,-122.3035,60.0,6.4
2026-02-06T21:29:32+00:00,SAT-64687,325.0967996515648,44.88098540507052,632.3136777360028,-1.4026455775125495,49126.58130939961,10.5,10500049126.58131,47.655,-122.3035,60.0,6.416666666666667
2026-02-06T21:29:33+00:00,SAT-64687,325.9979511105326,45.026113915482725,630.9147924577182,-1.3263481954481118,46454.32425189687,10.5,10500046454.324251,47.655,-122.3035,60.0,6.433333333333334
2026-02-06T21:29:34+00:00,SAT-64687,326.907457943332,45.16428278140466,629.5920000187461,-1.2495678070541412,43765.15026961913,10.5,10500043765.15027,47.655,-122.3035,60.0,6.45
2026-02-06T21:29:35+00:00,SAT-64687,327.82497980283034,45.29530096046289,628.3457821305421,-1.1723286794183818,41059.90929862889,10.5,10500041059.909298,47.655,-122.3035,60.0,6.466666666666667
2026-02-06T21:29:36+00:00,SAT-64687,328.7501540272417,45.41898422952252,627.1765963025321,-1.0946558661400896,38339.47882194868,10.5,10500038339.478823,47.655,-122.3035,60.0,6.483333333333333
2026-02-06T21:29:37+00:00,SAT-64687,329.68259605341797,45.53515590387867,626.0848750577065,-1.0165752068223197,35604.763851778946,10.5,10500035604.763851,47.655,-122.3035,60.0,6.5
2026-02-06T21:29:38+00:00,SAT-64687,330.6218999942914,45.64364754986158,625.0710251487263,-0.9381132632200854,32856.694693136335,10.5,10500032856.694693,47.655,-122.3035,60.0,6.516666666666667
2026-02-06T21:29:39+00:00,SAT-64687,331.5676393384562,45.74429967909945,624.1354268377052,-0.8592972955697672,30096.22611480959,10.5,10500030096.226114,47.655,-122.3035,60.0,6.533333333333333
2026-02-06T21:29:40+00:00,SAT-64687,332.5193678052537,45.836962423501085,623.2784331996019,-0.780155213343381,27324.335624565647,10.5,10500027324.335625,47.655,-122.3035,60.0,6.55
2026-02-06T21:29:41+00:00,SAT-64687,333.4766203364038,45.92149618299196,622.500369474724,-0.7007155345940442,24542.022045255937,10.5,10500024542.022045,47.655,-122.3035,60.0,6.566666666666666
2026-02-06T21:29:42+00:00,SAT-64687,334.4389142323741,45.997772241699955,621.8015324617795,-0.6210073272461754,21750.303458550785,10.5,10500021750.30346,47.655,-122.3035,60.0,6.583333333333333
2026-02-06T21:29:43+00:00,SAT-64687,335.4057504097975,46.06567334549438,621.1821899694786,-0.5410601773636486,18950.216093556002,10.5,10500018950.216093,47.655,-122.3035,60.0,6.6
2026-02-06T21:29:44+00:00,SAT-64687,336.37661481189826,46.125094238845755,620.6425802997842,-0.4609041133655871,16142.811672529351,10.5,10500016142.811672,47.655,-122.3035,60.0,6.616666666666666
2026-02-06T21:29:45+00:00,SAT-64687,337.3509799060184,46.17594215147912,620.1829118067417,-0.38056957339179237,13329.156267879895,10.5,10500013329.156267,47.655,-122.3035,60.0,6.633333333333334
2026-02-06T21:29:46+00:00,SAT-64687,338.3283063249785,46.218137235133185,619.8033624878575,-0.30008733161481693,10510.327721305044,10.5,10500010510.32772,47.655,-122.3035,60.0,6.65
2026-02-06T21:29:47+00:00,SAT-64687,339.30804457693074,46.251612941907176,619.5040796489666,-0.21948845314930873,7687.414064525071,10.5,10500007687.414064,47.655,-122.3035,60.0,6.666666666666667
2026-02-06T21:29:48+00:00,SAT-64687,340.28963686511986,46.27631634379043,619.2851796140708,-0.13880422726113395,4861.511179984076,10.5,10500004861.51118,47.655,-122.3035,60.0,6.683333333333334
2026-02-06T21:29:49+00:00,SAT-64687,341.2725189657215,46.29220838795127,619.1467475017878,-0.05806610825620862,2033.7207305268184,10.5,10500002033.72073,47.655,-122.3035,60.0,6.7
2026-02-06T21:29:50+00:00,SAT-64687,342.25612215710225,46.29926408616261,619.0888370607547,0.022694342612959443,-794.8518752799116,10.5,10499999205.148125,47.655,-122.3035,60.0,6.716666666666667
2026-02-06T21:29:51+00:00,SAT-64687,343.239875199633,46.297472636650156,619.111470562967,0.10344552080039922,-3623.0997125491126,10.5,10499996376.900288,47.655,-122.3035,60.0,6.733333333333333
2026-02-06T21:29:52+00:00,SAT-64687,344.2232063337537,46.28683747655556,619.2146387606016,0.18415583988096962,-6449.9164910618965,10.5,10499993550.08351,47.655,-122.3035,60.0,6.75
2026-02-06T21:29:53+00:00,SAT-64687,345.2055452759938,46.26737626474304,619.3983009040892,0.26479379230854094,-9274.198683276016,10.5,10499990725.801317,47.655,-122.3035,60.0,6.766666666666667
2026-02-06T21:29:54+00:00,SAT-64687,346.18632521062386,46.23912079518749,619.6623848207821,0.3453280113152572,-12094.847692299852,10.5,10499987905.152308,47.655,-122.3035,60.0,6.783333333333333
2026-02-06T21:29:55+00:00,SAT-64687,347.1649847456745,46.202116841676485,620.0067870553543,0.42572733187135314,-14910.771986963087,10.5,10499985089.228012,47.655,-122.3035,60.0,6.8
2026-02-06T21:29:56+00:00,SAT-64687,348.14096982752744,46.156423935429046,620.4313730709994,0.50596084892371,-17720.889141577252,10.5,10499982279.110859,47.655,-122.3035,60.0,6.816666666666666
2026-02-06T21:29:57+00:00,SAT-64687,349.1137355845728,46.10211507807949,620.9359775087095,0.5859979753479009,-20524.127865661518,10.5,10499979475.872135,47.655,-122.3035,60.0,6.833333333333333
2026-02-06T21:29:58+00:00,SAT-64687,350.082748096496,46.03927639280599,621.5204045043531,0.6658085042363687,-23319.43018553813,10.5,10499976680.569815,47.655,-122.3035,60.0,6.85
2026-02-06T21:29:59+00:00,SAT-64687,351.04748607978235,45.96800671643628,622.1844280678713,0.7453626554982394,-26105.753076455025,10.5,10499973894.246923,47.655,-122.3035,60.0,6.866666666666666
2026-02-06T21:30:00+00:00,SAT-64687,352.00744245274234,45.88841713800453,622.92779250895,0.8246311379467529,-28882.070637150267,10.5,10499971117.929363,47.655,-122.3035,60.0,6.883333333333334
2026-02-06T21:30:01+00:00,SAT-64687,352.9621258009551,45.8006304863174,623.7502129246151,0.90358519558398,-31647.375710938628,10.5,10499968352.624289,47.655,-122.3035,60.0,6.9
2026-02-06T21:30:02+00:00,SAT-64687,353.9110617096134,45.70478077279839,624.6513757329843,0.9821966553913969,-34400.68155953966,10.5,10499965599.318441,47.655,-122.3035,60.0,6.916666666666667
2026-02-06T21:30:03+00:00,SAT-64687,354.85379396450725,45.60101259430232,625.6309392546858,1.0604379815489287,-37141.02376205792,10.5,10499962858.976238,47.655,-122.3035,60.0,6.933333333333334
2026-02-06T21:30:04+00:00,SAT-64687,355.7898856239152,45.48948050028481,626.6885343483466,1.1382823088012293,-39867.46138361128,10.5,10499960132.538616,47.655,-122.3035,60.0,6.95
2026-02-06T21:30:05+00:00,SAT-64687,356.71891993857815,45.370348331733624,627.8237650793609,1.2157034909595077,-42579.07867407001,10.5,10499957420.921326,47.655,-122.3035,60.0,6.966666666666667
2026-02-06T21:30:06+00:00,SAT-64687,357.64050113678616,45.243788535500386,629.0362094370279,1.2926761390410086,-45274.986403862735,10.5,10499954725.013596,47.655,-122.3035,60.0,6.983333333333333
2026-02-06T21:30:07+00:00,SAT-64687,358.55425506611726,45.10998146037648,630.3254200897295,1.3691756527562748,-47954.32296679353,10.5,10499952045.677032,47.655,-122.3035,60.0,7.0
2026-02-06T21:30:08+00:00,SAT-64687,359.45982968993974,44.969114640739555,631.690925171507,1.4451782516186782,-50616.25546962933,10.5,10499949383.74453,47.655,-122.3035,60.0,7.016666666666667
2026-02-06T21:30:09+00:00,SAT-64687,0.35689544594862854,44.821382072807,633.1322290996676,1.520661008221633,-53259.98089760866,10.5,10499946740.019102,47.655,-122.3035,60.0,7.033333333333333
2026-02-06T21:30:10+00:00,SAT-64687,1.2451454730026155,44.666983488070585,634.6488134255775,1.5956018759614754,-55884.72708541417,10.5,10499944115.272915,47.655,-122.3035,60.0,7.05
2026-02-06T21:30:11+00:00,SAT-64687,2.12429571003585,44.50612362904544,636.2401377131024,1.6699796986058462,-58489.753052297885,10.5,10499941510.246948,47.655,-122.3035,60.0,7.066666666666666
2026-02-06T21:30:12+00:00,SAT-64687,2.994084865000413,44.33901153340468,637.9056404265934,1.7437742473490085,-61074.35029991512,10.5,10499938925.6497,47.655,-122.3035,60.0,7.083333333333333
2026-02-06T21:30:13+00:00,SAT-64687,3.854274279537636,44.16585982765459,639.6447398558262,1.816966224170165,-63637.84292994699,10.5,10499936362.15707,47.655,-122.3035,60.0,7.1
2026-02-06T21:30:14+00:00,SAT-64687,4.704647679150767,43.9868840373144,641.4568350442906,1.8895372751331867,-66179.58810991322,10.5,10499933820.41189,47.655,-122.3035,60.0,7.116666666666666
2026-02-06T21:30:15+00:00,SAT-64687,5.545010826097735,43.80230191577887,643.3413067307454,1.9614700076815887,-68698.97667891525,10.5,10499931301.023321,47.655,-122.3035,60.0,7.133333333333334
2026-02-06T21:30:16+00:00,SAT-64687,6.37519108689638,43.61233279429533,645.2975183080189,2.0327479879717707,-71195.43305423512,10.5,10499928804.566946,47.655,-122.3035,60.0,7.15
2026-02-06T21:30:17+00:00,SAT-64687,7.195036915145561,43.41719695744276,647.3248167791544,2.1033557614697695,-73668.41595272081,10.5,10499926331.584047,47.655,-122.3035,60.0,7.166666666666667
2026-02-06T21:30:18+00:00,SAT-64687,8.004417271194937,43.217115043900776,649.4225337340907,2.1732788303841386,-76117.41760039024,10.5,10499923882.5824,47.655,-122.3035,60.0,7.183333333333334
2026-02-06T21:30:19+00:00,SAT-64687,8.803220970006132,43.01230747832917,651.5899863038429,2.2425036571913437,-78541.96385590563,10.5,10499921458.036144,47.655,-122.3035,60.0,7.2
2026-02-06T21:30:20+00:00,SAT-64687,9.591355980170835,42.80299393309687,653.826478118195,2.311017685868167,-80941.61495422194,10.5,10499919058.385046,47.655,-122.3035,60.0,7.216666666666667
2026-02-06T21:30:21+00:00,SAT-64687,10.368748688267925,42.58939281920808,656.1313002845678,2.3788093010880136,-83315.96407746902,10.5,10499916684.035923,47.655,-122.3035,60.0,7.233333333333333
2026-02-06T21:30:22+00:00,SAT-64687,11.135343115480708,42.37172081287291,658.5037323261953,2.4458678401917733,-85664.63777422185,10.5,10499914335.362226,47.655,-122.3035,60.0,7.25
2026-02-06T21:30:23+00:00,SAT-64687,11.891100114720794,42.150192413052615,660.943043132237,2.5121835561036603,-87987.2946606563,10.5,10499912012.70534,47.655,-122.3035,60.0,7.266666666666667
2026-02-06T21:30:24+00:00,SAT-64687,12.635996540186499,41.925019534534975,663.4484918709079,2.5777476562786332,-90283.62678465263,10.5,10499909716.373215,47.655,-122.3035,60.0,7.283333333333333
2026-02-06T21:30:25+00:00,SAT-64687,13.370024420345898,41.69641112942829,666.0193289414494,2.6425522154635512,-92553.35657032202,10.5,10499907446.643429,47.655,-122.3035,60.0,7.3
2026-02-06T21:30:26+00:00,SAT-64687,14.093190102735624,41.46457284797925,668.6547968390955,2.7065902202700807,-94796.23837913843,10.5,10499905203.761621,47.655,-122.3035,60.0,7.316666666666666
2026-02-06T21:30:27+00:00,SAT-64687,14.80551341720865,41.22970672619647,671.3541310644944,2.7698555169816674,-97012.05668191795,10.5,10499902987.943317,47.655,-122.3035,60.0,7.333333333333333
2026-02-06T21:30:28+00:00,SAT-64687,15.50702683406883,40.99201090811027,674.116560981075,2.8323427919438773,-99200.62537200555,10.5,10499900799.374628,47.655,-122.3035,60.0,7.35
2026-02-06T21:30:29+00:00,SAT-64687,16.197774632576195,40.75167939869738,676.941310652857,2.8940475732486375,-101361.7878242644,10.5,10499898638.212175,47.655,-122.3035,60.0,7.366666666666666
2026-02-06T21:30:30+00:00,SAT-64687,16.87781208924659,40.50890184457335,679.8275996839402,2.954966174984686,-103495.41494249066,10.5,10499896504.585058,47.655,-122.3035,60.0,7.383333333333334
2026-02-06T21:30:31+00:00,SAT-64687,17.547204675232457,40.263863346118605,682.7746440023951,3.015095696495954,-105601.40513343907,10.5,10499894398.594866,47.655,-122.3035,60.0,7.4
2026-02-06T21:30:32+00:00,SAT-64687,18.206027280258347,40.01674429501711,685.7816566434121,3.0744339932925886,-107679.6832880038,10.5,10499892320.316711,47.655,-122.3035,60.0,7.416666666666667
2026-02-06T21:30:33+00:00,SAT-64687,18.854363458503883,39.76772023826679,688.8478485034402,3.1329796566515227,-109730.20006674413,10.5,10499890269.799932,47.655,-122.3035,60.0,7.433333333333334
2026-02-06T21:30:34+00:00,SAT-64687,19.49230470072315,39.516961766528134,691.9724290739837,3.1907319432044017,-111752.92943375587,10.5,10499888247.070566,47.655,-122.3035,60.0,7.45
2026-02-06T21:30:35+00:00,SAT-64687,20.119949724516562,39.26463442931836,695.1546071051692,3.2476908416014076,-113747.87099152035,10.5,10499886252.12901,47.655,-122.3035,60.0,7.466666666666667
2026-02-06T21:30:36+00:00,SAT-64687,20.73740381218581,39.01089866465715,698.3935913358056,3.303856922021161,-115715.0447101047,10.5,10499884284.95529,47.655,-122.3035,60.0,7.483333333333333
2026-02-06T21:30:37+00:00,SAT-64687,21.34477815308192,38.75590975898312,701.6885910733511,3.359231448170917,-117654.49484988255,10.5,10499882345.50515,47.655,-122.3035,60.0,7.5
2026-02-06T21:30:38+00:00,SAT-64687,21.942189243342636,38.49981781519004,705.0388168855833,3.41381620829499,-119566.28404273395,10.5,10499880433.715958,47.655,-122.3035,60.0,7.516666666666667
2026-02-06T21:30:39+00:00,SAT-64687,22.529758288961382,38.24276774930876,708.4434811237305,3.4676136000996642,-121450.49626647538,10.5,10499878549.503733,47.655,-122.3035,60.0,7.533333333333333
2026-02-06T21:30:40+00:00,SAT-64687,23.10761066058003,37.984899294755046,711.901798530299,3.520626543109431,-123307.23377520399,10.5,10499876692.766224,47.655,-122.3035,60.0,7.55
2026-02-06T21:30:41+00:00,SAT-64687,23.675875367508144,37.72634702612304,715.4129867594929,3.5728584730928303,-125136.61690406741,10.5,10499874863.383097,47.655,-122.3035,60.0,7.566666666666666
2026-02-06T21:30:42+00:00,SAT-64687,24.234684565690376,37.46724039492732,718.9762668920737,3.624313298034868,-126938.78252723125,10.5,10499873061.217472,47.655,-122.3035,60.0,7.583333333333333
2026-02-06T21:30:43+00:00,SAT-64687,24.784173092635882,37.20770377891284,722.5908639063116,3.674995403877225,-128713.88425892575,10.5,10499871286.115742,47.655,-122.3035,60.0,7.6
2026-02-06T21:30:44+00:00,SAT-64687,25.324478036371772,36.94785654014458,726.2560071546603,3.724909580265069,-130462.08985278485,10.5,10499869537.910147,47.655,-122.3035,60.0,7.616666666666666
2026-02-06T21:30:45+00:00,SAT-64687,25.85573832524314,36.68781309649492,729.9709307663784,3.7740610619548915,-132183.58265212382,10.5,10499867816.417347,47.655,-122.3035,60.0,7.633333333333334
2026-02-06T21:30:46+00:00,SAT-64687,26.37809435511122,36.42768299724054,733.7348740914464,3.8224554040557033,-133878.55722035837,10.5,10499866121.44278,47.655,-122.3035,60.0,7.65
2026-02-06T21:30:47+00:00,SAT-64687,26.89168762862179,36.1675710133991,737.5470820200628,3.8700985825970866,-135547.22286332303,10.5,10499864452.777136,47.655,-122.3035,60.0,7.666666666666667
2026-02-06T21:30:48+00:00,SAT-64687,27.396660437767544,35.90757722622161,741.4068054024334,3.916996860174183,-137189.7989235904,10.5,10499862810.201077,47.655,-122.3035,60.0,7.683333333333334
2026-02-06T21:30:49+00:00,SAT-64687,27.89315555530395,35.647797129186785,745.3133013345712,3.963156815799511,-138806.5158260081,10.5,10499861193.484175,47.655,-122.3035,60.0,7.7
2026-02-06T21:30:50+00:00,SAT-64687,28.381315957158,35.38832173132857,749.265833473863,4.00858531226801,-140397.61393468446,10.5,10499859602.386065,47.655,-122.3035,60.0,7.716666666666667
2026-02-06T21:30:51+00:00,SAT-64687,28.861284565672346,35.12923766546572,753.2636723220935,4.053289494931215,-141963.34351005504,10.5,10499858036.65649,47.655,-122.3035,60.0,7.733333333333333
2026-02-06T21:30:52+00:00,SAT-64687,29.333204016529532,34.87062729857686,757.3060955072426,4.097276715687146,-143503.96204668708,10.5,10499856496.037952,47.655,-122.3035,60.0,7.75
2026-02-06T21:30:53+00:00,SAT-64687,29.79721643909006,34.612568848471156,761.3923879894795,4.140554577055036,-145019.73581696264,10.5,10499854980.264183,47.655,-122.3035,60.0,7.766666666666667
2026-02-06T21:30:54+00:00,SAT-64687,30.253463263628003,34.35513649842514,765.5218423111098,4.183130856727685,-146510.93722858327,10.5,10499853489.06277,47.655,-122.3035,60.0,7.783333333333333
2026-02-06T21:30:55+00:00,SAT-64687,30.702085039856506,34.09840051690824,769.6937587712825,4.225013526915198,-147977.84550206922,10.5,10499852022.154497,47.655,-122.3035,60.0,7.8
2026-02-06T21:30:56+00:00,SAT-64687,31.143221276909465,33.842427375871054,773.9074456199841,4.2662107215052245,-149420.7455205723,10.5,10499850579.25448,47.655,-122.3035,60.0,7.816666666666666
2026-02-06T21:30:57+00:00,SAT-64687,31.577010297404552,33.587279870484856,778.1622192192818,4.306730704396795,-150839.92672079278,10.5,10499849160.073278,47.655,-122.3035,60.0,7.833333333333333
2026-02-06T21:30:58+00:00,SAT-64687,32.00358910505559,33.333017239762825,782.457404172989,4.346581887734358,-152235.68373161257,10.5,10499847764.316269,47.655,-122.3035,60.0,7.85
2026-02-06T21:30:59+00:00,SAT-64687,32.423093269795956,33.07969528475646,786.7923334745108,4.385772783992061,-153608.31469588418,10.5,10499846391.685305,47.655,-122.3035,60.0,7.866666666666666
2026-02-06T21:31:00+00:00,SAT-64687,32.835656822611,32.82736648796743,791.1663486069054,4.424311986025996,-154958.1205717756,10.5,10499845041.879429,47.655,-122.3035,60.0,7.883333333333334
2026-02-06T21:31:01+00:00,SAT-64687,33.2414121622356,32.576080131950675,795.5787996230522,4.462208207873322,-156285.4065617284,10.5,10499843714.59344,47.655,-122.3035,60.0,7.9
2026-02-06T21:31:02+00:00,SAT-64687,33.64048997832074,32.32588241345586,800.0290452665047,4.4994701702631765,-157590.4781025657,10.5,10499842409.521898,47.655,-122.3035,60.0,7.916666666666667
2026-02-06T21:31:03+00:00,SAT-64687,34.03301917569981,32.076816561714466,804.5164529781683,4.536106729880986,-158873.64539287493,10.5,10499841126.354607,47.655,-122.3035,60.0,7.933333333333334
2026-02-06T21:31:04+00:00,SAT-64687,34.419126821378555,31.82892294694753,809.0403990318891,4.572126670233866,-160135.2160682294,10.5,10499839864.783932,47.655,-122.3035,60.0,7.95
2026-02-06T21:31:05+00:00,SAT-64687,34.79893808301748,31.5822391977857,813.6002684614734,4.6075389169874,-161375.5027431934,10.5,10499838624.497257,47.655,-122.3035,60.0,7.966666666666667
2026-02-06T21:31:06+00:00,SAT-64687,35.172576195644595,31.336800304041304,818.1954552024648,4.64235235280327,-162594.8165261527,10.5,10499837405.183474,47.655,-122.3035,60.0,7.983333333333333
2026-02-06T21:31:07+00:00,SAT-64687,35.540162420820984,31.092638726751396,822.825362049255,4.676575869708885,-163793.4688535203,10.5,10499836206.531147,47.655,-122.3035,60.0,8.0
2026-02-06T21:31:08+00:00,SAT-64687,35.901816018409214,30.849784502319125,827.4894006644245,4.710218372375018,-164971.77160453348,10.5,10499835028.228395,47.655,-122.3035,60.0,8.016666666666667
2026-02-06T21:31:09+00:00,SAT-64687,36.25765422582542,30.608265343483662,832.1869915913531,4.743288728464133,-166130.03536224182,10.5,10499833869.964638,47.655,-122.3035,60.0,8.033333333333333
2026-02-06T21:31:10+00:00,SAT-64687,36.60779223999657,30.36810673979362,836.9175642173103,4.775795823883657,-167268.57134871083,10.5,10499832731.428652,47.655,-122.3035,60.0,8.05
2026-02-06T21:31:11+00:00,SAT-64687,36.95234320966214,30.12933205215908,841.6805567916498,4.807748474398045,-168387.68832930241,10.5,10499831612.31167,47.655,-122.3035,60.0,8.066666666666666
