DopplerPredictor/satellites_20260211_204923/SAT-56882.csv

timestamp,satellite,azimuth_deg,elevation_deg,distance_km,relative_velocity_kms,doppler_shift_hz,tx_freq_ghz,rx_freq_hz,ue_lat,ue_lon,ue_alt_m,time_minutes
2026-02-06T21:24:02+00:00,SAT-56882,229.04043346774074,30.100973178630532,1010.3705501742002,-4.488312782281467,157199.69917974187,10.5,10500157199.69918,47.655,-122.3035,60.0,0.9166666666666666
2026-02-06T21:24:03+00:00,SAT-56882,228.74409911668414,30.29568317163573,1005.8942699391012,-4.460469151022146,156224.497434597,10.5,10500156224.497435,47.655,-122.3035,60.0,0.9333333333333333
2026-02-06T21:24:04+00:00,SAT-56882,228.44389508993567,30.491092581214705,1001.4457586903278,-4.432247944336633,155236.07140088442,10.5,10500155236.071402,47.655,-122.3035,60.0,0.95
2026-02-06T21:24:05+00:00,SAT-56882,228.13976244185056,30.687182812587572,997.0253929910798,-4.403644879460626,154234.27107808218,10.5,10500154234.271078,47.655,-122.3035,60.0,0.9666666666666667
2026-02-06T21:24:06+00:00,SAT-56882,227.83164157306467,30.88393423511905,992.6335536758378,-4.374655665377349,153218.94617663187,10.5,10500153218.946177,47.655,-122.3035,60.0,0.9833333333333333
2026-02-06T21:24:07+00:00,SAT-56882,227.5194722489126,31.081326148849953,988.2706258585968,-4.34527604279196,152189.94751801123,10.5,10500152189.947517,47.655,-122.3035,60.0,1.0
2026-02-06T21:24:08+00:00,SAT-56882,227.2031936174492,31.27933675218709,983.9369989012279,-4.3155017700592015,151147.12654186122,10.5,10500151147.126541,47.655,-122.3035,60.0,1.0166666666666666
2026-02-06T21:24:09+00:00,SAT-56882,226.88274423087128,31.4779431084025,979.6330663958748,-4.285328626725435,150090.33543004296,10.5,10500150090.33543,47.655,-122.3035,60.0,1.0333333333333334
2026-02-06T21:24:10+00:00,SAT-56882,226.55806206934608,31.67712111173507,975.3592261438222,-4.25475244404127,149019.428175319,10.5,10500149019.428175,47.655,-122.3035,60.0,1.05
2026-02-06T21:24:11+00:00,SAT-56882,226.22908456524576,31.87684545440564,971.1158801039275,-4.223769031697998,147934.25801535332,10.5,10500147934.258015,47.655,-122.3035,60.0,1.0666666666666667
2026-02-06T21:24:12+00:00,SAT-56882,225.8957486360308,32.07708958971925,966.9034344141232,-4.19237430734562,146834.6819689807,10.5,10500146834.681969,47.655,-122.3035,60.0,1.0833333333333333
2026-02-06T21:24:13+00:00,SAT-56882,225.55799071014002,32.27782570081611,962.7222992837484,-4.160564199070686,145720.55742056793,10.5,10500145720.55742,47.655,-122.3035,60.0,1.1
2026-02-06T21:24:14+00:00,SAT-56882,225.2157467636496,32.479024664479894,958.5728889831377,-4.128334646337644,144591.7421529839,10.5,10500144591.742153,47.655,-122.3035,60.0,1.1166666666666667
2026-02-06T21:24:15+00:00,SAT-56882,224.8689523606758,32.68065601457635,954.4556218322764,-4.0956817250468545,143448.09872766037,10.5,10500143448.098728,47.655,-122.3035,60.0,1.1333333333333333
2026-02-06T21:24:16+00:00,SAT-56882,224.5175426868459,32.88268791129433,950.3709200647302,-4.062601489916085,142289.48896412493,10.5,10500142289.488964,47.655,-122.3035,60.0,1.15
2026-02-06T21:24:17+00:00,SAT-56882,224.16145259982713,33.08508710253308,946.3192098487701,-4.029090110491031,141115.77870366513,10.5,10500141115.778704,47.655,-122.3035,60.0,1.1666666666666667
2026-02-06T21:24:18+00:00,SAT-56882,223.80061667230734,33.28781889178257,942.3009211728505,-3.995143799616703,139926.83530409355,10.5,10500139926.835304,47.655,-122.3035,60.0,1.1833333333333333
2026-02-06T21:24:19+00:00,SAT-56882,223.43496924536475,33.490847102434664,938.3164878024303,-3.9607588435515977,138722.5286944736,10.5,10500138722.528694,47.655,-122.3035,60.0,1.2
2026-02-06T21:24:20+00:00,SAT-56882,223.06444448364348,33.694134043580696,934.366347206754,-3.9259316401281437,137502.73271165983,10.5,10500137502.732712,47.655,-122.3035,60.0,1.2166666666666666
2026-02-06T21:24:21+00:00,SAT-56882,222.688976431523,33.89764047789066,930.4509404475745,-3.8906586404720946,136267.3230590644,10.5,10500136267.32306,47.655,-122.3035,60.0,1.2333333333333334
2026-02-06T21:24:22+00:00,SAT-56882,222.30849907955212,34.10132558671632,926.5707121260067,-3.8549363999655313,135016.17909159703,10.5,10500135016.179092,47.655,-122.3035,60.0,1.25
2026-02-06T21:24:23+00:00,SAT-56882,221.92294643119317,34.30514693809689,922.726110278548,-3.818761601408349,133749.18462687833,10.5,10500133749.184628,47.655,-122.3035,60.0,1.2666666666666666
2026-02-06T21:24:24+00:00,SAT-56882,221.53225257227973,34.50906045644545,918.9175862500038,-3.7821309776586896,132466.2252357804,10.5,10500132466.225235,47.655,-122.3035,60.0,1.2833333333333334
2026-02-06T21:24:25+00:00,SAT-56882,221.13635175387608,34.713020388658116,915.1455946435623,-3.745041438644309,131167.19269090233,10.5,10500131167.192692,47.655,-122.3035,60.0,1.3
2026-02-06T21:24:26+00:00,SAT-56882,220.735178467753,34.91697927764564,911.4105931441991,-3.707489960109453,129851.98107001497,10.5,10500129851.98107,47.655,-122.3035,60.0,1.3166666666666667
2026-02-06T21:24:27+00:00,SAT-56882,220.328667539306,35.120887930700704,907.7130424530392,-3.6694736906631005,128520.49050534338,10.5,10500128520.490505,47.655,-122.3035,60.0,1.3333333333333333
2026-02-06T21:24:28+00:00,SAT-56882,219.91675421520392,35.32469539459527,904.0534061149535,-3.6309898990259954,127172.62533593475,10.5,10500127172.625336,47.655,-122.3035,60.0,1.35
2026-02-06T21:24:29+00:00,SAT-56882,219.49937426281798,35.528348928921865,900.4321503987701,-3.5920359645349533,125808.29377507891,10.5,10500125808.293776,47.655,-122.3035,60.0,1.3666666666666667
2026-02-06T21:24:30+00:00,SAT-56882,219.07646407763076,35.73179398008674,896.8497441869553,-3.5526094722165382,124427.41124019086,10.5,10500124427.41124,47.655,-122.3035,60.0,1.3833333333333333
2026-02-06T21:24:31+00:00,SAT-56882,218.6479607861562,35.93497416205662,893.3066587704737,-3.5127081417049135,123029.89786321307,10.5,10500123029.897863,47.655,-122.3035,60.0,1.4
2026-02-06T21:24:32+00:00,SAT-56882,218.2138023638636,36.137831234746415,889.8033677145429,-3.4723298418574764,121615.6790025168,10.5,10500121615.679003,47.655,-122.3035,60.0,1.4166666666666667
2026-02-06T21:24:33+00:00,SAT-56882,217.77392775864658,36.34030508494471,886.3403467098099,-3.431472633716325,120184.6867475946,10.5,10500120184.686749,47.655,-122.3035,60.0,1.4333333333333333
2026-02-06T21:24:34+00:00,SAT-56882,217.32827701621827,36.54233371167743,882.9180733806813,-3.390134769681517,118736.85989010414,10.5,10500118736.85989,47.655,-122.3035,60.0,1.45
2026-02-06T21:24:35+00:00,SAT-56882,216.8767914126474,36.7438532137356,879.5370270944786,-3.3483146599055407,117272.1427468605,10.5,10500117272.142746,47.655,-122.3035,60.0,1.4666666666666666
2026-02-06T21:24:36+00:00,SAT-56882,216.41941359892974,36.944797777572724,876.197688804109,-3.3060109573771843,115790.48813983316,10.5,10500115790.48814,47.655,-122.3035,60.0,1.4833333333333334
2026-02-06T21:24:37+00:00,SAT-56882,215.95608774168414,37.145099672838924,872.9005408058791,-3.263222475612547,114291.85451333717,10.5,10500114291.854513,47.655,-122.3035,60.0,1.5
2026-02-06T21:24:38+00:00,SAT-56882,215.4867596826965,37.34468924581963,869.6460665793988,-3.21994828655888,112776.20936303955,10.5,10500112776.209364,47.655,-122.3035,60.0,1.5166666666666666
2026-02-06T21:24:39+00:00,SAT-56882,215.011377092504,37.54349492180264,866.4347505298434,-3.17618765442221,111243.52691832297,10.5,10500111243.526918,47.655,-122.3035,60.0,1.5333333333333334
2026-02-06T21:24:40+00:00,SAT-56882,214.52988964101854,37.74144320672197,863.2670777962087,-3.131940091726393,109693.79010571081,10.5,10500109693.790106,47.655,-122.3035,60.0,1.55
2026-02-06T21:24:41+00:00,SAT-56882,214.04224916778196,37.93845869573426,860.1435340036604,-3.087205335803632,108126.9897254658,10.5,10500108126.989725,47.655,-122.3035,60.0,1.5666666666666667
2026-02-06T21:24:42+00:00,SAT-56882,213.54840986335117,38.134464084101694,857.0646050393281,-3.041983393251128,106543.12600864978,10.5,10500106543.126009,47.655,-122.3035,60.0,1.5833333333333333
2026-02-06T21:24:43+00:00,SAT-56882,213.0483284513432,38.329380184873145,854.0307767837604,-2.9962745276293665,104942.20818626582,10.5,10500104942.208187,47.655,-122.3035,60.0,1.6
2026-02-06T21:24:44+00:00,SAT-56882,212.54196437949864,38.52312595008665,851.0425348546538,-2.950079224792507,103324.25327498173,10.5,10500103324.253275,47.655,-122.3035,60.0,1.6166666666666667
2026-02-06T21:24:45+00:00,SAT-56882,212.02928002430858,38.71561849419439,848.100364385152,-2.903398302119423,101689.28990286321,10.5,10500101689.289904,47.655,-122.3035,60.0,1.6333333333333333
2026-02-06T21:24:46+00:00,SAT-56882,211.510240883973,38.90677312930728,845.2047496932115,-2.856232827640947,100037.35547686776,10.5,10500100037.355476,47.655,-122.3035,60.0,1.65
2026-02-06T21:24:47+00:00,SAT-56882,210.98481579173335,39.09650340024629,842.3561740316213,-2.808584144438481,98368.49703738728,10.5,10500098368.497038,47.655,-122.3035,60.0,1.6666666666666667
2026-02-06T21:24:48+00:00,SAT-56882,210.4529771318343,39.28472112636942,839.5551193136895,-2.7604539305296942,96682.7733556986,10.5,10500096682.773355,47.655,-122.3035,60.0,1.6833333333333333
2026-02-06T21:24:49+00:00,SAT-56882,209.91470105014972,39.47133645290296,836.8020657792049,-2.7118441359890326,94980.25273165759,10.5,10500094980.252731,47.655,-122.3035,60.0,1.7
2026-02-06T21:24:50+00:00,SAT-56882,209.36996768197525,39.656257903817036,834.09749172311,-2.662757026433415,93261.0145167523,10.5,10500093261.014517,47.655,-122.3035,60.0,1.7166666666666666
2026-02-06T21:24:51+00:00,SAT-56882,208.81876137684023,39.83939244353514,831.4418731808041,-2.613195199267478,91525.14968308013,10.5,10500091525.149683,47.655,-122.3035,60.0,1.7333333333333334
2026-02-06T21:24:52+00:00,SAT-56882,208.2610709240402,40.02064554594979,828.8356835972451,-2.563161557605931,89772.75990999838,10.5,10500089772.75991,47.655,-122.3035,60.0,1.75
2026-02-06T21:24:53+00:00,SAT-56882,207.69688978727675,40.19992126801,826.2793935220585,-2.512659355271588,88003.95916014563,10.5,10500088003.95916,47.655,-122.3035,60.0,1.7666666666666666
2026-02-06T21:24:54+00:00,SAT-56882,207.1262163325777,40.377122332974565,823.7734702597713,-2.4616921560189917,86218.87225128063,10.5,10500086218.872252,47.655,-122.3035,60.0,1.7833333333333334
2026-02-06T21:24:55+00:00,SAT-56882,206.5490540672955,40.55215021753021,821.3183775607093,-2.4102638985696423,84417.63713409108,10.5,10500084417.637135,47.655,-122.3035,60.0,1.8
2026-02-06T21:24:56+00:00,SAT-56882,205.96541186536072,40.72490525034786,818.9145752470354,-2.3583788342832914,82600.40270917876,10.5,10500082600.40271,47.655,-122.3035,60.0,1.8166666666666667
2026-02-06T21:24:57+00:00,SAT-56882,205.3753042071868,40.89528671321424,816.5625189009504,-2.306041598321162,80767.33131949637,10.5,10500080767.33132,47.655,-122.3035,60.0,1.8333333333333333
2026-02-06T21:24:58+00:00,SAT-56882,204.7787514014698,41.06319295430512,814.2626594819205,-2.253257159452765,78918.59699237008,10.5,10500078918.596992,47.655,-122.3035,60.0,1.85
2026-02-06T21:24:59+00:00,SAT-56882,204.17577981700583,41.228521505018854,812.0154429939627,-2.2000308545937526,77054.38664916116,10.5,10500077054.38665,47.655,-122.3035,60.0,1.8666666666666667
2026-02-06T21:25:00+00:00,SAT-56882,203.56642210258113,41.39116920645436,809.8213101184862,-2.1463683898294748,75174.90014111524,10.5,10500075174.90014,47.655,-122.3035,60.0,1.8833333333333333
2026-02-06T21:25:01+00:00,SAT-56882,202.95071740133648,41.551032343178115,807.6806958461109,-2.0922758242958963,73280.34968480398,10.5,10500073280.349686,47.655,-122.3035,60.0,1.9
2026-02-06T21:25:02+00:00,SAT-56882,202.32871156354219,41.70800678291459,805.5940291245657,-2.037759602116893,71370.96098070413,10.5,10500071370.960981,47.655,-122.3035,60.0,1.9166666666666667
2026-02-06T21:25:03+00:00,SAT-56882,201.7004573424078,41.86198812568422,803.5617324747316,-1.9828265156392504,69446.97192553166,10.5,10500069446.971926,47.655,-122.3035,60.0,1.9333333333333333
2026-02-06T21:25:04+00:00,SAT-56882,201.0660145916175,42.0128718571178,801.5842216433507,-1.9274837517941228,67508.63423601634,10.5,10500067508.634235,47.655,-122.3035,60.0,1.95
2026-02-06T21:25:05+00:00,SAT-56882,200.42545043762203,42.160553512040835,799.661905209502,-1.8717388555106746,65556.2121674925,10.5,10500065556.212168,47.655,-122.3035,60.0,1.9666666666666666
2026-02-06T21:25:06+00:00,SAT-56882,199.7788394506272,42.304928841862996,797.7951842275631,-1.8155997403331714,63589.98288575459,10.5,10500063589.982885,47.655,-122.3035,60.0,1.9833333333333334
2026-02-06T21:25:07+00:00,SAT-56882,199.12626379821032,42.445893989055676,795.9844518595811,-1.7590747007432765,61610.23689863607,10.5,10500061610.236898,47.655,-122.3035,60.0,2.0
2026-02-06T21:25:08+00:00,SAT-56882,198.46781337831817,42.583345668582844,794.2300929953583,-1.702172388495814,59617.27722718777,10.5,10500059617.277227,47.655,-122.3035,60.0,2.0166666666666666
2026-02-06T21:25:09+00:00,SAT-56882,197.80358594272028,42.71718135313497,792.5324838961361,-1.6449018273350346,57611.41992110376,10.5,10500057611.419922,47.655,-122.3035,60.0,2.033333333333333
2026-02-06T21:25:10+00:00,SAT-56882,197.13368719551843,42.84729946471966,790.8919918236039,-1.587272402114012,55592.99367763657,10.5,10500055592.993677,47.655,-122.3035,60.0,2.05
2026-02-06T21:25:11+00:00,SAT-56882,196.45823087406347,42.973599570162236,789.3089746797563,-1.5292938551191964,53562.3397128675,10.5,10500053562.339712,47.655,-122.3035,60.0,2.066666666666667
2026-02-06T21:25:12+00:00,SAT-56882,195.777338808126,43.09598258055608,787.7837806504203,-1.4709762865475065,51519.81177841645,10.5,10500051519.811779,47.655,-122.3035,60.0,2.0833333333333335
2026-02-06T21:25:13+00:00,SAT-56882,195.09114095359786,43.21435095442313,786.3167478483022,-1.4123301435829083,49465.775778857445,10.5,10500049465.77578,47.655,-122.3035,60.0,2.1
2026-02-06T21:25:14+00:00,SAT-56882,194.3997754038794,43.328608903070474,784.9082039669325,-1.3533662073401214,47400.60931443203,10.5,10500047400.609314,47.655,-122.3035,60.0,2.1166666666666667
2026-02-06T21:25:15+00:00,SAT-56882,193.7033883793895,43.438662597275275,783.5584659476299,-1.2940956091154545,45324.70225022229,10.5,10500045324.70225,47.655,-122.3035,60.0,2.1333333333333333
2026-02-06T21:25:16+00:00,SAT-56882,193.0021341784968,43.54442037698223,782.2678396302572,-1.2345297977584615,43238.45557336818,10.5,10500043238.455574,47.655,-122.3035,60.0,2.15
2026-02-06T21:25:17+00:00,SAT-56882,192.2961751128595,43.645792959292386,781.0366194365215,-1.1746805458249576,41142.2816085722,10.5,10500041142.281609,47.655,-122.3035,60.0,2.1666666666666665
2026-02-06T21:25:18+00:00,SAT-56882,191.58568140648302,43.742693647104375,779.865088047134,-1.1145599274238474,39036.60324220163,10.5,10500039036.603243,47.655,-122.3035,60.0,2.183333333333333
2026-02-06T21:25:19+00:00,SAT-56882,190.87083107305497,43.83503853525656,778.7535161010662,-1.0541803287124967,36921.854289880815,10.5,10500036921.85429,47.655,-122.3035,60.0,2.2
2026-02-06T21:25:20+00:00,SAT-56882,190.15180975053102,43.922746716027866,777.7021618843381,-0.9935544164541951,34798.47839524051,10.5,10500034798.478395,47.655,-122.3035,60.0,2.216666666666667
2026-02-06T21:25:21+00:00,SAT-56882,189.42881051803266,44.00574047964068,776.7112710501639,-0.9326951377359634,32666.929020034306,10.5,10500032666.92902,47.655,-122.3035,60.0,2.2333333333333334
2026-02-06T21:25:22+00:00,SAT-56882,188.7020336752268,44.08394551146088,775.7810763393801,-0.8716157015889144,30527.668800405918,10.5,10500030527.6688,47.655,-122.3035,60.0,2.25
2026-02-06T21:25:23+00:00,SAT-56882,187.97168649583963,44.15729108347887,774.9117973192045,-0.8103295756873663,28381.169431278173,10.5,10500028381.169432,47.655,-122.3035,60.0,2.2666666666666666
2026-02-06T21:25:24+00:00,SAT-56882,187.23798294303305,44.22571024043746,774.103640125284,-0.7488504574613754,26227.91065459172,10.5,10500026227.910654,47.655,-122.3035,60.0,2.283333333333333
2026-02-06T21:25:25+00:00,SAT-56882,186.5011433683471,44.28913997754863,773.3567972325578,-0.6871922788231806,24068.380424845098,10.5,10500024068.380424,47.655,-122.3035,60.0,2.3
2026-02-06T21:25:26+00:00,SAT-56882,185.76139416456982,44.347521411744104,772.6714472214016,-0.6253691733663187,21903.073760269002,10.5,10500021903.073761,47.655,-122.3035,60.0,2.316666666666667
2026-02-06T21:25:27+00:00,SAT-56882,185.0189674076194,44.40079994241697,772.0477545764882,-0.5633954745796125,19732.492680272604,10.5,10500019732.49268,47.655,-122.3035,60.0,2.3333333333333335
2026-02-06T21:25:28+00:00,SAT-56882,184.274100457949,44.44892540344447,771.4858694874273,-0.5012856901879178,17557.145306747967,10.5,10500017557.145308,47.655,-122.3035,60.0,2.35
2026-02-06T21:25:29+00:00,SAT-56882,183.5270355475695,44.491852203652435,770.9859276749974,-0.43905449424701765,15377.545587199815,10.5,10500015377.545588,47.655,-122.3035,60.0,2.3666666666666667
2026-02-06T21:25:30+00:00,SAT-56882,182.77801933247477,44.529539456474595,770.5480502252598,-0.37671670110689015,13194.212382829011,10.5,10500013194.212383,47.655,-122.3035,60.0,2.3833333333333333
2026-02-06T21:25:31+00:00,SAT-56882,182.0273024371424,44.56195109654071,770.172343449642,-0.31428725960300885,11007.66926508736,10.5,10500011007.669266,47.655,-122.3035,60.0,2.4
2026-02-06T21:25:32+00:00,SAT-56882,181.27513895942786,44.58905598428704,769.8588987508101,-0.2517812233442918,8818.443475035867,10.5,10500008818.443476,47.655,-122.3035,60.0,2.4166666666666665
2026-02-06T21:25:33+00:00,SAT-56882,180.5217859803029,44.61082799593385,769.60779251818,-0.18921374169575753,6627.065607519233,10.5,10500006627.065607,47.655,-122.3035,60.0,2.433333333333333
2026-02-06T21:25:34+00:00,SAT-56882,179.76750304177338,44.62724610009582,769.419086032414,-0.12660003768100242,4434.068837217131,10.5,10500004434.068838,47.655,-122.3035,60.0,2.45
2026-02-06T21:25:35+00:00,SAT-56882,179.0125516201521,44.63829441947362,769.2928253919634,-0.06395539127180801,2239.988333375565,10.5,10500002239.988333,47.655,-122.3035,60.0,2.466666666666667
2026-02-06T21:25:36+00:00,SAT-56882,178.25719458136354,44.643962277708994,769.2290414562698,-0.0012951186812344706,45.360534563421005,10.5,10500000045.360535,47.655,-122.3035,60.0,2.4833333333333334
2026-02-06T21:25:37+00:00,SAT-56882,177.5016956448585,44.64424423080612,769.227749809623,0.06136544348267163,-2149.2774063317233,10.5,10499997850.722593,47.655,-122.3035,60.0,2.5
2026-02-06T21:25:38+00:00,SAT-56882,176.7463188245725,44.63914008334157,769.2889507408202,0.12401095879749097,-4343.388342923741,10.5,10499995656.611656,47.655,-122.3035,60.0,2.5166666666666666
2026-02-06T21:25:39+00:00,SAT-56882,175.99132787906532,44.62865488896422,769.4126292433505,0.1866261095131798,-6536.43578281208,10.5,10499993463.564217,47.655,-122.3035,60.0,2.533333333333333
2026-02-06T21:25:40+00:00,SAT-56882,175.23698575935498,44.61279893536164,769.5987550340185,0.24919561467772763,-8727.884522418974,10.5,10499991272.115479,47.655,-122.3035,60.0,2.55
2026-02-06T21:25:41+00:00,SAT-56882,174.4835540640465,44.59158771381544,769.8472825896423,0.31170424722515805,-10917.201245483498,10.5,10499989082.798754,47.655,-122.3035,60.0,2.566666666666667
2026-02-06T21:25:42+00:00,SAT-56882,173.73129250231244,44.56504187360148,770.1581512007958,0.3741368561579236,-13103.85529998289,10.5,10499986896.1447,47.655,-122.3035,60.0,2.5833333333333335
2026-02-06T21:25:43+00:00,SAT-56882,172.98045835741502,44.53318716108391,770.5312850476735,0.4364783831021649,-15287.319277967732,10.5,10499984712.680721,47.655,-122.3035,60.0,2.6
2026-02-06T21:25:44+00:00,SAT-56882,172.23130597039875,44.496054344320484,770.9665932924644,0.4987138750541166,-17467.069461995015,10.5,10499982532.930538,47.655,-122.3035,60.0,2.6166666666666667
2026-02-06T21:25:45+00:00,SAT-56882,171.48408624513482,44.4536791239488,771.4639701844422,0.5608285106789554,-19642.586746225057,10.5,10499980357.413254,47.655,-122.3035,60.0,2.6333333333333333
2026-02-06T21:25:46+00:00,SAT-56882,170.73904615527553,44.40610202970364,772.0232951912783,0.6228076131696503,-21813.357086792785,10.5,10499978186.642914,47.655,-122.3035,60.0,2.65
2026-02-06T21:25:47+00:00,SAT-56882,169.99642828037818,44.35336830429655,772.6444331431843,0.6846366648066957,-23978.872011751228,10.5,10499976021.127989,47.655,-122.3035,60.0,2.6666666666666665
2026-02-06T21:25:48+00:00,SAT-56882,169.256470365398,44.29552777516257,773.3272343915726,0.7463013267405668,-26138.629313936748,10.5,10499973861.370686,47.655,-122.3035,60.0,2.683333333333333
2026-02-06T21:25:49+00:00,SAT-56882,168.5194048990199,44.23263471433337,774.0715349874458,0.8077874557533147,-28292.13363803103,10.5,10499971707.866362,47.655,-122.3035,60.0,2.7
2026-02-06T21:25:50+00:00,SAT-56882,167.78545871734195,44.16474768745746,774.877156876505,0.8690811163972698,-30438.896905709797,10.5,10499969561.103094,47.655,-122.3035,60.0,2.716666666666667
2026-02-06T21:25:51+00:00,SAT-56882,167.0548526374638,44.091929393159674,775.7439081063624,0.9301685957853797,-32578.438833663007,10.5,10499967421.561167,47.655,-122.3035,60.0,2.7333333333333334
2026-02-06T21:25:52+00:00,SAT-56882,166.32780111845267,44.0142464933567,776.6715830485059,0.9910364194198408,-34710.28748798053,10.5,10499965289.712513,47.655,-122.3035,60.0,2.75
2026-02-06T21:25:53+00:00,SAT-56882,165.60451194958597,43.93176943530388,777.6599626360482,1.0516713701572091,-36833.97994839048,10.5,10499963166.020052,47.655,-122.3035,60.0,2.7666666666666666
2026-02-06T21:25:54+00:00,SAT-56882,164.8851859648974,43.84457226601524,778.7088146203927,1.1120604897040902,-38949.06236064467,10.5,10499961050.93764,47.655,-122.3035,60.0,2.783333333333333
2026-02-06T21:25:55+00:00,SAT-56882,164.17001679629766,43.752732441399715,779.8178938293883,1.1721910931966948,-41055.09044715626,10.5,10499958944.909554,47.655,-122.3035,60.0,2.8
2026-02-06T21:25:56+00:00,SAT-56882,163.45919065433358,43.656330629937926,780.9869424400265,1.2320507961058649,-43151.630449327655,10.5,10499956848.36955,47.655,-122.3035,60.0,2.816666666666667
2026-02-06T21:25:57+00:00,SAT-56882,162.75288613029312,43.55545051078204,782.2156902779709,1.2916275010876512,-45238.25866700201,10.5,10499954761.741333,47.655,-122.3035,60.0,2.8333333333333335
2026-02-06T21:25:58+00:00,SAT-56882,162.0512740436145,43.45017857048497,783.5038551039727,1.3509094300692581,-47314.56258224885,10.5,10499952685.437418,47.655,-122.3035,60.0,2.85
2026-02-06T21:25:59+00:00,SAT-56882,161.35451730610538,43.34060389550674,784.8511429322857,1.4098851154316874,-49380.140550542856,10.5,10499950619.85945,47.655,-122.3035,60.0,2.8666666666666667
2026-02-06T21:26:00+00:00,SAT-56882,160.66277082593407,43.226817964712325,786.2572483402869,1.4685434192126914,-51434.6024733326,10.5,10499948565.397526,47.655,-122.3035,60.0,2.8833333333333333
2026-02-06T21:26:01+00:00,SAT-56882,159.97618143436995,43.1089144403892,787.7218547972519,1.5268735472213106,-53477.57029239128,10.5,10499946522.429708,47.655,-122.3035,60.0,2.9
2026-02-06T21:26:02+00:00,SAT-56882,159.29488783808355,42.98698895901662,789.2446350072013,1.5848650311622574,-55508.677363737086,10.5,10499944491.322636,47.655,-122.3035,60.0,2.9166666666666665
2026-02-06T21:26:03+00:00,SAT-56882,158.61902060982248,42.86113892509756,790.8252512339263,1.6425077662876315,-57527.569776355514,10.5,10499942472.430223,47.655,-122.3035,60.0,2.933333333333333
2026-02-06T21:26:04+00:00,SAT-56882,157.94870219051262,42.731463304325295,792.4633556635589,1.6997919895302578,-59533.905586336354,10.5,10499940466.094414,47.655,-122.3035,60.0,2.95
2026-02-06T21:26:05+00:00,SAT-56882,157.28404692807712,42.59806242149269,794.1585907453364,1.75670830516675,-61527.355715702746,10.5,10499938472.644285,47.655,-122.3035,60.0,2.966666666666667
2026-02-06T21:26:06+00:00,SAT-56882,156.62516113065112,42.46103776001059,795.9105895579628,1.8132476827582054,-63507.6038802856,10.5,10499936492.39612,47.655,-122.3035,60.0,2.9833333333333334
2026-02-06T21:26:07+00:00,SAT-56882,155.97214314462383,42.320491765792504,797.7189761739115,1.8694014378064705,-65474.345912224184,10.5,10499934525.654087,47.655,-122.3035,60.0,3.0
2026-02-06T21:26:08+00:00,SAT-56882,155.32508346098209,42.176527657357,799.5833660044409,1.9251612787546868,-67427.29140612407,10.5,10499932572.708593,47.655,-122.3035,60.0,3.0166666666666666
2026-02-06T21:26:09+00:00,SAT-56882,154.68406482445764,42.02924923746269,801.5033661914796,1.980519267984346,-69366.162353009,10.5,10499930633.837646,47.655,-122.3035,60.0,3.033333333333333
2026-02-06T21:26:10+00:00,SAT-56882,154.0491623748824,41.8787607133794,803.4785759606181,2.0354678492087146,-71290.69409975452,10.5,10499928709.3059,47.655,-122.3035,60.0,3.05
2026-02-06T21:26:11+00:00,SAT-56882,153.42044379523674,41.725166521011545,805.5085870014178,2.0899998268403857,-73200.6346264523,10.5,10499926799.365374,47.655,-122.3035,60.0,3.066666666666667
2026-02-06T21:26:12+00:00,SAT-56882,152.79796948093406,41.56857115688052,807.5929838271422,2.1441083851141873,-75095.74521617542,10.5,10499924904.254784,47.655,-122.3035,60.0,3.0833333333333335
2026-02-06T21:26:13+00:00,SAT-56882,152.18179271575414,41.409079015193015,809.731344153563,2.1977870711057843,-76975.79986021774,10.5,10499923024.20014,47.655,-122.3035,60.0,3.1
2026-02-06T21:26:14+00:00,SAT-56882,151.57195986408715,41.24679423295854,811.9232392608257,2.2510298057096034,-78840.58564258757,10.5,10499921159.414358,47.655,-122.3035,60.0,3.1166666666666667
2026-02-06T21:26:15+00:00,SAT-56882,150.96851056932454,41.08182054120416,814.1682343662684,2.3038308704904287,-80689.90227949465,10.5,10499919310.097721,47.655,-122.3035,60.0,3.1333333333333333
2026-02-06T21:26:16+00:00,SAT-56882,150.37147796384357,40.91426112422079,816.4658889841237,2.356184926295552,-82523.56277122654,10.5,10499917476.43723,47.655,-122.3035,60.0,3.15
2026-02-06T21:26:17+00:00,SAT-56882,149.7808888805518,40.74421848458849,818.8157573037855,2.4080869706682404,-84341.39191058812,10.5,10499915658.60809,47.655,-122.3035,60.0,3.1666666666666665
2026-02-06T21:26:18+00:00,SAT-56882,149.19676408037515,40.57179431846648,821.2173885256013,2.4595323709338657,-86143.22744171767,10.5,10499913856.772558,47.655,-122.3035,60.0,3.183333333333333
2026-02-06T21:26:19+00:00,SAT-56882,148.61911847466664,40.39708939565958,823.6703272296642,2.5105168495552905,-87928.9195471707,10.5,10499912071.080452,47.655,-122.3035,60.0,3.2
2026-02-06T21:26:20+00:00,SAT-56882,148.04796135391936,40.220203447896616,826.1741137299971,2.5610364719019296,-89698.33041954064,10.5,10499910301.66958,47.655,-122.3035,60.0,3.216666666666667
2026-02-06T21:26:21+00:00,SAT-56882,147.48329662049937,40.04123506507218,828.7282844165409,2.6110876415008146,-91451.33409513108,10.5,10499908548.665905,47.655,-122.3035,60.0,3.2333333333333334
2026-02-06T21:26:22+00:00,SAT-56882,146.9251230222937,39.86028159879314,831.3323720924051,2.660667102262853,-93187.81653192875,10.5,10499906812.183468,47.655,-122.3035,60.0,3.25
2026-02-06T21:26:23+00:00,SAT-56882,146.37343438486278,39.677439072642876,833.9859063133389,2.7097719365571806,-94907.67554215922,10.5,10499905092.324457,47.655,-122.3035,60.0,3.2666666666666666
2026-02-06T21:26:24+00:00,SAT-56882,145.8282198422947,39.492802099327584,836.6884137252825,2.758399531986804,-96610.81962862935,10.5,10499903389.180372,47.655,-122.3035,60.0,3.283333333333333
2026-02-06T21:26:25+00:00,SAT-56882,145.28946407204108,39.30646380665614,839.4394183687832,2.806547625438804,-98297.16952755176,10.5,10499901702.830473,47.655,-122.3035,60.0,3.3
2026-02-06T21:26:26+00:00,SAT-56882,144.75714751737445,39.11851576690666,842.2384420273422,2.8542142183836643,-99966.65524196901,10.5,10499900033.344757,47.655,-122.3035,60.0,3.316666666666667
2026-02-06T21:26:27+00:00,SAT-56882,144.23124662215358,38.92904793810186,845.0850044912876,2.901397667761867,-101619.21922498666,10.5,10499898380.780775,47.655,-122.3035,60.0,3.3333333333333335
2026-02-06T21:26:28+00:00,SAT-56882,143.71173404322633,38.738148605141404,847.978623912295,2.9480965925473046,-103254.81310722866,10.5,10499896745.186893,47.655,-122.3035,60.0,3.35
2026-02-06T21:26:29+00:00,SAT-56882,143.1985788751845,38.54590433294304,850.9188170647149,2.994309907615555,-104873.39888304772,10.5,10499895126.601116,47.655,-122.3035,60.0,3.3666666666666667
2026-02-06T21:26:30+00:00,SAT-56882,142.69174686258793,38.352399922810555,853.9050996406834,3.04003681155207,-106474.94848351633,10.5,10499893525.051516,47.655,-122.3035,60.0,3.3833333333333333
2026-02-06T21:26:31+00:00,SAT-56882,142.19120060816402,38.157718374886414,856.9369865330684,3.0852767815178863,-108059.44359660243,10.5,10499891940.556404,47.655,-122.3035,60.0,3.4
2026-02-06T21:26:32+00:00,SAT-56882,141.69689977531192,37.96194085597993,860.0139921133034,3.1300295548375834,-109626.87502230168,10.5,10499890373.124977,47.655,-122.3035,60.0,3.4166666666666665
2026-02-06T21:26:33+00:00,SAT-56882,141.20880128670845,37.76514667335448,863.1356304908486,3.1742951174225467,-111177.24226717118,10.5,10499888822.757732,47.655,-122.3035,60.0,3.433333333333333
2026-02-06T21:26:34+00:00,SAT-56882,140.726859517413,37.56741325376199,866.3014157611141,3.2180737204964807,-112710.55413012774,10.5,10499887289.44587,47.655,-122.3035,60.0,3.45
2026-02-06T21:26:35+00:00,SAT-56882,140.251026478027,37.36881612570561,869.5108622700601,3.2613658475997473,-114226.82754680022,10.5,10499885773.172453,47.655,-122.3035,60.0,3.466666666666667
2026-02-06T21:26:36+00:00,SAT-56882,139.7812519955084,37.16942890780745,872.7634848458912,3.3041722061850645,-115726.08729517531,10.5,10499884273.912704,47.655,-122.3035,60.0,3.4833333333333334
2026-02-06T21:26:37+00:00,SAT-56882,139.31748388743722,36.969323301452285,876.0587990223669,3.3464937442927027,-117208.36657963348,10.5,10499882791.63342,47.655,-122.3035,60.0,3.5
2026-02-06T21:26:38+00:00,SAT-56882,138.8596681262552,36.76856908594469,879.3963212787476,3.3883316146425995,-118673.705773303,10.5,10499881326.294228,47.655,-122.3035,60.0,3.5166666666666666
2026-02-06T21:26:39+00:00,SAT-56882,138.407749001012,36.567234119167125,882.7755692439209,3.429687179664975,-120122.15259425317,10.5,10499879877.847406,47.655,-122.3035,60.0,3.533333333333333
2026-02-06T21:26:40+00:00,SAT-56882,137.9616692706436,36.36538434096638,886.1960619055541,3.4705620042616254,-121553.7618519645,10.5,10499878446.238148,47.655,-122.3035,60.0,3.55
2026-02-06T21:26:41+00:00,SAT-56882,137.52137031067667,36.16308377981822,889.6573198120198,3.51095783166422,-122968.59460178386,10.5,10499877031.405397,47.655,-122.3035,60.0,3.566666666666667
2026-02-06T21:26:42+00:00,SAT-56882,137.0867922554983,35.9603945635102,893.1588652502495,3.5508766060646875,-124366.71893753651,10.5,10499875633.281063,47.655,-122.3035,60.0,3.5833333333333335
2026-02-06T21:26:43+00:00,SAT-56882,136.65787413031902,35.7573769308947,896.7002224461544,3.5903204343833677,-125748.20865248505,10.5,10499874251.791348,47.655,-122.3035,60.0,3.6
2026-02-06T21:26:44+00:00,SAT-56882,136.23455398068657,35.55408924805906,900.2809177269174,3.6292915959276035,-127113.14357761407,10.5,10499872886.856422,47.655,-122.3035,60.0,3.6166666666666667
2026-02-06T21:26:45+00:00,SAT-56882,135.81676899357487,35.350588025903896,903.9004796929186,3.6677925164781238,-128461.60867402575,10.5,10499871538.391327,47.655,-122.3035,60.0,3.6333333333333333
2026-02-06T21:26:46+00:00,SAT-56882,135.4044556145043,35.146927940983176,907.5584393638153,3.7058257915752857,-129793.6948485225,10.5,10499870206.305151,47.655,-122.3035,60.0,3.65
2026-02-06T21:26:47+00:00,SAT-56882,134.9975496551314,34.943161856637325,911.2543303478475,3.7433941509295967,-131109.49770711298,10.5,10499868890.502293,47.655,-122.3035,60.0,3.6666666666666665
2026-02-06T21:26:48+00:00,SAT-56882,134.59598639831347,34.73934084756397,914.9876889756467,3.7805004499106776,-132409.1172569195,10.5,10499867590.882744,47.655,-122.3035,60.0,3.683333333333333
2026-02-06T21:26:49+00:00,SAT-56882,134.19970069747723,34.535514226081084,918.7580544255604,3.817147692458579,-133692.6587086293,10.5,10499866307.341291,47.655,-122.3035,60.0,3.7
2026-02-06T21:26:50+00:00,SAT-56882,133.8086270672846,34.33172956826016,922.564968871822,3.8533389903801964,-134960.23105088275,10.5,10499865039.76895,47.655,-122.3035,60.0,3.716666666666667
2026-02-06T21:26:51+00:00,SAT-56882,133.42269977259164,34.12803274321795,926.4079775921296,3.8890775766377046,-136211.94751569067,10.5,10499863788.052485,47.655,-122.3035,60.0,3.7333333333333334
2026-02-06T21:26:52+00:00,SAT-56882,133.04185291010157,33.92446794249888,930.2866290884772,3.9243667780628626,-137447.92462277372,10.5,10499862552.075377,47.655,-122.3035,60.0,3.75
2026-02-06T21:26:53+00:00,SAT-56882,132.6660204870748,33.721077711563254,934.2004751807705,3.9592100459409227,-138668.28325074038,10.5,10499861331.71675,47.655,-122.3035,60.0,3.7666666666666666
2026-02-06T21:26:54+00:00,SAT-56882,132.29513649161447,33.517902980234524,938.1490711309496,3.9936108980909832,-139873.1466084958,10.5,10499860126.853392,47.655,-122.3035,60.0,3.783333333333333
2026-02-06T21:26:55+00:00,SAT-56882,131.92913496331425,33.31498309658028,942.1319757093408,4.027572968196593,-141062.64196300838,10.5,10499858937.358036,47.655,-122.3035,60.0,3.8
2026-02-06T21:26:56+00:00,SAT-56882,131.56795005417717,33.112355858570496,946.1487513102147,4.061099946651511,-142236.89856747785,10.5,10499857763.101433,47.655,-122.3035,60.0,3.816666666666667
2026-02-06T21:26:57+00:00,SAT-56882,131.21151609023897,32.91005754897,950.1989640083412,4.09419560671092,-143396.0485772616,10.5,10499856603.951424,47.655,-122.3035,60.0,3.8333333333333335
2026-02-06T21:26:58+00:00,SAT-56882,130.8597676260885,32.70812296900457,954.2821836416294,4.126863815980493,-144540.22745227025,10.5,10499855459.772549,47.655,-122.3035,60.0,3.85
2026-02-06T21:26:59+00:00,SAT-56882,130.51263949413328,32.50658547152121,958.3979839052266,4.159108460050274,-145669.5712823032,10.5,10499854330.428719,47.655,-122.3035,60.0,3.8666666666666667
2026-02-06T21:27:00+00:00,SAT-56882,130.1700668561945,32.30547699785128,962.5459423694524,4.190933518670221,-146784.2194550382,10.5,10499853215.780544,47.655,-122.3035,60.0,3.8833333333333333
2026-02-06T21:27:01+00:00,SAT-56882,129.83198524452382,32.10482811078338,966.7256405737078,4.222343021391125,-147884.31310238902,10.5,10499852115.686897,47.655,-122.3035,60.0,3.9
2026-02-06T21:27:02+00:00,SAT-56882,129.49833060287776,31.904668029540257,970.9366640761419,4.253341031911446,-148969.99455226515,10.5,10499851030.005447,47.655,-122.3035,60.0,3.9166666666666665
2026-02-06T21:27:03+00:00,SAT-56882,129.16903932513995,31.70502466521589,975.1786024877081,4.283931655796658,-150041.40759893603,10.5,10499849958.592402,47.655,-122.3035,60.0,3.933333333333333
2026-02-06T21:27:04+00:00,SAT-56882,128.8440482898099,31.505924655495694,979.451049513918,4.31411905347431,-151098.69795817297,10.5,10499848901.302042,47.655,-122.3035,60.0,3.95
2026-02-06T21:27:05+00:00,SAT-56882,128.52329489024416,31.30739339841191,983.7536030095587,4.34390741836367,-152142.0125012569,10.5,10499847857.9875,47.655,-122.3035,60.0,3.966666666666667
2026-02-06T21:27:06+00:00,SAT-56882,128.20671706356973,31.109455086710103,988.0858650115929,4.373300958895926,-153171.49862524966,10.5,10499846828.501375,47.655,-122.3035,60.0,3.9833333333333334
2026-02-06T21:27:07+00:00,SAT-56882,127.89425331793036,30.912132742559574,992.4474417541334,4.402303912041098,-154187.30472676374,10.5,10499845812.695272,47.655,-122.3035,60.0,4.0
2026-02-06T21:27:08+00:00,SAT-56882,127.58584275590688,30.715448251116108,996.8379436969043,4.430920540235714,-155189.5800943565,10.5,10499844810.419905,47.655,-122.3035,60.0,4.016666666666667
2026-02-06T21:27:09+00:00,SAT-56882,127.28142509556479,30.51942239369555,1001.2569855506385,4.459155130397759,-156178.47487402929,10.5,10499843821.525126,47.655,-122.3035,60.0,4.033333333333333
2026-02-06T21:27:10+00:00,SAT-56882,126.98094068914956,30.32407488042759,1005.7041863014954,4.487011976466652,-157154.13945770395,10.5,10499842845.860542,47.655,-122.3035,60.0,4.05
2026-02-06T21:27:11+00:00,SAT-56882,126.68433054064833,30.129424383089358,1010.179169218061,4.5144953655751,-158116.72399890245,10.5,10499841883.276001,47.655,-122.3035,60.0,4.066666666666666
