DopplerPredictor/satellites_20260211_204923/SAT-52459.csv

timestamp,satellite,azimuth_deg,elevation_deg,distance_km,relative_velocity_kms,doppler_shift_hz,tx_freq_ghz,rx_freq_hz,ue_lat,ue_lon,ue_alt_m,time_minutes
2026-02-06T21:23:07+00:00,SAT-52459,187.2431741379643,38.48196100034101,825.4482634268991,2.7562399112566482,-96535.18057547267,10.5,10499903464.819424,47.655,-122.3035,60.0,0.0
2026-02-06T21:23:08+00:00,SAT-52459,186.6932616292274,38.29868739869825,828.1971142393149,2.806491503846598,-98295.2039119986,10.5,10499901704.796087,47.655,-122.3035,60.0,0.016666666666666666
2026-02-06T21:23:09+00:00,SAT-52459,186.14981910167063,38.11369602467977,830.9960819267357,2.8562338840387547,-100037.39247638754,10.5,10499899962.607523,47.655,-122.3035,60.0,0.03333333333333333
2026-02-06T21:23:10+00:00,SAT-52459,185.61282996718862,37.92708035257033,833.8446586418914,2.905465009073617,-101761.67472256083,10.5,10499898238.325277,47.655,-122.3035,60.0,0.05
2026-02-06T21:23:11+00:00,SAT-52459,185.08227347241908,37.738932204822675,836.7423345002298,2.954183183307946,-103467.99126191973,10.5,10499896532.008738,47.655,-122.3035,60.0,0.06666666666666667
2026-02-06T21:23:12+00:00,SAT-52459,184.55812492133052,37.54934169172785,839.6885979261007,3.0023870162473743,-105156.29339346965,10.5,10499894843.706606,47.655,-122.3035,60.0,0.08333333333333333
2026-02-06T21:23:13+00:00,SAT-52459,184.04035590077743,37.35839715988001,842.6829359570869,3.050075446828126,-106826.54395426894,10.5,10499893173.456045,47.655,-122.3035,60.0,0.1
2026-02-06T21:23:14+00:00,SAT-52459,183.52893449492962,37.166185144895145,845.7248345725525,3.097247743764774,-108478.71733160854,10.5,10499891521.28267,47.655,-122.3035,60.0,0.11666666666666667
2026-02-06T21:23:15+00:00,SAT-52459,183.02382549429748,36.972790329749174,848.8137790225364,3.143903419776712,-110112.79645886047,10.5,10499889887.20354,47.655,-122.3035,60.0,0.13333333333333333
2026-02-06T21:23:16+00:00,SAT-52459,182.5249906126364,36.77829551381936,851.9492540711034,3.1900423499901494,-111728.77696241635,10.5,10499888271.223038,47.655,-122.3035,60.0,0.15
2026-02-06T21:23:17+00:00,SAT-52459,182.0323886764561,36.5827815795894,855.1307443577789,3.235664629102566,-113326.66215898246,10.5,10499886673.337841,47.655,-122.3035,60.0,0.16666666666666666
2026-02-06T21:23:18+00:00,SAT-52459,181.54597583156516,36.38632747305897,858.3577346165328,3.2807706767313305,-114906.46674533411,10.5,10499885093.533255,47.655,-122.3035,60.0,0.18333333333333332
2026-02-06T21:23:19+00:00,SAT-52459,181.0657057248048,36.18901018218787,861.6297099998261,3.325361113309612,-116468.21245166523,10.5,10499883531.787548,47.655,-122.3035,60.0,0.2
2026-02-06T21:23:20+00:00,SAT-52459,180.5915296976154,35.99090472717045,864.9461562788905,3.3694368747011163,-118011.93205588154,10.5,10499881988.067944,47.655,-122.3035,60.0,0.21666666666666667
2026-02-06T21:23:21+00:00,SAT-52459,180.12339695413428,35.792084147801376,868.3065601583128,3.4129991054104094,-119537.66564337417,10.5,10499880462.334356,47.655,-122.3035,60.0,0.23333333333333334
2026-02-06T21:23:22+00:00,SAT-52459,179.66125473793176,35.59261950103155,871.7104094841156,3.456049195217684,-121045.46189012426,10.5,10499878954.53811,47.655,-122.3035,60.0,0.25
2026-02-06T21:23:23+00:00,SAT-52459,179.20504849525705,35.39257985980894,875.1571934883757,3.498588747304231,-122535.37694632208,10.5,10499877464.623055,47.655,-122.3035,60.0,0.26666666666666666
2026-02-06T21:23:24+00:00,SAT-52459,178.75472203481198,35.192032317042106,878.6464030020537,3.5406195975500565,-124007.47511225114,10.5,10499875992.524887,47.655,-122.3035,60.0,0.2833333333333333
2026-02-06T21:23:25+00:00,SAT-52459,178.31021767730562,34.991041991454416,882.1775306870682,3.5821437826277127,-125461.82772079938,10.5,10499874538.17228,47.655,-122.3035,60.0,0.3
2026-02-06T21:23:26+00:00,SAT-52459,177.87147640153873,34.789672038061816,885.7500712365503,3.6231635212400986,-126898.51248032741,10.5,10499873101.48752,47.655,-122.3035,60.0,0.31666666666666665
2026-02-06T21:23:27+00:00,SAT-52459,177.43843798514314,34.587983662226954,889.3635215563869,3.6636812284720723,-128317.61397732279,10.5,10499871682.386023,47.655,-122.3035,60.0,0.3333333333333333
2026-02-06T21:23:28+00:00,SAT-52459,177.011041135954,34.38603613520485,893.0173809610733,3.7036995260521794,-129719.22403580908,10.5,10499870280.775965,47.655,-122.3035,60.0,0.35
2026-02-06T21:23:29+00:00,SAT-52459,176.58922361479242,34.1838868112751,896.7111513798068,3.743221163293341,-131103.43894835436,10.5,10499868896.561052,47.655,-122.3035,60.0,0.36666666666666664
2026-02-06T21:23:30+00:00,SAT-52459,176.1729223608271,33.98159115112412,900.4443374837258,3.782249062450716,-132470.36106469535,10.5,10499867529.638935,47.655,-122.3035,60.0,0.38333333333333336
2026-02-06T21:23:31+00:00,SAT-52459,175.76207360408736,33.77920274438837,904.2164468583906,3.8207863206666457,-133820.09885985786,10.5,10499866179.90114,47.655,-122.3035,60.0,0.4
2026-02-06T21:23:32+00:00,SAT-52459,175.35661297089953,33.57677333365361,908.0269901781999,3.858836160922502,-135152.76521628263,10.5,10499864847.234783,47.655,-122.3035,60.0,0.4166666666666667
2026-02-06T21:23:33+00:00,SAT-52459,174.9564755884658,33.37435284243137,911.8754813318944,3.8964019388991407,-136468.4776641078,10.5,10499863531.522335,47.655,-122.3035,60.0,0.43333333333333335
2026-02-06T21:23:34+00:00,SAT-52459,174.5615961819663,33.171989403892525,915.7614375548989,3.9334871512831184,-137767.35867208755,10.5,10499862232.641329,47.655,-122.3035,60.0,0.45
2026-02-06T21:23:35+00:00,SAT-52459,174.17190916435013,32.96972939017611,919.6843795699505,3.970095398700068,-139049.53434936216,10.5,10499860950.46565,47.655,-122.3035,60.0,0.4666666666666667
2026-02-06T21:23:36+00:00,SAT-52459,173.7873487241744,32.767617444478226,923.64383169076,4.006230414195838,-140315.13544298802,10.5,10499859684.864557,47.655,-122.3035,60.0,0.48333333333333334
2026-02-06T21:23:37+00:00,SAT-52459,173.40784890429535,32.5656965123733,927.6393219540748,4.041896026002538,-141564.29603384703,10.5,10499858435.703966,47.655,-122.3035,60.0,0.5
2026-02-06T21:23:38+00:00,SAT-52459,173.03334367914084,32.364007875624736,931.6703822146133,4.0770961502850955,-142797.15328260028,10.5,10499857202.846718,47.655,-122.3035,60.0,0.5166666666666667
2026-02-06T21:23:39+00:00,SAT-52459,172.6637670267164,32.162591186775366,935.7365482327591,4.111834814052951,-144013.84823215264,10.5,10499855986.151768,47.655,-122.3035,60.0,0.5333333333333333
2026-02-06T21:23:40+00:00,SAT-52459,172.29905299349747,31.961484502925025,939.8373597851086,4.146116111491906,-145214.52427820922,10.5,10499854785.475721,47.655,-122.3035,60.0,0.55
2026-02-06T21:23:41+00:00,SAT-52459,171.93913575828682,31.76072432189432,943.9723607314696,4.1799442348154745,-146399.32824982036,10.5,10499853600.671751,47.655,-122.3035,60.0,0.5666666666666667
2026-02-06T21:23:42+00:00,SAT-52459,171.58394968846542,31.56034561698862,948.1410991126239,4.21332341245787,-147568.40824463844,10.5,10499852431.591755,47.655,-122.3035,60.0,0.5833333333333334
2026-02-06T21:23:43+00:00,SAT-52459,171.23342939724978,31.360381874763895,952.3431271864513,4.246257972289805,-148721.91584300282,10.5,10499851278.084158,47.655,-122.3035,60.0,0.6
2026-02-06T21:23:44+00:00,SAT-52459,170.8875097907866,31.16086512967286,956.5780015271013,4.278752287042301,-149860.00419645032,10.5,10499850139.995804,47.655,-122.3035,60.0,0.6166666666666667
2026-02-06T21:23:45+00:00,SAT-52459,170.54612611605972,30.961826001192883,960.8452830697298,4.310810771585797,-150982.82793241873,10.5,10499849017.172068,47.655,-122.3035,60.0,0.6333333333333333
2026-02-06T21:23:46+00:00,SAT-52459,170.20921400481652,30.763293730815857,965.1445371525291,4.34243791316466,-152090.54421318675,10.5,10499847909.455788,47.655,-122.3035,60.0,0.65
2026-02-06T21:23:47+00:00,SAT-52459,169.8767095112671,30.56529621735294,969.4753335889047,4.373638208470556,-153183.31053191752,10.5,10499846816.689468,47.655,-122.3035,60.0,0.6666666666666666
2026-02-06T21:23:48+00:00,SAT-52459,169.54854915131787,30.367860054778163,973.8372466769005,4.404416234719396,-154261.28720207384,10.5,10499845738.712797,47.655,-122.3035,60.0,0.6833333333333333
2026-02-06T21:23:49+00:00,SAT-52459,169.22466993262663,30.17101056642068,978.2298552795039,4.434776553441775,-155324.6339877524,10.5,10499844675.366013,47.655,-122.3035,60.0,0.7
