DopplerPredictor/satellites_20260211_204923/SAT-52276.csv

timestamp,satellite,azimuth_deg,elevation_deg,distance_km,relative_velocity_kms,doppler_shift_hz,tx_freq_ghz,rx_freq_hz,ue_lat,ue_lon,ue_alt_m,time_minutes
2026-02-06T21:23:19+00:00,SAT-52276,321.6784730834562,30.003433949536973,989.0458105672863,-3.437997813218758,120413.22613525174,10.5,10500120413.226135,47.655,-122.3035,60.0,0.2
2026-02-06T21:23:20+00:00,SAT-52276,322.0732352117678,30.154411788742156,985.617029551761,-3.4009441567354797,119115.45034839583,10.5,10500119115.450348,47.655,-122.3035,60.0,0.21666666666666667
2026-02-06T21:23:21+00:00,SAT-52276,322.47192157469493,30.304908156348635,982.2252028569795,-3.3635016302737575,117804.0546899764,10.5,10500117804.05469,47.655,-122.3035,60.0,0.23333333333333334
2026-02-06T21:23:22+00:00,SAT-52276,322.87455416974836,30.45488398476971,978.870718310413,-3.325669209169533,116479.00327192385,10.5,10500116479.003271,47.655,-122.3035,60.0,0.25
2026-02-06T21:23:23+00:00,SAT-52276,323.28115392043657,30.60429932493172,975.5539647614511,-3.2874460138313526,115140.26528722481,10.5,10500115140.265287,47.655,-122.3035,60.0,0.26666666666666666
2026-02-06T21:23:24+00:00,SAT-52276,323.69174061545283,30.753113350802117,972.2753319367154,-3.2488312698303767,113787.81361210546,10.5,10500113787.813612,47.655,-122.3035,60.0,0.2833333333333333
2026-02-06T21:23:25+00:00,SAT-52276,324.10633284093905,30.901284363370845,969.0352103351803,-3.209824382951986,112421.62743465633,10.5,10500112421.627434,47.655,-122.3035,60.0,0.3
2026-02-06T21:23:26+00:00,SAT-52276,324.52494791991546,31.04876979932946,965.8339910484436,-3.1704248864561664,111041.69040766777,10.5,10500111041.690407,47.655,-122.3035,60.0,0.31666666666666665
2026-02-06T21:23:27+00:00,SAT-52276,324.9476018433246,31.195526238765083,962.6720656335895,-3.1306324600821314,109647.9913142524,10.5,10500109647.991314,47.655,-122.3035,60.0,0.3333333333333333
2026-02-06T21:23:28+00:00,SAT-52276,325.3743092014081,31.341509415138127,959.5498259671053,-3.0904469575422517,108240.52503079863,10.5,10500108240.52503,47.655,-122.3035,60.0,0.35
2026-02-06T21:23:29+00:00,SAT-52276,325.8050831169211,31.486674228062803,956.4676640713745,-3.0498683834501468,106819.29171889488,10.5,10500106819.29172,47.655,-122.3035,60.0,0.36666666666666664
2026-02-06T21:23:30+00:00,SAT-52276,326.23993517358,31.63097475659522,953.4259719641785,-3.008896911333517,105384.2974562153,10.5,10500105384.297457,47.655,-122.3035,60.0,0.38333333333333336
2026-02-06T21:23:31+00:00,SAT-52276,326.678875345256,31.77436427500574,950.4251414902366,-2.9675328892548025,103935.55443337881,10.5,10500103935.554434,47.655,-122.3035,60.0,0.4
2026-02-06T21:23:32+00:00,SAT-52276,327.12191192441804,31.916795270523824,947.4655641471381,-2.925776828490587,102473.08055745407,10.5,10500102473.080557,47.655,-122.3035,60.0,0.4166666666666667
2026-02-06T21:23:33+00:00,SAT-52276,327.56905144744815,32.058219462307974,944.5476309225675,-2.8836294464418626,100996.90095485843,10.5,10500100996.900955,47.655,-122.3035,60.0,0.43333333333333335
2026-02-06T21:23:34+00:00,SAT-52276,328.0202986250447,32.198587824304475,941.6717320887307,-2.841091625448916,99507.04652888104,10.5,10500099507.04653,47.655,-122.3035,60.0,0.45
2026-02-06T21:23:35+00:00,SAT-52276,328.4756562653407,32.33785060801244,938.8382570378589,-2.798164430301026,98003.5545729465,10.5,10500098003.554573,47.655,-122.3035,60.0,0.4666666666666667
2026-02-06T21:23:36+00:00,SAT-52276,328.93512519840795,32.47595736800793,936.0475941002488,-2.75484914300149,96486.46998823313,10.5,10500096486.469988,47.655,-122.3035,60.0,0.48333333333333334
2026-02-06T21:23:37+00:00,SAT-52276,329.3987042055005,32.61285699117298,933.3001303276304,-2.7111472492193722,94955.84480915595,10.5,10500094955.844809,47.655,-122.3035,60.0,0.5
2026-02-06T21:23:38+00:00,SAT-52276,329.8663899458488,32.748497727314735,930.5962512900479,-2.667060383969836,93411.7363008621,10.5,10500093411.736301,47.655,-122.3035,60.0,0.5166666666666667
2026-02-06T21:23:39+00:00,SAT-52276,330.3381768734007,32.88282721913339,927.9363409269132,-2.622590456624386,91854.21133761828,10.5,10500091854.211338,47.655,-122.3035,60.0,0.5333333333333333
2026-02-06T21:23:40+00:00,SAT-52276,330.8140571746243,33.01579254054478,925.3207812733854,-2.5777395494270072,90283.34284841674,10.5,10500090283.342848,47.655,-122.3035,60.0,0.55
2026-02-06T21:23:41+00:00,SAT-52276,331.2940206890743,33.14734023209411,922.7499522879623,-2.5325099612621753,88699.21134991608,10.5,10500088699.21135,47.655,-122.3035,60.0,0.5666666666666667
2026-02-06T21:23:42+00:00,SAT-52276,331.7780548374829,33.27741634071812,920.2242316364197,-2.486904215534807,87101.90522243049,10.5,10500087101.905222,47.655,-122.3035,60.0,0.5833333333333334
2026-02-06T21:23:43+00:00,SAT-52276,332.2661445518575,33.40596646211874,917.7439944678941,-2.4409250563638194,85491.52057661205,10.5,10500085491.520576,47.655,-122.3035,60.0,0.6
2026-02-06T21:23:44+00:00,SAT-52276,332.75827220568806,33.532935785156695,915.3096131947589,-2.3945754391724416,83868.16092388367,10.5,10500083868.160923,47.655,-122.3035,60.0,0.6166666666666667
2026-02-06T21:23:45+00:00,SAT-52276,333.2544175431593,33.65826913797196,912.9214572818872,-2.3478585780009342,82231.93883353067,10.5,10500082231.938833,47.655,-122.3035,60.0,0.6333333333333333
2026-02-06T21:23:46+00:00,SAT-52276,333.75455761926696,33.78191103879181,910.5798929887293,-2.300777872511365,80582.97337609918,10.5,10500080582.973375,47.655,-122.3035,60.0,0.65
2026-02-06T21:23:47+00:00,SAT-52276,334.2586667265861,33.90380574513498,908.2852831841869,-2.2533369918931667,78921.39306212383,10.5,10500078921.393063,47.655,-122.3035,60.0,0.6666666666666666
2026-02-06T21:23:48+00:00,SAT-52276,334.7667163412823,34.0238973096072,906.0379870778083,-2.205539824598044,77247.33408163144,10.5,10500077247.334082,47.655,-122.3035,60.0,0.6833333333333333
2026-02-06T21:23:49+00:00,SAT-52276,335.278675061066,34.14212963524259,903.8383600011158,-2.157390488041126,75560.94064391647,10.5,10500075560.940643,47.655,-122.3035,60.0,0.7
2026-02-06T21:23:50+00:00,SAT-52276,335.79450854744,34.25844653346876,901.6867531792531,-2.1088933431608266,73862.36548748895,10.5,10500073862.365488,47.655,-122.3035,60.0,0.7166666666666667
2026-02-06T21:23:51+00:00,SAT-52276,336.31417947420664,34.37279178495223,899.583513488118,-2.0600530048127013,72151.77024411122,10.5,10500072151.770245,47.655,-122.3035,60.0,0.7333333333333333
2026-02-06T21:23:52+00:00,SAT-52276,336.8376474821125,34.485109203058734,897.5289832011238,-2.010874308851164,70429.32428586052,10.5,10500070429.324286,47.655,-122.3035,60.0,0.75
2026-02-06T21:23:53+00:00,SAT-52276,337.364869129241,34.59534269751222,895.5234997687941,-1.9613623293223073,68695.20532729421,10.5,10500068695.205328,47.655,-122.3035,60.0,0.7666666666666667
2026-02-06T21:23:54+00:00,SAT-52276,337.895797849219,34.70343634086872,893.5673955812083,-1.9115224002764413,66949.60018941715,10.5,10500066949.60019,47.655,-122.3035,60.0,0.7833333333333333
2026-02-06T21:23:55+00:00,SAT-52276,338.4303839198793,34.80933443802561,891.6609977086971,-1.8613600846013876,65192.70370809185,10.5,10500065192.703709,47.655,-122.3035,60.0,0.8
2026-02-06T21:23:56+00:00,SAT-52276,338.96857442871595,34.912981595745315,889.8046276736147,-1.8108811860718639,63424.719156058854,10.5,10500063424.719156,47.655,-122.3035,60.0,0.8166666666666667
2026-02-06T21:23:57+00:00,SAT-52276,339.51031324657794,35.01432279445367,887.998601210101,-1.760091744146456,61645.85806070475,10.5,10500061645.85806,47.655,-122.3035,60.0,0.8333333333333334
2026-02-06T21:23:58+00:00,SAT-52276,340.0555410054274,35.11330346125289,886.243228029028,-1.7089980559360531,59856.3409734896,10.5,10500059856.340973,47.655,-122.3035,60.0,0.85
2026-02-06T21:23:59+00:00,SAT-52276,340.6041950889682,35.20986954555087,884.5388115610383,-1.657606637057202,58056.39609886591,10.5,10500058056.3961,47.655,-122.3035,60.0,0.8666666666666667
2026-02-06T21:24:00+00:00,SAT-52276,341.1562096179619,35.30396759373142,882.8856487386252,-1.605924244003182,56246.26007780826,10.5,10500056246.260078,47.655,-122.3035,60.0,0.8833333333333333
2026-02-06T21:24:01+00:00,SAT-52276,341.7115154489079,35.395544826166734,881.2840297559026,-1.5539578657145416,54426.17769257787,10.5,10500054426.177692,47.655,-122.3035,60.0,0.9
2026-02-06T21:24:02+00:00,SAT-52276,342.27004017737767,35.48454921469457,879.7342378367796,-1.501714736429819,52596.40231680911,10.5,10500052596.402317,47.655,-122.3035,60.0,0.9166666666666666
2026-02-06T21:24:03+00:00,SAT-52276,342.8317081538558,35.570929561598895,878.2365489903218,-1.4492022912530294,50757.194359295085,10.5,10500050757.194359,47.655,-122.3035,60.0,0.9333333333333333
2026-02-06T21:24:04+00:00,SAT-52276,343.39644049160637,35.65463557663662,876.7912318104217,-1.3964282166333575,48908.82303199987,10.5,10500048908.823032,47.655,-122.3035,60.0,0.95
2026-02-06T21:24:05+00:00,SAT-52276,343.96415510123063,35.73561795736508,875.3985472251301,-1.3434003996975514,47051.5645754647,10.5,10500047051.564575,47.655,-122.3035,60.0,0.9666666666666667
2026-02-06T21:24:06+00:00,SAT-52276,344.5347667152527,35.81382846676983,874.0587482965148,-1.290126952465704,45185.70310694704,10.5,10500045185.703108,47.655,-122.3035,60.0,0.9833333333333333
2026-02-06T21:24:07+00:00,SAT-52276,345.1081869307305,35.889220012295326,872.7720799963708,-1.2366162046737952,43311.53036903567,10.5,10500043311.530369,47.655,-122.3035,60.0,1.0
2026-02-06T21:24:08+00:00,SAT-52276,345.6843242592786,35.96174672427982,871.5387789890889,-1.1828766794176389,41429.34487659862,10.5,10500041429.344877,47.655,-122.3035,60.0,1.0166666666666666
2026-02-06T21:24:09+00:00,SAT-52276,346.2630841759957,36.03136403255264,870.3590734388116,-1.1289171081313891,39539.45244139393,10.5,10500039539.452442,47.655,-122.3035,60.0,1.0333333333333334
2026-02-06T21:24:10+00:00,SAT-52276,346.844369184936,36.098028743289206,869.2331828016567,-1.0747464214008353,37642.16585031226,10.5,10500037642.16585,47.655,-122.3035,60.0,1.05
2026-02-06T21:24:11+00:00,SAT-52276,347.42807889144865,36.16169911448375,868.1613176270964,-1.020373734672513,35737.80436484959,10.5,10500035737.804365,47.655,-122.3035,60.0,1.0666666666666667
2026-02-06T21:24:12+00:00,SAT-52276,348.014110078259,36.222334929517714,867.143679373595,-0.9658083417074551,33826.69349182987,10.5,10500033826.693491,47.655,-122.3035,60.0,1.0833333333333333
2026-02-06T21:24:13+00:00,SAT-52276,348.60235678857146,36.27989756904701,866.18046023077,-0.9110597195778801,31909.165158410164,10.5,10500031909.16516,47.655,-122.3035,60.0,1.1
2026-02-06T21:24:14+00:00,SAT-52276,349.19271042357485,36.33435008167125,865.2718429365741,-0.8561375112816295,29985.557103164716,10.5,10500029985.557104,47.655,-122.3035,60.0,1.1166666666666667
2026-02-06T21:24:15+00:00,SAT-52276,349.7850598421716,36.38565725183998,864.4180006118133,-0.8010515209665529,28056.21270882273,10.5,10500028056.21271,47.655,-122.3035,60.0,1.1333333333333333
2026-02-06T21:24:16+00:00,SAT-52276,350.37929146968753,36.43378566551204,863.6190965994292,-0.7458116978885521,26121.480440411204,10.5,10500026121.48044,47.655,-122.3035,60.0,1.15
2026-02-06T21:24:17+00:00,SAT-52276,350.9752894074171,36.47870377268179,862.8752843197807,-0.6904281474611679,24181.71423225818,10.5,10500024181.714231,47.655,-122.3035,60.0,1.1666666666666667
2026-02-06T21:24:18+00:00,SAT-52276,351.57293556331837,36.52038194818266,862.1867071149036,-0.6349111073162688,22237.272649536837,10.5,10500022237.27265,47.655,-122.3035,60.0,1.1833333333333333
2026-02-06T21:24:19+00:00,SAT-52276,352.1721097793816,36.55879254846561,861.5534981166484,-0.5792709342783787,20288.518432051336,10.5,10500020288.518433,47.655,-122.3035,60.0,1.2
2026-02-06T21:24:20+00:00,SAT-52276,352.772689959878,36.593909964801746,860.9757801278056,-0.5235181075913635,18335.81860724901,10.5,10500018335.818607,47.655,-122.3035,60.0,1.2166666666666666
2026-02-06T21:24:21+00:00,SAT-52276,353.3745522159037,36.62571067370105,860.4536655000148,-0.46766321967645597,16379.544166527325,10.5,10500016379.544167,47.655,-122.3035,60.0,1.2333333333333334
2026-02-06T21:24:22+00:00,SAT-52276,353.9775710183979,36.65417328361938,859.9872560208929,-0.4117169539652327,14420.06928885097,10.5,10500014420.069288,47.655,-122.3035,60.0,1.25
2026-02-06T21:24:23+00:00,SAT-52276,354.58161934277416,36.679278577001455,859.5766428232645,-0.35569008293153387,12457.77127182134,10.5,10500012457.771273,47.655,-122.3035,60.0,1.2666666666666666
2026-02-06T21:24:24+00:00,SAT-52276,355.18656882511135,36.701009548722055,859.2219062963599,-0.2995934609869315,10493.03028284581,10.5,10500010493.030283,47.655,-122.3035,60.0,1.2833333333333334
2026-02-06T21:24:25+00:00,SAT-52276,355.79228992882605,36.719351440482356,858.9231160040978,-0.24343800740607055,8526.228761110931,10.5,10500008526.228762,47.655,-122.3035,60.0,1.3
2026-02-06T21:24:26+00:00,SAT-52276,356.39865210527995,36.73429177041699,858.6803306203951,-0.18723469992868974,6557.751193498144,10.5,10500006557.751194,47.655,-122.3035,60.0,1.3166666666666667
2026-02-06T21:24:27+00:00,SAT-52276,357.005523964055,36.745820358459106,858.4935978708586,-0.13099456180891153,4587.983660995138,10.5,10500004587.983662,47.655,-122.3035,60.0,1.3333333333333333
2026-02-06T21:24:28+00:00,SAT-52276,357.61277343995755,36.75392934696176,858.3629544873925,-0.0747286539843378,2617.313564424449,10.5,10500002617.313564,47.655,-122.3035,60.0,1.35
2026-02-06T21:24:29+00:00,SAT-52276,358.2202679699203,36.7586132168132,858.2884261706171,-0.018448062080997283,646.1291693017556,10.5,10500000646.12917,47.655,-122.3035,60.0,1.3666666666666667
2026-02-06T21:24:30+00:00,SAT-52276,358.8278746685656,36.75986879866782,858.2700275652447,0.037836114458364475,-1325.180774937397,10.5,10499998674.819225,47.655,-122.3035,60.0,1.3833333333333333
2026-02-06T21:24:31+00:00,SAT-52276,359.4354605010113,36.75769527937897,858.3077622463014,0.09411277182996812,-3296.2273661156123,10.5,10499996703.772635,47.655,-122.3035,60.0,1.4
2026-02-06T21:24:32+00:00,SAT-52276,0.0428924568483217,36.75209420369973,858.4016227147775,0.15037081445442774,-5266.6219901085415,10.5,10499994733.37801,47.655,-122.3035,60.0,1.4166666666666667
2026-02-06T21:24:33+00:00,SAT-52276,0.650037734869758,36.743069471044485,858.5515904058298,0.20659916389257738,-7235.97663311484,10.5,10499992764.023367,47.655,-122.3035,60.0,1.4333333333333333
2026-02-06T21:24:34+00:00,SAT-52276,1.256763909007924,36.73062732756011,858.7576357058743,0.262786771763528,-9203.904334101173,10.5,10499990796.095665,47.655,-122.3035,60.0,1.45
2026-02-06T21:24:35+00:00,SAT-52276,1.8629391089243528,36.714776353283554,859.0197179825674,0.318922629004559,-11170.019509122772,10.5,10499988829.980492,47.655,-122.3035,60.0,1.4666666666666666
2026-02-06T21:24:36+00:00,SAT-52276,2.4684321897767494,36.695527444661266,859.3377856240152,0.37499577712932924,-13133.938345633624,10.5,10499986866.061655,47.655,-122.3035,60.0,1.4833333333333334
2026-02-06T21:24:37+00:00,SAT-52276,3.073112902771143,36.67289379237566,859.7117760892153,0.4309953187237591,-15095.279170096635,10.5,10499984904.720829,47.655,-122.3035,60.0,1.5
2026-02-06T21:24:38+00:00,SAT-52276,3.6768520622930123,36.646890854607165,860.1416159689669,0.4869104282934728,-17053.66282790698,10.5,10499982946.337172,47.655,-122.3035,60.0,1.5166666666666666
2026-02-06T21:24:39+00:00,SAT-52276,4.279521710057963,36.61753632581846,860.6272210575956,0.5427303598591434,-19008.712949413177,10.5,10499980991.28705,47.655,-122.3035,60.0,1.5333333333333334
2026-02-06T21:24:40+00:00,SAT-52276,4.880995272224915,36.58485010135861,861.1684964322567,0.5984444636104729,-20960.056533209936,10.5,10499979039.943466,47.655,-122.3035,60.0,1.55
2026-02-06T21:24:41+00:00,SAT-52276,5.4811477197228875,36.548854237494815,861.7653365488457,0.6540421877021139,-22907.324009038934,10.5,10499977092.675991,47.655,-122.3035,60.0,1.5666666666666667
2026-02-06T21:24:42+00:00,SAT-52276,6.079855714073683,36.509572907894366,862.4176253397003,0.7095130913410915,-24850.149696165678,10.5,10499975149.850304,47.655,-122.3035,60.0,1.5833333333333333
2026-02-06T21:24:43+00:00,SAT-52276,6.676997752737922,36.4670323560467,863.1252363243564,0.7648468568895485,-26788.172227268835,10.5,10499973211.827772,47.655,-122.3035,60.0,1.6
2026-02-06T21:24:44+00:00,SAT-52276,7.272454310643829,36.421260843855244,863.8880327323715,0.820033297560717,-28721.034817985743,10.5,10499971278.965181,47.655,-122.3035,60.0,1.6166666666666667
2026-02-06T21:24:45+00:00,SAT-52276,7.866107973677692,36.37228859684791,864.7058676338258,0.8750623576473637,-30648.385274913482,10.5,10499969351.614725,47.655,-122.3035,60.0,1.6333333333333333
2026-02-06T21:24:46+00:00,SAT-52276,8.457843560012284,36.320147746641744,865.5785840700507,0.9299241422348584,-32569.877036286263,10.5,10499967430.122963,47.655,-122.3035,60.0,1.65
2026-02-06T21:24:47+00:00,SAT-52276,9.047548249681748,36.26487226910586,866.5060152139899,0.984608895469062,-34485.1684108249,10.5,10499965514.831589,47.655,-122.3035,60.0,1.6666666666666667
2026-02-06T21:24:48+00:00,SAT-52276,9.635111686557787,36.20649792149773,867.4879845088863,1.0391070386465073,-36393.92391181611,10.5,10499963606.076088,47.655,-122.3035,60.0,1.6833333333333333
2026-02-06T21:24:49+00:00,SAT-52276,10.220426093266534,36.14506217522664,868.5243058449589,1.0934091591096724,-38295.81386817797,10.5,10499961704.186132,47.655,-122.3035,60.0,1.7
2026-02-06T21:24:50+00:00,SAT-52276,10.803386366236523,36.08060414738886,869.6147837250032,1.1475060170754185,-40190.514663620714,10.5,10499959809.485336,47.655,-122.3035,60.0,1.7166666666666666
2026-02-06T21:24:51+00:00,SAT-52276,11.383890164046413,36.01316453022831,870.759213436803,1.2013885662089996,-42077.70945723556,10.5,10499957922.290543,47.655,-122.3035,60.0,1.7333333333333334
2026-02-06T21:24:52+00:00,SAT-52276,11.961837995335161,35.94278551793753,871.9573812460575,1.255047947058115,-43957.08795352753,10.5,10499956042.912046,47.655,-122.3035,60.0,1.75
2026-02-06T21:24:53+00:00,SAT-52276,12.537133291898112,35.86951073263209,873.209064582766,1.308475497371678,-45828.34676382225,10.5,10499954171.653236,47.655,-122.3035,60.0,1.7666666666666666
2026-02-06T21:24:54+00:00,SAT-52276,13.109682476532733,35.79338514871608,874.514032237899,1.3616627626993725,-47691.18977750738,10.5,10499952308.810223,47.655,-122.3035,60.0,1.7833333333333334
2026-02-06T21:24:55+00:00,SAT-52276,13.679395025127214,35.714455015860416,875.8720445706409,1.41460148793526,-49545.32786585388,10.5,10499950454.672134,47.655,-122.3035,60.0,1.8
2026-02-06T21:24:56+00:00,SAT-52276,14.24618351516976,35.632767781912506,877.282853707202,1.4672836468436936,-51390.47991613846,10.5,10499948609.520084,47.655,-122.3035,60.0,1.8166666666666667
2026-02-06T21:24:57+00:00,SAT-52276,14.809963676779034,35.548372013761536,878.7462037690738,1.519701408948294,-53226.37167195543,10.5,10499946773.628328,47.655,-122.3035,60.0,1.8333333333333333
2026-02-06T21:24:58+00:00,SAT-52276,15.370654421146702,35.46131731998089,880.2618310682632,1.5718471885553356,-55052.73745022306,10.5,10499944947.26255,47.655,-122.3035,60.0,1.85
2026-02-06T21:24:59+00:00,SAT-52276,15.928177879098104,35.37165427072681,881.8294643514208,1.6237136056999792,-56869.31877335547,10.5,10499943130.681227,47.655,-122.3035,60.0,1.8666666666666667
2026-02-06T21:25:00+00:00,SAT-52276,16.482459416165984,35.2794343201508,883.4488250050163,1.6752935359439325,-58675.86611338732,10.5,10499941324.133886,47.655,-122.3035,60.0,1.8833333333333333
2026-02-06T21:25:01+00:00,SAT-52276,17.03342765709415,35.18470972643858,885.1196273101812,1.7265800454106073,-60472.13661663021,10.5,10499939527.863384,47.655,-122.3035,60.0,1.9
2026-02-06T21:25:02+00:00,SAT-52276,17.581014480435663,35.08753347617874,886.8415786327578,1.7775664791736823,-62257.89719941408,10.5,10499937742.1028,47.655,-122.3035,60.0,1.9166666666666667
2026-02-06T21:25:03+00:00,SAT-52276,18.12515503503909,34.98795920455024,888.6143797015051,1.8282463910860602,-64032.922090400396,10.5,10499935967.07791,47.655,-122.3035,60.0,1.9333333333333333
2026-02-06T21:25:04+00:00,SAT-52276,18.665787726205558,34.886041120461456,890.4377248163146,1.878613577461749,-65796.99401026414,10.5,10499934203.00599,47.655,-122.3035,60.0,1.95
2026-02-06T21:25:05+00:00,SAT-52276,19.202854206335623,34.78183393092674,892.3113020900236,1.9286620813855653,-67549.90432263787,10.5,10499932450.095676,47.655,-122.3035,60.0,1.9666666666666666
2026-02-06T21:25:06+00:00,SAT-52276,19.73629936019764,34.675392766485515,894.2347936945246,1.9783861822736666,-69291.4526684774,10.5,10499930708.54733,47.655,-122.3035,60.0,1.9833333333333334
2026-02-06T21:25:07+00:00,SAT-52276,20.26607128109694,34.56677310863289,896.2078760964608,2.0277803948400868,-71021.44692986543,10.5,10499928978.55307,47.655,-122.3035,60.0,2.0
2026-02-06T21:25:08+00:00,SAT-52276,20.792121241526505,34.45603071883352,898.2302202918961,2.0768394872822338,-72739.70386694469,10.5,10499927260.296133,47.655,-122.3035,60.0,2.0166666666666666
2026-02-06T21:25:09+00:00,SAT-52276,21.314403663419583,34.3432215682,900.3014920591168,2.125558450806893,-74446.04805058964,10.5,10499925553.95195,47.655,-122.3035,60.0,2.033333333333333
2026-02-06T21:25:10+00:00,SAT-52276,21.832876075812216,34.22840177058601,902.421352181044,2.173932546499395,-76140.31350396294,10.5,10499923859.686497,47.655,-122.3035,60.0,2.05
2026-02-06T21:25:11+00:00,SAT-52276,22.3474990798167,34.1116275149931,904.5894567143888,2.2219572403609327,-77822.34142724762,10.5,10499922177.658573,47.655,-122.3035,60.0,2.066666666666667
2026-02-06T21:25:12+00:00,SAT-52276,22.85823629374493,33.992955003412064,906.8054571940185,2.269628252804719,-79491.98193121173,10.5,10499920508.018068,47.655,-122.3035,60.0,2.0833333333333335
2026-02-06T21:25:13+00:00,SAT-52276,23.365054306907123,33.87244038798465,909.0690008866864,2.3169415579541384,-81149.09401262674,10.5,10499918850.905987,47.655,-122.3035,60.0,2.1
2026-02-06T21:25:14+00:00,SAT-52276,23.86792262935698,33.75013971029315,911.3797310440613,2.363893335740742,-82793.54387653671,10.5,10499917206.456123,47.655,-122.3035,60.0,2.1166666666666667
2026-02-06T21:25:15+00:00,SAT-52276,24.366813628279964,33.62610884529282,913.7372871079862,2.41048001952673,-84425.20660419906,10.5,10499915574.793396,47.655,-122.3035,60.0,2.1333333333333333
2026-02-06T21:25:16+00:00,SAT-52276,24.86170247249157,33.50040344486978,916.1413049632268,2.456698259149499,-86043.96485874818,10.5,10499913956.035141,47.655,-122.3035,60.0,2.15
2026-02-06T21:25:17+00:00,SAT-52276,25.352567066824662,33.373078885523164,918.5914171533677,2.5025449568715774,-87649.71014431446,10.5,10499912350.289856,47.655,-122.3035,60.0,2.1666666666666665
2026-02-06T21:25:18+00:00,SAT-52276,25.83938799197859,33.2441902163837,921.0872531325614,2.548017208391818,-89242.34073998648,10.5,10499910757.65926,47.655,-122.3035,60.0,2.183333333333333
2026-02-06T21:25:19+00:00,SAT-52276,26.322148431138036,33.11379211250124,923.6284394584436,2.59311236751712,-90821.76396488852,10.5,10499909178.236034,47.655,-122.3035,60.0,2.2
2026-02-06T21:25:20+00:00,SAT-52276,26.800834108026244,32.98193882701707,926.2146000495532,2.637827974507893,-92387.89366853543,10.5,10499907612.10633,47.655,-122.3035,60.0,2.216666666666667
2026-02-06T21:25:21+00:00,SAT-52276,27.27543321034546,32.848684149231374,928.8453563712816,2.6821618060152224,-93940.65197984345,10.5,10499906059.34802,47.655,-122.3035,60.0,2.2333333333333334
2026-02-06T21:25:22+00:00,SAT-52276,27.745936322052675,32.71408136232421,931.5203276716333,2.726111861046123,-95479.96881557403,10.5,10499904520.031185,47.655,-122.3035,60.0,2.25
2026-02-06T21:25:23+00:00,SAT-52276,28.212336352336695,32.57818320399779,934.2391312029829,2.7696763132728344,-97005.78021000368,10.5,10499902994.21979,47.655,-122.3035,60.0,2.2666666666666666
2026-02-06T21:25:24+00:00,SAT-52276,28.674628456345783,32.441041831673694,937.0013823962752,2.8128535708689655,-98518.03041063873,10.5,10499901481.96959,47.655,-122.3035,60.0,2.283333333333333
2026-02-06T21:25:25+00:00,SAT-52276,29.13280996644476,32.30270878682202,939.8066950948947,2.85564223956776,-100016.67058435967,10.5,10499899983.329416,47.655,-122.3035,60.0,2.3
2026-02-06T21:25:26+00:00,SAT-52276,29.586880317233803,32.16323496326078,942.6546817516969,2.898041104325272,-101501.65817518784,10.5,10499898498.341825,47.655,-122.3035,60.0,2.316666666666667
2026-02-06T21:25:27+00:00,SAT-52276,30.036840968377458,32.0226705783988,945.544953607751,2.9400491727420324,-102972.95842509599,10.5,10499897027.041574,47.655,-122.3035,60.0,2.3333333333333335
2026-02-06T21:25:28+00:00,SAT-52276,30.48269533496035,31.881065144388003,948.4771209143878,2.9816656082384942,-104430.54203352971,10.5,10499895569.457966,47.655,-122.3035,60.0,2.35
2026-02-06T21:25:29+00:00,SAT-52276,30.92444870833375,31.738467444491967,951.4507930886006,3.0228897721882393,-105874.3866330904,10.5,10499894125.613367,47.655,-122.3035,60.0,2.3666666666666667
2026-02-06T21:25:30+00:00,SAT-52276,31.362108184661917,31.594925509325986,954.4655789104679,3.063721222033494,-107304.4767235328,10.5,10499892695.523277,47.655,-122.3035,60.0,2.3833333333333333
2026-02-06T21:25:31+00:00,SAT-52276,31.795682594053353,31.45048659508027,957.5210867186989,3.104159657285252,-108720.8017804609,10.5,10499891279.19822,47.655,-122.3035,60.0,2.4
2026-02-06T21:25:32+00:00,SAT-52276,32.22518242337746,31.30519716611265,960.6169245523168,3.144204966160578,-110123.35788876339,10.5,10499889876.64211,47.655,-122.3035,60.0,2.4166666666666665
2026-02-06T21:25:33+00:00,SAT-52276,32.6506197472885,31.15910287706698,963.7527003388634,3.1838572012562776,-111512.14689060295,10.5,10499888487.85311,47.655,-122.3035,60.0,2.433333333333333
2026-02-06T21:25:34+00:00,SAT-52276,33.07200815730523,31.012248557843122,966.9280220583354,3.2231165878748147,-112887.17667702487,10.5,10499887112.823322,47.655,-122.3035,60.0,2.45
2026-02-06T21:25:35+00:00,SAT-52276,33.48936269358015,30.86467819980926,970.1424979154282,3.261983455118347,-114248.45877457879,10.5,10499885751.541225,47.655,-122.3035,60.0,2.466666666666667
2026-02-06T21:25:36+00:00,SAT-52276,33.90269976965148,30.716434946731372,973.395736443057,3.300458359398074,-115596.01267113855,10.5,10499884403.98733,47.655,-122.3035,60.0,2.4833333333333334
2026-02-06T21:25:37+00:00,SAT-52276,34.31203711486281,30.567561081538372,976.6873467290568,3.338541937080235,-116929.86065494172,10.5,10499883070.139345,47.655,-122.3035,60.0,2.5
2026-02-06T21:25:38+00:00,SAT-52276,34.717393699888326,30.418098021255144,980.0169384959225,3.3762349999606553,-118250.03115851195,10.5,10499881749.968842,47.655,-122.3035,60.0,2.5166666666666666
2026-02-06T21:25:39+00:00,SAT-52276,35.11878967634646,30.268086308938194,983.3841222757686,3.413538498863382,-119556.55748372934,10.5,10499880443.442516,47.655,-122.3035,60.0,2.533333333333333
2026-02-06T21:25:40+00:00,SAT-52276,35.516246313721055,30.117565608586357,986.7885095489851,3.4504534716433155,-120849.47598066264,10.5,10499879150.52402,47.655,-122.3035,60.0,2.55
