DopplerPredictor/satellites_20260211_204923/SAT-52123.csv

timestamp,satellite,azimuth_deg,elevation_deg,distance_km,relative_velocity_kms,doppler_shift_hz,tx_freq_ghz,rx_freq_hz,ue_lat,ue_lon,ue_alt_m,time_minutes
2026-02-06T21:25:27+00:00,SAT-52123,290.55219508464717,30.10593691393463,984.2820381258468,-5.719814727474722,200332.10654847286,10.5,10500200332.106548,47.655,-122.3035,60.0,2.3333333333333335
2026-02-06T21:25:28+00:00,SAT-52123,290.4593566802133,30.358855957920955,978.577557432322,-5.703108525431279,199746.98468574692,10.5,10500199746.984686,47.655,-122.3035,60.0,2.35
2026-02-06T21:25:29+00:00,SAT-52123,290.36488692470226,30.614304102537787,972.8897381538185,-5.686101064828139,199151.31147393794,10.5,10500199151.311474,47.655,-122.3035,60.0,2.3666666666666667
2026-02-06T21:25:30+00:00,SAT-52123,290.2687442933972,30.872315619105674,967.2188807412629,-5.668786126347355,198544.86908622374,10.5,10500198544.869085,47.655,-122.3035,60.0,2.3833333333333333
2026-02-06T21:25:31+00:00,SAT-52123,290.1708858607793,31.132925117089542,961.565291848228,-5.651157489155095,197927.4396426894,10.5,10500197927.439642,47.655,-122.3035,60.0,2.4
2026-02-06T21:25:32+00:00,SAT-52123,290.0712672397963,31.39616754091398,955.9292843324414,-5.6332086765697795,197298.79630254972,10.5,10500197298.796303,47.655,-122.3035,60.0,2.4166666666666665
2026-02-06T21:25:33+00:00,SAT-52123,289.96984252223706,31.662078154180136,950.3111775109508,-5.614933186921938,196658.71134983771,10.5,10500196658.71135,47.655,-122.3035,60.0,2.433333333333333
2026-02-06T21:25:34+00:00,SAT-52123,289.86656421224103,31.930692533491243,944.7112971850422,-5.596324284980427,196006.94888826882,10.5,10500196006.948889,47.655,-122.3035,60.0,2.45
2026-02-06T21:25:35+00:00,SAT-52123,289.7613831600008,32.202046551378736,939.1299758731772,-5.577375205639931,195343.27197523852,10.5,10500195343.271975,47.655,-122.3035,60.0,2.466666666666667
2026-02-06T21:25:36+00:00,SAT-52123,289.6542484884491,32.47617636771631,933.5675528407854,-5.558078957398217,194667.43573876456,10.5,10500194667.43574,47.655,-122.3035,60.0,2.4833333333333334
2026-02-06T21:25:37+00:00,SAT-52123,289.54510751971645,32.75311841040938,928.0243743260572,-5.538428467096241,193979.19244689785,10.5,10500193979.192448,47.655,-122.3035,60.0,2.5
2026-02-06T21:25:38+00:00,SAT-52123,289.43390569506295,33.03290936170257,922.5007936213782,-5.518416494608378,193278.28851981313,10.5,10500193278.288519,47.655,-122.3035,60.0,2.5166666666666666
2026-02-06T21:25:39+00:00,SAT-52123,289.3205864922664,33.31558613884532,916.9971712398501,-5.49803568715789,192564.46643216704,10.5,10500192564.466433,47.655,-122.3035,60.0,2.533333333333333
2026-02-06T21:25:40+00:00,SAT-52123,289.20509133756065,33.60118587590616,911.5138750276409,-5.477278507696708,191837.46220465435,10.5,10500191837.462204,47.655,-122.3035,60.0,2.55
2026-02-06T21:25:41+00:00,SAT-52123,289.0873595143251,33.88974590022316,906.0512803477586,-5.456137309159501,191097.00800470024,10.5,10500191097.008005,47.655,-122.3035,60.0,2.566666666666667
2026-02-06T21:25:42+00:00,SAT-52123,288.9673280654104,34.18130371086354,900.6097701897785,-5.434604286158031,190342.83045459175,10.5,10500190342.830454,47.655,-122.3035,60.0,2.5833333333333335
2026-02-06T21:25:43+00:00,SAT-52123,288.8449316911631,34.475896952664144,895.1897353277358,-5.412671503819193,189574.6516415084,10.5,10500189574.651642,47.655,-122.3035,60.0,2.6
2026-02-06T21:25:44+00:00,SAT-52123,288.7201026413918,34.773563389754685,889.7915744492697,-5.390330870712783,188792.18816933755,10.5,10500188792.18817,47.655,-122.3035,60.0,2.6166666666666667
2026-02-06T21:25:45+00:00,SAT-52123,288.5927706018767,35.07434087543535,884.4156943117557,-5.367574131887487,187995.1509147659,10.5,10500187995.150915,47.655,-122.3035,60.0,2.6333333333333333
2026-02-06T21:25:46+00:00,SAT-52123,288.462862574932,35.37826731926835,879.0625099053905,-5.344392932114257,187183.24724232955,10.5,10500187183.247242,47.655,-122.3035,60.0,2.65
2026-02-06T21:25:47+00:00,SAT-52123,288.33030275186974,35.68538065524514,873.7324445532009,-5.3207787288489845,186356.17795599892,10.5,10500186356.177956,47.655,-122.3035,60.0,2.6666666666666665
2026-02-06T21:25:48+00:00,SAT-52123,288.19501238038816,35.99571880241515,868.4259300978567,-5.2967228364814,185513.63884896232,10.5,10500185513.63885,47.655,-122.3035,60.0,2.683333333333333
2026-02-06T21:25:49+00:00,SAT-52123,288.0569096234125,36.30931962510895,863.1434070443522,-5.272216453097434,184655.32164095686,10.5,10500184655.32164,47.655,-122.3035,60.0,2.7
2026-02-06T21:25:50+00:00,SAT-52123,287.91590940946577,36.626220891778054,857.8853246759993,-5.247250588346556,183780.91145187794,10.5,10500183780.911451,47.655,-122.3035,60.0,2.716666666666667
2026-02-06T21:25:51+00:00,SAT-52123,287.7719232761103,36.94646022634436,852.6521412423597,-5.221816167991485,182890.09046355195,10.5,10500182890.090464,47.655,-122.3035,60.0,2.7333333333333334
2026-02-06T21:25:52+00:00,SAT-52123,287.6248592019521,37.270075062417625,847.4443240429041,-5.195903887682432,181982.53279829185,10.5,10500181982.532799,47.655,-122.3035,60.0,2.75
2026-02-06T21:25:53+00:00,SAT-52123,287.47462143263186,37.59710258493526,842.2623496565097,-5.169504401452628,181057.91112080813,10.5,10500181057.911121,47.655,-122.3035,60.0,2.7666666666666666
2026-02-06T21:25:54+00:00,SAT-52123,287.3211102918121,37.927579679568936,837.1067039829658,-5.1426081373027905,180115.89017919626,10.5,10500180115.890179,47.655,-122.3035,60.0,2.783333333333333
2026-02-06T21:25:55+00:00,SAT-52123,287.1642219860153,38.261542866524884,831.9778824683991,-5.115205448989968,179156.13212122457,10.5,10500179156.132122,47.655,-122.3035,60.0,2.8
2026-02-06T21:25:56+00:00,SAT-52123,287.0038483938594,38.599028239532835,826.8763901793194,-5.087286492646392,178178.2921730043,10.5,10500178178.292173,47.655,-122.3035,60.0,2.816666666666667
2026-02-06T21:25:57+00:00,SAT-52123,286.83987684627505,38.94007139222124,821.8027419997143,-5.058841367697901,177182.0235745489,10.5,10500177182.023575,47.655,-122.3035,60.0,2.8333333333333335
2026-02-06T21:25:58+00:00,SAT-52123,286.67218988947127,39.28470734881178,816.7574626876032,-5.029859984113111,176166.97293027854,10.5,10500176166.97293,47.655,-122.3035,60.0,2.85
2026-02-06T21:25:59+00:00,SAT-52123,286.5006650377169,39.63297048076439,811.7410870639866,-5.00033215674147,175132.78351313772,10.5,10500175132.783514,47.655,-122.3035,60.0,2.8666666666666667
2026-02-06T21:26:00+00:00,SAT-52123,286.3251745081584,39.98489442410722,806.7541601077113,-4.970247569058248,174079.09399479156,10.5,10500174079.093994,47.655,-122.3035,60.0,2.8833333333333333
2026-02-06T21:26:01+00:00,SAT-52123,286.1455849408169,40.340511988396564,801.7972370864917,-4.939595783619131,173005.53881178983,10.5,10500173005.538813,47.655,-122.3035,60.0,2.9
2026-02-06T21:26:02+00:00,SAT-52123,285.9617571009234,40.69985506002979,796.8708836775043,-4.908366268517375,171911.74909220845,10.5,10500171911.749092,47.655,-122.3035,60.0,2.9166666666666665
2026-02-06T21:26:03+00:00,SAT-52123,285.7735455622112,41.06295450076887,791.9756760615982,-4.876548407799014,170797.35302043406,10.5,10500170797.35302,47.655,-122.3035,60.0,2.933333333333333
2026-02-06T21:26:04+00:00,SAT-52123,285.5807983699014,41.429840040014206,787.1122010071169,-4.84413141827808,169661.9729236812,10.5,10500169661.972923,47.655,-122.3035,60.0,2.95
2026-02-06T21:26:05+00:00,SAT-52123,285.3833566859379,41.80054015322751,782.2810560366811,-4.811104520333127,168505.23125400915,10.5,10500168505.231255,47.655,-122.3035,60.0,2.966666666666667
2026-02-06T21:26:06+00:00,SAT-52123,285.1810544054331,42.175081945141045,777.4828494236343,-4.777456777426557,167326.74496760973,10.5,10500167326.744968,47.655,-122.3035,60.0,2.9833333333333334
2026-02-06T21:26:07+00:00,SAT-52123,284.9737177550093,42.55349101232597,772.7182003485392,-4.743177215799897,166126.12971704217,10.5,10500166126.129717,47.655,-122.3035,60.0,3.0
2026-02-06T21:26:08+00:00,SAT-52123,284.7611648610322,42.93579130577064,767.9877389362965,-4.708254802798105,164902.9990920589,10.5,10500164902.999092,47.655,-122.3035,60.0,3.0166666666666666
2026-02-06T21:26:09+00:00,SAT-52123,284.5432052909187,43.3220049822875,763.2921063148856,-4.672678445368279,163656.96456702365,10.5,10500163656.964567,47.655,-122.3035,60.0,3.033333333333333
2026-02-06T21:26:10+00:00,SAT-52123,284.31963956504825,43.71215224555512,758.6319546755996,-4.636437002679782,162387.6359429219,10.5,10500162387.635942,47.655,-122.3035,60.0,3.05
2026-02-06T21:26:11+00:00,SAT-52123,284.09025863665767,44.10625117725958,754.0079473206956,-4.5995193133476615,161094.62230084,10.5,10500161094.622301,47.655,-122.3035,60.0,3.066666666666667
2026-02-06T21:26:12+00:00,SAT-52123,283.8548433366107,44.50431755894568,749.4207586838934,-4.561914204974605,159777.53233616488,10.5,10500159777.532335,47.655,-122.3035,60.0,3.0833333333333335
2026-02-06T21:26:13+00:00,SAT-52123,283.6131637814469,44.90636468246579,744.8710743413582,-4.523610515752441,158435.97511515996,10.5,10500158435.975115,47.655,-122.3035,60.0,3.1
2026-02-06T21:26:14+00:00,SAT-52123,283.3649787414509,45.312403149324176,740.3595910011402,-4.484597046329152,157069.55838914434,10.5,10500157069.55839,47.655,-122.3035,60.0,3.1166666666666667
2026-02-06T21:26:15+00:00,SAT-52123,283.11003496955936,45.7224406517719,735.8870165406179,-4.4448626984907404,155677.89345171844,10.5,10500155677.893452,47.655,-122.3035,60.0,3.1333333333333333
2026-02-06T21:26:16+00:00,SAT-52123,282.84806647859716,46.13648175159726,731.4540699056307,-4.404396349914534,154260.59075209493,10.5,10500154260.590752,47.655,-122.3035,60.0,3.15
2026-02-06T21:26:17+00:00,SAT-52123,282.57879377707417,46.55452763190077,727.0614811345237,-4.363187017834245,152817.26562734134,10.5,10500152817.265627,47.655,-122.3035,60.0,3.1666666666666665
2026-02-06T21:26:18+00:00,SAT-52123,282.3019230450022,46.97657584731072,722.7099912189642,-4.321223733699258,151347.53391241818,10.5,10500151347.533913,47.655,-122.3035,60.0,3.183333333333333
2026-02-06T21:26:19+00:00,SAT-52123,282.0171452616015,47.40262004469086,718.400352089766,-4.278495684143226,149851.01687749554,10.5,10500149851.016878,47.655,-122.3035,60.0,3.2
2026-02-06T21:26:20+00:00,SAT-52123,281.7241352662654,47.832649678345234,714.1333264621195,-4.234992147273515,148327.33899653977,10.5,10500148327.338997,47.655,-122.3035,60.0,3.216666666666667
2026-02-06T21:26:21+00:00,SAT-52123,281.4225507601482,48.266649698949536,709.9096877443643,-4.190702584376546,146776.1311592226,10.5,10500146776.131159,47.655,-122.3035,60.0,3.2333333333333334
2026-02-06T21:26:22+00:00,SAT-52123,281.11203123474553,48.70460023014815,705.7302198552992,-4.145616584516361,145197.02873052863,10.5,10500145197.02873,47.655,-122.3035,60.0,3.25
2026-02-06T21:26:23+00:00,SAT-52123,280.79219683198363,49.1464762165783,701.5957170967508,-4.099723986426451,143589.6758199225,10.5,10500143589.67582,47.655,-122.3035,60.0,3.2666666666666666
2026-02-06T21:26:24+00:00,SAT-52123,280.46264711912795,49.59224706013272,697.5069839045701,-4.053014808857081,141953.72284181797,10.5,10500141953.722841,47.655,-122.3035,60.0,3.283333333333333
2026-02-06T21:26:25+00:00,SAT-52123,280.12295978628674,50.04187622285161,693.4648346690998,-4.005479358267826,140288.83028742563,10.5,10500140288.830288,47.655,-122.3035,60.0,3.3
2026-02-06T21:26:26+00:00,SAT-52123,279.77268924853223,50.495320813528096,689.470093448235,-3.957108178718248,138594.66696971277,10.5,10500138594.66697,47.655,-122.3035,60.0,3.316666666666667
2026-02-06T21:26:27+00:00,SAT-52123,279.41136515864486,50.95253113900696,685.5235937304631,-3.9078921735586976,136870.91428552993,10.5,10500136870.914286,47.655,-122.3035,60.0,3.3333333333333335
2026-02-06T21:26:28+00:00,SAT-52123,279.0384908110196,51.413450237362724,681.6261780765325,-3.857822545532176,135117.26411772455,10.5,10500135117.264118,47.655,-122.3035,60.0,3.35
2026-02-06T21:26:29+00:00,SAT-52123,278.6535414454309,51.87801337023741,677.7786978208653,-3.8068909044611403,133333.42260678878,10.5,10500133333.422607,47.655,-122.3035,60.0,3.3666666666666667
2026-02-06T21:26:30+00:00,SAT-52123,278.2559624303236,52.34614749127978,673.9820126655682,-3.7550892268745364,131519.10873682698,10.5,10500131519.108736,47.655,-122.3035,60.0,3.3833333333333333
2026-02-06T21:26:31+00:00,SAT-52123,277.8451673327998,52.81777067069387,670.2369903147086,-3.7024099732374425,129674.058441434,10.5,10500129674.058441,47.655,-122.3035,60.0,3.4
2026-02-06T21:26:32+00:00,SAT-52123,277.4205358541733,53.292791492285126,666.5445059916767,-3.6488460569787686,127798.02351891411,10.5,10500127798.02352,47.655,-122.3035,60.0,3.4166666666666665
2026-02-06T21:26:33+00:00,SAT-52123,276.9814116396792,53.771108402002966,662.9054419874359,-3.594390901073899,125890.77361404448,10.5,10500125890.773615,47.655,-122.3035,60.0,3.433333333333333
2026-02-06T21:26:34+00:00,SAT-52123,276.52709994862545,54.25260901541005,659.3206871523419,-3.5390384880046017,123952.09796788257,10.5,10500123952.097967,47.655,-122.3035,60.0,3.45
2026-02-06T21:26:35+00:00,SAT-52123,276.0568651805535,54.737169380171814,655.7911363381363,-3.482783381619346,121981.80618340684,10.5,10500121981.806183,47.655,-122.3035,60.0,3.466666666666667
2026-02-06T21:26:36+00:00,SAT-52123,275.56992825690463,55.22465318620744,652.3176898181389,-3.425620784667836,119979.73024061957,10.5,10500119979.73024,47.655,-122.3035,60.0,3.4833333333333334
2026-02-06T21:26:37+00:00,SAT-52123,275.06546385169975,55.71491092445854,648.9012526500593,-3.3675465442036456,117945.72468577005,10.5,10500117945.724686,47.655,-122.3035,60.0,3.5
2026-02-06T21:26:38+00:00,SAT-52123,274.54259747758573,56.207778982804065,645.5427340334192,-3.308557239979523,115879.6697273318,10.5,10500115879.669727,47.655,-122.3035,60.0,3.5166666666666666
2026-02-06T21:26:39+00:00,SAT-52123,274.0004024182098,56.703078686536585,642.243046578819,-3.248650162093842,113781.47045308705,10.5,10500113781.470453,47.655,-122.3035,60.0,3.533333333333333
2026-02-06T21:26:40+00:00,SAT-52123,273.4378965279452,57.200615262698335,639.003105599496,-3.187823430223797,111651.06100617738,10.5,10500111651.061007,47.655,-122.3035,60.0,3.55
2026-02-06T21:26:41+00:00,SAT-52123,272.8540388873977,57.70017674436887,635.8238282839689,-3.1260759447082282,109488.4028718174,10.5,10500109488.402872,47.655,-122.3035,60.0,3.566666666666667
2026-02-06T21:26:42+00:00,SAT-52123,272.24772635585555,58.201532784498006,632.7061329174701,-3.0634075145976616,107293.48936214883,10.5,10500107293.489363,47.655,-122.3035,60.0,3.5833333333333335
2026-02-06T21:26:43+00:00,SAT-52123,271.6177900134155,58.704433401212256,629.6509379756687,-2.999818822545849,105066.34438659366,10.5,10500105066.344387,47.655,-122.3035,60.0,3.6
2026-02-06T21:26:44+00:00,SAT-52123,270.9629915507363,59.20860762393548,626.659161253411,-2.935311523612902,102807.0259123579,10.5,10500102807.025913,47.655,-122.3035,60.0,3.6166666666666667
2026-02-06T21:26:45+00:00,SAT-52123,270.28201962268014,59.713762056424976,623.7317188949199,-2.869888224178747,100515.62522589159,10.5,10500100515.625225,47.655,-122.3035,60.0,3.6333333333333333
2026-02-06T21:26:46+00:00,SAT-52123,269.5734862430997,60.219579332101716,620.8695244450256,-2.8035526011392067,98192.27110763965,10.5,10500098192.271107,47.655,-122.3035,60.0,3.65
2026-02-06T21:26:47+00:00,SAT-52123,268.83592325961575,60.72571648107836,618.0734877815198,-2.736309332925462,95837.12741605178,10.5,10500095837.127417,47.655,-122.3035,60.0,3.6666666666666665
2026-02-06T21:26:48+00:00,SAT-52123,268.0677790400092,61.231803172386975,615.3445141163052,-2.668164253122878,93450.39846796352,10.5,10500093450.398468,47.655,-122.3035,60.0,3.683333333333333
2026-02-06T21:26:49+00:00,SAT-52123,267.2674154289209,61.7374398682362,612.6835028433383,-2.5991242610267378,91032.32590587968,10.5,10500091032.325907,47.655,-122.3035,60.0,3.7
2026-02-06T21:26:50+00:00,SAT-52123,266.43310517653197,62.24219584527374,610.0913464757762,-2.52919746476722,88583.19371081646,10.5,10500088583.19371,47.655,-122.3035,60.0,3.716666666666667
2026-02-06T21:26:51+00:00,SAT-52123,265.56302995081796,62.745607126888935,607.5689294403827,-2.458393135583218,86103.32660077722,10.5,10500086103.326601,47.655,-122.3035,60.0,3.7333333333333334
2026-02-06T21:26:52+00:00,SAT-52123,264.6552791983072,63.247174295513005,605.1171269175377,-2.386721773893447,83593.0923448421,10.5,10500083593.092344,47.655,-122.3035,60.0,3.75
2026-02-06T21:26:53+00:00,SAT-52123,263.7078500805506,63.746360214147586,602.7368036153526,-2.3141951072001685,81052.90168974754,10.5,10500081052.90169,47.655,-122.3035,60.0,3.7666666666666666
2026-02-06T21:26:54+00:00,SAT-52123,262.7186488200995,64.24258765702719,600.4288125458759,-2.2408261311510547,78483.2097980466,10.5,10500078483.209799,47.655,-122.3035,60.0,3.783333333333333
2026-02-06T21:26:55+00:00,SAT-52123,261.6854938141664,64.73523687790346,598.1939937603483,-2.1666291287897974,75884.51692234658,10.5,10500075884.516922,47.655,-122.3035,60.0,3.8
2026-02-06T21:26:56+00:00,SAT-52123,260.6061209623512,65.22364313992607,596.033173065258,-2.0916196578344746,73257.36795974361,10.5,10500073257.36796,47.655,-122.3035,60.0,3.816666666666667
2026-02-06T21:26:57+00:00,SAT-52123,259.47819173742016,65.70709423819919,593.9471607510827,-2.0158145992309615,70602.35415236863,10.5,10500070602.354153,47.655,-122.3035,60.0,3.8333333333333335
2026-02-06T21:26:58+00:00,SAT-52123,258.29930456198446,66.18482807983892,591.9367502726097,-1.9392321432706539,67920.11260117112,10.5,10500067920.1126,47.655,-122.3035,60.0,3.85
2026-02-06T21:26:59+00:00,SAT-52123,257.0670101863525,66.65603037419152,590.0027169431013,-1.8618917869294276,65211.32617271842,10.5,10500065211.326172,47.655,-122.3035,60.0,3.8666666666666667
2026-02-06T21:27:00+00:00,SAT-52123,255.77883180687363,67.1198325199216,588.1458166311115,-1.7838143493807972,62476.72404253202,10.5,10500062476.724043,47.655,-122.3035,60.0,3.8833333333333333
2026-02-06T21:27:01+00:00,SAT-52123,254.43229071357214,67.57530979926159,586.3667844418349,-1.7050219476237243,59717.08084147035,10.5,10500059717.080841,47.655,-122.3035,60.0,3.9
2026-02-06T21:27:02+00:00,SAT-52123,253.0249383291327,68.02147999958149,584.6663334227597,-1.6255380110418458,56933.21716565458,10.5,10500056933.217165,47.655,-122.3035,60.0,3.9166666666666665
2026-02-06T21:27:03+00:00,SAT-52123,251.55439544759702,68.4573026285716,583.0451532548012,-1.5453872325442408,54125.99786521156,10.5,10500054125.997866,47.655,-122.3035,60.0,3.933333333333333
2026-02-06T21:27:04+00:00,SAT-52123,250.01839949708082,68.8816788914393,581.503908992164,-1.4645955817074856,51296.3325045642,10.5,10500051296.332504,47.655,-122.3035,60.0,3.95
2026-02-06T21:27:05+00:00,SAT-52123,248.4148604190829,69.293452659737,580.0432397890969,-1.3831902394828821,48445.1730756024,10.5,10500048445.173075,47.655,-122.3035,60.0,3.966666666666667
2026-02-06T21:27:06+00:00,SAT-52123,246.74192563339227,69.69141265072325,578.6637576917658,-1.3011996237633423,45573.51489314349,10.5,10500045573.514893,47.655,-122.3035,60.0,3.9833333333333334
2026-02-06T21:27:07+00:00,SAT-52123,244.9980540271639,70.07429610447593,577.3660464046282,-1.2186532829203671,42682.39286614693,10.5,10500042682.392866,47.655,-122.3035,60.0,4.0
2026-02-06T21:27:08+00:00,SAT-52123,243.18209861707518,70.44079419582422,576.1506601629852,-1.135581923821059,39772.88247898858,10.5,10500039772.882479,47.655,-122.3035,60.0,4.016666666666667
2026-02-06T21:27:09+00:00,SAT-52123,241.29339654085643,70.78955949285198,575.0181225775915,-1.0520173098894017,36846.096221135485,10.5,10500036846.096222,47.655,-122.3035,60.0,4.033333333333333
2026-02-06T21:27:10+00:00,SAT-52123,239.33186448385422,71.11921567551465,573.9689255809316,-0.9679922508031198,33903.18322628636,10.5,10500033903.183226,47.655,-122.3035,60.0,4.05
2026-02-06T21:27:11+00:00,SAT-52123,237.29809634683505,71.42836974516285,573.0035283837699,-0.8835405187978871,30945.32634099092,10.5,10500030945.326342,47.655,-122.3035,60.0,4.066666666666666
2026-02-06T21:27:12+00:00,SAT-52123,235.19345907899384,71.71562682629208,572.1223565151741,-0.7986968001696945,27973.740426057655,10.5,10500027973.740425,47.655,-122.3035,60.0,4.083333333333333
2026-02-06T21:27:13+00:00,SAT-52123,233.02018133033144,71.97960757844793,571.3258009109055,-0.7134966347717929,24989.670237480845,10.5,10500024989.670237,47.655,-122.3035,60.0,4.1
2026-02-06T21:27:14+00:00,SAT-52123,230.7814286601288,72.21896806876765,570.6142170621492,-0.627976337458403,21994.387675066966,10.5,10500021994.387674,47.655,-122.3035,60.0,4.116666666666666
2026-02-06T21:27:15+00:00,SAT-52123,228.48135841062987,72.43242176642771,569.9879242425907,-0.5421729212622134,18989.189091785764,10.5,10500018989.189093,47.655,-122.3035,60.0,4.133333333333334
2026-02-06T21:27:16+00:00,SAT-52123,226.12514717195623,72.61876311720575,569.4472048121105,-0.4561240417641381,15975.393345363778,10.5,10500015975.393345,47.655,-122.3035,60.0,4.15
2026-02-06T21:27:17+00:00,SAT-52123,223.71898420342234,72.77689194815792,568.9923035759572,-0.36986789456899805,12954.3382074491,10.5,10500012954.338207,47.655,-122.3035,60.0,4.166666666666667
2026-02-06T21:27:18+00:00,SAT-52123,221.27002579224208,72.9058377319751,568.6234272461718,-0.2834431415788422,9927.37778139116,10.5,10500009927.37778,47.655,-122.3035,60.0,4.183333333333334
2026-02-06T21:27:19+00:00,SAT-52123,218.78630750929563,73.0047826155505,568.3407439765402,-0.1968888281724376,6895.879601516175,10.5,10500006895.879602,47.655,-122.3035,60.0,4.2
2026-02-06T21:27:20+00:00,SAT-52123,216.2766143937823,73.07308202833445,568.1443829801456,-0.11024429305705598,3861.221475755364,10.5,10500003861.221476,47.655,-122.3035,60.0,4.216666666666667
2026-02-06T21:27:21+00:00,SAT-52123,213.75031256306235,73.11028170828338,568.0344342368245,-0.023549079617730662,824.7883807209452,10.5,10500000824.788382,47.655,-122.3035,60.0,4.233333333333333
2026-02-06T21:27:22+00:00,SAT-52123,211.2171492396055,73.1161301186922,568.0109482890393,0.06315715337587721,-2212.0306657171163,10.5,10499997787.969334,47.655,-122.3035,60.0,4.25
2026-02-06T21:27:23+00:00,SAT-52123,208.68703125782193,73.09058546860831,568.0739361268028,0.14983472179209767,-5247.8457574040285,10.5,10499994752.154243,47.655,-122.3035,60.0,4.266666666666667
2026-02-06T21:27:24+00:00,SAT-52123,206.1697944351205,73.03381687808017,568.2233691623829,0.2364440079998174,-8281.269317315791,10.5,10499991718.730682,47.655,-122.3035,60.0,4.283333333333333
2026-02-06T21:27:25+00:00,SAT-52123,203.67497695497198,72.94619961071328,568.4591792966264,0.3229455486607132,-11310.919172414568,10.5,10499988689.080828,47.655,-122.3035,60.0,4.3
2026-02-06T21:27:26+00:00,SAT-52123,201.21160980930773,72.82830468952324,568.7812590728378,0.4093001268207066,-14335.421779080978,10.5,10499985664.57822,47.655,-122.3035,60.0,4.316666666666666
2026-02-06T21:27:27+00:00,SAT-52123,198.78803517980165,72.6808835624787,569.1894619225018,0.49546885854072464,-17353.41525728979,10.5,10499982646.584743,47.655,-122.3035,60.0,4.333333333333333
2026-02-06T21:27:28+00:00,SAT-52123,196.41176115813712,72.50484876586096,569.6836024974076,0.5814132773503742,-20363.552348534828,10.5,10499979636.44765,47.655,-122.3035,60.0,4.35
2026-02-06T21:27:29+00:00,SAT-52123,194.08935760250108,72.30125170734492,570.2634570859963,0.6670954251968544,-23364.503601244603,10.5,10499976635.496399,47.655,-122.3035,60.0,4.366666666666666
2026-02-06T21:27:30+00:00,SAT-52123,191.82639442011705,72.07125875192266,570.9287641204174,0.7524779225348168,-26354.959825625687,10.5,10499973645.040174,47.655,-122.3035,60.0,4.383333333333334
2026-02-06T21:27:31+00:00,SAT-52123,189.62742048042028,71.81612676275502,571.6792247534837,0.8375240588607606,-29333.635264560213,10.5,10499970666.364735,47.655,-122.3035,60.0,4.4
2026-02-06T21:27:32+00:00,SAT-52123,187.49597865015704,71.53717910966836,572.5145035259209,0.922197859646848,-32299.269937911195,10.5,10499967700.730062,47.655,-122.3035,60.0,4.416666666666667
2026-02-06T21:27:33+00:00,SAT-52123,185.43465091886213,71.23578299080708,573.4342291003695,1.0064641618224015,-35250.632286203865,10.5,10499964749.367714,47.655,-122.3035,60.0,4.433333333333334
2026-02-06T21:27:34+00:00,SAT-52123,183.44512661213432,70.91332869057938,574.437995070666,1.0902886752711023,-38186.521324517686,10.5,10499961813.478676,47.655,-122.3035,60.0,4.45
2026-02-06T21:27:35+00:00,SAT-52123,181.52828665972558,70.57121119059174,575.5253608324587,1.1736380599322471,-41105.76934289853,10.5,10499958894.230658,47.655,-122.3035,60.0,4.466666666666667
2026-02-06T21:27:36+00:00,SAT-52123,179.68429731577535,70.21081434366027,576.6958525307142,1.2564799619969242,-44007.243174101815,10.5,10499955992.756826,47.655,-122.3035,60.0,4.483333333333333
2026-02-06T21:27:37+00:00,SAT-52123,177.9127077083453,69.83349767192651,577.9489640433272,1.3387830904981284,-46889.84687610236,10.5,10499953110.153124,47.655,-122.3035,60.0,4.5
2026-02-06T21:27:38+00:00,SAT-52123,176.21254652473928,69.44058569369064,579.2841580411117,1.4205172537803585,-49752.52300941395,10.5,10499950247.47699,47.655,-122.3035,60.0,4.516666666666667
2026-02-06T21:27:39+00:00,SAT-52123,174.58241441170549,69.03335961517013,580.700867084166,1.501653394399451,-52594.253859429096,10.5,10499947405.746141,47.655,-122.3035,60.0,4.533333333333333
2026-02-06T21:27:40+00:00,SAT-52123,173.02056964928298,68.61305115098403,582.1984947530434,1.5821636663294187,-55414.06414052917,10.5,10499944585.93586,47.655,-122.3035,60.0,4.55
2026-02-06T21:27:41+00:00,SAT-52123,171.52500555130572,68.18083819447627,583.776416856922,1.6620214063852554,-58211.01999519008,10.5,10499941788.980005,47.655,-122.3035,60.0,4.566666666666666
2026-02-06T21:27:42+00:00,SAT-52123,170.09351896962212,67.73784209186422,585.4339826132756,1.7412012275695663,-60984.23226337617,10.5,10499939015.767736,47.655,-122.3035,60.0,4.583333333333333
2026-02-06T21:27:43+00:00,SAT-52123,168.72376961479736,67.28512621825075,587.1705159206398,1.8196789925927912,-63732.85555510642,10.5,10499936267.144445,47.655,-122.3035,60.0,4.6
2026-02-06T21:27:44+00:00,SAT-52123,167.41333059248964,66.82369563939758,588.9853166049692,1.8974318733716413,-66456.09033434135,10.5,10499933543.909666,47.655,-122.3035,60.0,4.616666666666666
2026-02-06T21:27:45+00:00,SAT-52123,166.15973063519758,66.35449761219643,590.8776617253337,1.9744383144456557,-69153.1816376761,10.5,10499930846.818363,47.655,-122.3035,60.0,4.633333333333334
2026-02-06T21:27:46+00:00,SAT-52123,164.96048884136223,65.87842275275995,592.8468068431308,2.050678104271797,-71823.4215713788,10.5,10499928176.578428,47.655,-122.3035,60.0,4.65
2026-02-06T21:27:47+00:00,SAT-52123,163.81314266488698,65.39630667789315,594.8919873623987,2.1261323221452213,-74466.14745233125,10.5,10499925533.852549,47.655,-122.3035,60.0,4.666666666666667
2026-02-06T21:27:48+00:00,SAT-52123,162.71527008276777,64.90893201092591,597.0124198171945,2.200783373119431,-77080.7430310806,10.5,10499922919.25697,47.655,-122.3035,60.0,4.683333333333334
2026-02-06T21:27:49+00:00,SAT-52123,161.6645067000153,64.41703061550083,599.2073031937986,2.2746149629288115,-79666.63761352035,10.5,10499920333.362387,47.655,-122.3035,60.0,4.7
2026-02-06T21:27:50+00:00,SAT-52123,160.65855859474289,63.92128597928891,601.4758202279088,2.3476121110679213,-82223.30651898246,10.5,10499917776.693481,47.655,-122.3035,60.0,4.716666666666667
2026-02-06T21:27:51+00:00,SAT-52123,159.69521158089236,63.42233566579799,603.8171387148774,2.419761107843486,-84750.26957601651,10.5,10499915249.730425,47.655,-122.3035,60.0,4.733333333333333
2026-02-06T21:27:52+00:00,SAT-52123,158.77233753511368,62.920773789874346,606.2304127771177,2.491049541578647,-87247.09207519756,10.5,10499912752.907925,47.655,-122.3035,60.0,4.75
2026-02-06T21:27:53+00:00,SAT-52123,157.88789830006058,62.41715345879154,608.7147841586404,2.5614662179737264,-89713.38194479905,10.5,10499910286.618055,47.655,-122.3035,60.0,4.766666666666667
2026-02-06T21:27:54+00:00,SAT-52123,157.03994767596848,61.911989169615794,611.2693834391661,2.6310011987466844,-92148.79110414507,10.5,10499907851.208897,47.655,-122.3035,60.0,4.783333333333333
2026-02-06T21:27:55+00:00,SAT-52123,156.22663185083096,61.4057591153077,613.893331286777,2.6996457438890626,-94553.01344116921,10.5,10499905446.986559,47.655,-122.3035,60.0,4.8
2026-02-06T21:27:56+00:00,SAT-52123,155.44618864219362,60.898907403911444,616.5857396529777,2.7673922870811087,-96925.78395134825,10.5,10499903074.21605,47.655,-122.3035,60.0,4.816666666666666
2026-02-06T21:27:57+00:00,SAT-52123,154.69694581530885,60.39184617381219,619.3457129432372,2.834234399966466,-99266.87748645063,10.5,10499900733.122513,47.655,-122.3035,60.0,4.833333333333333
2026-02-06T21:27:58+00:00,SAT-52123,153.97731871119345,59.884957601603276,622.1723491519017,2.9001667810403293,-101576.10836535273,10.5,10499898423.891634,47.655,-122.3035,60.0,4.85
2026-02-06T21:27:59+00:00,SAT-52123,153.2858073660523,59.37859579592965,625.0647409860251,2.965185203128871,-103853.3285345462,10.5,10499896146.671465,47.655,-122.3035,60.0,4.866666666666666
2026-02-06T21:28:00+00:00,SAT-52123,152.6209932862296,58.87308858517949,628.02197693682,3.029286463882029,-106098.42583418594,10.5,10499893901.574165,47.655,-122.3035,60.0,4.883333333333334
2026-02-06T21:28:01+00:00,SAT-52123,151.9815359983176,58.36873920004675,631.0431423017338,3.092468393854962,-108311.32428113687,10.5,10499891688.675718,47.655,-122.3035,60.0,4.9
2026-02-06T21:28:02+00:00,SAT-52123,151.3661694588888,57.865827844729246,634.1273202145856,3.154729784432708,-110491.98154459053,10.5,10499889508.018456,47.655,-122.3035,60.0,4.916666666666667
2026-02-06T21:28:03+00:00,SAT-52123,150.77369841918096,57.364613174777595,637.273592603819,3.2160703362040675,-112640.38713790028,10.5,10499887359.612862,47.655,-122.3035,60.0,4.933333333333334
2026-02-06T21:28:04+00:00,SAT-52123,150.20299479777617,56.865333682323936,640.4810410992693,3.2764906570063648,-114756.56235010033,10.5,10499885243.43765,47.655,-122.3035,60.0,4.95
2026-02-06T21:28:05+00:00,SAT-52123,149.65299409650314,56.368208986038546,643.74874793698,3.3359921949495726,-116840.5579001274,10.5,10499883159.4421,47.655,-122.3035,60.0,4.966666666666667
2026-02-06T21:28:06+00:00,SAT-52123,149.12269190729634,55.873441041485584,647.0757967972216,3.3945772180557587,-118892.45322370809,10.5,10499881107.546776,47.655,-122.3035,60.0,4.983333333333333
2026-02-06T21:28:07+00:00,SAT-52123,148.61114052511454,55.381215269755806,650.4612736222076,3.452248741889738,-120912.35393867797,10.5,10499879087.64606,47.655,-122.3035,60.0,5.0
2026-02-06T21:28:08+00:00,SAT-52123,148.1174456935154,54.891701617219,653.9042673616307,3.509010533275678,-122900.39197515308,10.5,10499877099.608025,47.655,-122.3035,60.0,5.016666666666667
2026-02-06T21:28:09+00:00,SAT-52123,147.64076348136106,54.405055540191384,657.40387072191,3.5648670225016286,-124856.72250056104,10.5,10499875143.2775,47.655,-122.3035,60.0,5.033333333333333
2026-02-06T21:28:10+00:00,SAT-52123,147.18029731284545,53.921418932465585,660.959180827876,3.6198233092463825,-126781.52412722477,10.5,10499873218.475872,47.655,-122.3035,60.0,5.05
2026-02-06T21:28:11+00:00,SAT-52123,146.73529513889002,53.440920986873145,664.5692998903659,3.673885093178506,-128674.99648164702,10.5,10499871325.00352,47.655,-122.3035,60.0,5.066666666666666
2026-02-06T21:28:12+00:00,SAT-52123,146.3050467624158,52.96367900570362,668.2333358046058,3.727058635186921,-130537.35884664141,10.5,10499869462.641153,47.655,-122.3035,60.0,5.083333333333333
2026-02-06T21:28:13+00:00,SAT-52123,145.88888131057308,52.489799159491234,671.9504027099259,3.7793507509913136,-132368.84993754176,10.5,10499867631.150063,47.655,-122.3035,60.0,5.1
2026-02-06T21:28:14+00:00,SAT-52123,145.48616484734202,52.01937719388052,675.719621543104,3.8307687302424385,-134169.72506875274,10.5,10499865830.274931,47.655,-122.3035,60.0,5.116666666666666
2026-02-06T21:28:15+00:00,SAT-52123,145.09629813126122,51.552499097587635,679.5401205110269,3.8813203326404664,-135940.2560177978,10.5,10499864059.743982,47.655,-122.3035,60.0,5.133333333333334
2026-02-06T21:28:16+00:00,SAT-52123,144.71871450347766,51.08924172477569,683.4110355594777,3.9310137492688595,-137680.72967106805,10.5,10499862319.270329,47.655,-122.3035,60.0,5.15
2026-02-06T21:28:17+00:00,SAT-52123,144.3528779054858,50.62967337941317,687.3315108033647,3.9798575602929533,-139391.4465422476,10.5,10499860608.553457,47.655,-122.3035,60.0,5.166666666666667
2026-02-06T21:28:18+00:00,SAT-52123,143.9982810200721,50.17385436472808,691.3006989147589,4.027860676687225,-141072.718731356,10.5,10499858927.28127,47.655,-122.3035,60.0,5.183333333333334
2026-02-06T21:28:19+00:00,SAT-52123,143.65444353107185,49.721837501944655,695.3177614528167,4.075032394802087,-142724.87183590827,10.5,10499857275.128164,47.655,-122.3035,60.0,5.2
2026-02-06T21:28:20+00:00,SAT-52123,143.32091048491515,49.27366860800172,699.3818692481227,4.121382245422743,-144348.23966431737,10.5,10499855651.760336,47.655,-122.3035,60.0,5.216666666666667
2026-02-06T21:28:21+00:00,SAT-52123,142.997250767509,48.82938695772324,703.4922026364961,4.166920075639834,-145943.16710335074,10.5,10499854056.832897,47.655,-122.3035,60.0,5.233333333333333
2026-02-06T21:28:22+00:00,SAT-52123,142.6830556683674,48.38902570628183,707.6479517744482,4.211655925008354,-147510.00578069148,10.5,10499852489.994219,47.655,-122.3035,60.0,5.25
2026-02-06T21:28:23+00:00,SAT-52123,142.3779375452768,47.952612296607846,711.8483168311301,4.255600095896695,-149049.11652885977,10.5,10499850950.88347,47.655,-122.3035,60.0,5.266666666666667
2026-02-06T21:28:24+00:00,SAT-52123,142.0815285666481,47.52016883257789,716.0925082504427,4.298763033234616,-150560.86517347768,10.5,10499849439.134827,47.655,-122.3035,60.0,5.283333333333333
2026-02-06T21:28:25+00:00,SAT-52123,141.79347954260578,47.09171243978537,720.3797468932146,4.3411553811653825,-152045.62451746708,10.5,10499847954.375483,47.655,-122.3035,60.0,5.3
2026-02-06T21:28:26+00:00,SAT-52123,141.51345882490253,46.66725559697872,724.7092642358823,4.38278787710952,-153503.770630714,10.5,10499846496.22937,47.655,-122.3035,60.0,5.316666666666666
2026-02-06T21:28:27+00:00,SAT-52123,141.24115128391833,46.24680645610256,729.080302463518,4.423671424234028,-154935.68538824713,10.5,10499845064.314611,47.655,-122.3035,60.0,5.333333333333333
2026-02-06T21:28:28+00:00,SAT-52123,140.97625734452177,45.830369134561124,733.4921146351305,4.4638169943005845,-156341.75306757094,10.5,10499843658.246933,47.655,-122.3035,60.0,5.35
2026-02-06T21:28:29+00:00,SAT-52123,140.71849208935748,45.41794399761471,737.943964752076,4.5032356350159235,-157722.36060610702,10.5,10499842277.639395,47.655,-122.3035,60.0,5.366666666666666
2026-02-06T21:28:30+00:00,SAT-52123,140.46758441738532,45.00952792173986,742.4351278338011,4.5419384430574405,-159077.89665643667,10.5,10499840922.103344,47.655,-122.3035,60.0,5.383333333333334
2026-02-06T21:28:31+00:00,SAT-52123,140.2232762566556,44.605114543353274,746.96488996668,4.5799365887058405,-160408.75244904033,10.5,10499839591.247551,47.655,-122.3035,60.0,5.4
2026-02-06T21:28:32+00:00,SAT-52123,139.9853218247963,44.204694489348554,751.5325483774229,4.617241226690681,-161715.3186697317,10.5,10499838284.68133,47.655,-122.3035,60.0,5.416666666666667
2026-02-06T21:28:33+00:00,SAT-52123,139.7534869403683,43.80825560050842,756.1374114175641,4.653863541690789,-162997.9870532743,10.5,10499837002.012947,47.655,-122.3035,60.0,5.433333333333334
2026-02-06T21:28:34+00:00,SAT-52123,139.5275483742858,43.415783136610564,760.7787985933328,4.6898146836327905,-164257.14811726284,10.5,10499835742.851883,47.655,-122.3035,60.0,5.45
2026-02-06T21:28:35+00:00,SAT-52123,139.30729324448853,43.027259973759584,765.4560405309933,4.725105836253146,-165493.19356345525,10.5,10499834506.806437,47.655,-122.3035,60.0,5.466666666666667
2026-02-06T21:28:36+00:00,SAT-52123,139.09251844443986,42.642666783419436,770.1684790105639,4.759748086655276,-166706.51170911177,10.5,10499833293.48829,47.655,-122.3035,60.0,5.483333333333333
2026-02-06T21:28:37+00:00,SAT-52123,138.8830301127542,42.26198221048217,774.9154668694442,4.793752511234161,-167897.49049643768,10.5,10499832102.509504,47.655,-122.3035,60.0,5.5
2026-02-06T21:28:38+00:00,SAT-52123,138.67864313101813,41.88518303300462,779.6963679917336,4.827130118769827,-169066.5154994766,10.5,10499830933.4845,47.655,-122.3035,60.0,5.516666666666667
2026-02-06T21:28:39+00:00,SAT-52123,138.4791806544143,41.51224431615488,784.5105572407989,4.859891866840931,-170213.97049898357,10.5,10499829786.029501,47.655,-122.3035,60.0,5.533333333333333
2026-02-06T21:28:40+00:00,SAT-52123,138.284473670099,41.143139554992416,789.3574204082098,4.89204861355177,-171340.2357917009,10.5,10499828659.764208,47.655,-122.3035,60.0,5.55
2026-02-06T21:28:41+00:00,SAT-52123,138.09436058378571,40.77784081167241,794.2363541145315,4.923611143584134,-172445.68910280394,10.5,10499827554.310898,47.655,-122.3035,60.0,5.566666666666666
2026-02-06T21:28:42+00:00,SAT-52123,137.90868683005243,40.41631884185183,799.1467657360978,4.954590162836977,-173530.70539816003,10.5,10499826469.294601,47.655,-122.3035,60.0,5.583333333333333
2026-02-06T21:28:43+00:00,SAT-52123,137.7273045056963,40.05854321334082,804.088073326442,4.984996252029391,-174595.6552593081,10.5,10499825404.34474,47.655,-122.3035,60.0,5.6
2026-02-06T21:28:44+00:00,SAT-52123,137.55007202667215,39.704482420379314,809.0597054914489,5.0148399069507175,-175640.90629318813,10.5,10499824359.093706,47.655,-122.3035,60.0,5.616666666666666
2026-02-06T21:28:45+00:00,SAT-52123,137.37685380339224,39.354103987650944,814.0611013046573,5.044131486022815,-176666.8212955496,10.5,10499823333.178705,47.655,-122.3035,60.0,5.633333333333334
2026-02-06T21:28:46+00:00,SAT-52123,137.20751993689072,39.00737457115084,819.0917101702562,5.072881273059483,-177673.76044905232,10.5,10499822326.239552,47.655,-122.3035,60.0,5.65
2026-02-06T21:28:47+00:00,SAT-52123,137.04194593024692,38.66426004820678,824.1509917486799,5.101099383208576,-178662.0780289611,10.5,10499821337.92197,47.655,-122.3035,60.0,5.666666666666667
2026-02-06T21:28:48+00:00,SAT-52123,136.88001241991097,38.32472560790355,829.2384157883939,5.12879584307336,-179632.1252093349,10.5,10499820367.87479,47.655,-122.3035,60.0,5.683333333333334
2026-02-06T21:28:49+00:00,SAT-52123,136.7216049196721,37.98873583025921,834.3534620375859,5.1559805246222155,-180584.24774826478,10.5,10499819415.752253,47.655,-122.3035,60.0,5.7
2026-02-06T21:28:50+00:00,SAT-52123,136.566613581184,37.65625476447745,839.4956200899469,5.182663156022867,-181518.7863673345,10.5,10499818481.213633,47.655,-122.3035,60.0,5.716666666666667
2026-02-06T21:28:51+00:00,SAT-52123,136.4149329678462,37.327246001277466,844.6643892412558,5.208853397282,-182436.07940084,10.5,10499817563.920599,47.655,-122.3035,60.0,5.733333333333333
2026-02-06T21:28:52+00:00,SAT-52123,136.26646183865427,37.00167273570044,849.8592784214018,5.2345606617088025,-183336.45654268735,10.5,10499816663.543457,47.655,-122.3035,60.0,5.75
2026-02-06T21:28:53+00:00,SAT-52123,136.1211029500569,36.67949783670495,855.0798059483456,5.25979431238561,-184220.2457276257,10.5,10499815779.754272,47.655,-122.3035,60.0,5.766666666666667
2026-02-06T21:28:54+00:00,SAT-52123,135.97876286226622,36.3606839001033,860.3254994780314,5.28456353775355,-185087.76877373038,10.5,10499814912.231226,47.655,-122.3035,60.0,5.783333333333333
2026-02-06T21:28:55+00:00,SAT-52123,135.83935176038452,36.045193305394214,865.5958958302102,5.308877387548754,-185939.34264104106,10.5,10499814060.657358,47.655,-122.3035,60.0,5.8
2026-02-06T21:28:56+00:00,SAT-52123,135.70278328401963,35.732988266574516,870.8905408501078,5.332744739498853,-186775.2782651322,10.5,10499813224.721735,47.655,-122.3035,60.0,5.816666666666666
2026-02-06T21:28:57+00:00,SAT-52123,135.56897436711756,35.424030881369895,876.208989236879,5.356174366555236,-187595.8829118709,10.5,10499812404.117088,47.655,-122.3035,60.0,5.833333333333333
2026-02-06T21:28:58+00:00,SAT-52123,135.43784508454232,35.11828317321838,881.5508044391094,5.3791748679150535,-188401.457761516,10.5,10499811598.542238,47.655,-122.3035,60.0,5.85
2026-02-06T21:28:59+00:00,SAT-52123,135.3093185088614,34.815707134196735,886.9155584815298,5.401754725010135,-189192.2998696866,10.5,10499810807.70013,47.655,-122.3035,60.0,5.866666666666666
2026-02-06T21:29:00+00:00,SAT-52123,135.18332057309917,34.51626476181386,892.3028318475644,5.423922225697627,-189968.6995121975,10.5,10499810031.300488,47.655,-122.3035,60.0,5.883333333333334
2026-02-06T21:29:01+00:00,SAT-52123,135.05977994293076,34.21991809731321,897.7122132862763,5.445685553574278,-190730.94331322346,10.5,10499809269.056686,47.655,-122.3035,60.0,5.9
2026-02-06T21:29:02+00:00,SAT-52123,134.93862789313778,33.92662925639987,903.1432997083858,5.467052742778806,-191479.31266228674,10.5,10499808520.687338,47.655,-122.3035,60.0,5.916666666666667
2026-02-06T21:29:03+00:00,SAT-52123,134.81979819167626,33.63636046013854,908.5956960372146,5.488031662407212,-192214.08316841556,10.5,10499807785.916832,47.655,-122.3035,60.0,5.933333333333334
2026-02-06T21:29:04+00:00,SAT-52123,134.70322699030072,33.349074064372225,914.0690150440831,5.508630038285293,-192935.52542270953,10.5,10499807064.474577,47.655,-122.3035,60.0,5.95
2026-02-06T21:29:05+00:00,SAT-52123,134.58885272005344,33.06473258581883,919.5628772054268,5.528855475044441,-193643.90577152756,10.5,10499806356.094229,47.655,-122.3035,60.0,5.966666666666667
2026-02-06T21:29:06+00:00,SAT-52123,134.47661599183283,32.78329872506532,925.0769105819251,5.5487154122690105,-194339.48478058315,10.5,10499805660.515219,47.655,-122.3035,60.0,5.983333333333333
2026-02-06T21:29:07+00:00,SAT-52123,134.36645950285245,32.50473538998173,930.6107506538964,5.56821717612865,-195022.51904332705,10.5,10499804977.480957,47.655,-122.3035,60.0,6.0
2026-02-06T21:29:08+00:00,SAT-52123,134.25832794680312,32.22900571475475,936.1640402081897,5.587367905574501,-195693.25859602602,10.5,10499804306.741404,47.655,-122.3035,60.0,6.016666666666667
2026-02-06T21:29:09+00:00,SAT-52123,134.15216793007804,31.956073080982925,941.736429151466,5.6061746529427054,-196351.950441323,10.5,10499803648.049559,47.655,-122.3035,60.0,6.033333333333333
2026-02-06T21:29:10+00:00,SAT-52123,134.04792789005174,31.685901132237074,947.3275744238165,5.6246442907894485,-196998.8352852066,10.5,10499803001.164715,47.655,-122.3035,60.0,6.05
2026-02-06T21:29:11+00:00,SAT-52123,133.9455580193598,31.418453791801866,952.9371398194629,5.642783589110393,-197634.15024156187,10.5,10499802365.849758,47.655,-122.3035,60.0,6.066666666666666
2026-02-06T21:29:12+00:00,SAT-52123,133.84501019236208,31.153695275314536,958.5647958844753,5.660599160787981,-198258.12692150447,10.5,10499801741.87308,47.655,-122.3035,60.0,6.083333333333333
2026-02-06T21:29:13+00:00,SAT-52123,133.74623789623257,30.89159010479213,964.2102197600759,5.67809751925748,-198870.99345308926,10.5,10499801129.006546,47.655,-122.3035,60.0,6.1
2026-02-06T21:29:14+00:00,SAT-52123,133.6491961644048,30.632103118793577,969.8730950834617,5.695284975439889,-199472.9708714648,10.5,10499800527.029129,47.655,-122.3035,60.0,6.116666666666666
2026-02-06T21:29:15+00:00,SAT-52123,133.55384151510887,30.375199486227945,975.5531117858319,5.71216780840366,-200064.27909616867,10.5,10499799935.720903,47.655,-122.3035,60.0,6.133333333333334
2026-02-06T21:29:16+00:00,SAT-52123,133.4601318896558,30.120844711353314,981.2499660606203,5.7287520973178925,-200645.1310454177,10.5,10499799354.868954,47.655,-122.3035,60.0,6.15
