DopplerPredictor/satellites_20260211_204923/SAT-46074.csv

timestamp,satellite,azimuth_deg,elevation_deg,distance_km,relative_velocity_kms,doppler_shift_hz,tx_freq_ghz,rx_freq_hz,ue_lat,ue_lon,ue_alt_m,time_minutes
2026-02-06T21:23:07+00:00,SAT-46074,324.4501450384394,30.952151890803183,978.5067653441356,-3.9959575638550655,139955.3367699403,10.5,10500139955.33677,47.655,-122.3035,60.0,0.0
2026-02-06T21:23:08+00:00,SAT-46074,324.80959619698996,31.134600968563667,974.5215203910672,-3.9627519639534428,138792.33620183717,10.5,10500138792.336203,47.655,-122.3035,60.0,0.016666666666666666
2026-02-06T21:23:09+00:00,SAT-46074,325.17334353628706,31.317194082194646,970.5693920182694,-3.929134600772276,137614.91394192746,10.5,10500137614.913942,47.655,-122.3035,60.0,0.03333333333333333
2026-02-06T21:23:10+00:00,SAT-46074,325.5414370644658,31.49989759336313,966.650790885141,-3.89510230211939,136422.9588866228,10.5,10500136422.958887,47.655,-122.3035,60.0,0.05
2026-02-06T21:23:11+00:00,SAT-46074,325.9139266127892,31.68267663266616,962.7661308147697,-3.8606520007092078,135216.36360660775,10.5,10500135216.363607,47.655,-122.3035,60.0,0.06666666666666667
2026-02-06T21:23:12+00:00,SAT-46074,326.2908617824308,31.865495079161125,958.9158286893042,-3.825780675192233,133995.0222814426,10.5,10500133995.022282,47.655,-122.3035,60.0,0.08333333333333333
2026-02-06T21:23:13+00:00,SAT-46074,326.6722918819407,32.048315537574425,955.1003044041444,-3.7904854409114077,132758.83387823513,10.5,10500132758.833878,47.655,-122.3035,60.0,0.1
2026-02-06T21:23:14+00:00,SAT-46074,327.05826586986274,32.23109932032534,951.319980731613,-3.754763483530139,131507.6998270132,10.5,10500131507.699827,47.655,-122.3035,60.0,0.11666666666666667
2026-02-06T21:23:15+00:00,SAT-46074,327.44883228702963,32.41380642704301,947.5752832508249,-3.718612106540554,130241.52568466488,10.5,10500130241.525684,47.655,-122.3035,60.0,0.13333333333333333
2026-02-06T21:23:16+00:00,SAT-46074,327.84403918968303,32.596395527058476,943.8666402301735,-3.6820286970444287,128960.21993644183,10.5,10500128960.219936,47.655,-122.3035,60.0,0.15
2026-02-06T21:23:17+00:00,SAT-46074,328.2439340749136,32.7788239410399,940.1944825439458,-3.6450107974180166,127663.6965059647,10.5,10500127663.696507,47.655,-122.3035,60.0,0.16666666666666666
2026-02-06T21:23:18+00:00,SAT-46074,328.6485638096639,32.96104762706539,936.5592435174642,-3.607556048394108,126351.87276171615,10.5,10500126351.87276,47.655,-122.3035,60.0,0.18333333333333332
2026-02-06T21:23:19+00:00,SAT-46074,329.05797454943087,33.14302116493197,932.9613588289932,-3.5696622144744126,125024.67040708986,10.5,10500125024.670406,47.655,-122.3035,60.0,0.2
2026-02-06T21:23:20+00:00,SAT-46074,329.4722116552983,33.32469774282635,929.4012663863022,-3.5313272159597284,123682.01660222269,10.5,10500123682.016602,47.655,-122.3035,60.0,0.21666666666666667
2026-02-06T21:23:21+00:00,SAT-46074,329.8913196102844,33.50602914688017,925.8794061712854,-3.4925490904437866,122323.8426153461,10.5,10500122323.842615,47.655,-122.3035,60.0,0.23333333333333334
2026-02-06T21:23:22+00:00,SAT-46074,330.3153419267741,33.68696575014116,922.3962201229812,-3.4533260475200525,120950.08573884987,10.5,10500120950.08574,47.655,-122.3035,60.0,0.25
2026-02-06T21:23:23+00:00,SAT-46074,330.74432105587607,33.86745650584,918.9521519660356,-3.413656430977677,119560.6879652243,10.5,10500119560.687965,47.655,-122.3035,60.0,0.26666666666666666
2026-02-06T21:23:24+00:00,SAT-46074,331.17829828769067,34.04744894033712,915.5476470768647,-3.373538754621081,118155.59724161356,10.5,10500118155.597242,47.655,-122.3035,60.0,0.2833333333333333
2026-02-06T21:23:25+00:00,SAT-46074,331.6173136512656,34.22688914968092,912.1831523140962,-3.332971706539124,116734.76761934019,10.5,10500116734.76762,47.655,-122.3035,60.0,0.3
2026-02-06T21:23:26+00:00,SAT-46074,332.06140581061015,34.40572179830353,908.8591158447524,-3.291954144297471,115298.15908552124,10.5,10500115298.159086,47.655,-122.3035,60.0,0.31666666666666665
2026-02-06T21:23:27+00:00,SAT-46074,332.51061195545856,34.58389011950415,905.5759869752263,-3.2504851015337675,113845.73779405937,10.5,10500113845.737795,47.655,-122.3035,60.0,0.3333333333333333
2026-02-06T21:23:28+00:00,SAT-46074,332.96496768815354,34.76133591844499,902.3342159756824,-3.2085638098051126,112377.4768308337,10.5,10500112377.476831,47.655,-122.3035,60.0,0.35
2026-02-06T21:23:29+00:00,SAT-46074,333.4245069089429,34.93799957865796,899.1342538826697,-3.166189691026512,110893.35594886239,10.5,10500110893.35595,47.655,-122.3035,60.0,0.36666666666666664
2026-02-06T21:23:30+00:00,SAT-46074,333.8892616957072,35.11382007061666,895.9765523092703,-3.1233623804731603,109393.36237393998,10.5,10500109393.362373,47.655,-122.3035,60.0,0.38333333333333336
2026-02-06T21:23:31+00:00,SAT-46074,334.35926218252723,35.2887349642011,892.8615632323155,-3.080081707246376,107877.49012047178,10.5,10500107877.49012,47.655,-122.3035,60.0,0.4
2026-02-06T21:23:32+00:00,SAT-46074,334.8345364309866,35.462680442845766,889.7897387990749,-3.036347725433702,106345.74108283228,10.5,10500106345.741083,47.655,-122.3035,60.0,0.4166666666666667
2026-02-06T21:23:33+00:00,SAT-46074,335.31511030177955,35.63559132233878,886.761531102877,-2.9921607174836122,104798.12515356184,10.5,10500104798.125154,47.655,-122.3035,60.0,0.43333333333333335
2026-02-06T21:23:34+00:00,SAT-46074,335.8010073228744,35.80740107290243,883.777391955359,-2.9475211960143888,103234.66028672103,10.5,10500103234.660286,47.655,-122.3035,60.0,0.45
2026-02-06T21:23:35+00:00,SAT-46074,336.29224855410916,35.978041844602295,880.8377726569131,-2.902429880165263,101655.37166960772,10.5,10500101655.37167,47.655,-122.3035,60.0,0.4666666666666667
2026-02-06T21:23:36+00:00,SAT-46074,336.78885244382366,36.14744449473015,877.943123790721,-2.856887791061558,100060.29506635007,10.5,10500100060.295067,47.655,-122.3035,60.0,0.48333333333333334
2026-02-06T21:23:37+00:00,SAT-46074,337.29083469825605,36.315538624240546,875.0938949215767,-2.810896143799184,98449.4730347467,10.5,10500098449.473034,47.655,-122.3035,60.0,0.5
2026-02-06T21:23:38+00:00,SAT-46074,337.798208129289,36.482252611559424,872.2905344024354,-2.7644564452796114,96822.95835286129,10.5,10500096822.958353,47.655,-122.3035,60.0,0.5166666666666667
2026-02-06T21:23:39+00:00,SAT-46074,338.3109825162197,36.64751365588269,869.5334890833906,-2.717570444625919,95180.81228238287,10.5,10500095180.812283,47.655,-122.3035,60.0,0.5333333333333333
2026-02-06T21:23:40+00:00,SAT-46074,338.8291644561973,36.81124782147611,866.8232040701018,-2.670240167196799,93523.10575994005,10.5,10500093523.10576,47.655,-122.3035,60.0,0.55
2026-02-06T21:23:41+00:00,SAT-46074,339.3527572186395,36.9733800880122,864.1601224483003,-2.6224679212051005,91849.91962891059,10.5,10500091849.919628,47.655,-122.3035,60.0,0.5666666666666667
2026-02-06T21:23:42+00:00,SAT-46074,339.88176059940156,37.13383440547333,861.5446850016913,-2.574256271885277,90161.34373465595,10.5,10500090161.343735,47.655,-122.3035,60.0,0.5833333333333334
2026-02-06T21:23:43+00:00,SAT-46074,340.4161707683918,37.292533751711616,858.9773299556234,-2.525608092082341,88457.4786963606,10.5,10500088457.478697,47.655,-122.3035,60.0,0.6
2026-02-06T21:23:44+00:00,SAT-46074,340.95598012657007,37.44940019742716,856.4584926703021,-2.4765265289445404,86738.43474046861,10.5,10500086738.43474,47.655,-122.3035,60.0,0.6166666666666667
2026-02-06T21:23:45+00:00,SAT-46074,341.5011771559364,37.60435497352093,853.9886053672209,-2.4270150477101744,85004.33323428313,10.5,10500085004.333235,47.655,-122.3035,60.0,0.6333333333333333
2026-02-06T21:23:46+00:00,SAT-46074,342.0517462793913,37.75731854564122,851.5680968119256,-2.3770773684640907,83255.30447091152,10.5,10500083255.30447,47.655,-122.3035,60.0,0.65
2026-02-06T21:23:47+00:00,SAT-46074,342.60766770725417,37.90821068928189,849.1973920598499,-2.3267175646793397,81491.49112061074,10.5,10500081491.491121,47.655,-122.3035,60.0,0.6666666666666666
2026-02-06T21:23:48+00:00,SAT-46074,343.168917307863,38.05695057562502,846.8769121038739,-2.2759399794371444,79713.04529645645,10.5,10500079713.045296,47.655,-122.3035,60.0,0.6833333333333333
2026-02-06T21:23:49+00:00,SAT-46074,343.73546646127636,38.20345685667727,844.6070736054421,-2.2247492958731487,77920.13102166854,10.5,10500077920.131021,47.655,-122.3035,60.0,0.7
2026-02-06T21:23:50+00:00,SAT-46074,344.3072819328996,38.34764775943364,842.3882885554157,-2.1731504787146103,76112.92218199636,10.5,10500076112.922182,47.655,-122.3035,60.0,0.7166666666666667
2026-02-06T21:23:51+00:00,SAT-46074,344.8843257364282,38.48944118082553,840.2209639932397,-2.1211488246019092,74291.60428819075,10.5,10500074291.604288,47.655,-122.3035,60.0,0.7333333333333333
2026-02-06T21:23:52+00:00,SAT-46074,345.46655501408856,38.62875479038317,838.1055016759184,-2.06874996330281,72456.37451853277,10.5,10500072456.37452,47.655,-122.3035,60.0,0.75
2026-02-06T21:23:53+00:00,SAT-46074,346.05392192358096,38.76550613742348,836.0422977457795,-2.0159598077764413,70607.43996986287,10.5,10500070607.43997,47.655,-122.3035,60.0,0.7666666666666667
2026-02-06T21:23:54+00:00,SAT-46074,346.64637351730926,38.89961275925917,834.0317424480451,-1.9627846266243412,68745.02019512306,10.5,10500068745.020195,47.655,-122.3035,60.0,0.7833333333333333
2026-02-06T21:23:55+00:00,SAT-46074,347.2438516494874,39.030992298368886,832.0742197761405,-1.9092309799870477,66869.34495818437,10.5,10500066869.344957,47.655,-122.3035,60.0,0.8
2026-02-06T21:23:56+00:00,SAT-46074,347.8462928729959,39.15956261936534,830.1701071809368,-1.855305775583205,64980.65619657334,10.5,10500064980.656197,47.655,-122.3035,60.0,0.8166666666666667
2026-02-06T21:23:57+00:00,SAT-46074,348.4536283624725,39.285241933564336,828.3197752241059,-1.8010162168623818,63079.20620556441,10.5,10500063079.206205,47.655,-122.3035,60.0,0.8333333333333334
2026-02-06T21:23:58+00:00,SAT-46074,349.06578383142596,39.40794892373849,826.5235872831806,-1.7463698444782154,61165.25909074491,10.5,10500061165.25909,47.655,-122.3035,60.0,0.85
2026-02-06T21:23:59+00:00,SAT-46074,349.68267947394065,39.527602875089734,824.7818992152565,-1.691374507142774,59239.08974721147,10.5,10500059239.089746,47.655,-122.3035,60.0,0.8666666666666667
2026-02-06T21:24:00+00:00,SAT-46074,350.30422990906055,39.64412380742973,823.0950590497574,-1.6360383778548993,57300.98442795529,10.5,10500057300.984428,47.655,-122.3035,60.0,0.8833333333333333
2026-02-06T21:24:01+00:00,SAT-46074,350.93034414416445,39.75743261134582,821.4634066650204,-1.5803699281793349,55351.239843008385,10.5,10500055351.239843,47.655,-122.3035,60.0,0.9
2026-02-06T21:24:02+00:00,SAT-46074,351.5609255429333,39.86745118516211,819.8872734905273,-1.5243779517440113,53390.16398241786,10.5,10500053390.163982,47.655,-122.3035,60.0,0.9166666666666666
2026-02-06T21:24:03+00:00,SAT-46074,352.19587181744,39.97410257575546,818.3669821857079,-1.4680715455135442,51418.07546036469,10.5,10500051418.07546,47.655,-122.3035,60.0,0.9333333333333333
2026-02-06T21:24:04+00:00,SAT-46074,352.8350750295257,40.077311119932084,816.9028463374138,-1.41146010215171,49435.303247665266,10.5,10500049435.303247,47.655,-122.3035,60.0,0.95
2026-02-06T21:24:05+00:00,SAT-46074,353.4784216059607,40.17700258673524,815.4951701650145,-1.3545533110987424,47442.186709502865,10.5,10500047442.18671,47.655,-122.3035,60.0,0.9666666666666667
2026-02-06T21:24:06+00:00,SAT-46074,354.1257923717266,40.27310432087057,814.1442482244147,-1.297361150770669,45439.07533221541,10.5,10500045439.075333,47.655,-122.3035,60.0,0.9833333333333333
2026-02-06T21:24:07+00:00,SAT-46074,354.77706259895075,40.36554538618906,812.8503651198531,-1.23989389530758,43426.32895964845,10.5,10500043426.32896,47.655,-122.3035,60.0,1.0
2026-02-06T21:24:08+00:00,SAT-46074,355.43210207964864,40.45425670980924,811.6137952089733,-1.18216206908008,41404.31619977858,10.5,10500041404.3162,47.655,-122.3035,60.0,1.0166666666666666
2026-02-06T21:24:09+00:00,SAT-46074,356.0907751954033,40.539171222662596,810.434802353262,-1.12417649218919,39373.41601831256,10.5,10500039373.416018,47.655,-122.3035,60.0,1.0333333333333334
2026-02-06T21:24:10+00:00,SAT-46074,356.7529410326644,40.620224002468184,809.3136396231123,-1.06594822428824,37334.01577109228,10.5,10500037334.015772,47.655,-122.3035,60.0,1.05
2026-02-06T21:24:11+00:00,SAT-46074,357.4184534895481,40.69735241135799,808.2505490589124,-1.0074885879653002,35286.51202304647,10.5,10500035286.512024,47.655,-122.3035,60.0,1.0666666666666667
2026-02-06T21:24:12+00:00,SAT-46074,358.08716141856195,40.77049623333406,807.245761408818,-0.9488091424956613,33231.309628891475,10.5,10500033231.30963,47.655,-122.3035,60.0,1.0833333333333333
2026-02-06T21:24:13+00:00,SAT-46074,358.75890877713346,40.83959780746989,806.2994958926976,-0.8899216796898068,31168.821587709765,10.5,10500031168.821589,47.655,-122.3035,60.0,1.1
2026-02-06T21:24:14+00:00,SAT-46074,359.4335347993621,40.90460215791911,805.4119599702218,-0.830838212194321,29099.46863319814,10.5,10500029099.468634,47.655,-122.3035,60.0,1.1166666666666667
2026-02-06T21:24:15+00:00,SAT-46074,0.11087418425015884,40.965457119663455,804.5833491206187,-0.7715709630625839,27023.678868389452,10.5,10500027023.67887,47.655,-122.3035,60.0,1.1333333333333333
2026-02-06T21:24:16+00:00,SAT-46074,0.7907573016503171,41.02211345955937,803.8138466328312,-0.7121323509311442,24941.887246466402,10.5,10500024941.887247,47.655,-122.3035,60.0,1.15
2026-02-06T21:24:17+00:00,SAT-46074,1.4730104117316904,41.07452499186027,803.1036234104587,-0.6525349842089884,22854.535367245222,10.5,10500022854.535368,47.655,-122.3035,60.0,1.1666666666666667
2026-02-06T21:24:18+00:00,SAT-46074,2.1574559064609624,41.122648688364116,802.4528377824925,-0.5927916425173546,20762.07082711942,10.5,10500020762.070827,47.655,-122.3035,60.0,1.1833333333333333
2026-02-06T21:24:19+00:00,SAT-46074,2.8439125607757894,41.166444781771084,801.8616353325634,-0.5329152645061809,18664.946792340248,10.5,10500018664.946793,47.655,-122.3035,60.0,1.2
2026-02-06T21:24:20+00:00,SAT-46074,3.5321957986413417,41.20587686224931,801.3301487403389,-0.4729189386137796,16563.62167538146,10.5,10500016563.621675,47.655,-122.3035,60.0,1.2166666666666666
2026-02-06T21:24:21+00:00,SAT-46074,4.222117977768314,41.24091196698365,800.858497632137,-0.41281588428583055,14458.55847714895,10.5,10500014458.558477,47.655,-122.3035,60.0,1.2333333333333334
2026-02-06T21:24:22+00:00,SAT-46074,4.9134886812332335,41.27152066159265,800.4467884502682,-0.35261944082630947,12350.224396493155,10.5,10500012350.224396,47.655,-122.3035,60.0,1.25
2026-02-06T21:24:23+00:00,SAT-46074,5.606115024723559,41.297677113592506,800.0951143335014,-0.29234304980025166,10239.090213879372,10.5,10500010239.090214,47.655,-122.3035,60.0,1.2666666666666666
2026-02-06T21:24:24+00:00,SAT-46074,6.299801967713443,41.31935915708026,799.8035550150743,-0.23200024571325553,8125.629964944559,10.5,10500008125.629965,47.655,-122.3035,60.0,1.2833333333333334
2026-02-06T21:24:25+00:00,SAT-46074,6.9943526456375,41.33654834893769,799.5721767300035,-0.17160463545081653,6010.320220375836,10.5,10500006010.32022,47.655,-122.3035,60.0,1.3
2026-02-06T21:24:26+00:00,SAT-46074,7.689568697946582,41.349230015456556,799.401032142899,-0.11116988583138973,3893.639649966085,10.5,10500003893.63965,47.655,-122.3035,60.0,1.3166666666666667
2026-02-06T21:24:27+00:00,SAT-46074,8.385250608733953,41.3573932897513,799.2901602881899,-0.05070970800849008,1776.0684763095203,10.5,10500001776.068476,47.655,-122.3035,60.0,1.3333333333333333
2026-02-06T21:24:28+00:00,SAT-46074,9.0811980514406,41.361031139547684,799.2395865259107,0.009762158348918755,-341.9120792680079,10.5,10499999658.087921,47.655,-122.3035,60.0,1.35
2026-02-06T21:24:29+00:00,SAT-46074,9.777210233887029,41.36014038519233,799.2493225132603,0.07023196029145522,-2459.8203303042396,10.5,10499997540.17967,47.655,-122.3035,60.0,1.3666666666666667
2026-02-06T21:24:30+00:00,SAT-46074,10.47308625390773,41.354721707833,799.3193661913582,0.1306859475603803,-4577.174684574597,10.5,10499995422.825315,47.655,-122.3035,60.0,1.3833333333333333
2026-02-06T21:24:31+00:00,SAT-46074,11.168625444492381,41.34477964768272,799.4497017879279,0.19111038722458085,-6693.494156741258,10.5,10499993306.505844,47.655,-122.3035,60.0,1.4
2026-02-06T21:24:32+00:00,SAT-46074,11.863627724074378,41.330322592469905,799.6402998345774,0.25149158009352723,-8808.298943204356,10.5,10499991191.701057,47.655,-122.3035,60.0,1.4166666666666667
2026-02-06T21:24:33+00:00,SAT-46074,12.55789394408148,41.31136275599961,799.8911172004505,0.311815876622646,-10921.11097917541,10.5,10499989078.88902,47.655,-122.3035,60.0,1.4333333333333333
2026-02-06T21:24:34+00:00,SAT-46074,13.251226233309284,41.287916146969806,800.2020971417386,0.3720696896573118,-13031.454385025836,10.5,10499986968.545614,47.655,-122.3035,60.0,1.45
2026-02-06T21:24:35+00:00,SAT-46074,13.943428330983036,41.26000252843806,800.5731693639034,0.4322395132443482,-15138.85612514527,10.5,10499984861.143875,47.655,-122.3035,60.0,1.4666666666666666
2026-02-06T21:24:36+00:00,SAT-46074,14.6343059211863,41.22764536767348,801.004250102662,0.4923119349355197,-17242.846438861903,10.5,10499982757.15356,47.655,-122.3035,60.0,1.4833333333333334
2026-02-06T21:24:37+00:00,SAT-46074,15.323666953026182,41.19087177713535,801.4952422172389,0.5522736495704523,-19342.95932317867,10.5,10499980657.040676,47.655,-122.3035,60.0,1.5
2026-02-06T21:24:38+00:00,SAT-46074,16.011321951259863,41.14971244674103,802.0460352973685,0.6121114791626373,-21438.733229265203,10.5,10499978561.266771,47.655,-122.3035,60.0,1.5166666666666666
2026-02-06T21:24:39+00:00,SAT-46074,16.697084322587767,41.10420156730733,802.656505790127,0.6718123766758858,-23529.711194725252,10.5,10499976470.288805,47.655,-122.3035,60.0,1.5333333333333334
2026-02-06T21:24:40+00:00,SAT-46074,17.380770638167373,41.05437674670979,803.3265171305308,0.7313634530257902,-25615.44178930211,10.5,10499974384.55821,47.655,-122.3035,60.0,1.55
2026-02-06T21:24:41+00:00,SAT-46074,18.062200917790836,41.000278917442444,804.0559198990672,0.7907519802737594,-27695.47922674717,10.5,10499972304.520773,47.655,-122.3035,60.0,1.5666666666666667
2026-02-06T21:24:42+00:00,SAT-46074,18.741198888539845,40.941952237761456,804.8445519824057,0.8499654061464753,-29769.383873352777,10.5,10499970230.616127,47.655,-122.3035,60.0,1.5833333333333333
2026-02-06T21:24:43+00:00,SAT-46074,19.41759223183575,40.879443986022956,805.6922387485936,0.9089913689859405,-31836.722771566103,10.5,10499968163.27723,47.655,-122.3035,60.0,1.6
2026-02-06T21:24:44+00:00,SAT-46074,20.091212816506424,40.81280444866094,806.5987932371602,0.9678177143281151,-33897.07022064314,10.5,10499966102.92978,47.655,-122.3035,60.0,1.6166666666666667
2026-02-06T21:24:45+00:00,SAT-46074,20.76189691874502,40.7420868021787,807.5640163657548,1.0264324917029106,-35950.007664570934,10.5,10499964049.992336,47.655,-122.3035,60.0,1.6333333333333333
2026-02-06T21:24:46+00:00,SAT-46074,21.429485414720336,40.66734699110655,808.587697133595,1.0848239797275412,-37995.12457094295,10.5,10499962004.87543,47.655,-122.3035,60.0,1.65
2026-02-06T21:24:47+00:00,SAT-46074,22.09382396675308,40.58864360037271,809.6696128499389,1.1429806955774535,-40032.01876267102,10.5,10499959967.981237,47.655,-122.3035,60.0,1.6666666666666667
2026-02-06T21:24:48+00:00,SAT-46074,22.75476319003219,40.50603772376062,810.8095293720028,1.2008913893624933,-42060.29622101494,10.5,10499957939.70378,47.655,-122.3035,60.0,1.6833333333333333
2026-02-06T21:24:49+00:00,SAT-46074,23.412158793459273,40.41959283006317,812.0072013372733,1.2585450799875282,-44079.572341573206,10.5,10499955920.427658,47.655,-122.3035,60.0,1.7
2026-02-06T21:24:50+00:00,SAT-46074,24.065871717414904,40.32937462446582,813.2623724315805,1.3159310358191312,-46089.471257148434,10.5,10499953910.528744,47.655,-122.3035,60.0,1.7166666666666666
2026-02-06T21:24:51+00:00,SAT-46074,24.715768238761846,40.23545090966169,814.5747756378912,1.3730388049319007,-48089.62689710145,10.5,10499951910.373102,47.655,-122.3035,60.0,1.7333333333333334
2026-02-06T21:24:52+00:00,SAT-46074,25.361720069873993,40.13789144364733,815.9441335152662,1.4298582130806616,-50079.68291632923,10.5,10499949920.317083,47.655,-122.3035,60.0,1.75
2026-02-06T21:24:53+00:00,SAT-46074,26.003604435163503,40.03676779701852,817.3701584757981,1.486379356704823,-52059.292450247834,10.5,10499947940.70755,47.655,-122.3035,60.0,1.7666666666666666
2026-02-06T21:24:54+00:00,SAT-46074,26.641304125107343,39.93215321059582,818.8525530545679,1.542592646606052,-54028.1196445694,10.5,10499945971.880356,47.655,-122.3035,60.0,1.7833333333333334
2026-02-06T21:24:55+00:00,SAT-46074,27.27470754972911,39.824122450270764,820.3910102231661,1.598488777203904,-55985.838578504176,10.5,10499944014.16142,47.655,-122.3035,60.0,1.8
2026-02-06T21:24:56+00:00,SAT-46074,27.90370875988647,39.7127516647993,821.9852136725498,1.6540587442186907,-57932.13388408941,10.5,10499942067.866116,47.655,-122.3035,60.0,1.8166666666666667
2026-02-06T21:24:57+00:00,SAT-46074,28.52820745896439,39.598118243532575,823.6348381135356,1.7092938527806365,-59866.70103020631,10.5,10499940133.29897,47.655,-122.3035,60.0,1.8333333333333333
2026-02-06T21:24:58+00:00,SAT-46074,29.14810900072928,39.48030067519141,825.3395495853794,1.7641857234217904,-61789.24653244211,10.5,10499938210.753468,47.655,-122.3035,60.0,1.85
2026-02-06T21:24:59+00:00,SAT-46074,29.763324373264446,39.359378408222405,827.0990057703341,1.8187262789874583,-63699.48749467311,10.5,10499936300.512505,47.655,-122.3035,60.0,1.8666666666666667
2026-02-06T21:25:00+00:00,SAT-46074,30.373770163725005,39.235431714403596,828.912856295152,1.8729077729614538,-65597.1526011347,10.5,10499934402.847399,47.655,-122.3035,60.0,1.8833333333333333
2026-02-06T21:25:01+00:00,SAT-46074,30.97936851876565,39.108541553186996,830.7807430608354,1.9267227593275205,-67481.98106084098,10.5,10499932518.01894,47.655,-122.3035,60.0,1.9
2026-02-06T21:25:02+00:00,SAT-46074,31.580047082185416,38.97878944108652,832.7023005423328,1.980164128056794,-69353.72385050573,10.5,10499930646.27615,47.655,-122.3035,60.0,1.9166666666666667
2026-02-06T21:25:03+00:00,SAT-46074,32.175738932105965,38.84625732191818,834.6771561236251,2.033225081138761,-71212.1428750452,10.5,10499928787.857124,47.655,-122.3035,60.0,1.9333333333333333
2026-02-06T21:25:04+00:00,SAT-46074,32.766382499593206,38.71102744218284,836.7049304089061,2.0858991438380716,-73057.01136183938,10.5,10499926942.988638,47.655,-122.3035,60.0,1.95
2026-02-06T21:25:05+00:00,SAT-46074,33.35192148077144,38.57318222942414,838.7852375449937,2.1381801571929637,-74888.1135979949,10.5,10499925111.886402,47.655,-122.3035,60.0,1.9666666666666666
2026-02-06T21:25:06+00:00,SAT-46074,33.93230473808024,38.43280417501044,840.9176855362542,2.1900623001237083,-76705.24570467659,10.5,10499923294.754295,47.655,-122.3035,60.0,1.9833333333333334
2026-02-06T21:25:07+00:00,SAT-46074,34.5074861990925,38.289975719570215,843.1018765815799,2.241540039321382,-78508.21388200003,10.5,10499921491.786118,47.655,-122.3035,60.0,2.0
2026-02-06T21:25:08+00:00,SAT-46074,35.077424735248115,38.14477914594154,845.3374073613883,2.292608187442968,-80296.83644727034,10.5,10499919703.163553,47.655,-122.3035,60.0,2.0166666666666666
2026-02-06T21:25:09+00:00,SAT-46074,35.64208404951532,37.99729647266594,847.6238693826608,2.3432618478781575,-82070.94190048188,10.5,10499917929.0581,47.655,-122.3035,60.0,2.033333333333333
2026-02-06T21:25:10+00:00,SAT-46074,36.20143254474738,37.84760935551362,849.9608492688947,2.393496464858931,-83830.37067936771,10.5,10499916169.62932,47.655,-122.3035,60.0,2.05
2026-02-06T21:25:11+00:00,SAT-46074,36.75544319966902,37.69579899028629,852.3479291000339,2.4433077697139196,-85574.97327700004,10.5,10499914425.026724,47.655,-122.3035,60.0,2.066666666666667
2026-02-06T21:25:12+00:00,SAT-46074,37.30409342835761,37.541946023617996,854.7846866987936,2.492691794016431,-87304.61070228968,10.5,10499912695.389297,47.655,-122.3035,60.0,2.0833333333333335
2026-02-06T21:25:13+00:00,SAT-46074,37.84736494047356,37.386130467467254,857.2706959301019,2.5416448976740114,-89019.15546380129,10.5,10499910980.844536,47.655,-122.3035,60.0,2.1
2026-02-06T21:25:14+00:00,SAT-46074,38.38524360510764,37.22843161642445,859.805527028552,2.5901637117640117,-90718.48956761321,10.5,10499909281.510433,47.655,-122.3035,60.0,2.1166666666666667
2026-02-06T21:25:15+00:00,SAT-46074,38.917719300887676,37.06892797315566,862.3887468688475,2.6382451857266216,-92402.506170217,10.5,10499907597.49383,47.655,-122.3035,60.0,2.1333333333333333
2026-02-06T21:25:16+00:00,SAT-46074,39.444785775175525,36.90769717540797,865.0199192833088,2.685886520018001,-94071.10721974538,10.5,10499905928.89278,47.655,-122.3035,60.0,2.15
2026-02-06T21:25:17+00:00,SAT-46074,39.96644048962492,36.74481593161933,867.6986053122191,2.7330852479111734,-95724.2063209853,10.5,10499904275.793678,47.655,-122.3035,60.0,2.1666666666666665
2026-02-06T21:25:18+00:00,SAT-46074,40.48268448204918,36.58035995590951,870.4243635357462,2.779839132852783,-97361.72514037768,10.5,10499902638.27486,47.655,-122.3035,60.0,2.183333333333333
2026-02-06T21:25:19+00:00,SAT-46074,40.99352220952444,36.414403913627886,873.1967503035019,2.826146252028403,-98983.5963328278,10.5,10499901016.403667,47.655,-122.3035,60.0,2.2
2026-02-06T21:25:20+00:00,SAT-46074,41.49896140855424,36.24702136605622,876.0153200474367,2.8720049121792353,-100589.76059325006,10.5,10499899410.239407,47.655,-122.3035,60.0,2.216666666666667
2026-02-06T21:25:21+00:00,SAT-46074,41.99901294178693,36.07828472426157,878.8796255107831,2.9174137052736446,-102180.16860642062,10.5,10499897819.831394,47.655,-122.3035,60.0,2.2333333333333334
2026-02-06T21:25:22+00:00,SAT-46074,42.493690656982785,35.908265203620765,881.7892180325159,2.9623714777973444,-103754.7799713898,10.5,10499896245.220028,47.655,-122.3035,60.0,2.25
2026-02-06T21:25:23+00:00,SAT-46074,42.98301124304825,35.73703278405139,884.7436478011884,3.0068773017160098,-105313.56218446996,10.5,10499894686.437815,47.655,-122.3035,60.0,2.2666666666666666
2026-02-06T21:25:24+00:00,SAT-46074,43.466994084378435,35.56465617565151,887.7424640798076,3.0509305151947275,-106856.49206540291,10.5,10499893143.507935,47.655,-122.3035,60.0,2.283333333333333
2026-02-06T21:25:25+00:00,SAT-46074,43.9456611252395,35.39120278558353,890.7852154713197,3.09453068192632,-108383.55433286571,10.5,10499891616.445667,47.655,-122.3035,60.0,2.3
2026-02-06T21:25:26+00:00,SAT-46074,44.41903673089461,35.216738690778506,893.871450143533,3.1376775849910272,-109894.74138941076,10.5,10499890105.25861,47.655,-122.3035,60.0,2.316666666666667
2026-02-06T21:25:27+00:00,SAT-46074,44.88714755184008,35.04132861428487,897.0007160479183,3.1803712424962116,-111390.0538692345,10.5,10499888609.94613,47.655,-122.3035,60.0,2.3333333333333335
2026-02-06T21:25:28+00:00,SAT-46074,45.350022394282924,34.86503590391028,900.1725611540044,3.222611890587968,-112869.50004317208,10.5,10499887130.499956,47.655,-122.3035,60.0,2.35
2026-02-06T21:25:29+00:00,SAT-46074,45.80769209205297,34.687922514859245,903.3865336668342,3.264399943989,-114333.09443656684,10.5,10499885666.905563,47.655,-122.3035,60.0,2.3666666666666667
2026-02-06T21:25:30+00:00,SAT-46074,46.26018937743326,34.510048997407786,906.6421822050603,3.3057360648477903,-115780.86024065955,10.5,10499884219.13976,47.655,-122.3035,60.0,2.3833333333333333
2026-02-06T21:25:31+00:00,SAT-46074,46.707548765758986,34.33147448351977,909.9390560477101,3.3466210532374405,-117212.82547739452,10.5,10499882787.174522,47.655,-122.3035,60.0,2.4
2026-02-06T21:25:32+00:00,SAT-46074,47.149806429708576,34.15225668201661,913.2767052717373,3.3870559462324805,-118629.02646950861,10.5,10499881370.97353,47.655,-122.3035,60.0,2.4166666666666665
2026-02-06T21:25:33+00:00,SAT-46074,47.587000091314806,33.97245187078514,916.6546809883916,3.4270419307402857,-120029.5047875187,10.5,10499879970.495213,47.655,-122.3035,60.0,2.433333333333333
2026-02-06T21:25:34+00:00,SAT-46074,48.01916890709228,33.79211489597997,920.0725354926474,3.4665803890571287,-121414.3088452874,10.5,10499878585.691154,47.655,-122.3035,60.0,2.45
2026-02-06T21:25:35+00:00,SAT-46074,48.446353363531664,33.61129917091449,923.5298224580697,3.505672840905216,-122783.49186991477,10.5,10499877216.508131,47.655,-122.3035,60.0,2.466666666666667
2026-02-06T21:25:36+00:00,SAT-46074,48.868595170186325,33.430056679996724,927.0260970738711,3.5443209818408787,-124137.11324695575,10.5,10499875862.886753,47.655,-122.3035,60.0,2.4833333333333334
2026-02-06T21:25:37+00:00,SAT-46074,49.285937161977195,33.248437982484354,930.560916220276,3.582526677589457,-125475.23832200374,10.5,10499874524.761679,47.655,-122.3035,60.0,2.5
2026-02-06T21:25:38+00:00,SAT-46074,49.69842320526288,33.06649221829951,934.1338386382316,3.620291903582385,-126797.93628302364,10.5,10499873202.063717,47.655,-122.3035,60.0,2.5166666666666666
2026-02-06T21:25:39+00:00,SAT-46074,50.10609810144991,32.884267118504,937.7444250388206,3.6576187956002797,-128105.281934087,10.5,10499871894.718065,47.655,-122.3035,60.0,2.533333333333333
2026-02-06T21:25:40+00:00,SAT-46074,50.509007501026225,32.70180901463245,941.3922382631814,3.6945096263686565,-129397.35487565499,10.5,10499870602.645124,47.655,-122.3035,60.0,2.55
2026-02-06T21:25:41+00:00,SAT-46074,50.907197819174236,32.51916285056909,945.0768434190837,3.7309667818851806,-130674.2386754586,10.5,10499869325.761324,47.655,-122.3035,60.0,2.566666666666667
2026-02-06T21:25:42+00:00,SAT-46074,51.30071615325838,32.336372196810416,948.7978079939005,3.766992787816855,-131936.02179303984,10.5,10499868063.978207,47.655,-122.3035,60.0,2.5833333333333335
2026-02-06T21:25:43+00:00,SAT-46074,51.68961020733231,32.15347926452292,952.554701993898,3.8025902521073958,-133182.79556961922,10.5,10499866817.20443,47.655,-122.3035,60.0,2.6
2026-02-06T21:25:44+00:00,SAT-46074,52.07392821487522,31.97052492339248,956.347098026297,3.8377619256293265,-134414.65635238873,10.5,10499865585.343647,47.655,-122.3035,60.0,2.6166666666666667
2026-02-06T21:25:45+00:00,SAT-46074,52.4537188718674,31.787548717404498,960.1745714418151,3.87251063564022,-135631.70316386782,10.5,10499864368.296837,47.655,-122.3035,60.0,2.6333333333333333
2026-02-06T21:25:46+00:00,SAT-46074,52.829031267050624,31.604588884631426,964.0367004108476,3.906839318441156,-136834.03884574084,10.5,10499863165.961155,47.655,-122.3035,60.0,2.65
2026-02-06T21:25:47+00:00,SAT-46074,53.19991481939286,31.421682376119875,967.9330660322199,3.9407509950998225,-138021.7692085774,10.5,10499861978.230791,47.655,-122.3035,60.0,2.6666666666666665
2026-02-06T21:25:48+00:00,SAT-46074,53.566419216886096,31.238864876538774,971.8632524177256,3.9742487770944286,-139195.00322950585,10.5,10499860804.99677,47.655,-122.3035,60.0,2.683333333333333
2026-02-06T21:25:49+00:00,SAT-46074,53.92859435963303,31.056170825060104,975.8268467822949,4.0073358610305,-140353.85286717335,10.5,10499859646.147133,47.655,-122.3035,60.0,2.7
2026-02-06T21:25:50+00:00,SAT-46074,54.28649030579038,30.873633436930746,979.823439528894,4.040015498687935,-141498.43201266698,10.5,10499858501.567987,47.655,-122.3035,60.0,2.716666666666667
2026-02-06T21:25:51+00:00,SAT-46074,54.64015721846384,30.69128472675325,983.8526243035521,4.072291029793429,-142628.85763734256,10.5,10499857371.142363,47.655,-122.3035,60.0,2.7333333333333334
2026-02-06T21:25:52+00:00,SAT-46074,54.989645318686236,30.509155530539747,987.913998083071,4.1041658435270145,-143745.24844462116,10.5,10499856254.751554,47.655,-122.3035,60.0,2.75
2026-02-06T21:25:53+00:00,SAT-46074,55.33500483831401,30.327275529725146,992.0071612243464,4.135643396004067,-144847.7254822825,10.5,10499855152.274517,47.655,-122.3035,60.0,2.7666666666666666
2026-02-06T21:25:54+00:00,SAT-46074,55.67628597746977,30.145673274523553,996.1317175311244,4.166727204970244,-145936.41195665958,10.5,10499854063.588043,47.655,-122.3035,60.0,2.783333333333333
