DopplerPredictor/satellites_20260211_204923/SAT-53022.csv

timestamp,satellite,azimuth_deg,elevation_deg,distance_km,relative_velocity_kms,doppler_shift_hz,tx_freq_ghz,rx_freq_hz,ue_lat,ue_lon,ue_alt_m,time_minutes
2026-02-06T21:28:19+00:00,SAT-53022,313.65742880568814,30.178946718853606,983.6855746112998,-5.318766016722579,186285.68426356837,10.5,10500186285.684263,47.655,-122.3035,60.0,5.2
2026-02-06T21:28:20+00:00,SAT-53022,313.857261460137,30.414875420537545,978.3810674722785,-5.2979413645251405,185556.31685542263,10.5,10500185556.316854,47.655,-122.3035,60.0,5.216666666666667
2026-02-06T21:28:21+00:00,SAT-53022,314.06019864014235,30.652713398452825,973.0973291574355,-5.276769535596091,184814.7898495797,10.5,10500184814.78985,47.655,-122.3035,60.0,5.233333333333333
2026-02-06T21:28:22+00:00,SAT-53022,314.26631001916195,30.89247310867,967.8347059127703,-5.25524436123973,184060.8871922227,10.5,10500184060.887192,47.655,-122.3035,60.0,5.25
2026-02-06T21:28:23+00:00,SAT-53022,314.47566720011025,31.1341665689612,962.5935501364395,-5.233359592675982,183294.39002464103,10.5,10500183294.390024,47.655,-122.3035,60.0,5.266666666666667
2026-02-06T21:28:24+00:00,SAT-53022,314.6883437754643,31.37780532309109,957.3742204586276,-5.211108889476864,182515.07627822668,10.5,10500182515.076279,47.655,-122.3035,60.0,5.283333333333333
2026-02-06T21:28:25+00:00,SAT-53022,314.9044153886201,31.62340040268785,952.1770818329505,-5.18848582742661,181722.72094976922,10.5,10500181722.72095,47.655,-122.3035,60.0,5.3
2026-02-06T21:28:26+00:00,SAT-53022,315.12395979747026,31.870962287485042,947.002505620016,-5.165483874160672,180917.0952482302,10.5,10500180917.09525,47.655,-122.3035,60.0,5.316666666666666
2026-02-06T21:28:27+00:00,SAT-53022,315.347056938663,32.12050086230806,941.8508696952852,-5.142096437610494,180097.96829148446,10.5,10500180097.968292,47.655,-122.3035,60.0,5.333333333333333
2026-02-06T21:28:28+00:00,SAT-53022,315.57378899590526,32.37202537419007,936.7225585086146,-5.118316815184587,179265.10532642604,10.5,10500179265.105326,47.655,-122.3035,60.0,5.35
2026-02-06T21:28:29+00:00,SAT-53022,315.8042404678177,32.62554438476789,931.6179631944838,-5.094138245712397,178418.26954826253,10.5,10500178418.269548,47.655,-122.3035,60.0,5.366666666666666
2026-02-06T21:28:30+00:00,SAT-53022,316.0384982400661,32.881065722827955,926.5374816304172,-5.069553844433602,177557.21982356484,10.5,10500177557.219824,47.655,-122.3035,60.0,5.383333333333334
2026-02-06T21:28:31+00:00,SAT-53022,316.27665165633914,33.138596431133834,921.481518560242,-5.044556674275164,176681.71318669137,10.5,10500176681.713186,47.655,-122.3035,60.0,5.4
2026-02-06T21:28:32+00:00,SAT-53022,316.5187925944811,33.398142714189355,916.4504856462617,-5.019139700667164,175791.50325724747,10.5,10500175791.503258,47.655,-122.3035,60.0,5.416666666666667
2026-02-06T21:28:33+00:00,SAT-53022,316.7650155424086,33.659709881035425,911.4448015664907,-4.993295840225685,174886.3419451656,10.5,10500174886.341946,47.655,-122.3035,60.0,5.433333333333334
2026-02-06T21:28:34+00:00,SAT-53022,317.01541767825455,33.92330228772963,906.4648920633377,-4.9670179037775615,173965.97745519134,10.5,10500173965.977455,47.655,-122.3035,60.0,5.45
2026-02-06T21:28:35+00:00,SAT-53022,317.27009894954466,34.188923273938244,901.5111900491116,-4.9402986148781265,173030.15493545315,10.5,10500173030.154936,47.655,-122.3035,60.0,5.466666666666667
2026-02-06T21:28:36+00:00,SAT-53022,317.5291621548715,34.45657509733463,896.5841356930588,-4.913130674654599,172078.618748552,10.5,10500172078.618748,47.655,-122.3035,60.0,5.483333333333333
2026-02-06T21:28:37+00:00,SAT-53022,317.7927130309,34.726258868332735,891.6841764437308,-4.885506681244978,171111.1096499708,10.5,10500171111.10965,47.655,-122.3035,60.0,5.5
2026-02-06T21:28:38+00:00,SAT-53022,318.06086033669334,34.99797447718682,886.8117671316986,-4.8574191868868954,170127.36678756744,10.5,10500170127.366787,47.655,-122.3035,60.0,5.516666666666667
2026-02-06T21:28:39+00:00,SAT-53022,318.333715942783,35.27172052072375,881.9673700153278,-4.828860644761497,169127.12583982258,10.5,10500169127.12584,47.655,-122.3035,60.0,5.533333333333333
2026-02-06T21:28:40+00:00,SAT-53022,318.6113949185857,35.547494222515034,877.1514548795722,-4.799823519892215,168110.1228999839,10.5,10500168110.1229,47.655,-122.3035,60.0,5.55
2026-02-06T21:28:41+00:00,SAT-53022,318.8940156277522,35.825291355607796,872.3644990241609,-4.770300165998793,167076.0901629731,10.5,10500167076.090162,47.655,-122.3035,60.0,5.566666666666666
2026-02-06T21:28:42+00:00,SAT-53022,319.18169981750265,36.105106154443355,867.6069873746059,-4.74028291572332,166024.75908548327,10.5,10500166024.759085,47.655,-122.3035,60.0,5.583333333333333
2026-02-06T21:28:43+00:00,SAT-53022,319.47457271439185,36.38693122790094,862.8794125032206,-4.709764059456276,164955.85964437737,10.5,10500164955.859644,47.655,-122.3035,60.0,5.6
2026-02-06T21:28:44+00:00,SAT-53022,319.77276311973714,36.670757467047224,858.18227467126,-4.678735835184966,163869.11998113757,10.5,10500163869.119982,47.655,-122.3035,60.0,5.616666666666666
2026-02-06T21:28:45+00:00,SAT-53022,320.07640350504494,36.956573947987124,853.5160818811838,-4.647190479214102,162764.26817831444,10.5,10500162764.268179,47.655,-122.3035,60.0,5.633333333333334
2026-02-06T21:28:46+00:00,SAT-53022,320.3856301112055,37.24436783338286,848.8813498783321,-4.615120175461995,161641.0304836653,10.5,10500161641.030483,47.655,-122.3035,60.0,5.65
2026-02-06T21:28:47+00:00,SAT-53022,320.7005830444953,37.534124266369446,844.278602203174,-4.5825170998042495,160499.13286325775,10.5,10500160499.132864,47.655,-122.3035,60.0,5.666666666666667
2026-02-06T21:28:48+00:00,SAT-53022,321.0214063753587,37.82582626247674,839.708370199327,-4.549373436720631,159338.30158451363,10.5,10500159338.301584,47.655,-122.3035,60.0,5.683333333333334
2026-02-06T21:28:49+00:00,SAT-53022,321.3482482378768,38.11945459786605,835.1711930049764,-4.515681354019648,158158.26233095664,10.5,10500158158.262331,47.655,-122.3035,60.0,5.7
2026-02-06T21:28:50+00:00,SAT-53022,321.681260926666,38.41498769105199,830.6676175695031,-4.481433012993409,156958.74055787883,10.5,10500156958.740559,47.655,-122.3035,60.0,5.716666666666667
2026-02-06T21:28:51+00:00,SAT-53022,322.02060099283716,38.71240148015483,826.1981986599794,-4.446620591426012,155739.4622981914,10.5,10500155739.462297,47.655,-122.3035,60.0,5.733333333333333
2026-02-06T21:28:52+00:00,SAT-53022,322.36642933981614,39.01166929645035,821.7634988447257,-4.411236335722279,154500.15598819344,10.5,10500154500.155989,47.655,-122.3035,60.0,5.75
2026-02-06T21:28:53+00:00,SAT-53022,322.7189113208145,39.31276173620951,817.3640884248688,-4.375272462504206,153240.54902106366,10.5,10500153240.54902,47.655,-122.3035,60.0,5.766666666666667
2026-02-06T21:28:54+00:00,SAT-53022,323.07821682542567,39.61564652052907,813.0005454640489,-4.338721277145608,151960.37189844478,10.5,10500151960.371899,47.655,-122.3035,60.0,5.783333333333333
2026-02-06T21:28:55+00:00,SAT-53022,323.4445203716727,39.92028835768311,808.6734556999038,-4.301575121402989,150659.35639625526,10.5,10500150659.356396,47.655,-122.3035,60.0,5.8
2026-02-06T21:28:56+00:00,SAT-53022,323.81800118926986,40.22664879640287,804.3834125077839,-4.263826414546914,149337.23700528382,10.5,10500149337.237005,47.655,-122.3035,60.0,5.816666666666666
2026-02-06T21:28:57+00:00,SAT-53022,324.1988433007492,40.5346860764024,800.1310168234463,-4.225467624909197,147993.74993465169,10.5,10500147993.749935,47.655,-122.3035,60.0,5.833333333333333
2026-02-06T21:28:58+00:00,SAT-53022,324.5872355933496,40.84435497118972,795.9168770941249,-4.186491355159767,146628.63609856906,10.5,10500146628.636099,47.655,-122.3035,60.0,5.85
2026-02-06T21:28:59+00:00,SAT-53022,324.9833718909997,41.155606631363,791.7416091445525,-4.146890283228906,145241.63904718217,10.5,10500145241.639048,47.655,-122.3035,60.0,5.866666666666666
2026-02-06T21:29:00+00:00,SAT-53022,325.3874510120868,41.46838841798166,787.605836101902,-4.106657214691891,143832.50680130473,10.5,10500143832.506802,47.655,-122.3035,60.0,5.883333333333334
2026-02-06T21:29:01+00:00,SAT-53022,325.79967682172827,41.78264373409909,783.5101882684838,-4.06578507674797,142400.9916415365,10.5,10500142400.991642,47.655,-122.3035,60.0,5.9
2026-02-06T21:29:02+00:00,SAT-53022,326.22025827176884,42.09831185023933,779.4553030004483,-4.024266947587088,140946.8511368102,10.5,10500140946.851137,47.655,-122.3035,60.0,5.916666666666667
2026-02-06T21:29:03+00:00,SAT-53022,326.64940943036055,42.415327726579974,775.441824557199,-3.9820960906121368,139469.84934299928,10.5,10500139469.849342,47.655,-122.3035,60.0,5.933333333333334
2026-02-06T21:29:04+00:00,SAT-53022,327.0873495001252,42.733621832478946,771.4704039166766,-3.93926590385482,137969.75503124768,10.5,10500137969.755032,47.655,-122.3035,60.0,5.95
2026-02-06T21:29:05+00:00,SAT-53022,327.53430281372175,43.05311995675128,767.5416986410913,-3.895770017074981,136446.34508879908,10.5,10500136446.345089,47.655,-122.3035,60.0,5.966666666666667
2026-02-06T21:29:06+00:00,SAT-53022,327.99049882076474,43.3737430206243,763.6563726458157,-3.8516022591012606,134899.40337512837,10.5,10500134899.403376,47.655,-122.3035,60.0,5.983333333333333
2026-02-06T21:29:07+00:00,SAT-53022,328.45617204987036,43.69540688340603,759.8150960008501,-3.8067566817260565,133328.72155884453,10.5,10500133328.72156,47.655,-122.3035,60.0,6.0
2026-02-06T21:29:08+00:00,SAT-53022,328.93156204916335,44.01802214561314,756.0185447084551,-3.7612275953360594,131734.10036562235,10.5,10500131734.100365,47.655,-122.3035,60.0,6.016666666666667
2026-02-06T21:29:09+00:00,SAT-53022,329.4169133044946,44.34149395103597,752.2674004452526,-3.7150095706910147,130115.34964050248,10.5,10500130115.34964,47.655,-122.3035,60.0,6.033333333333333
2026-02-06T21:29:10+00:00,SAT-53022,329.91247512816716,44.665721785393586,748.5623503025497,-3.6680974748952693,128472.28960776702,10.5,10500128472.289608,47.655,-122.3035,60.0,6.05
2026-02-06T21:29:11+00:00,SAT-53022,330.41850151959824,44.99059927503352,744.9040864907869,-3.62048647462369,126804.75098392485,10.5,10500126804.750984,47.655,-122.3035,60.0,6.066666666666666
2026-02-06T21:29:12+00:00,SAT-53022,330.9352509901195,45.31601398350415,741.2933060407745,-3.5721720546781737,125112.5756276391,10.5,10500125112.575628,47.655,-122.3035,60.0,6.083333333333333
2026-02-06T21:29:13+00:00,SAT-53022,331.4629863503473,45.64184720800255,737.7307104864152,-3.5231500652696077,123395.61819574154,10.5,10500123395.618196,47.655,-122.3035,60.0,6.1
2026-02-06T21:29:14+00:00,SAT-53022,332.0019744605441,45.967973779184994,734.2170055002757,-3.473416713389455,121653.7458410287,10.5,10500121653.745842,47.655,-122.3035,60.0,6.116666666666666
2026-02-06T21:29:15+00:00,SAT-53022,332.552485931992,46.294261860260015,730.7529005377634,-3.4229686076169368,119886.8397815993,10.5,10500119886.83978,47.655,-122.3035,60.0,6.133333333333334
2026-02-06T21:29:16+00:00,SAT-53022,333.1147947828759,46.62057275128758,727.3391084366139,-3.3718027307201544,118094.79434122928,10.5,10500118094.794342,47.655,-122.3035,60.0,6.15
2026-02-06T21:29:17+00:00,SAT-53022,333.68917803238884,46.946760693066814,723.9763450437059,-3.3199165662955528,116277.52138482184,10.5,10500116277.521385,47.655,-122.3035,60.0,6.166666666666667
2026-02-06T21:29:18+00:00,SAT-53022,334.27591525458337,47.27267268670272,720.665328715576,-3.267307987637034,114434.94642613344,10.5,10500114434.946426,47.655,-122.3035,60.0,6.183333333333334
2026-02-06T21:29:19+00:00,SAT-53022,334.8752880462288,47.59814830752801,717.4067799297652,-3.21397540012376,112567.01361479706,10.5,10500112567.013615,47.655,-122.3035,60.0,6.2
2026-02-06T21:29:20+00:00,SAT-53022,335.48757944772063,47.923019539498846,714.2014207541607,-3.159917657273172,110673.68279614396,10.5,10500110673.682796,47.655,-122.3035,60.0,6.216666666666667
2026-02-06T21:29:21+00:00,SAT-53022,336.11307327095074,48.24711060971137,711.0499744000582,-3.105134185453681,108754.93387916933,10.5,10500108754.93388,47.655,-122.3035,60.0,6.233333333333333
2026-02-06T21:29:22+00:00,SAT-53022,336.75205336809364,48.57023784580558,707.9531646508472,-3.0496249235125985,106810.76472204742,10.5,10500106810.764723,47.655,-122.3035,60.0,6.25
2026-02-06T21:29:23+00:00,SAT-53022,337.4048028000685,48.892209539816136,704.911715350906,-2.993390391677656,104841.19354535392,10.5,10500104841.193546,47.655,-122.3035,60.0,6.266666666666667
2026-02-06T21:29:24+00:00,SAT-53022,338.0716029247876,49.212825833902535,701.9263498257807,-2.9364316917909097,102846.25894025843,10.5,10500102846.25894,47.655,-122.3035,60.0,6.283333333333333
2026-02-06T21:29:25+00:00,SAT-53022,338.7527323859261,49.53187862350045,698.9977903021279,-2.878750554143356,100826.02150887076,10.5,10500100826.02151,47.655,-122.3035,60.0,6.3
2026-02-06T21:29:26+00:00,SAT-53022,339.4484660076354,49.84915148558438,696.1267572809525,-2.8203493230234424,98780.56335808871,10.5,10500098780.563358,47.655,-122.3035,60.0,6.316666666666666
2026-02-06T21:29:27+00:00,SAT-53022,340.15907357597723,50.16441962836971,693.3139689252561,-2.7612309911806006,96709.98930665663,10.5,10500096709.989307,47.655,-122.3035,60.0,6.333333333333333
2026-02-06T21:29:28+00:00,SAT-53022,340.88481851373484,50.477449870805906,690.5601404133128,-2.7013992404425466,94614.42830775528,10.5,10500094614.428308,47.655,-122.3035,60.0,6.35
2026-02-06T21:29:29+00:00,SAT-53022,341.62595644737985,50.78800065604424,687.8659832514406,-2.6408584366737395,92494.03327242564,10.5,10500092494.033272,47.655,-122.3035,60.0,6.366666666666666
2026-02-06T21:29:30+00:00,SAT-53022,342.3827336514548,51.095822097289435,685.2322045917973,-2.57961366382967,90348.98226229407,10.5,10500090348.982262,47.655,-122.3035,60.0,6.383333333333334
2026-02-06T21:29:31+00:00,SAT-53022,343.1553853784019,51.40065606409579,682.6595065162135,-2.5176707044853024,88179.47780759606,10.5,10500088179.477808,47.655,-122.3035,60.0,6.4
2026-02-06T21:29:32+00:00,SAT-53022,343.9441340569729,51.70223630665178,680.1485853394485,-2.4550361212525202,85985.74975875966,10.5,10500085985.74976,47.655,-122.3035,60.0,6.416666666666667
2026-02-06T21:29:33+00:00,SAT-53022,344.74918739040305,52.000288633918025,677.700130831242,-2.3917172045428843,83768.05345683607,10.5,10500083768.053457,47.655,-122.3035,60.0,6.433333333333334
2026-02-06T21:29:34+00:00,SAT-53022,345.5707363153193,52.294531133844536,675.3148254904676,-2.3277220470553703,81526.67234237556,10.5,10500081526.672342,47.655,-122.3035,60.0,6.45
2026-02-06T21:29:35+00:00,SAT-53022,346.4089528658733,52.58467445485818,672.9933437449945,-2.2630594792229304,79261.91569449278,10.5,10500079261.915695,47.655,-122.3035,60.0,6.466666666666667
2026-02-06T21:29:36+00:00,SAT-53022,347.2639879009627,52.87042213571581,670.7363512159332,-2.1977391808375,76974.1225404468,10.5,10500076974.12254,47.655,-122.3035,60.0,6.483333333333333
2026-02-06T21:29:37+00:00,SAT-53022,348.1359687670957,53.15147100951406,668.5445038705515,-2.131771591881317,74663.65853257665,10.5,10500074663.658533,47.655,-122.3035,60.0,6.5
2026-02-06T21:29:38+00:00,SAT-53022,349.02499683337635,53.427511660688324,666.4184472641235,-2.0651679803512626,72330.91832379672,10.5,10500072330.918324,47.655,-122.3035,60.0,6.516666666666667
2026-02-06T21:29:39+00:00,SAT-53022,349.93114497151527,53.69822895822778,664.3588157141345,-1.9979404327696355,69976.32523524381,10.5,10500069976.325235,47.655,-122.3035,60.0,6.533333333333333
2026-02-06T21:29:40+00:00,SAT-53022,350.85445496951434,53.96330265880284,662.3662314839494,-1.9301018424743888,67600.33084615185,10.5,10500067600.330847,47.655,-122.3035,60.0,6.55
2026-02-06T21:29:41+00:00,SAT-53022,351.7949348965521,54.22240808225189,660.4413039781604,-1.8616659392294093,65203.41603092896,10.5,10500065203.41603,47.655,-122.3035,60.0,6.566666666666666
2026-02-06T21:29:42+00:00,SAT-53022,352.7525564629109,54.475216867308795,658.584628908404,-1.7926472451184134,62786.08941437526,10.5,10500062786.089415,47.655,-122.3035,60.0,6.583333333333333
2026-02-06T21:29:43+00:00,SAT-53022,353.7272523662769,54.721397799473074,656.7967875031646,-1.723061135014965,60348.88948959861,10.5,10500060348.88949,47.655,-122.3035,60.0,6.6
2026-02-06T21:29:44+00:00,SAT-53022,354.7189137101595,54.960617726189575,655.0783456572702,-1.6529237604929585,57892.381953037875,10.5,10500057892.381952,47.655,-122.3035,60.0,6.616666666666666
2026-02-06T21:29:45+00:00,SAT-53022,355.72738745673894,55.192542540891054,653.4298531572757,-1.582252097310732,55417.16136755743,10.5,10500055417.161367,47.655,-122.3035,60.0,6.633333333333334
2026-02-06T21:29:46+00:00,SAT-53022,356.75247401959103,55.41683825194259,651.8518428594871,-1.511063895327154,52923.84940829672,10.5,10500052923.84941,47.655,-122.3035,60.0,6.65
2026-02-06T21:29:47+00:00,SAT-53022,357.79392498200826,55.6331721210564,650.3448299179362,-1.4393777018558493,50413.095680633895,10.5,10500050413.09568,47.655,-122.3035,60.0,6.666666666666667
2026-02-06T21:29:48+00:00,SAT-53022,358.851441030885,55.84121387826613,648.9093109890649,-1.3672128123194676,47885.575991889724,10.5,10500047885.575993,47.655,-122.3035,60.0,6.683333333333334
2026-02-06T21:29:49+00:00,SAT-53022,359.92467010354795,56.040636998664816,647.5457634856199,-1.2945892787377205,45341.992648614476,10.5,10500045341.99265,47.655,-122.3035,60.0,6.7
2026-02-06T21:29:50+00:00,SAT-53022,1.0132058357213904,56.23112004321716,646.2546448220851,-1.2215278702060515,42783.07307238376,10.5,10500042783.073072,47.655,-122.3035,60.0,6.716666666666667
2026-02-06T21:29:51+00:00,SAT-53022,2.116586322507287,56.412348049393,645.0363916995284,-1.1480500617639704,40209.56940992054,10.5,10500040209.56941,47.655,-122.3035,60.0,6.733333333333333
2026-02-06T21:29:52+00:00,SAT-53022,3.23429326163441,56.5840139668602,643.8914194015491,-1.0741780086114134,37622.25763004298,10.5,10500037622.25763,47.655,-122.3035,60.0,6.75
2026-02-06T21:29:53+00:00,SAT-53022,4.365751514177079,56.74582012583499,642.8201211159422,-0.9999345048649301,35021.93607913167,10.5,10500035021.936079,47.655,-122.3035,60.0,6.766666666666667
2026-02-06T21:29:54+00:00,SAT-53022,5.510329107180904,56.89747972397406,641.8228672974938,-0.925342975611794,32409.425202830946,10.5,10500032409.425203,47.655,-122.3035,60.0,6.783333333333333
2026-02-06T21:29:55+00:00,SAT-53022,6.667337752130905,57.038718323769885,640.9000050387023,-0.8504274210223461,29785.565588626767,10.5,10500029785.565588,47.655,-122.3035,60.0,6.8
2026-02-06T21:29:56+00:00,SAT-53022,7.836033859233573,57.16927533895933,640.0518574962367,-0.7752124020254386,27151.217464140158,10.5,10500027151.217464,47.655,-122.3035,60.0,6.816666666666666
2026-02-06T21:29:57+00:00,SAT-53022,9.015620121215774,57.28890550097574,639.2787233316816,-0.6997229850430928,24507.258761501183,10.5,10500024507.258762,47.655,-122.3035,60.0,6.833333333333333
2026-02-06T21:29:58+00:00,SAT-53022,10.205247630839127,57.39738028317443,638.5808762073998,-0.6239847151083423,21854.584175822045,10.5,10500021854.584175,47.655,-122.3035,60.0,6.85
2026-02-06T21:29:59+00:00,SAT-53022,11.404018577410064,57.494489270635746,637.9585643092028,-0.5480235728902952,19194.103660033034,10.5,10500019194.10366,47.655,-122.3035,60.0,6.866666666666666
2026-02-06T21:30:00+00:00,SAT-53022,12.610989500267499,57.58004145639084,637.4120099118841,-0.4718659300180599,16526.74086013741,10.5,10500016526.74086,47.655,-122.3035,60.0,6.883333333333334
2026-02-06T21:30:01+00:00,SAT-53022,13.825175079959624,57.65386644723609,636.9414089893068,-0.3955385035262119,13853.431519698956,10.5,10500013853.43152,47.655,-122.3035,60.0,6.9
2026-02-06T21:30:02+00:00,SAT-53022,15.045552437405634,57.71581556297674,636.5469308699242,-0.3190683136364688,11175.122001177637,10.5,10500011175.122002,47.655,-122.3035,60.0,6.916666666666667
2026-02-06T21:30:03+00:00,SAT-53022,16.27106591553895,57.76576281451421,636.2287179344053,-0.2424826358262141,8492.767607166583,10.5,10500008492.767607,47.655,-122.3035,60.0,6.933333333333334
2026-02-06T21:30:04+00:00,SAT-53022,17.500632285174273,57.803605746013446,635.9868853610631,-0.16580895103223484,5807.330836316322,10.5,10500005807.330837,47.655,-122.3035,60.0,6.95
2026-02-06T21:30:05+00:00,SAT-53022,18.733146306832587,57.82926612865983,635.8215209209468,-0.08907489913539846,3119.779754171413,10.5,10500003119.779755,47.655,-122.3035,60.0,6.966666666666667
2026-02-06T21:30:06+00:00,SAT-53022,19.96748659318857,57.842690496224336,635.7326848193236,-0.012308228554146384,431.08622772136926,10.5,10500000431.086227,47.655,-122.3035,60.0,6.983333333333333
2026-02-06T21:30:07+00:00,SAT-53022,21.20252169706642,57.84385051376986,635.7204095874316,0.06446325354351011,-2257.775818385852,10.5,10499997742.224182,47.655,-122.3035,60.0,7.0
2026-02-06T21:30:08+00:00,SAT-53022,22.437116326063666,57.832743174004314,635.7847000238884,0.14121173227364014,-4945.832189258148,10.5,10499995054.16781,47.655,-122.3035,60.0,7.016666666666667
2026-02-06T21:30:09+00:00,SAT-53022,23.670137621526187,57.80939081806178,635.9255331869948,0.21790943301704047,-7632.110100244499,10.5,10499992367.8899,47.655,-122.3035,60.0,7.033333333333333
2026-02-06T21:30:10+00:00,SAT-53022,24.900461389585157,57.77384098089487,636.1428584348936,0.2945286757899838,-10315.640081228561,10.5,10499989684.359919,47.655,-122.3035,60.0,7.05
2026-02-06T21:30:11+00:00,SAT-53022,26.126978235757278,57.72616606262928,636.4365975199488,0.3710419177043289,-12995.457463761326,10.5,10499987004.542536,47.655,-122.3035,60.0,7.066666666666666
2026-02-06T21:30:12+00:00,SAT-53022,27.34859946591659,57.666462832814204,636.8066447254754,0.44742181009993487,-15670.60438207994,10.5,10499984329.395618,47.655,-122.3035,60.0,7.083333333333333
2026-02-06T21:30:13+00:00,SAT-53022,28.564262741230937,57.59485177269303,637.2528670594467,0.5236412407950041,-18340.131252893432,10.5,10499981659.868748,47.655,-122.3035,60.0,7.1
2026-02-06T21:30:14+00:00,SAT-53022,29.77293736104478,57.51147626767811,637.7751044903375,0.5996733858964184,-21003.09858999986,10.5,10499978996.90141,47.655,-122.3035,60.0,7.116666666666666
2026-02-06T21:30:15+00:00,SAT-53022,30.973629146904386,57.416501660290045,638.3731702346414,0.6754917515863315,-23658.578467829502,10.5,10499976341.421532,47.655,-122.3035,60.0,7.133333333333334
2026-02-06T21:30:16+00:00,SAT-53022,32.165384852580104,57.310114178648796,639.0468510860594,0.7510702196393481,-26305.656115649028,10.5,10499973694.343884,47.655,-122.3035,60.0,7.15
2026-02-06T21:30:17+00:00,SAT-53022,33.347296073577674,57.1925197547767,639.795907790088,0.8263830941599377,-28943.431554503437,10.5,10499971056.568445,47.655,-122.3035,60.0,7.166666666666667
2026-02-06T21:30:18+00:00,SAT-53022,34.51850262458121,57.06394274835514,640.6200754652131,0.9014051447305476,-31571.021108445464,10.5,10499968428.978891,47.655,-122.3035,60.0,7.183333333333334
2026-02-06T21:30:19+00:00,SAT-53022,35.67819536327462,56.92462459298584,641.5190640671443,0.9761116307272506,-34187.558256172444,10.5,10499965812.441744,47.655,-122.3035,60.0,7.2
2026-02-06T21:30:20+00:00,SAT-53022,36.82561843196196,56.77482238453874,642.4925588772933,1.0504783598177456,-36792.19567987374,10.5,10499963207.80432,47.655,-122.3035,60.0,7.216666666666667
2026-02-06T21:30:21+00:00,SAT-53022,37.960070966423096,56.614807422894266,643.5402210495943,1.1244817137292438,-39384.10616773107,10.5,10499960615.893833,47.655,-122.3035,60.0,7.233333333333333
2026-02-06T21:30:22+00:00,SAT-53022,39.08090824173208,56.44486372833826,644.6616881830276,1.1980986774375635,-41962.48363624417,10.5,10499958037.516363,47.655,-122.3035,60.0,7.25
2026-02-06T21:30:23+00:00,SAT-53022,40.18754228841152,56.265286547492316,645.8565749232483,1.2713068761828075,-44526.544426676264,10.5,10499955473.455574,47.655,-122.3035,60.0,7.266666666666667
2026-02-06T21:30:24+00:00,SAT-53022,41.27944201492193,56.07638086210585,647.1244736011364,1.344084600449763,-47075.528179973466,10.5,10499952924.47182,47.655,-122.3035,60.0,7.283333333333333
2026-02-06T21:30:25+00:00,SAT-53022,42.35613286286157,55.87845991587574,648.4649548962561,1.4164108475492994,-49608.69929312113,10.5,10499950391.300707,47.655,-122.3035,60.0,7.3
2026-02-06T21:30:26+00:00,SAT-53022,43.41719604698652,55.671843768932206,649.8775685417879,1.4882653155864358,-52125.346707880075,10.5,10499947874.653292,47.655,-122.3035,60.0,7.316666666666666
2026-02-06T21:30:27+00:00,SAT-53022,44.462267389830544,55.4568578976478,651.3618440234437,1.5596284456195826,-54624.78538738162,10.5,10499945375.214613,47.655,-122.3035,60.0,7.333333333333333
2026-02-06T21:30:28+00:00,SAT-53022,45.49103583521,55.233831841811124,652.9172913204295,1.6304814461647408,-57106.357174368204,10.5,10499942893.642826,47.655,-122.3035,60.0,7.35
2026-02-06T21:30:29+00:00,SAT-53022,46.50324167160603,55.00309790959458,654.5434016708434,1.700806292058741,-59569.43075137928,10.5,10499940430.569248,47.655,-122.3035,60.0,7.366666666666666
2026-02-06T21:30:30+00:00,SAT-53022,47.49867449749285,54.76498995020611,656.2396483359444,1.770585745386844,-62013.40237372437,10.5,10499937986.597626,47.655,-122.3035,60.0,7.383333333333334
2026-02-06T21:30:31+00:00,SAT-53022,48.4771709903894,54.51984219584422,658.0054873852887,1.8398033669662197,-64437.69627168309,10.5,10499935562.303728,47.655,-122.3035,60.0,7.4
2026-02-06T21:30:32+00:00,SAT-53022,49.43861251728895,54.267988177833416,659.840358493321,1.9084435251708043,-66841.76495958897,10.5,10499933158.23504,47.655,-122.3035,60.0,7.416666666666667
2026-02-06T21:30:33+00:00,SAT-53022,50.382922626999516,54.009759719555504,661.7436857447659,1.9764914125062507,-69225.08981635433,10.5,10499930774.910183,47.655,-122.3035,60.0,7.433333333333334
2026-02-06T21:30:34+00:00,SAT-53022,51.31006446676306,53.745486006262134,663.7148784565513,2.0439330233069586,-71587.18030432594,10.5,10499928412.819696,47.655,-122.3035,60.0,7.45
2026-02-06T21:30:35+00:00,SAT-53022,52.22003814041522,53.47549273708677,665.7533319774852,2.1107551864315033,-73927.57511441727,10.5,10499926072.424885,47.655,-122.3035,60.0,7.466666666666667
2026-02-06T21:30:36+00:00,SAT-53022,53.112878066678924,53.2001013510301,667.8584285205461,2.176945538312126,-76245.84122218752,10.5,10499923754.158777,47.655,-122.3035,60.0,7.483333333333333
2026-02-06T21:30:37+00:00,SAT-53022,53.98865033791238,52.9196283333098,670.0295379682885,2.2424925410603125,-78541.57452197572,10.5,10499921458.425478,47.655,-122.3035,60.0,7.5
2026-02-06T21:30:38+00:00,SAT-53022,54.8474501246994,52.63438459385313,672.2660186963103,2.3073854594576537,-80814.39902102329,10.5,10499919185.600979,47.655,-122.3035,60.0,7.516666666666667
2026-02-06T21:30:39+00:00,SAT-53022,55.689399130213985,52.344674920504204,674.5672183737703,2.3716143733138453,-83063.96727230334,10.5,10499916936.032728,47.655,-122.3035,60.0,7.533333333333333
2026-02-06T21:30:40+00:00,SAT-53022,56.514643126235185,52.050797499173726,676.9324747762321,2.435170160990581,-85289.95979745795,10.5,10499914710.040203,47.655,-122.3035,60.0,7.55
2026-02-06T21:30:41+00:00,SAT-53022,57.32334957388315,51.753043501109595,679.3611165820747,2.4980444768350756,-87492.08429642448,10.5,10499912507.915703,47.655,-122.3035,60.0,7.566666666666666
2026-02-06T21:30:42+00:00,SAT-53022,58.11570534031858,51.45169673412382,681.8524641463973,2.5602297597406394,-89670.0759472632,10.5,10499910329.924053,47.655,-122.3035,60.0,7.583333333333333
2026-02-06T21:30:43+00:00,SAT-53022,58.89191452983207,51.147033350023506,684.4058302834638,2.6217192110173957,-91823.69663109622,10.5,10499908176.30337,47.655,-122.3035,60.0,7.6
2026-02-06T21:30:44+00:00,SAT-53022,59.65219642586762,50.83932160802083,687.0205210270736,2.682506768749544,-93952.73403399032,10.5,10499906047.265966,47.655,-122.3035,60.0,7.616666666666666
2026-02-06T21:30:45+00:00,SAT-53022,60.396783547877654,50.52882169036061,689.6958363653621,2.742587128699962,-96057.00237912458,10.5,10499903942.997622,47.655,-122.3035,60.0,7.633333333333334
2026-02-06T21:30:46+00:00,SAT-53022,61.12591983813784,50.21578556074363,692.4310709964471,2.8019556694776435,-98136.33980583746,10.5,10499901863.660194,47.655,-122.3035,60.0,7.65
2026-02-06T21:30:47+00:00,SAT-53022,61.83985895311075,49.90045687270681,695.2255150094448,2.860608490476298,-100190.60969839718,10.5,10499899809.3903,47.655,-122.3035,60.0,7.666666666666667
2026-02-06T21:30:48+00:00,SAT-53022,62.53886268921241,49.58307091102959,698.0784546033221,2.9185423681815603,-102219.6991556952,10.5,10499897780.300844,47.655,-122.3035,60.0,7.683333333333334
2026-02-06T21:30:49+00:00,SAT-53022,63.22319951877305,49.26385457195989,700.9891727621737,2.975754728361582,-104223.51801724314,10.5,10499895776.481983,47.655,-122.3035,60.0,7.7
2026-02-06T21:30:50+00:00,SAT-53022,63.89314323857453,48.94302637672564,703.9569499027624,3.0322436347198827,-106201.99846574782,10.5,10499893798.001534,47.655,-122.3035,60.0,7.716666666666667
2026-02-06T21:30:51+00:00,SAT-53022,64.54897173119431,48.6207965131379,706.9810645107473,3.0880077799392467,-108155.09471343034,10.5,10499891844.905287,47.655,-122.3035,60.0,7.733333333333333
2026-02-06T21:30:52+00:00,SAT-53022,65.19096583459857,48.297366901949104,710.0607937679736,3.143046456128108,-110082.78196693373,10.5,10499889917.218033,47.655,-122.3035,60.0,7.75
2026-02-06T21:30:53+00:00,SAT-53022,65.81940831095831,47.97293128721362,713.1954141502932,3.197359503364193,-111985.05462510344,10.5,10499888014.945375,47.655,-122.3035,60.0,7.766666666666667
2026-02-06T21:30:54+00:00,SAT-53022,66.43458290590864,47.64767534997002,716.3842019740645,3.250947352482168,-113861.92777759193,10.5,10499886138.072222,47.655,-122.3035,60.0,7.783333333333333
2026-02-06T21:30:55+00:00,SAT-53022,67.03677351122876,47.32177683297158,719.6264339853252,3.303810935214548,-115713.43405761314,10.5,10499884286.565943,47.655,-122.3035,60.0,7.8
2026-02-06T21:30:56+00:00,SAT-53022,67.6262633997342,46.99540568773232,722.9213878593486,3.355951713826245,-117539.6246798696,10.5,10499882460.37532,47.655,-122.3035,60.0,7.816666666666666
2026-02-06T21:30:57+00:00,SAT-53022,68.20333454989155,46.66872422943128,726.2683427297511,3.4073715957961515,-119340.56645234079,10.5,10499880659.433548,47.655,-122.3035,60.0,7.833333333333333
2026-02-06T21:30:58+00:00,SAT-53022,68.76826703418394,46.34188730911778,729.6665796325165,3.4580730137570685,-121116.34457611745,10.5,10499878883.655424,47.655,-122.3035,60.0,7.85
2026-02-06T21:30:59+00:00,SAT-53022,69.32133849374831,46.01504248523978,733.1153820297377,3.508058800837142,-122867.05827933134,10.5,10499877132.941721,47.655,-122.3035,60.0,7.866666666666666
2026-02-06T21:31:00+00:00,SAT-53022,69.86282366011122,45.6883302127138,736.6140362090417,3.557332215210311,-124592.82167701586,10.5,10499875407.178324,47.655,-122.3035,60.0,7.883333333333334
2026-02-06T21:31:01+00:00,SAT-53022,70.3929939441015,45.36188403342729,740.1618317074953,3.6058969089026647,-126293.7626785727,10.5,10499873706.237322,47.655,-122.3035,60.0,7.9
2026-02-06T21:31:02+00:00,SAT-53022,70.912117077818,45.03583077225073,743.7580617043986,3.653756925366075,-127970.02290279027,10.5,10499872029.977097,47.655,-122.3035,60.0,7.916666666666667
2026-02-06T21:31:03+00:00,SAT-53022,71.42045680920788,44.710290734686126,747.4020234116665,3.7009166469967583,-129621.75583972149,10.5,10499870378.24416,47.655,-122.3035,60.0,7.933333333333334
2026-02-06T21:31:04+00:00,SAT-53022,71.9182726379264,44.385377909587994,751.0930184118589,3.747380809534915,-131249.1273550204,10.5,10499868750.872644,47.655,-122.3035,60.0,7.95
2026-02-06T21:31:05+00:00,SAT-53022,72.40581959764698,44.061200169941486,754.830353010582,3.793154425357092,-132852.313003316,10.5,10499867147.686996,47.655,-122.3035,60.0,7.966666666666667
2026-02-06T21:31:06+00:00,SAT-53022,72.88334806915384,43.73785947885001,758.6133385123801,3.838242846849278,-134431.50024780617,10.5,10499865568.499752,47.655,-122.3035,60.0,7.983333333333333
2026-02-06T21:31:07+00:00,SAT-53022,73.35110363814033,43.415452087801015,762.4412915598347,3.8826516730449026,-135986.8851903255,10.5,10499864013.114809,47.655,-122.3035,60.0,8.0
2026-02-06T21:31:08+00:00,SAT-53022,73.80932697489285,43.094068740129536,766.31353437955,3.9263867339928815,-137518.6720238481,10.5,10499862481.327976,47.655,-122.3035,60.0,8.016666666666667
2026-02-06T21:31:09+00:00,SAT-53022,74.25825374278817,42.773794872177476,770.2293950125503,3.9694541496521625,-139027.07509522373,10.5,10499860972.924904,47.655,-122.3035,60.0,8.033333333333333
2026-02-06T21:31:10+00:00,SAT-53022,74.69811454059892,42.45471080573029,774.188207603412,4.011860228171785,-140512.31534251518,10.5,10499859487.684658,47.655,-122.3035,60.0,8.05
2026-02-06T21:31:11+00:00,SAT-53022,75.12913485762274,42.13689194457618,778.1893125879487,4.053611488289272,-141974.6210794848,10.5,10499858025.37892,47.655,-122.3035,60.0,8.066666666666666
2026-02-06T21:31:12+00:00,SAT-53022,75.55153505348082,41.82040896451307,782.2320569032363,4.094714594567685,-143414.22572732196,10.5,10499856585.774273,47.655,-122.3035,60.0,8.083333333333334
2026-02-06T21:31:13+00:00,SAT-53022,75.96553035086481,41.505328003483335,786.3157941330466,4.135176452371081,-144831.37114108572,10.5,10499855168.628859,47.655,-122.3035,60.0,8.1
2026-02-06T21:31:14+00:00,SAT-53022,76.3713308552449,41.19171083919512,790.4398847480031,4.175004037778622,-146226.30165257707,10.5,10499853773.698347,47.655,-122.3035,60.0,8.116666666666667
2026-02-06T21:31:15+00:00,SAT-53022,76.769141573173,40.879615074551864,794.6036961761072,4.214204527822611,-147599.26863182604,10.5,10499852400.731369,47.655,-122.3035,60.0,8.133333333333333
2026-02-06T21:31:16+00:00,SAT-53022,77.15916245696972,40.56909430759222,798.8066030031508,4.2527851862379,-148950.52648555272,10.5,10499851049.473515,47.655,-122.3035,60.0,8.15
2026-02-06T21:31:17+00:00,SAT-53022,77.54158845049332,40.260198304555665,803.0479870591889,4.29075340688037,-150280.33417786608,10.5,10499849719.665823,47.655,-122.3035,60.0,8.166666666666666
2026-02-06T21:31:18+00:00,SAT-53022,77.91660954951503,39.9529731640336,807.3272375483095,4.328116652755811,-151588.95309479738,10.5,10499848411.046906,47.655,-122.3035,60.0,8.183333333333334
2026-02-06T21:31:19+00:00,SAT-53022,78.28441086588244,39.6474614799024,811.6437511175991,4.364882507510966,-152876.64884773435,10.5,10499847123.351152,47.655,-122.3035,60.0,8.2
2026-02-06T21:31:20+00:00,SAT-53022,78.64517270383111,39.343702494902026,815.9969319774615,4.4010585711368,-154143.68762050848,10.5,10499845856.31238,47.655,-122.3035,60.0,8.216666666666667
2026-02-06T21:31:21+00:00,SAT-53022,78.99907063465884,39.04173225592962,820.3861919179152,4.436652548437999,-155390.33926797114,10.5,10499844609.660732,47.655,-122.3035,60.0,8.233333333333333
2026-02-06T21:31:22+00:00,SAT-53022,79.34627558418488,38.741583757489465,824.8109504131286,4.471672176285498,-156616.87476806948,10.5,10499843383.125233,47.655,-122.3035,60.0,8.25
2026-02-06T21:31:23+00:00,SAT-53022,79.68695391925135,38.4432870847029,829.2706346534004,4.506125241975422,-157823.566864854,10.5,10499842176.433136,47.655,-122.3035,60.0,8.266666666666667
2026-02-06T21:31:24+00:00,SAT-53022,80.02126753951488,38.146869549573154,833.7646795954474,4.54001952294087,-159010.6879569303,10.5,10499840989.312042,47.655,-122.3035,60.0,8.283333333333333
2026-02-06T21:31:25+00:00,SAT-53022,80.34937396839493,37.85235582582876,838.2925279525698,4.573362855803998,-160178.5125159552,10.5,10499839821.487484,47.655,-122.3035,60.0,8.3
2026-02-06T21:31:26+00:00,SAT-53022,80.67142645130448,37.559768073907556,842.8536302536814,4.606163068598806,-161327.31471279197,10.5,10499838672.685287,47.655,-122.3035,60.0,8.316666666666666
2026-02-06T21:31:27+00:00,SAT-53022,80.98757405125916,37.269126065233024,847.4474448347439,4.638427980003356,-162457.3683906192,10.5,10499837542.631609,47.655,-122.3035,60.0,8.333333333333334
2026-02-06T21:31:28+00:00,SAT-53022,81.29796174579529,36.98044730138999,852.073437829436,4.670165423756033,-163568.94792009192,10.5,10499836431.05208,47.655,-122.3035,60.0,8.35
2026-02-06T21:31:29+00:00,SAT-53022,81.60273052667601,36.69374712681689,856.7310831841736,4.7013832047213535,-164662.32666058,10.5,10499835337.67334,47.655,-122.3035,60.0,8.366666666666667
2026-02-06T21:31:30+00:00,SAT-53022,81.90201749707273,36.40903883944711,861.4198626293144,4.732089108367885,-165737.77729212516,10.5,10499834262.222708,47.655,-122.3035,60.0,8.383333333333333
2026-02-06T21:31:31+00:00,SAT-53022,82.1959559698193,36.12633379602537,866.1392656598107,4.762290902605957,-166795.57187980541,10.5,10499833204.42812,47.655,-122.3035,60.0,8.4
2026-02-06T21:31:32+00:00,SAT-53022,82.48467556536282,35.845641512779814,870.888789517703,4.791996289593067,-167835.98018575637,10.5,10499832164.019814,47.655,-122.3035,60.0,8.416666666666666
2026-02-06T21:31:33+00:00,SAT-53022,82.76830230677349,35.56696976450966,875.667939126539,4.821212962337356,-168859.27165166455,10.5,10499831140.728348,47.655,-122.3035,60.0,8.433333333333334
2026-02-06T21:31:34+00:00,SAT-53022,83.04695871715799,35.29032467601365,880.476227082252,4.849948581169704,-169865.71457472054,10.5,10499830134.285425,47.655,-122.3035,60.0,8.45
2026-02-06T21:31:35+00:00,SAT-53022,83.32076391480325,35.01571081084685,885.3131736205685,4.878210705236851,-170855.5737082183,10.5,10499829144.426292,47.655,-122.3035,60.0,8.466666666666667
2026-02-06T21:31:36+00:00,SAT-53022,83.58983370359316,34.74313125991686,890.1783065160977,4.906006886021583,-171829.11353702773,10.5,10499828170.886463,47.655,-122.3035,60.0,8.483333333333333
2026-02-06T21:31:37+00:00,SAT-53022,83.85428066722864,34.47258772086108,895.0711610746868,4.933344594241921,-172786.5957172951,10.5,10499827213.404284,47.655,-122.3035,60.0,8.5
2026-02-06T21:31:38+00:00,SAT-53022,84.114214258183,34.20408057784141,899.9912800528732,4.960231252070359,-173728.28020489687,10.5,10499826271.719795,47.655,-122.3035,60.0,8.516666666666667
2026-02-06T21:31:39+00:00,SAT-53022,84.36974088675291,33.937608975922096,904.9382136094686,4.986674174302841,-174654.42319492853,10.5,10499825345.576805,47.655,-122.3035,60.0,8.533333333333333
2026-02-06T21:31:40+00:00,SAT-53022,84.6209640058205,33.67317089512608,909.911519198471,5.0126806776666735,-175565.28095013008,10.5,10499824434.71905,47.655,-122.3035,60.0,8.55
2026-02-06T21:31:41+00:00,SAT-53022,84.86798419902783,33.410763215297905,914.910761570991,5.0382579523931375,-176461.10530281565,10.5,10499823538.894697,47.655,-122.3035,60.0,8.566666666666666
2026-02-06T21:31:42+00:00,SAT-53022,85.1108992611778,33.15038178463007,919.935512649093,5.06341310174758,-177342.14503938452,10.5,10499822657.854961,47.655,-122.3035,60.0,8.583333333333334
2026-02-06T21:31:43+00:00,SAT-53022,85.34980427873064,32.89202148287113,924.9853514390662,5.088153215501353,-178208.64847361905,10.5,10499821791.351526,47.655,-122.3035,60.0,8.6
2026-02-06T21:31:44+00:00,SAT-53022,85.58479171189312,32.635676277844254,930.0598640179619,5.112485247883722,-179060.85917204455,10.5,10499820939.140827,47.655,-122.3035,60.0,8.616666666666667
2026-02-06T21:31:45+00:00,SAT-53022,85.81595146915892,32.381339285386005,935.1586433984189,5.1364160832301415,-179899.0182532093,10.5,10499820100.981747,47.655,-122.3035,60.0,8.633333333333333
2026-02-06T21:31:46+00:00,SAT-53022,86.04337098313492,32.12900282313051,940.2812894589556,5.159952527347087,-180723.36408524466,10.5,10499819276.635914,47.655,-122.3035,60.0,8.65
2026-02-06T21:31:47+00:00,SAT-53022,86.26713528397772,31.878658462128517,945.42740886565,5.18310130946223,-181534.1323541682,10.5,10499818465.867645,47.655,-122.3035,60.0,8.666666666666666
2026-02-06T21:31:48+00:00,SAT-53022,86.48732707105907,31.630297075874548,950.5966149957698,5.205869059089883,-182331.55525361406,10.5,10499817668.444746,47.655,-122.3035,60.0,8.683333333333334
2026-02-06T21:31:49+00:00,SAT-53022,86.70402678177075,31.383908888037745,955.7885278383222,5.228262322703159,-183115.86206876216,10.5,10499816884.137932,47.655,-122.3035,60.0,8.7
2026-02-06T21:31:50+00:00,SAT-53022,86.91731265916438,31.13948351706212,961.0027739112384,5.2502875625305,-183887.2791341877,10.5,10499816112.720865,47.655,-122.3035,60.0,8.716666666666667
2026-02-06T21:31:51+00:00,SAT-53022,87.12726081769235,30.897010018626936,966.2389861773534,5.2719511336302665,-184646.02903091643,10.5,10499815353.970968,47.655,-122.3035,60.0,8.733333333333333
2026-02-06T21:31:52+00:00,SAT-53022,87.33394530621446,30.656476927047404,971.4968039375236,5.2932593365578064,-185392.33243104792,10.5,10499814607.667568,47.655,-122.3035,60.0,8.75
2026-02-06T21:31:53+00:00,SAT-53022,87.5374381712373,30.41787229223101,976.7758727762697,5.3142183278668105,-186126.40496313458,10.5,10499813873.595037,47.655,-122.3035,60.0,8.766666666666667
2026-02-06T21:31:54+00:00,SAT-53022,87.73780951493714,30.181183718783245,982.0758444181619,5.334834226805861,-186848.4609491462,10.5,10499813151.539051,47.655,-122.3035,60.0,8.783333333333333
