DopplerPredictor/satellites_20260211_204923/SAT-49763.csv

timestamp,satellite,azimuth_deg,elevation_deg,distance_km,relative_velocity_kms,doppler_shift_hz,tx_freq_ghz,rx_freq_hz,ue_lat,ue_lon,ue_alt_m,time_minutes
2026-02-06T21:25:12+00:00,SAT-49763,255.8189649398146,30.228485868778744,976.2652254372528,-5.689744038103043,199278.90380778676,10.5,10500199278.903809,47.655,-122.3035,60.0,2.0833333333333335
2026-02-06T21:25:13+00:00,SAT-49763,255.92099059439076,30.48372119690724,970.590734817731,-5.672720552228276,198682.6693231786,10.5,10500198682.669323,47.655,-122.3035,60.0,2.1
2026-02-06T21:25:14+00:00,SAT-49763,256.02470842598103,30.741515288305592,964.9332220464677,-5.655389762763995,198075.6717669727,10.5,10500198075.671766,47.655,-122.3035,60.0,2.1166666666666667
2026-02-06T21:25:15+00:00,SAT-49763,256.1301617563924,31.001902585535678,959.292993603214,-5.6377453983969215,197457.69149125053,10.5,10500197457.691492,47.655,-122.3035,60.0,2.1333333333333333
2026-02-06T21:25:16+00:00,SAT-49763,256.23739537724396,31.264917856534797,953.6703622222212,-5.619781052919049,196828.5041235094,10.5,10500196828.504124,47.655,-122.3035,60.0,2.15
2026-02-06T21:25:17+00:00,SAT-49763,256.3464556117436,31.530596184082174,948.0656470267754,-5.601490194948214,196187.88090711823,10.5,10500196187.880907,47.655,-122.3035,60.0,2.1666666666666665
2026-02-06T21:25:18+00:00,SAT-49763,256.4573903796626,31.798972954661686,942.4791736540341,-5.58286610117827,195535.5863634563,10.5,10500195535.586363,47.655,-122.3035,60.0,2.183333333333333
2026-02-06T21:25:19+00:00,SAT-49763,256.57024926452715,32.07008384294775,936.9112744464375,-5.563902031345178,194871.3844199655,10.5,10500194871.38442,47.655,-122.3035,60.0,2.2
2026-02-06T21:25:20+00:00,SAT-49763,256.68508358726865,32.343964803512996,931.3622884686201,-5.544590982803221,194195.02981437187,10.5,10500194195.029814,47.655,-122.3035,60.0,2.216666666666667
2026-02-06T21:25:21+00:00,SAT-49763,256.801946479315,32.62065204937367,925.832561769088,-5.52492592204276,193506.27620341597,10.5,10500193506.276203,47.655,-122.3035,60.0,2.2333333333333334
2026-02-06T21:25:22+00:00,SAT-49763,256.92089296366737,32.90018204042073,920.3224474110025,-5.504899580080556,192804.86899655705,10.5,10500192804.868996,47.655,-122.3035,60.0,2.25
2026-02-06T21:25:23+00:00,SAT-49763,257.0419800364122,33.18259146023191,914.8323057070199,-5.4845046354535825,192090.55176519023,10.5,10500192090.551765,47.655,-122.3035,60.0,2.2666666666666666
2026-02-06T21:25:24+00:00,SAT-49763,257.16526675592837,33.46791720046591,909.3625042716324,-5.463733561464299,191363.06089252967,10.5,10500191363.060892,47.655,-122.3035,60.0,2.283333333333333
2026-02-06T21:25:25+00:00,SAT-49763,257.2908143339861,33.75619633581267,903.9134182258512,-5.44257873789129,190622.12948618789,10.5,10500190622.129486,47.655,-122.3035,60.0,2.3
2026-02-06T21:25:26+00:00,SAT-49763,257.41868623377036,34.047466102864924,898.4854302904804,-5.421032343663036,189867.4836191572,10.5,10500189867.48362,47.655,-122.3035,60.0,2.316666666666667
2026-02-06T21:25:27+00:00,SAT-49763,257.5489482710387,34.341763871395564,893.0789309864284,-5.3990864752244585,189098.8464755068,10.5,10500189098.846476,47.655,-122.3035,60.0,2.3333333333333335
2026-02-06T21:25:28+00:00,SAT-49763,257.68166872319733,34.63912711985746,887.6943187169702,-5.37673305603289,188315.9351805486,10.5,10500188315.93518,47.655,-122.3035,60.0,2.35
2026-02-06T21:25:29+00:00,SAT-49763,257.81691844236207,34.93959340386752,882.3319999402712,-5.353963835462983,187518.46076248292,10.5,10500187518.460762,47.655,-122.3035,60.0,2.3666666666666667
2026-02-06T21:25:30+00:00,SAT-49763,257.954770974595,35.243200322133156,876.992389343004,-5.33077047961669,186706.1313329478,10.5,10500186706.131332,47.655,-122.3035,60.0,2.3833333333333333
2026-02-06T21:25:31+00:00,SAT-49763,258.0953026876539,35.54998548497447,871.6759099233971,-5.3071444558889,185878.64804401933,10.5,10500185878.648045,47.655,-122.3035,60.0,2.4
2026-02-06T21:25:32+00:00,SAT-49763,258.2385929033351,35.859986473690064,866.3829931894084,-5.283077110973065,185035.70782029873,10.5,10500185035.70782,47.655,-122.3035,60.0,2.4166666666666665
2026-02-06T21:25:33+00:00,SAT-49763,258.38472403884646,36.17324080144744,861.1140792791052,-5.258559644888637,184177.00244924333,10.5,10500184177.002449,47.655,-122.3035,60.0,2.433333333333333
2026-02-06T21:25:34+00:00,SAT-49763,258.5337817556771,36.48978586968023,855.8696171069432,-5.23358309692891,183302.2180890006,10.5,10500183302.218088,47.655,-122.3035,60.0,2.45
2026-02-06T21:25:35+00:00,SAT-49763,258.6858551163078,36.80965892037452,850.6500645240626,-5.208138392674787,182411.03691502893,10.5,10500182411.036915,47.655,-122.3035,60.0,2.466666666666667
2026-02-06T21:25:36+00:00,SAT-49763,258.8410367513143,37.13289698774356,845.4558884316955,-5.182216281196347,181503.1349206311,10.5,10500181503.13492,47.655,-122.3035,60.0,2.4833333333333334
2026-02-06T21:25:37+00:00,SAT-49763,258.99942303411433,37.459536842418444,840.2875649572034,-5.155807400729064,180578.18421721327,10.5,10500180578.184217,47.655,-122.3035,60.0,2.5
2026-02-06T21:25:38+00:00,SAT-49763,259.1611142678228,37.789614935762565,835.1455795646143,-5.128902242748273,179635.85177602054,10.5,10500179635.851776,47.655,-122.3035,60.0,2.5166666666666666
2026-02-06T21:25:39+00:00,SAT-49763,259.3262148817817,38.123167337855406,830.0304272009901,-5.101491130397514,178675.7986726067,10.5,10500178675.798672,47.655,-122.3035,60.0,2.533333333333333
2026-02-06T21:25:40+00:00,SAT-49763,259.4948336390279,38.460229669573216,824.9426124643077,-5.073564311450955,177697.68334277117,10.5,10500177697.683342,47.655,-122.3035,60.0,2.55
2026-02-06T21:25:41+00:00,SAT-49763,259.6670838586588,38.800837036057196,819.8826496786236,-5.04511185350793,176701.15791182866,10.5,10500176701.157911,47.655,-122.3035,60.0,2.566666666666667
2026-02-06T21:25:42+00:00,SAT-49763,259.84308364827143,39.14502394835754,814.8510630737698,-5.016123719016721,175685.87082225922,10.5,10500175685.870823,47.655,-122.3035,60.0,2.5833333333333335
2026-02-06T21:25:43+00:00,SAT-49763,260.0229561525296,39.49282424468928,809.8483868902185,-4.986589743967194,174651.46608743418,10.5,10500174651.466087,47.655,-122.3035,60.0,2.6
2026-02-06T21:25:44+00:00,SAT-49763,260.20682981588897,39.84427100467943,804.8751655052052,-4.956499648374855,173597.58365881233,10.5,10500173597.583658,47.655,-122.3035,60.0,2.6166666666666667
2026-02-06T21:25:45+00:00,SAT-49763,260.3948386617242,40.199396458360816,799.9319535483911,-4.925843022472661,172523.85894231847,10.5,10500172523.858942,47.655,-122.3035,60.0,2.6333333333333333
2026-02-06T21:25:46+00:00,SAT-49763,260.5871225877278,40.55823188780186,795.0193160312954,-4.8946093778905135,171429.92459086608,10.5,10500171429.924591,47.655,-122.3035,60.0,2.65
2026-02-06T21:25:47+00:00,SAT-49763,260.78382768130444,40.920807525681575,790.1378284256908,-4.8627880997699116,170315.4088272096,10.5,10500170315.408827,47.655,-122.3035,60.0,2.6666666666666665
2026-02-06T21:25:48+00:00,SAT-49763,260.985106552516,41.28715244326362,785.2880767897519,-4.830368464370846,169179.93606061258,10.5,10500169179.93606,47.655,-122.3035,60.0,2.683333333333333
2026-02-06T21:25:49+00:00,SAT-49763,261.19111868838996,41.657294431920754,780.4706578766429,-4.797339729722318,168023.13006181212,10.5,10500168023.130062,47.655,-122.3035,60.0,2.7
2026-02-06T21:25:50+00:00,SAT-49763,261.4020308326259,42.03125988356494,775.6861791527031,-4.763690996982279,166844.60910725757,10.5,10500166844.609108,47.655,-122.3035,60.0,2.716666666666667
2026-02-06T21:25:51+00:00,SAT-49763,261.61801738384105,42.409073651953044,770.9352589538944,-4.72941133208854,165643.9902398401,10.5,10500165643.99024,47.655,-122.3035,60.0,2.7333333333333334
2026-02-06T21:25:52+00:00,SAT-49763,261.839260823516,42.7907589141256,766.2185265209284,-4.694489727428965,164420.88792642052,10.5,10500164420.887926,47.655,-122.3035,60.0,2.75
2026-02-06T21:25:53+00:00,SAT-49763,262.06595216961875,43.17633701925414,761.5366220726193,-4.658915138294174,163174.91533455727,10.5,10500163174.915335,47.655,-122.3035,60.0,2.7666666666666666
2026-02-06T21:25:54+00:00,SAT-49763,262.298291460589,43.56582733015711,756.8901968428804,-4.62267649670594,161905.68481683542,10.5,10500161905.684816,47.655,-122.3035,60.0,2.783333333333333
2026-02-06T21:25:55+00:00,SAT-49763,262.53648827107514,43.959247055162585,752.2799131039329,-4.585762664287691,160612.80626019204,10.5,10500160612.806261,47.655,-122.3035,60.0,2.8
2026-02-06T21:25:56+00:00,SAT-49763,262.78076225845535,44.35661106438704,747.706444236513,-4.5481625254266556,159295.8903488489,10.5,10500159295.890348,47.655,-122.3035,60.0,2.816666666666667
2026-02-06T21:25:57+00:00,SAT-49763,263.03134374918983,44.75793170154057,743.1704747071703,-4.509864937348252,157954.54681570624,10.5,10500157954.546816,47.655,-122.3035,60.0,2.8333333333333335
2026-02-06T21:25:58+00:00,SAT-49763,263.2884743607259,45.16321857842946,738.672700095358,-4.470858813443937,156588.38736083658,10.5,10500156588.387362,47.655,-122.3035,60.0,2.85
2026-02-06T21:25:59+00:00,SAT-49763,263.5524076681595,45.57247836293915,734.2138270374143,-4.4311330658818795,155197.02364146776,10.5,10500155197.023642,47.655,-122.3035,60.0,2.8666666666666667
2026-02-06T21:26:00+00:00,SAT-49763,263.8234099116555,45.98571454719736,729.7945732277855,-4.390676642579572,153780.0685669201,10.5,10500153780.068567,47.655,-122.3035,60.0,2.8833333333333333
2026-02-06T21:26:01+00:00,SAT-49763,264.1017607518496,46.402927203193876,725.4156673833716,-4.349478618331319,152337.1394902765,10.5,10500152337.13949,47.655,-122.3035,60.0,2.9
2026-02-06T21:26:02+00:00,SAT-49763,264.38775408067494,46.82411273038189,721.0778491169877,-4.307528090989991,150867.85457222845,10.5,10500150867.854572,47.655,-122.3035,60.0,2.9166666666666665
2026-02-06T21:26:03+00:00,SAT-49763,264.68169887912546,47.24926357577601,716.7818689143709,-4.264814301883978,149371.8369985871,10.5,10500149371.836998,47.655,-122.3035,60.0,2.933333333333333
2026-02-06T21:26:04+00:00,SAT-49763,264.9839201393277,47.67836794657688,712.528487991086,-4.2213265883621744,147848.7133182077,10.5,10500147848.713318,47.655,-122.3035,60.0,2.95
2026-02-06T21:26:05+00:00,SAT-49763,265.2947598442859,48.11140949810518,708.318478196764,-4.177054508251409,146298.11780201553,10.5,10500146298.117802,47.655,-122.3035,60.0,2.966666666666667
2026-02-06T21:26:06+00:00,SAT-49763,265.6145780211311,48.54836701295971,704.1526217952157,-4.1319877023240394,144719.687626039,10.5,10500144719.687626,47.655,-122.3035,60.0,2.9833333333333334
2026-02-06T21:26:07+00:00,SAT-49763,265.9437538542978,48.98921404328642,700.0317113817074,-4.086116063949848,143113.06881333687,10.5,10500143113.068813,47.655,-122.3035,60.0,3.0
2026-02-06T21:26:08+00:00,SAT-49763,266.2826868841281,49.433918546089615,695.9565496310412,-4.03942972593467,141477.91577303133,10.5,10500141477.915773,47.655,-122.3035,60.0,3.0166666666666666
2026-02-06T21:26:09+00:00,SAT-49763,266.6317982840106,49.882442491647986,691.9279490587604,-3.991919018082647,139813.88981395855,10.5,10500139813.889814,47.655,-122.3035,60.0,3.033333333333333
2026-02-06T21:26:10+00:00,SAT-49763,266.99153221765965,50.334741439450504,687.9467318246801,-3.943574640674889,138120.66522062517,10.5,10500138120.66522,47.655,-122.3035,60.0,3.05
2026-02-06T21:26:11+00:00,SAT-49763,267.36235729933946,50.79076410388934,684.0137293634039,-3.894387498117065,136397.92342684345,10.5,10500136397.923428,47.655,-122.3035,60.0,3.066666666666667
2026-02-06T21:26:12+00:00,SAT-49763,267.7447681345262,51.25045186965906,680.1297821807436,-3.8443489281297545,134645.36104294666,10.5,10500134645.361042,47.655,-122.3035,60.0,3.0833333333333335
2026-02-06T21:26:13+00:00,SAT-49763,268.13928697973296,51.71373829957065,676.29573942157,-3.793450599115243,132862.68626114022,10.5,10500132862.68626,47.655,-122.3035,60.0,3.1
2026-02-06T21:26:14+00:00,SAT-49763,268.5464654986916,52.18054859471311,672.5124585400149,-3.741684582005947,131049.62137193738,10.5,10500131049.621372,47.655,-122.3035,60.0,3.1166666666666667
2026-02-06T21:26:15+00:00,SAT-49763,268.9668866350611,52.65079902429346,668.780804898021,-3.6890434463813477,129205.906130581,10.5,10500129205.90613,47.655,-122.3035,60.0,3.1333333333333333
2026-02-06T21:26:16+00:00,SAT-49763,269.4011666107212,53.12439632638585,665.1016512680313,-3.6355201609767365,127331.29427243875,10.5,10500127331.294273,47.655,-122.3035,60.0,3.15
2026-02-06T21:26:17+00:00,SAT-49763,269.8499570337989,53.60123705203616,661.4758774349044,-3.5811082870490156,125425.56028549145,10.5,10500125425.560286,47.655,-122.3035,60.0,3.1666666666666665
2026-02-06T21:26:18+00:00,SAT-49763,270.31394715181256,54.081206886751495,657.9043696049798,-3.5258018450899646,123488.49474206794,10.5,10500123488.494741,47.655,-122.3035,60.0,3.183333333333333
2026-02-06T21:26:19+00:00,SAT-49763,270.7938662173666,54.564179904068375,654.3880199480758,-3.4695955519157198,121519.9126027215,10.5,10500121519.912603,47.655,-122.3035,60.0,3.2
2026-02-06T21:26:20+00:00,SAT-49763,271.29048601211724,55.05001779662264,650.9277259030306,-3.4124846676869054,119519.64785822766,10.5,10500119519.647858,47.655,-122.3035,60.0,3.216666666666667
2026-02-06T21:26:21+00:00,SAT-49763,271.8046234827925,55.53856902887259,647.524389635815,-3.3544651721643333,117487.55970280446,10.5,10500117487.559702,47.655,-122.3035,60.0,3.2333333333333334
2026-02-06T21:26:22+00:00,SAT-49763,272.33714352890877,56.029667952086854,644.178917321861,-3.2955337007318812,115423.530293363,10.5,10500115423.530293,47.655,-122.3035,60.0,3.25
2026-02-06T21:26:23+00:00,SAT-49763,272.88896190703394,56.52313384420891,640.8922184921972,-3.2356876973893236,113327.47010796348,10.5,10500113327.470108,47.655,-122.3035,60.0,3.2666666666666666
2026-02-06T21:26:24+00:00,SAT-49763,273.4610482753424,57.018769901433835,637.6652052269997,-3.174925337331145,111199.31523419786,10.5,10500111199.315235,47.655,-122.3035,60.0,3.283333333333333
2026-02-06T21:26:25+00:00,SAT-49763,274.05442933263976,57.51636214323929,634.4987914263583,-3.1132456573651375,109039.03193700072,10.5,10500109039.031937,47.655,-122.3035,60.0,3.3
2026-02-06T21:26:26+00:00,SAT-49763,274.67019206692703,58.01567825702639,631.3938919509726,-3.0506485491392277,106846.61642142409,10.5,10500106846.61642,47.655,-122.3035,60.0,3.316666666666667
2026-02-06T21:26:27+00:00,SAT-49763,275.3094870685391,58.51646635719817,628.3514217696041,-2.987134803322419,104622.09638004101,10.5,10500104622.09638,47.655,-122.3035,60.0,3.3333333333333335
2026-02-06T21:26:28+00:00,SAT-49763,275.9735318831735,59.01845366146301,625.3722950624648,-2.9227061745440963,102365.53326739464,10.5,10500102365.533268,47.655,-122.3035,60.0,3.35
2026-02-06T21:26:29+00:00,SAT-49763,276.66361436765396,59.521345083551495,622.4574242598412,-2.857365382869263,100077.02235166724,10.5,10500100077.022352,47.655,-122.3035,60.0,3.3666666666666667
2026-02-06T21:26:30+00:00,SAT-49763,277.3810959801069,60.02482172760581,619.6077190792471,-2.7911161755810374,97756.69487856461,10.5,10500097756.694878,47.655,-122.3035,60.0,3.3833333333333333
2026-02-06T21:26:31+00:00,SAT-49763,278.12741494603364,60.52853929051159,616.8240855009586,-2.723963374254256,95404.71972003274,10.5,10500095404.71972,47.655,-122.3035,60.0,3.4
2026-02-06T21:26:32+00:00,SAT-49763,278.90408920941474,61.032126367349036,614.1074246966037,-2.655912866052842,93021.30306945495,10.5,10500093021.30307,47.655,-122.3035,60.0,3.4166666666666665
2026-02-06T21:26:33+00:00,SAT-49763,279.71271904170777,61.53518264803978,611.4586319664289,-2.586971673978109,90606.69090204444,10.5,10500090606.690903,47.655,-122.3035,60.0,3.433333333333333
2026-02-06T21:26:34+00:00,SAT-49763,280.5549891896244,62.03727701941109,608.8785956065068,-2.5171479869476117,88161.17002833314,10.5,10500088161.170029,47.655,-122.3035,60.0,3.45
2026-02-06T21:26:35+00:00,SAT-49763,281.43267038213077,62.537945568197884,606.3681957459456,-2.4464511680873935,85685.06838460102,10.5,10500085685.068384,47.655,-122.3035,60.0,3.466666666666667
2026-02-06T21:26:36+00:00,SAT-49763,282.3476199810058,63.03668948593255,603.9283031758296,-2.374891806176403,83178.75683467738,10.5,10500083178.756834,47.655,-122.3035,60.0,3.4833333333333334
2026-02-06T21:26:37+00:00,SAT-49763,283.30178153731094,63.532972893620595,601.5597781268506,-2.3024817048968833,80642.64879344389,10.5,10500080642.648794,47.655,-122.3035,60.0,3.5
2026-02-06T21:26:38+00:00,SAT-49763,284.29718293154065,64.02622058814804,599.263469057662,-2.2292339485703128,78077.20252918532,10.5,10500078077.20253,47.655,-122.3035,60.0,3.5166666666666666
2026-02-06T21:26:39+00:00,SAT-49763,285.3359327690746,64.51581574727243,597.0402113776735,-2.1551628760026365,75482.92024753899,10.5,10500075482.920248,47.655,-122.3035,60.0,3.533333333333333
2026-02-06T21:26:40+00:00,SAT-49763,286.42021457799893,65.00109760311217,594.890826195929,-2.0802841404919343,72860.35019321705,10.5,10500072860.350193,47.655,-122.3035,60.0,3.55
2026-02-06T21:26:41+00:00,SAT-49763,287.55227836130894,65.48135914180676,592.8161190101383,-2.004614659269703,70210.08487922628,10.5,10500070210.084879,47.655,-122.3035,60.0,3.566666666666667
2026-02-06T21:26:42+00:00,SAT-49763,288.7344288999619,65.95584485606334,590.8168784461334,-1.9281726978954474,67532.76404272385,10.5,10500067532.764042,47.655,-122.3035,60.0,3.5833333333333335
2026-02-06T21:26:43+00:00,SAT-49763,289.9690102543561,66.42374864715947,588.8938749131531,-1.850977793144625,64829.07194422671,10.5,10500064829.071943,47.655,-122.3035,60.0,3.6
2026-02-06T21:26:44+00:00,SAT-49763,291.25838569864896,66.88421192209728,587.0478593360369,-1.7730508065506116,62099.73924287789,10.5,10500062099.739243,47.655,-122.3035,60.0,3.6166666666666667
2026-02-06T21:26:45+00:00,SAT-49763,292.60491242986876,67.33632201904976,585.2795618340175,-1.6944139055200207,59345.54233502505,10.5,10500059345.542336,47.655,-122.3035,60.0,3.6333333333333333
2026-02-06T21:26:46+00:00,SAT-49763,294.01091026282427,67.77911106946254,583.5896904183492,-1.615090529151872,56567.302157063124,10.5,10500056567.302156,47.655,-122.3035,60.0,3.65
2026-02-06T21:26:47+00:00,SAT-49763,295.47862355599625,68.21155544150542,581.9789297240236,-1.5351054113119134,53765.884993594766,10.5,10500053765.884995,47.655,-122.3035,60.0,3.6666666666666665
2026-02-06T21:26:48+00:00,SAT-49763,297.0101757430445,68.63257595461242,580.4479397184747,-1.4544845079246678,50942.19993089023,10.5,10500050942.19993,47.655,-122.3035,60.0,3.683333333333333
2026-02-06T21:26:49+00:00,SAT-49763,298.60751586015766,69.04103903994972,578.9973544827968,-1.3732550285590384,48097.19996314885,10.5,10500048097.199963,47.655,-122.3035,60.0,3.7
2026-02-06T21:26:50+00:00,SAT-49763,300.27235686811264,69.43575909805908,577.6277809614603,-1.2914453629991907,45231.879420700774,10.5,10500045231.879421,47.655,-122.3035,60.0,3.716666666666667
2026-02-06T21:26:51+00:00,SAT-49763,302.0061057334137,69.81550226644906,576.3397977852599,-1.2090850619985247,42347.27329592965,10.5,10500042347.273296,47.655,-122.3035,60.0,3.7333333333333334
2026-02-06T21:26:52+00:00,SAT-49763,303.809785866921,70.17899186206489,575.1339541134588,-1.1262047939942164,39444.45572723271,10.5,10500039444.455727,47.655,-122.3035,60.0,3.75
2026-02-06T21:26:53+00:00,SAT-49763,305.6839530870801,70.52491573808469,574.010768519101,-1.0428362937774007,36524.53820123356,10.5,10500036524.5382,47.655,-122.3035,60.0,3.7666666666666666
2026-02-06T21:26:54+00:00,SAT-49763,307.62860707001227,70.85193577545736,572.9707279255157,-0.95901232195909,33588.66813310709,10.5,10500033588.668133,47.655,-122.3035,60.0,3.783333333333333
2026-02-06T21:26:55+00:00,SAT-49763,309.64310119237655,71.15869968848037,572.0142865832482,-0.8747665956097356,30638.026437283566,10.5,10500030638.026438,47.655,-122.3035,60.0,3.8
2026-02-06T21:26:56+00:00,SAT-49763,311.72605459070456,71.44385523537026,571.1418651161634,-0.7901337370581829,27673.82573417147,10.5,10500027673.825735,47.655,-122.3035,60.0,3.816666666666667
2026-02-06T21:26:57+00:00,SAT-49763,313.8752713113376,71.70606683112146,570.3538496186159,-0.7051492085668819,24697.308062207023,10.5,10500024697.308062,47.655,-122.3035,60.0,3.8333333333333335
2026-02-06T21:26:58+00:00,SAT-49763,316.0876722109675,71.94403440924255,569.6505908177664,-0.6198492330377232,21709.742100637148,10.5,10500021709.7421,47.655,-122.3035,60.0,3.85
2026-02-06T21:26:59+00:00,SAT-49763,318.35924579810506,72.15651420920331,569.0324033149834,-0.5342707381036705,18712.42121137197,10.5,10500018712.421211,47.655,-122.3035,60.0,3.8666666666666667
2026-02-06T21:27:00+00:00,SAT-49763,320.68502441073554,72.3423409905789,568.4995648829992,-0.4484512612399375,15706.660115576837,10.5,10500015706.660116,47.655,-122.3035,60.0,3.8833333333333333
2026-02-06T21:27:01+00:00,SAT-49763,323.0590914233641,72.50045096155424,568.0523158577042,-0.3624288844561589,12693.792606315894,10.5,10500012693.792606,47.655,-122.3035,60.0,3.9
2026-02-06T21:27:02+00:00,SAT-49763,325.4746241545429,72.62990455768787,567.6908585950721,-0.2762421450033211,9675.168421131102,10.5,10500009675.16842,47.655,-122.3035,60.0,3.9166666666666665
2026-02-06T21:27:03+00:00,SAT-49763,327.9239749938747,72.72990805518636,567.4153570171383,-0.18992995002898808,6652.150252907213,10.5,10500006652.150253,47.655,-122.3035,60.0,3.933333333333333
2026-02-06T21:27:04+00:00,SAT-49763,330.398790730004,72.79983294534347,567.2259362430949,-0.10353149260904065,3626.1108089481254,10.5,10500003626.11081,47.655,-122.3035,60.0,3.95
2026-02-06T21:27:05+00:00,SAT-49763,332.8901670342858,72.83923201536797,567.1226823041301,-0.017086162383392313,598.4296810616206,10.5,10500000598.429682,47.655,-122.3035,60.0,3.966666666666667
2026-02-06T21:27:06+00:00,SAT-49763,335.3888319235198,72.84785119503243,567.1056419473903,0.0693665440716161,-2429.5097935784934,10.5,10499997570.490206,47.655,-122.3035,60.0,3.9833333333333334
2026-02-06T21:27:07+00:00,SAT-49763,337.8853492899079,72.82563644247513,567.1748225293297,0.15578711306203966,-5456.323678267504,10.5,10499994543.676321,47.655,-122.3035,60.0,4.0
2026-02-06T21:27:08+00:00,SAT-49763,340.3703315487962,72.77273523318553,567.3301919986401,0.2421361048543304,-8480.630626706657,10.5,10499991519.369373,47.655,-122.3035,60.0,4.016666666666667
2026-02-06T21:27:09+00:00,SAT-49763,342.8346496188883,72.68949255603502,567.5716789700122,0.32837423905575036,-11501.05487338637,10.5,10499988498.945127,47.655,-122.3035,60.0,4.033333333333333
2026-02-06T21:27:10+00:00,SAT-49763,345.26962853036736,72.5764416733914,567.8991728830485,0.4144624920742152,-14516.22964704222,10.5,10499985483.770353,47.655,-122.3035,60.0,4.05
2026-02-06T21:27:11+00:00,SAT-49763,347.6672187281353,72.43429021830465,568.3125242583774,0.5003621720669249,-17524.799795673014,10.5,10499982475.200205,47.655,-122.3035,60.0,4.066666666666666
2026-02-06T21:27:12+00:00,SAT-49763,350.0201350924871,72.26390247132898,568.8115450285111,0.5860350164996274,-20525.425203478895,10.5,10499979474.574797,47.655,-122.3035,60.0,4.083333333333333
2026-02-06T21:27:13+00:00,SAT-49763,352.3219591392503,72.06627881369982,569.396008966004,0.6714432723499248,-23516.783599920353,10.5,10499976483.2164,47.655,-122.3035,60.0,4.1
2026-02-06T21:27:14+00:00,SAT-49763,354.56720259323095,71.8425334389804,570.0656521916,0.7565497678976985,-26497.573074122607,10.5,10499973502.426926,47.655,-122.3035,60.0,4.116666666666666
2026-02-06T21:27:15+00:00,SAT-49763,356.75133358393686,71.59387137979263,570.8201737539739,0.8413180054540612,-29466.515322635776,10.5,10499970533.484678,47.655,-122.3035,60.0,4.133333333333334
2026-02-06T21:27:16+00:00,SAT-49763,358.8707691206015,71.32156579620046,571.6592363019571,0.9257122215589109,-32422.357757807786,10.5,10499967577.642242,47.655,-122.3035,60.0,4.15
2026-02-06T21:27:17+00:00,SAT-49763,0.9228389579779382,71.02693633460989,572.5824668167984,1.0096974729128871,-35363.87651748502,10.5,10499964636.123482,47.655,-122.3035,60.0,4.166666666666667
2026-02-06T21:27:18+00:00,SAT-49763,2.9057270664093138,70.7113291608585,573.5894574301245,1.0932396845636576,-38289.878152699916,10.5,10499961710.121847,47.655,-122.3035,60.0,4.183333333333334
2026-02-06T21:27:19+00:00,SAT-49763,4.818396958713718,70.3760990988985,574.679766289961,1.1763057270307449,-41199.20232890856,10.5,10499958800.79767,47.655,-122.3035,60.0,4.2
2026-02-06T21:27:20+00:00,SAT-49763,6.660506974483907,70.02259410364557,575.8529185036678,1.2588634716467215,-44090.723764273534,10.5,10499955909.276236,47.655,-122.3035,60.0,4.216666666666667
2026-02-06T21:27:21+00:00,SAT-49763,8.432320792464939,69.65214215577548,577.1084071360701,1.3408818365373762,-46963.353840083764,10.5,10499953036.64616,47.655,-122.3035,60.0,4.233333333333333
2026-02-06T21:27:22+00:00,SAT-49763,10.134617574348256,69.26604053574508,578.4456942534454,1.42233083622498,-49816.04233807072,10.5,10499950183.957663,47.655,-122.3035,60.0,4.25
2026-02-06T21:27:23+00:00,SAT-49763,11.768605166722038,68.86554733712607,579.8642120169799,1.5031816425501145,-52647.7795741486,10.5,10499947352.220427,47.655,-122.3035,60.0,4.266666666666667
2026-02-06T21:27:24+00:00,SAT-49763,13.335838830247017,68.45187501543107,581.3633638369854,1.5834065962809358,-55457.59680501978,10.5,10499944542.403194,47.655,-122.3035,60.0,4.283333333333333
2026-02-06T21:27:25+00:00,SAT-49763,14.83814703590372,68.02618575002833,582.9425255386919,1.6629792514172343,-58244.56777989045,10.5,10499941755.43222,47.655,-122.3035,60.0,4.3
2026-02-06T21:27:26+00:00,SAT-49763,16.277565253967634,67.58958835946783,584.6010465722271,1.7418744079302033,-61007.809887155774,10.5,10499938992.190113,47.655,-122.3035,60.0,4.316666666666666
2026-02-06T21:27:27+00:00,SAT-49763,17.656278026661994,67.14313652603234,586.3382512552483,1.8200681391199123,-63746.48511257437,10.5,10499936253.514887,47.655,-122.3035,60.0,4.333333333333333
2026-02-06T21:27:28+00:00,SAT-49763,18.976569199835584,66.68782809718773,588.1534400428567,1.8975377901678947,-66459.79998857374,10.5,10499933540.200012,47.655,-122.3035,60.0,4.35
2026-02-06T21:27:29+00:00,SAT-49763,20.240779878495477,66.22460525790186,590.0458907960693,1.9742620034466214,-69147.00648069513,10.5,10499930852.993519,47.655,-122.3035,60.0,4.366666666666666
2026-02-06T21:27:30+00:00,SAT-49763,21.451273525595592,65.7543553780464,592.0148600755329,2.050220734565775,-71807.40254960196,10.5,10499928192.59745,47.655,-122.3035,60.0,4.383333333333334
2026-02-06T21:27:31+00:00,SAT-49763,22.61040748353555,65.27791237448741,594.0595844512396,2.1253952427796055,-74440.33181510476,10.5,10499925559.668184,47.655,-122.3035,60.0,4.4
2026-02-06T21:27:32+00:00,SAT-49763,23.720510151778157,64.79605845596083,596.1792818026779,2.1997680917730134,-77045.18358369324,10.5,10499922954.816416,47.655,-122.3035,60.0,4.416666666666667
2026-02-06T21:27:33+00:00,SAT-49763,24.783863085664866,64.30952613345919,598.3731526197647,2.2733231489072336,-79621.3928221168,10.5,10499920378.607178,47.655,-122.3035,60.0,4.433333333333334
2026-02-06T21:27:34+00:00,SAT-49763,25.802687304155416,63.8190004031615,600.6403813030284,2.346045593712304,-82168.4404548269,10.5,10499917831.559546,47.655,-122.3035,60.0,4.45
2026-02-06T21:27:35+00:00,SAT-49763,26.77913315570789,63.325121025397365,602.9801374722583,2.417921844882446,-84685.85080704626,10.5,10499915314.149193,47.655,-122.3035,60.0,4.466666666666667
2026-02-06T21:27:36+00:00,SAT-49763,27.715273116398418,62.82848485794524,605.3915772023478,2.488939635582545,-87173.19424232055,10.5,10499912826.805758,47.655,-122.3035,60.0,4.483333333333333
2026-02-06T21:27:37+00:00,SAT-49763,28.613097065458067,62.32964816678489,607.873844334241,2.55908789880406,-89630.08314719722,10.5,10499910369.916853,47.655,-122.3035,60.0,4.5
2026-02-06T21:27:38+00:00,SAT-49763,29.474509502415078,61.82912891994776,610.4260716715424,2.6283568318828885,-92056.1741909142,10.5,10499907943.82581,47.655,-122.3035,60.0,4.516666666666667
2026-02-06T21:27:39+00:00,SAT-49763,30.30132839001999,61.32740900229659,613.0473822414722,2.696737791849547,-94451.16466012046,10.5,10499905548.83534,47.655,-122.3035,60.0,4.533333333333333
2026-02-06T21:27:40+00:00,SAT-49763,31.095285228236342,60.8249363674291,615.7368904514517,2.764223325966827,-96814.79352843389,10.5,10499903185.206472,47.655,-122.3035,60.0,4.55
2026-02-06T21:27:41+00:00,SAT-49763,31.858026131004898,60.32212708791769,618.4937032761442,2.8308071077207857,-99146.83921457507,10.5,10499900853.160786,47.655,-122.3035,60.0,4.566666666666666
2026-02-06T21:27:42+00:00,SAT-49763,32.59111364177513,59.819367314870725,621.3169213806608,2.8964839181272772,-101447.11892764296,10.5,10499898552.881073,47.655,-122.3035,60.0,4.583333333333333
2026-02-06T21:27:43+00:00,SAT-49763,33.296029113014455,59.31701513418364,624.2056402251183,2.961249626975343,-103715.48801017905,10.5,10499896284.51199,47.655,-122.3035,60.0,4.6
2026-02-06T21:27:44+00:00,SAT-49763,33.974175492179754,58.81540231866153,627.158951150496,3.025101106830072,-105951.83692618363,10.5,10499894048.163074,47.655,-122.3035,60.0,4.616666666666666
2026-02-06T21:27:45+00:00,SAT-49763,34.626880371895375,58.314835988261756,630.1759423787224,3.0880362593648667,-108156.0921833834,10.5,10499891843.907816,47.655,-122.3035,60.0,4.633333333333334
2026-02-06T21:27:46+00:00,SAT-49763,35.25539923124335,57.815600161387245,633.2557000390251,3.1500539255774282,-110328.2131886153,10.5,10499889671.786812,47.655,-122.3035,60.0,4.65
2026-02-06T21:27:47+00:00,SAT-49763,35.860918758832064,57.31795722033132,636.3973091047355,3.2111538760564655,-112468.19190692545,10.5,10499887531.808094,47.655,-122.3035,60.0,4.666666666666667
2026-02-06T21:27:48+00:00,SAT-49763,36.44456021414642,56.82214928128586,639.5998543203892,3.2713367713528716,-114576.05147360028,10.5,10499885423.948526,47.655,-122.3035,60.0,4.683333333333334
2026-02-06T21:27:49+00:00,SAT-49763,37.007382769987984,56.328399478510526,642.8624210893029,3.3306040983166874,-116651.8439644176,10.5,10499883348.156036,47.655,-122.3035,60.0,4.7
2026-02-06T21:27:50+00:00,SAT-49763,37.55038679528342,55.83691317079131,646.1840962976552,3.3889581561789957,-118695.64990817565,10.5,10499881304.350092,47.655,-122.3035,60.0,4.716666666666667
2026-02-06T21:27:51+00:00,SAT-49763,38.07451705907743,55.34787906723436,649.5639691246936,3.4464020067726824,-120707.57654321365,10.5,10499879292.423456,47.655,-122.3035,60.0,4.733333333333333
2026-02-06T21:27:52+00:00,SAT-49763,38.580665828862806,54.86147028271997,653.0011318032896,3.5029394186536766,-122687.7558603012,10.5,10499877312.24414,47.655,-122.3035,60.0,4.75
2026-02-06T21:27:53+00:00,SAT-49763,39.06967584842413,54.3778453282026,656.4946803247675,3.5585748755701725,-124636.34489926632,10.5,10499875363.6551,47.655,-122.3035,60.0,4.766666666666667
2026-02-06T21:27:54+00:00,SAT-49763,39.54234319559094,53.89714903135872,660.0437151521794,3.613313461891605,-126553.52173623344,10.5,10499873446.478264,47.655,-122.3035,60.0,4.783333333333333
2026-02-06T21:27:55+00:00,SAT-49763,39.99941999607501,53.4195134089221,663.6473418193171,3.667160902437701,-128439.4868786054,10.5,10499871560.51312,47.655,-122.3035,60.0,4.8
2026-02-06T21:27:56+00:00,SAT-49763,40.44161701352875,52.94505847343256,667.3046715694436,3.720123453804832,-130294.45945885248,10.5,10499869705.54054,47.655,-122.3035,60.0,4.816666666666666
2026-02-06T21:27:57+00:00,SAT-49763,40.8696060947315,52.473892998379306,671.0148218856457,3.772207954804537,-132118.67900108296,10.5,10499867881.321,47.655,-122.3035,60.0,4.833333333333333
2026-02-06T21:27:58+00:00,SAT-49763,41.28402249228085,52.00611522441881,674.776917071488,3.8234216627029194,-133912.39968545391,10.5,10499866087.600315,47.655,-122.3035,60.0,4.85
2026-02-06T21:27:59+00:00,SAT-49763,41.68546704156629,51.54181353738962,678.5900886683453,3.8737723518997713,-135675.8938043318,10.5,10499864324.106195,47.655,-122.3035,60.0,4.866666666666666
2026-02-06T21:28:00+00:00,SAT-49763,42.07450822738379,51.08106708805935,682.4534759711505,3.9232681760444845,-137409.44693300818,10.5,10499862590.553066,47.655,-122.3035,60.0,4.883333333333334
2026-02-06T21:28:01+00:00,SAT-49763,42.45168411701731,50.62394638616192,686.3662264066256,3.9719177263997523,-139113.35997384365,10.5,10499860886.640026,47.655,-122.3035,60.0,4.9
2026-02-06T21:28:02+00:00,SAT-49763,42.81750418657962,50.17051384750026,690.3274959697256,4.019729899971635,-140787.94453762463,10.5,10499859212.055462,47.655,-122.3035,60.0,4.916666666666667
2026-02-06T21:28:03+00:00,SAT-49763,43.17245102627549,49.720824319200794,694.3364495285583,4.066713929915701,-142433.52400851544,10.5,10499857566.475992,47.655,-122.3035,60.0,4.933333333333334
2026-02-06T21:28:04+00:00,SAT-49763,43.516981946665624,49.27492556626277,698.3922611596344,4.112879371118841,-144050.4330390721,10.5,10499855949.566961,47.655,-122.3035,60.0,4.95
2026-02-06T21:28:05+00:00,SAT-49763,43.85153048628214,48.83285872732032,702.4941144687365,4.1582360022702725,-145639.01412035475,10.5,10499854360.98588,47.655,-122.3035,60.0,4.966666666666667
2026-02-06T21:28:06+00:00,SAT-49763,44.176507818822095,48.39465875058822,706.641202814121,4.202793886348582,-147199.61970043991,10.5,10499852800.380299,47.655,-122.3035,60.0,4.983333333333333
2026-02-06T21:28:07+00:00,SAT-49763,44.492304079265715,47.96035479462679,710.832729590046,4.24656324026501,-148732.60761877673,10.5,10499851267.392382,47.655,-122.3035,60.0,5.0
2026-02-06T21:28:08+00:00,SAT-49763,44.799289597828576,47.52997061609891,715.0679083802895,4.289554501192864,-150238.34342932364,10.5,10499849761.65657,47.655,-122.3035,60.0,5.016666666666667
2026-02-06T21:28:09+00:00,SAT-49763,45.09781606317153,47.10352492533491,719.3459631778234,4.331778265640478,-151717.1982666256,10.5,10499848282.801733,47.655,-122.3035,60.0,5.033333333333333
2026-02-06T21:28:10+00:00,SAT-49763,45.38821760873862,46.68103172475553,723.6661285437187,4.373245264455066,-153169.5479703435,10.5,10499846830.45203,47.655,-122.3035,60.0,5.05
2026-02-06T21:28:11+00:00,SAT-49763,45.67081183026691,46.262500627660415,728.0276497411278,4.4139663127489595,-154595.77133145914,10.5,10499845404.228668,47.655,-122.3035,60.0,5.066666666666666
2026-02-06T21:28:12+00:00,SAT-49763,45.94590073692001,45.84793716098748,732.4297828193196,4.453952383946604,-155996.25268571416,10.5,10499844003.747314,47.655,-122.3035,60.0,5.083333333333333
2026-02-06T21:28:13+00:00,SAT-49763,46.21377164842324,45.43734304161031,736.8717947715702,4.493214465565635,-157371.37686245318,10.5,10499842628.623138,47.655,-122.3035,60.0,5.1
2026-02-06T21:28:14+00:00,SAT-49763,46.47469802743978,45.03071644800325,741.3529635492172,4.531763615200963,-158721.53114542365,10.5,10499841278.468855,47.655,-122.3035,60.0,5.116666666666666
2026-02-06T21:28:15+00:00,SAT-49763,46.72894026431993,44.62805226924919,745.8725781315492,4.569610964658643,-160047.10541756108,10.5,10499839952.894583,47.655,-122.3035,60.0,5.133333333333334
2026-02-06T21:28:16+00:00,SAT-49763,46.97674641368875,44.2293423377444,750.4299385998178,4.606767608106478,-161348.4882435502,10.5,10499838651.511757,47.655,-122.3035,60.0,5.15
2026-02-06T21:28:17+00:00,SAT-49763,47.218352879329835,43.83457565659488,755.0243560997009,4.643244705678314,-162626.07049848564,10.5,10499837373.9295,47.655,-122.3035,60.0,5.166666666666667
2026-02-06T21:28:18+00:00,SAT-49763,47.453985063157916,43.44373860358683,759.6551529070913,4.679053369668373,-163880.241381916,10.5,10499836119.758617,47.655,-122.3035,60.0,5.183333333333334
2026-02-06T21:28:19+00:00,SAT-49763,47.683857968310576,43.05681513161708,764.3216623803846,4.7142046949198875,-165111.38948218245,10.5,10499834888.610518,47.655,-122.3035,60.0,5.2
2026-02-06T21:28:20+00:00,SAT-49763,47.90817676744302,42.67378695371397,769.0232289430776,4.748709761557787,-166319.90287212888,10.5,10499833680.097128,47.655,-122.3035,60.0,5.216666666666667
2026-02-06T21:28:21+00:00,SAT-49763,48.1271373366687,42.294633716006544,773.7592080690868,4.7825795930049235,-167506.16763865252,10.5,10499832493.832361,47.655,-122.3035,60.0,5.233333333333333
2026-02-06T21:28:22+00:00,SAT-49763,48.3409267553977,41.91933316294509,778.5289662261988,4.815825142321756,-168670.56740426217,10.5,10499831329.432596,47.655,-122.3035,60.0,5.25
2026-02-06T21:28:23+00:00,SAT-49763,48.549723775529245,41.547861292946564,783.3318808058979,4.848457326017452,-169813.48451128564,10.5,10499830186.51549,47.655,-122.3035,60.0,5.266666666666667
2026-02-06T21:28:24+00:00,SAT-49763,48.753699264364435,41.18019250148096,788.1673400869114,4.880486950294618,-170935.29743864835,10.5,10499829064.70256,47.655,-122.3035,60.0,5.283333333333333
2026-02-06T21:28:25+00:00,SAT-49763,48.95301661779997,40.8162997205051,793.0347431251994,4.911924775763722,-172036.38306844624,10.5,10499827963.616932,47.655,-122.3035,60.0,5.3
2026-02-06T21:28:26+00:00,SAT-49763,49.14783215212409,40.4561545441365,797.9334997084849,4.942781414794256,-173117.11309074922,10.5,10499826882.88691,47.655,-122.3035,60.0,5.316666666666666
2026-02-06T21:28:27+00:00,SAT-49763,49.3382954683611,40.09972735367311,802.86303020841,4.973067458065783,-174177.85843595414,10.5,10499825822.141563,47.655,-122.3035,60.0,5.333333333333333
2026-02-06T21:28:28+00:00,SAT-49763,49.524549800682685,39.74698742550839,807.8227655589037,5.002793317133523,-175218.98376076555,10.5,10499824781.01624,47.655,-122.3035,60.0,5.35
2026-02-06T21:28:29+00:00,SAT-49763,49.70673233813903,39.397903043135734,812.8121470775396,5.031969339432512,-176240.8514761281,10.5,10499823759.148523,47.655,-122.3035,60.0,5.366666666666666
2026-02-06T21:28:30+00:00,SAT-49763,49.884974532467055,39.05244159389456,817.8306264015849,5.060605703822304,-177243.8180887599,10.5,10499822756.181911,47.655,-122.3035,60.0,5.383333333333334
2026-02-06T21:28:31+00:00,SAT-49763,50.05940238426225,38.71056966652529,822.8776653198787,5.088712553730773,-178228.23886441172,10.5,10499821771.761135,47.655,-122.3035,60.0,5.4
2026-02-06T21:28:32+00:00,SAT-49763,50.23013671763194,38.37225313346531,827.9527357374952,5.116299829412612,-179194.46195285014,10.5,10499820805.538048,47.655,-122.3035,60.0,5.416666666666667
2026-02-06T21:28:33+00:00,SAT-49763,50.39729343330943,38.03745723880407,833.0553194731147,5.143377349340352,-180142.83123851535,10.5,10499819857.168762,47.655,-122.3035,60.0,5.433333333333334
2026-02-06T21:28:34+00:00,SAT-49763,50.56098375041124,37.70614667511157,838.1849081375674,5.169954848522105,-181073.6876825704,10.5,10499818926.312317,47.655,-122.3035,60.0,5.45
2026-02-06T21:28:35+00:00,SAT-49763,50.72131443591448,37.378285652788485,843.3410030505942,5.196041863128293,-181987.36528204152,10.5,10499818012.634718,47.655,-122.3035,60.0,5.466666666666667
2026-02-06T21:28:36+00:00,SAT-49763,50.878388017454085,37.05383797203585,848.5231150425413,5.221647873044644,-182884.19606262664,10.5,10499817115.803938,47.655,-122.3035,60.0,5.483333333333333
2026-02-06T21:28:37+00:00,SAT-49763,51.03230298905269,36.73276708122375,853.7307643982256,5.24678210937301,-183764.50333656027,10.5,10499816235.496664,47.655,-122.3035,60.0,5.5
2026-02-06T21:28:38+00:00,SAT-49763,51.18315399937253,36.41503614302681,858.9634806088195,5.271453765922207,-184628.60910991687,10.5,10499815371.39089,47.655,-122.3035,60.0,5.516666666666667
2026-02-06T21:28:39+00:00,SAT-49763,51.33103203630303,36.10060808342061,864.2208023346559,5.295671815405377,-185476.82764506523,10.5,10499814523.172356,47.655,-122.3035,60.0,5.533333333333333
2026-02-06T21:28:40+00:00,SAT-49763,51.47602459584518,35.789445648195375,869.5022771847267,5.3194451285080016,-186309.46963093386,10.5,10499813690.530369,47.655,-122.3035,60.0,5.55
2026-02-06T21:28:41+00:00,SAT-49763,51.61821584553839,35.48151144866141,874.8074616149286,5.3427824481632165,-187126.84128202373,10.5,10499812873.158718,47.655,-122.3035,60.0,5.566666666666666
2026-02-06T21:28:42+00:00,SAT-49763,51.75768677817108,35.176768005703586,880.1359208006522,5.3656922995458345,-187929.24118601828,10.5,10499812070.758814,47.655,-122.3035,60.0,5.583333333333333
2026-02-06T21:28:43+00:00,SAT-49763,51.89451535495809,34.875177795802365,885.4872284196085,5.388183148926728,-188716.96586753574,10.5,10499811283.034132,47.655,-122.3035,60.0,5.6
2026-02-06T21:28:44+00:00,SAT-49763,52.028776645371806,34.57670328501837,890.8609665930823,5.410263247872591,-189490.30433134586,10.5,10499810509.69567,47.655,-122.3035,60.0,5.616666666666666
2026-02-06T21:28:45+00:00,SAT-49763,52.160542955462255,34.28130696908524,896.2567256718038,5.431940730333715,-190249.5414627943,10.5,10499809750.458538,47.655,-122.3035,60.0,5.633333333333334
2026-02-06T21:28:46+00:00,SAT-49763,52.289883952036995,33.98895140538528,901.6741041186472,5.453223613011158,-190994.95804066278,10.5,10499809005.04196,47.655,-122.3035,60.0,5.65
2026-02-06T21:28:47+00:00,SAT-49763,52.41686678030494,33.699599242606766,907.1127083916966,5.474119708202278,-191726.82768465084,10.5,10499808273.172316,47.655,-122.3035,60.0,5.666666666666667
2026-02-06T21:28:48+00:00,SAT-49763,52.54155617334961,33.41321325276565,912.5721527403899,5.494636739149974,-192445.42089539403,10.5,10499807554.579105,47.655,-122.3035,60.0,5.683333333333334
2026-02-06T21:28:49+00:00,SAT-49763,52.66401455869937,33.12975635491211,918.052059116702,5.514782240983155,-193151.00158498023,10.5,10499806848.998415,47.655,-122.3035,60.0,5.7
2026-02-06T21:28:50+00:00,SAT-49763,52.78430215720527,32.84919164207372,923.5520569875372,5.534563666944452,-193843.83079749375,10.5,10499806156.169203,47.655,-122.3035,60.0,5.716666666666667
2026-02-06T21:28:51+00:00,SAT-49763,52.90247707924538,32.57148240082743,929.07178325306,5.553988250526466,-194524.16188044293,10.5,10499805475.83812,47.655,-122.3035,60.0,5.733333333333333
2026-02-06T21:28:52+00:00,SAT-49763,53.0185954130571,32.296592136139026,934.6108820275374,5.5730631459614886,-195192.24540530515,10.5,10499804807.754595,47.655,-122.3035,60.0,5.75
2026-02-06T21:28:53+00:00,SAT-49763,53.13271131168823,32.02448458741888,940.1690045602871,5.591795366739883,-195848.32701417984,10.5,10499804151.672985,47.655,-122.3035,60.0,5.766666666666667
2026-02-06T21:28:54+00:00,SAT-49763,53.24487707433494,31.75512374621283,945.7458090953164,5.610191735449796,-196492.64566296345,10.5,10499803507.354338,47.655,-122.3035,60.0,5.783333333333333
2026-02-06T21:28:55+00:00,SAT-49763,53.35514322252094,31.488473874811174,951.3409606809302,5.628259031835431,-197125.43880697637,10.5,10499802874.561193,47.655,-122.3035,60.0,5.8
2026-02-06T21:28:56+00:00,SAT-49763,53.46355857567104,31.224499516400776,956.9541311270008,5.646003805984107,-197746.93585798322,10.5,10499802253.064142,47.655,-122.3035,60.0,5.816666666666666
2026-02-06T21:28:57+00:00,SAT-49763,53.570170319137716,30.963165512892484,962.5849987759296,5.663432529388603,-198357.36347503558,10.5,10499801642.636524,47.655,-122.3035,60.0,5.833333333333333
2026-02-06T21:28:58+00:00,SAT-49763,53.67502407199119,30.704437014361552,968.2332484242605,5.680551543288024,-198956.94375515028,10.5,10499801043.056244,47.655,-122.3035,60.0,5.85
2026-02-06T21:28:59+00:00,SAT-49763,53.77816395046353,30.448279489899154,973.8985711927771,5.697367047322675,-199545.89383595533,10.5,10499800454.106165,47.655,-122.3035,60.0,5.866666666666666
2026-02-06T21:29:00+00:00,SAT-49763,53.8796326281837,30.194658737939086,979.5806643852825,5.713885123546187,-200124.42673669587,10.5,10499799875.573263,47.655,-122.3035,60.0,5.883333333333334
