DopplerPredictor/satellites_20260211_204923/SAT-63494.csv

timestamp,satellite,azimuth_deg,elevation_deg,distance_km,relative_velocity_kms,doppler_shift_hz,tx_freq_ghz,rx_freq_hz,ue_lat,ue_lon,ue_alt_m,time_minutes
2026-02-06T21:26:46+00:00,SAT-63494,234.88275333082623,30.11112164313442,842.6539401324101,-5.907603227825781,206909.2541753359,10.5,10500206909.254175,47.655,-122.3035,60.0,3.65
2026-02-06T21:26:47+00:00,SAT-63494,234.83568257246628,30.407644213258557,836.7621743735889,-5.889069455779353,206260.12308049193,10.5,10500206260.123081,47.655,-122.3035,60.0,3.6666666666666665
2026-02-06T21:26:48+00:00,SAT-63494,234.78759308555894,30.707907740459472,830.8888927003287,-5.870133223008011,205596.89610865436,10.5,10500205596.896109,47.655,-122.3035,60.0,3.683333333333333
2026-02-06T21:26:49+00:00,SAT-63494,234.7384533382417,31.011979091330314,825.0344964944131,-5.850784367230839,204919.21733375898,10.5,10500204919.217333,47.655,-122.3035,60.0,3.7
2026-02-06T21:26:50+00:00,SAT-63494,234.68823048895067,31.319926298133066,819.1993972726632,-5.8310124923953515,204226.7226420726,10.5,10500204226.722643,47.655,-122.3035,60.0,3.716666666666667
2026-02-06T21:26:51+00:00,SAT-63494,234.63689031753094,31.631818565391384,813.3840169200801,-5.810806908884938,203519.0376380044,10.5,10500203519.037638,47.655,-122.3035,60.0,3.7333333333333334
2026-02-06T21:26:52+00:00,SAT-63494,234.58439715255938,31.947726272165355,807.5887879826264,-5.790156647681165,202795.77814013,10.5,10500202795.778141,47.655,-122.3035,60.0,3.75
2026-02-06T21:26:53+00:00,SAT-63494,234.5307137937987,32.26772097364475,801.8141539458762,-5.769050478798941,202056.55082686865,10.5,10500202056.550827,47.655,-122.3035,60.0,3.7666666666666666
2026-02-06T21:26:54+00:00,SAT-63494,234.47580142935578,32.59187540224845,796.0605694952822,-5.747476827595172,201300.95030525854,10.5,10500201300.950306,47.655,-122.3035,60.0,3.783333333333333
2026-02-06T21:26:55+00:00,SAT-63494,234.41961954842537,32.92026346233925,790.3285008599098,-5.725423886959291,200528.56304034358,10.5,10500200528.56304,47.655,-122.3035,60.0,3.8
2026-02-06T21:26:56+00:00,SAT-63494,234.3621258467132,33.252960229308066,784.6184260442827,-5.702879518230732,199738.9638848843,10.5,10500199738.963884,47.655,-122.3035,60.0,3.816666666666667
2026-02-06T21:26:57+00:00,SAT-63494,234.30327612684286,33.59004194102917,778.9308351590432,-5.679831238222811,198931.71562487914,10.5,10500198931.715626,47.655,-122.3035,60.0,3.8333333333333335
2026-02-06T21:26:58+00:00,SAT-63494,234.24302419208664,33.93158598604392,773.2662307645533,-5.656266352312395,198106.37364092775,10.5,10500198106.37364,47.655,-122.3035,60.0,3.85
2026-02-06T21:26:59+00:00,SAT-63494,234.1813217310234,34.27767089716494,767.625128081767,-5.632171729909294,197262.4780442195,10.5,10500197262.478045,47.655,-122.3035,60.0,3.8666666666666667
2026-02-06T21:27:00+00:00,SAT-63494,234.11811819724466,34.628376328824665,762.0080554270257,-5.60753401490779,196399.56104743568,10.5,10500196399.561047,47.655,-122.3035,60.0,3.8833333333333333
2026-02-06T21:27:01+00:00,SAT-63494,234.05336067765134,34.983783044024364,756.415554436972,-5.582339468573407,195517.14146198024,10.5,10500195517.141462,47.655,-122.3035,60.0,3.9
2026-02-06T21:27:02+00:00,SAT-63494,233.98699375369074,35.34397288833627,750.8481804501513,-5.556574033543032,194614.7269395344,10.5,10500194614.72694,47.655,-122.3035,60.0,3.9166666666666665
2026-02-06T21:27:03+00:00,SAT-63494,233.9189593516254,35.709028764073885,745.306502824785,-5.530223370296288,193691.81524943843,10.5,10500193691.815248,47.655,-122.3035,60.0,3.933333333333333
2026-02-06T21:27:04+00:00,SAT-63494,233.8491965814791,36.07903460298482,739.7911052201737,-5.50327272095239,192747.8895082814,10.5,10500192747.88951,47.655,-122.3035,60.0,3.95
2026-02-06T21:27:05+00:00,SAT-63494,233.77764156612605,36.45407532557966,734.3025860139346,-5.475707040232901,191782.42276677108,10.5,10500191782.422768,47.655,-122.3035,60.0,3.966666666666667
2026-02-06T21:27:06+00:00,SAT-63494,233.70422725582628,36.834236804256825,728.841558588629,-5.447510938639471,190794.8760195777,10.5,10500190794.87602,47.655,-122.3035,60.0,3.9833333333333334
2026-02-06T21:27:07+00:00,SAT-63494,233.62888322961496,37.219605817584075,723.4086516750593,-5.418668685089207,189784.69829763586,10.5,10500189784.698298,47.655,-122.3035,60.0,4.0
2026-02-06T21:27:08+00:00,SAT-63494,233.55153548165256,37.61026999912672,718.0045096929388,-5.389164202370293,188751.32650898135,10.5,10500188751.32651,47.655,-122.3035,60.0,4.016666666666667
2026-02-06T21:27:09+00:00,SAT-63494,233.4721061911971,38.006317779855124,712.6297930960903,-5.358981061927922,187694.18525613204,10.5,10500187694.185257,47.655,-122.3035,60.0,4.033333333333333
2026-02-06T21:27:10+00:00,SAT-63494,233.39051347492187,38.40783832353185,707.28517872285,-5.328102500132018,186612.68740585257,10.5,10500186612.687407,47.655,-122.3035,60.0,4.05
2026-02-06T21:27:11+00:00,SAT-63494,233.3066711193141,38.81492145613911,701.9713601302427,-5.296511436002547,185506.2347099697,10.5,10500185506.23471,47.655,-122.3035,60.0,4.066666666666666
2026-02-06T21:27:12+00:00,SAT-63494,233.22048829162063,39.22765758903498,696.6890479104816,-5.264190434904205,184374.21653380673,10.5,10500184374.216534,47.655,-122.3035,60.0,4.083333333333333
2026-02-06T21:27:13+00:00,SAT-63494,233.13186922807975,39.64613763108119,691.438970043675,-5.231121708093848,183216.00984033232,10.5,10500183216.00984,47.655,-122.3035,60.0,4.1
2026-02-06T21:27:14+00:00,SAT-63494,233.04071289688835,40.070452891587685,686.2218722509859,-5.197287175697179,182030.98139587083,10.5,10500182030.981396,47.655,-122.3035,60.0,4.116666666666666
2026-02-06T21:27:15+00:00,SAT-63494,232.94691263198501,40.50069497862309,681.0385182849813,-5.162668424547595,180818.48629344022,10.5,10500180818.486294,47.655,-122.3035,60.0,4.133333333333334
2026-02-06T21:27:16+00:00,SAT-63494,232.85035573708447,40.936955683653096,675.8896902620315,-5.1272467418325025,179577.86913118832,10.5,10500179577.869131,47.655,-122.3035,60.0,4.15
2026-02-06T21:27:17+00:00,SAT-63494,232.75092305548824,41.37932685776339,670.7761889611538,-5.0910030731961795,178308.46254497799,10.5,10500178308.462545,47.655,-122.3035,60.0,4.166666666666667
2026-02-06T21:27:18+00:00,SAT-63494,232.6484885039604,41.827900272227964,665.6988341646385,-5.0539181158955815,177009.5904710972,10.5,10500177009.590471,47.655,-122.3035,60.0,4.183333333333334
2026-02-06T21:27:19+00:00,SAT-63494,232.54291856386263,42.28276747413848,660.658464905771,-5.015972258586195,175680.5660373052,10.5,10500175680.566038,47.655,-122.3035,60.0,4.2
2026-02-06T21:27:20+00:00,SAT-63494,232.4340717288788,42.744019623015504,655.6559397766058,-4.97714567173333,174320.69472941832,10.5,10500174320.694729,47.655,-122.3035,60.0,4.216666666666667
2026-02-06T21:27:21+00:00,SAT-63494,232.3217979011776,43.21174732069246,650.6921371455725,-4.937418187324115,172929.2701783152,10.5,10500172929.270178,47.655,-122.3035,60.0,4.233333333333333
2026-02-06T21:27:22+00:00,SAT-63494,232.20593773593637,43.68604041405579,645.7679554950449,-4.8967695173998464,171505.58181386397,10.5,10500171505.581814,47.655,-122.3035,60.0,4.25
2026-02-06T21:27:23+00:00,SAT-63494,232.08632191983324,44.16698780111943,640.8843135409668,-4.855179109159983,170048.90979005152,10.5,10500170048.90979,47.655,-122.3035,60.0,4.266666666666667
2026-02-06T21:27:24+00:00,SAT-63494,231.96277038610268,44.65467720535782,636.0421504969839,-4.812626211064387,168558.52730016335,10.5,10500168558.5273,47.655,-122.3035,60.0,4.283333333333333
2026-02-06T21:27:25+00:00,SAT-63494,231.83509145364752,45.14919493638519,631.2424262726489,-4.769089971908365,167033.70404681037,10.5,10500167033.704046,47.655,-122.3035,60.0,4.3
2026-02-06T21:27:26+00:00,SAT-63494,231.7030808803887,45.6506256397847,626.4861215728208,-4.724549357168404,165473.7033120034,10.5,10500165473.703312,47.655,-122.3035,60.0,4.316666666666666
2026-02-06T21:27:27+00:00,SAT-63494,231.56652082688873,46.15905201598637,621.7742380804912,-4.678983258320768,163877.78578595218,10.5,10500163877.785786,47.655,-122.3035,60.0,4.333333333333333
2026-02-06T21:27:28+00:00,SAT-63494,231.4251787138847,46.674554526230715,617.1077985305863,-4.632370538571615,162245.21116872778,10.5,10500162245.211168,47.655,-122.3035,60.0,4.35
2026-02-06T21:27:29+00:00,SAT-63494,231.27880596324601,47.197211078073444,612.4878467381615,-4.5846899928721685,160575.23676982484,10.5,10500160575.23677,47.655,-122.3035,60.0,4.366666666666666
2026-02-06T21:27:30+00:00,SAT-63494,231.12713661176875,47.727096678892025,607.9154476664731,-4.535920461902381,158867.1215003514,10.5,10500158867.1215,47.655,-122.3035,60.0,4.383333333333334
2026-02-06T21:27:31+00:00,SAT-63494,230.96988577666517,48.2642830724565,603.3916873813722,-4.486040855504685,157120.12669377826,10.5,10500157120.126694,47.655,-122.3035,60.0,4.4
2026-02-06T21:27:32+00:00,SAT-63494,230.80674795836111,48.8088383468218,598.9176729823272,-4.435030159658561,155333.5163502175,10.5,10500155333.51635,47.655,-122.3035,60.0,4.416666666666667
2026-02-06T21:27:33+00:00,SAT-63494,230.63739516055634,49.36082650886526,594.4945325264927,-4.382867614643819,153506.56337645458,10.5,10500153506.563377,47.655,-122.3035,60.0,4.433333333333334
2026-02-06T21:27:34+00:00,SAT-63494,230.4614747975303,49.92030704428297,590.123414775088,-4.329532608828271,151638.5458659432,10.5,10500151638.545866,47.655,-122.3035,60.0,4.45
2026-02-06T21:27:35+00:00,SAT-63494,230.27860737340092,50.48733442558656,585.8054890457086,-4.275004832558961,149728.75248872704,10.5,10500149728.75249,47.655,-122.3035,60.0,4.466666666666667
2026-02-06T21:27:36+00:00,SAT-63494,230.08838389231653,51.06195759694035,581.5419449111552,-4.219264347578887,147776.48492270717,10.5,10500147776.484922,47.655,-122.3035,60.0,4.483333333333333
2026-02-06T21:27:37+00:00,SAT-63494,229.8903629666229,51.64421942306123,577.3339918290336,-4.162291643796291,145781.05984194254,10.5,10500145781.059841,47.655,-122.3035,60.0,4.5
2026-02-06T21:27:38+00:00,SAT-63494,229.68406758314134,52.2341560970882,573.1828587147381,-4.104067674531029,143741.8101511273,10.5,10500143741.810152,47.655,-122.3035,60.0,4.516666666666667
2026-02-06T21:27:39+00:00,SAT-63494,229.4689814815418,52.83179650012341,569.0897934792811,-4.0445739979247035,141658.08993837124,10.5,10500141658.08994,47.655,-122.3035,60.0,4.533333333333333
2026-02-06T21:27:40+00:00,SAT-63494,229.2445450839093,53.43716152316098,565.0560624260937,-3.983792800223592,139529.275290667,10.5,10500139529.275291,47.655,-122.3035,60.0,4.55
2026-02-06T21:27:41+00:00,SAT-63494,229.01015091810626,54.05026332990023,561.082949624604,-3.92170703638833,137354.76921863548,10.5,10500137354.769218,47.655,-122.3035,60.0,4.566666666666666
2026-02-06T21:27:42+00:00,SAT-63494,228.76513845363095,54.67110457201002,557.1717561435847,-3.8583004670742644,135134.0029517346,10.5,10500135134.002953,47.655,-122.3035,60.0,4.583333333333333
2026-02-06T21:27:43+00:00,SAT-63494,228.50878826913464,55.29967753502054,553.3237992476172,-3.793557803094824,132866.4409979775,10.5,10500132866.440998,47.655,-122.3035,60.0,4.6
2026-02-06T21:27:44+00:00,SAT-63494,228.2403154425609,55.935963224051086,549.5404114494816,-3.7274647634620046,130551.58317675572,10.5,10500130551.583178,47.655,-122.3035,60.0,4.616666666666666
2026-02-06T21:27:45+00:00,SAT-63494,227.9588620501525,56.57993036732528,545.8229395046602,-3.6600082110314265,128188.96936970302,10.5,10500128188.96937,47.655,-122.3035,60.0,4.633333333333334
2026-02-06T21:27:46+00:00,SAT-63494,227.66348862683003,57.23153434004294,542.1727432705615,-3.5911762213216454,125778.18193103868,10.5,10500125778.18193,47.655,-122.3035,60.0,4.65
2026-02-06T21:27:47+00:00,SAT-63494,227.35316442750283,57.89071598552262,538.5911944971069,-3.5209582210186485,123318.85053858097,10.5,10500123318.850538,47.655,-122.3035,60.0,4.666666666666667
2026-02-06T21:27:48+00:00,SAT-63494,227.02675628521024,58.55740033149392,535.0796754791864,-3.449345093573636,120810.65589222788,10.5,10500120810.655891,47.655,-122.3035,60.0,4.683333333333334
2026-02-06T21:27:49+00:00,SAT-63494,226.68301583508608,59.23149517932443,531.6395776037991,-3.376329278807928,118253.33320254255,10.5,10500118253.333202,47.655,-122.3035,60.0,4.7
2026-02-06T21:27:50+00:00,SAT-63494,226.32056482536854,59.912889544493005,528.2722997978543,-3.301904898435372,115646.6765870788,10.5,10500115646.676586,47.655,-122.3035,60.0,4.716666666666667
2026-02-06T21:27:51+00:00,SAT-63494,225.93787818077266,60.60145192864962,524.9792468507889,-3.226067867204925,112990.54296306452,10.5,10500112990.542963,47.655,-122.3035,60.0,4.733333333333333
2026-02-06T21:27:52+00:00,SAT-63494,225.53326442046074,61.29702839078791,521.7618276263386,-3.1488160217008856,110284.85655853058,10.5,10500110284.856558,47.655,-122.3035,60.0,4.75
2026-02-06T21:27:53+00:00,SAT-63494,225.10484295086232,61.9994403848929,518.6214531458553,-3.0701492072125163,107529.6119548525,10.5,10500107529.611956,47.655,-122.3035,60.0,4.766666666666667
2026-02-06T21:27:54+00:00,SAT-63494,224.65051766392136,62.708482310217626,515.5595345849866,-2.990069429297059,104724.87939512848,10.5,10500104724.879395,47.655,-122.3035,60.0,4.783333333333333
2026-02-06T21:27:55+00:00,SAT-63494,224.16794613890025,63.42391873329549,512.5774811192,-2.908580937602201,101870.80771999645,10.5,10500101870.80772,47.655,-122.3035,60.0,4.8
2026-02-06T21:27:56+00:00,SAT-63494,223.65450362014255,64.14548119858839,509.6766976857073,-2.8256903533702813,98967.62883337097,10.5,10500098967.628834,47.655,-122.3035,60.0,4.816666666666666
2026-02-06T21:27:57+00:00,SAT-63494,223.107240751525,64.8728645528983,506.8585826182291,-2.741406744381905,96015.66032728548,10.5,10500096015.660328,47.655,-122.3035,60.0,4.833333333333333
2026-02-06T21:27:58+00:00,SAT-63494,222.52283385087358,65.6057226648381,504.1245252070148,-2.6557417938518535,93015.31139734163,10.5,10500093015.311398,47.655,-122.3035,60.0,4.85
2026-02-06T21:27:59+00:00,SAT-63494,221.89752621644053,66.343663431678,501.47590309041993,-2.568709812781878,89967.08327535617,10.5,10500089967.083275,47.655,-122.3035,60.0,4.866666666666666
2026-02-06T21:28:00+00:00,SAT-63494,221.22705869688255,67.08624286668602,498.91407963416424,-2.4803278755584297,86871.57397856723,10.5,10500086871.573978,47.655,-122.3035,60.0,4.883333333333334
2026-02-06T21:28:01+00:00,SAT-63494,220.50658731792495,67.83295808933717,496.4404011753548,-2.390615889253132,83729.4807368299,10.5,10500083729.480738,47.655,-122.3035,60.0,4.9
2026-02-06T21:28:02+00:00,SAT-63494,219.73058534922893,68.58323893674986,494.0561941973959,-2.299596677279433,80541.60292262604,10.5,10500080541.602922,47.655,-122.3035,60.0,4.916666666666667
2026-02-06T21:28:03+00:00,SAT-63494,218.892726650298,69.33643786548194,491.7627624214639,-2.2072959966719576,77308.8426562604,10.5,10500077308.842657,47.655,-122.3035,60.0,4.933333333333334
2026-02-06T21:28:04+00:00,SAT-63494,217.98574657033328,70.091817696751,489.5613838807522,-2.1137426447599865,74032.20854201696,10.5,10500074032.208542,47.655,-122.3035,60.0,4.95
2026-02-06T21:28:05+00:00,SAT-63494,217.0012759754634,70.84853669282373,487.4533078883262,-2.018968434467093,70712.81480304778,10.5,10500070712.814802,47.655,-122.3035,60.0,4.966666666666667
2026-02-06T21:28:06+00:00,SAT-63494,215.92964343257717,71.60563023360531,485.43975202961434,-1.9230082604249406,67351.88359695785,10.5,10500067351.883596,47.655,-122.3035,60.0,4.983333333333333
2026-02-06T21:28:07+00:00,SAT-63494,214.75963998639943,72.3619882509022,483.5218990889604,-1.8259000897164412,63950.74469159138,10.5,10500063950.744692,47.655,-122.3035,60.0,5.0
2026-02-06T21:28:08+00:00,SAT-63494,213.47824089548874,73.11632729220511,481.7008939854104,-1.7276849388696018,60510.83465925891,10.5,10500060510.83466,47.655,-122.3035,60.0,5.016666666666667
2026-02-06T21:28:09+00:00,SAT-63494,212.07027931991146,73.86715582485593,479.97784073144135,-1.6284068609032543,57033.69642302399,10.5,10500057033.696423,47.655,-122.3035,60.0,5.033333333333333
2026-02-06T21:28:10+00:00,SAT-63494,210.51806912245408,74.6127310760853,478.353799404612,-1.528112905717804,53520.97786941973,10.5,10500053520.977869,47.655,-122.3035,60.0,5.05
2026-02-06T21:28:11+00:00,SAT-63494,208.8009789958066,75.35100533717811,476.82978315871486,-1.4268530507605242,49974.429420054,10.5,10500049974.42942,47.655,-122.3035,60.0,5.066666666666666
2026-02-06T21:28:12+00:00,SAT-63494,206.89497022561898,76.07955932864948,475.40675530407765,-1.3246801225269453,46395.901282256156,10.5,10500046395.901281,47.655,-122.3035,60.0,5.083333333333333
2026-02-06T21:28:13+00:00,SAT-63494,204.7721290851458,76.795520049342,474.08562646615337,-1.2216496977106484,42787.33998692458,10.5,10500042787.339987,47.655,-122.3035,60.0,5.1
2026-02-06T21:28:14+00:00,SAT-63494,202.40025773581968,77.49546073345229,472.8672518426947,-1.1178199982204373,39150.78471158401,10.5,10500039150.784712,47.655,-122.3035,60.0,5.116666666666666
2026-02-06T21:28:15+00:00,SAT-63494,199.7426424656143,78.17528160051513,471.75242856563017,-1.0132517414783586,35488.36203718896,10.5,10500035488.362038,47.655,-122.3035,60.0,5.133333333333334
2026-02-06T21:28:16+00:00,SAT-63494,196.75820517796987,78.8300727676697,470.7418932122421,-0.9080080082393646,31802.281318609184,10.5,10500031802.281319,47.655,-122.3035,60.0,5.15
2026-02-06T21:28:17+00:00,SAT-63494,193.40237136453865,79.45396639347611,469.8363194481678,-0.8021540562731172,28094.82815897834,10.5,10500028094.82816,47.655,-122.3035,60.0,5.166666666666667
2026-02-06T21:28:18+00:00,SAT-63494,189.62915237696572,80.03999555271477,469.03631585622213,-0.6957571492803803,24368.358417622345,10.5,10500024368.358418,47.655,-122.3035,60.0,5.183333333333334
2026-02-06T21:28:19+00:00,SAT-63494,185.39510169735232,80.57999467307624,468.3424239358446,-0.5888863556501243,20625.29116168194,10.5,10500020625.291162,47.655,-122.3035,60.0,5.2
2026-02-06T21:28:20+00:00,SAT-63494,180.66584754251457,81.06460107146992,467.7551163032476,-0.4816123313117671,16868.101060679634,10.5,10500016868.10106,47.655,-122.3035,60.0,5.216666666666667
2026-02-06T21:28:21+00:00,SAT-63494,175.42558711689492,81.48344490051366,467.2747951081335,-0.3740071006646931,13099.310713744764,10.5,10500013099.310713,47.655,-122.3035,60.0,5.233333333333333
2026-02-06T21:28:22+00:00,SAT-63494,169.6889131374989,81.82563031141197,466.9017906688928,-0.26614381922335717,9321.482336441068,10.5,10500009321.482336,47.655,-122.3035,60.0,5.25
2026-02-06T21:28:23+00:00,SAT-63494,163.51244627298618,82.08058383804439,466.63636034452094,-0.15809652873946772,5537.209184109664,10.5,10500005537.209185,47.655,-122.3035,60.0,5.266666666666667
2026-02-06T21:28:24+00:00,SAT-63494,157.00151418448218,82.23924296994585,466.4786876507578,-0.049939905518088926,1749.106736834366,10.5,10500001749.106737,47.655,-122.3035,60.0,5.283333333333333
2026-02-06T21:28:25+00:00,SAT-63494,150.30631766017052,82.29537892834054,466.42888162723466,0.058250994520641336,-2040.1962295753751,10.5,10499997959.80377,47.655,-122.3035,60.0,5.3
2026-02-06T21:28:26+00:00,SAT-63494,143.60483210605196,82.2466752096729,466.48697645887745,0.16640099644174336,-5828.066770906909,10.5,10499994171.93323,47.655,-122.3035,60.0,5.316666666666666
2026-02-06T21:28:27+00:00,SAT-63494,137.07602041608575,82.09516504589628,466.6529313572112,0.2744350665300269,-9611.876889061974,10.5,10499990388.123112,47.655,-122.3035,60.0,5.333333333333333
2026-02-06T21:28:28+00:00,SAT-63494,130.8726820221599,81.84684748956263,466.92663070119977,0.38227857078851624,-13389.012585764984,10.5,10499986610.987413,47.655,-122.3035,60.0,5.35
2026-02-06T21:28:29+00:00,SAT-63494,125.10349351065656,81.51064080693877,467.3078844358945,0.4898575339646623,-17156.882934756664,10.5,10499982843.117065,47.655,-122.3035,60.0,5.366666666666666
2026-02-06T21:28:30+00:00,SAT-63494,119.8282948131443,81.09706266984377,467.79642872941093,0.5970988885325431,-20912.9288022039,10.5,10499979087.071198,47.655,-122.3035,60.0,5.383333333333334
2026-02-06T21:28:31+00:00,SAT-63494,115.06421635968225,80.61702345310866,468.3919268782228,0.703930711256016,-24654.63113214198,10.5,10499975345.368868,47.655,-122.3035,60.0,5.4
2026-02-06T21:28:32+00:00,SAT-63494,110.79714616050393,80.08095208673602,469.09397044838454,0.8102824759523274,-28379.519799325426,10.5,10499971620.4802,47.655,-122.3035,60.0,5.416666666666667
2026-02-06T21:28:33+00:00,SAT-63494,106.99364982212788,79.4982916446865,469.9020806688378,0.9160852589949691,-32085.180806807275,10.5,10499967914.819193,47.655,-122.3035,60.0,5.433333333333334
2026-02-06T21:28:34+00:00,SAT-63494,103.61066179784669,78.87729294930156,470.81571002967314,1.021271959140963,-35769.26398522043,10.5,10499964230.736015,47.655,-122.3035,60.0,5.45
2026-02-06T21:28:35+00:00,SAT-63494,100.60221581347326,78.22500340373153,471.83424409962726,1.1257774868433588,-39429.489623302215,10.5,10499960570.510376,47.655,-122.3035,60.0,5.466666666666667
2026-02-06T21:28:36+00:00,SAT-63494,97.9235564198113,77.54736202146734,472.95700353238567,1.2295389664418335,-43063.65554946433,10.5,10499956936.34445,47.655,-122.3035,60.0,5.483333333333333
2026-02-06T21:28:37+00:00,SAT-63494,95.53332718004195,76.84933918017684,474.1832462745348,1.3324958803663645,-46669.6421824155,10.5,10499953330.357817,47.655,-122.3035,60.0,5.5
2026-02-06T21:28:38+00:00,SAT-63494,93.39450409390498,76.13508484932484,475.51216991733025,1.4345902270091573,-50245.41806050422,10.5,10499949754.58194,47.655,-122.3035,60.0,5.516666666666667
2026-02-06T21:28:39+00:00,SAT-63494,91.47458387810815,75.40806680754326,476.9429142059143,1.5357666543295885,-53789.04452112894,10.5,10499946210.955479,47.655,-122.3035,60.0,5.533333333333333
2026-02-06T21:28:40+00:00,SAT-63494,89.74537071512799,74.67119127093923,478.47456368177944,1.6359725760043382,-57298.679768807095,10.5,10499942701.32023,47.655,-122.3035,60.0,5.55
2026-02-06T21:28:41+00:00,SAT-63494,88.18257472597989,73.92690427697741,480.10615044107163,1.7351582608740082,-60772.58200797395,10.5,10499939227.417992,47.655,-122.3035,60.0,5.566666666666666
2026-02-06T21:28:42+00:00,SAT-63494,86.76534585745912,73.1772750325675,481.8366569821,1.8332769074045578,-64209.1120509371,10.5,10499935790.887949,47.655,-122.3035,60.0,5.583333333333333
2026-02-06T21:28:43+00:00,SAT-63494,85.47581000832383,72.42406356334764,483.66501912710805,1.9302847244038477,-67606.73614491128,10.5,10499932393.263855,47.655,-122.3035,60.0,5.6
2026-02-06T21:28:44+00:00,SAT-63494,84.29864010709618,71.66877523917861,485.5901290245451,2.026140940966804,-70964.02632034005,10.5,10499929035.97368,47.655,-122.3035,60.0,5.616666666666666
2026-02-06T21:28:45+00:00,SAT-63494,83.22067543332244,70.91270461614742,487.61083816125665,2.1208078613692503,-74279.66231350998,10.5,10499925720.337687,47.655,-122.3035,60.0,5.633333333333334
2026-02-06T21:28:46+00:00,SAT-63494,82.23059185190353,70.15697066368989,489.725960429421,2.2142508558225,-77552.43124273744,10.5,10499922447.568758,47.655,-122.3035,60.0,5.65
2026-02-06T21:28:47+00:00,SAT-63494,81.31862040343465,69.40254513568347,491.93427518426563,2.3064383525052974,-80781.22732929332,10.5,10499919218.77267,47.655,-122.3035,60.0,5.666666666666667
2026-02-06T21:28:48+00:00,SAT-63494,80.47630931588857,68.65027548775284,494.2345302938364,2.397341831661417,-83965.05169067622,10.5,10499916034.948309,47.655,-122.3035,60.0,5.683333333333334
2026-02-06T21:28:49+00:00,SAT-63494,79.69632378689438,67.90090346183462,496.6254451828801,2.4869357706383,-87103.01041563277,10.5,10499912896.989584,47.655,-122.3035,60.0,5.7
2026-02-06T21:28:50+00:00,SAT-63494,78.97227800755017,67.15508024205201,499.10571382191455,2.5751976135564973,-90194.31350185341,10.5,10499909805.686499,47.655,-122.3035,60.0,5.716666666666667
2026-02-06T21:28:51+00:00,SAT-63494,78.29859435401079,66.41337887326213,501.6740076860463,2.6621076897438285,-93238.27199919152,10.5,10499906761.728,47.655,-122.3035,60.0,5.733333333333333
2026-02-06T21:28:52+00:00,SAT-63494,77.67038532802628,65.67630450852901,504.3289786324449,2.7476491600631814,-96234.29612983593,10.5,10499903765.70387,47.655,-122.3035,60.0,5.75
2026-02-06T21:28:53+00:00,SAT-63494,77.08335444429083,64.94430290989692,507.06926172428535,2.8318079376043714,-99181.89251060446,10.5,10499900818.107489,47.655,-122.3035,60.0,5.766666666666667
2026-02-06T21:28:54+00:00,SAT-63494,76.53371288005584,64.21776755147327,509.89347797559856,2.9145725833379226,-102080.66049829774,10.5,10499897919.339502,47.655,-122.3035,60.0,5.783333333333333
2026-02-06T21:28:55+00:00,SAT-63494,76.01810922579804,63.49704560018795,512.8002369920516,2.995934236070626,-104930.28973644685,10.5,10499895069.710264,47.655,-122.3035,60.0,5.8
2026-02-06T21:28:56+00:00,SAT-63494,75.53357012254197,62.782442978193544,515.7881395418742,3.075886471011161,-107730.55520168284,10.5,10499892269.444798,47.655,-122.3035,60.0,5.816666666666666
2026-02-06T21:28:57+00:00,SAT-63494,75.07744997142426,62.07422869362997,518.855779985729,3.1544252410873495,-110481.31514841902,10.5,10499889518.68485,47.655,-122.3035,60.0,5.833333333333333
2026-02-06T21:28:58+00:00,SAT-63494,74.64738819551626,61.37263855391381,522.0017486480557,3.2315487367979543,-113182.5062002678,10.5,10499886817.4938,47.655,-122.3035,60.0,5.85
2026-02-06T21:28:59+00:00,SAT-63494,74.24127282370245,60.67787838885869,525.2246340486438,3.307257290276727,-115834.1399899581,10.5,10499884165.86001,47.655,-122.3035,60.0,5.866666666666666
2026-02-06T21:29:00+00:00,SAT-63494,73.85720936410226,59.99012685907526,528.5230250385268,3.3815532281497007,-118436.29800577524,10.5,10499881563.701994,47.655,-122.3035,60.0,5.883333333333334
2026-02-06T21:29:01+00:00,SAT-63494,73.49349412441624,59.30953792994432,531.8955127891262,3.4544407922454763,-120989.12881449972,10.5,10499879010.871185,47.655,-122.3035,60.0,5.9
2026-02-06T21:29:02+00:00,SAT-63494,73.14859127025287,58.63624305263507,535.3406927023206,3.5259260227114018,-123492.8439676415,10.5,10499876507.156033,47.655,-122.3035,60.0,5.916666666666667
2026-02-06T21:29:03+00:00,SAT-63494,72.82111304397984,57.970353106233496,538.8571662039427,3.5960166142163548,-125947.71296505307,10.5,10499874052.287035,47.655,-122.3035,60.0,5.933333333333334
2026-02-06T21:29:04+00:00,SAT-63494,72.50980266144595,57.3119601426681,542.4435423938667,3.664721817517337,-128354.05980737528,10.5,10499871645.940193,47.655,-122.3035,60.0,5.95
2026-02-06T21:29:05+00:00,SAT-63494,72.21351947958075,56.661138955610504,546.0984395979228,3.732052317810017,-130712.25873535877,10.5,10499869287.741264,47.655,-122.3035,60.0,5.966666666666667
2026-02-06T21:29:06+00:00,SAT-63494,71.9312260991445,56.017948502798745,549.820486798492,3.7980201514701433,-133022.73131379613,10.5,10499866977.268686,47.655,-122.3035,60.0,5.983333333333333
2026-02-06T21:29:07+00:00,SAT-63494,71.66197711841045,55.38243319566443,553.6083249820629,3.8626385819035796,-135285.94208326476,10.5,10499864714.057917,47.655,-122.3035,60.0,6.0
2026-02-06T21:29:08+00:00,SAT-63494,71.40490930308567,54.75462408079326,557.4606083629724,3.92592196550836,-137502.39386555142,10.5,10499862497.606134,47.655,-122.3035,60.0,6.016666666666667
2026-02-06T21:29:09+00:00,SAT-63494,71.15923297311765,54.134539928347564,561.3760054734684,3.9878856705140304,-139672.6249210623,10.5,10499860327.375078,47.655,-122.3035,60.0,6.033333333333333
2026-02-06T21:29:10+00:00,SAT-63494,70.92422443398125,53.52218823052481,565.3532001728281,4.048546031560009,-141797.20735796526,10.5,10499858202.792643,47.655,-122.3035,60.0,6.05
2026-02-06T21:29:11+00:00,SAT-63494,70.69921930868368,52.91756611554999,569.3908926111767,4.107920156834064,-143876.74037736357,10.5,10499856123.259623,47.655,-122.3035,60.0,6.066666666666666
2026-02-06T21:29:12+00:00,SAT-63494,70.48360665660084,52.320661208378304,573.4878000009634,4.166025916741553,-145911.84987644455,10.5,10499854088.150124,47.655,-122.3035,60.0,6.083333333333333
2026-02-06T21:29:13+00:00,SAT-63494,70.27682376645052,51.731452417334566,577.6426573771337,4.222881829468819,-147903.1844404258,10.5,10499852096.81556,47.655,-122.3035,60.0,6.1
2026-02-06T21:29:14+00:00,SAT-63494,70.078351540493,51.149910669222855,581.8542182431753,4.278506966431628,-149851.4120309594,10.5,10499850148.587969,47.655,-122.3035,60.0,6.116666666666666
2026-02-06T21:29:15+00:00,SAT-63494,69.88771039373034,50.57599959497883,586.1212551228639,4.332920887114727,-151757.21770393784,10.5,10499848242.782295,47.655,-122.3035,60.0,6.133333333333334
2026-02-06T21:29:16+00:00,SAT-63494,69.70445660172734,50.00967616660402,590.4425600470233,4.386143581178377,-153621.30158181948,10.5,10499846378.698418,47.655,-122.3035,60.0,6.15
2026-02-06T21:29:17+00:00,SAT-63494,69.52817904159544,49.450891289025115,594.8169449825484,4.438195382087278,-155444.37582854874,10.5,10499844555.624172,47.655,-122.3035,60.0,6.166666666666667
2026-02-06T21:29:18+00:00,SAT-63494,69.35849627927176,48.89959035449471,599.2432421752872,4.489096897465036,-157227.1622102744,10.5,10499842772.83779,47.655,-122.3035,60.0,6.183333333333334
2026-02-06T21:29:19+00:00,SAT-63494,69.1950539607839,48.355713760491454,603.7203044234654,4.538868967357371,-158970.39063355085,10.5,10499841029.609367,47.655,-122.3035,60.0,6.2
2026-02-06T21:29:20+00:00,SAT-63494,69.03752247081302,47.81919739082879,608.2470053094852,4.587532561371478,-160674.79554272347,10.5,10499839325.204456,47.655,-122.3035,60.0,6.216666666666667
2026-02-06T21:29:21+00:00,SAT-63494,68.88559482933753,47.289973070071376,612.8222393291392,4.635108815255287,-162341.11720108887,10.5,10499837658.8828,47.655,-122.3035,60.0,6.233333333333333
2026-02-06T21:29:22+00:00,SAT-63494,68.73898479508509,46.76796897737911,617.4449220573058,4.6816189084313535,-163970.09740161378,10.5,10499836029.9026,47.655,-122.3035,60.0,6.25
2026-02-06T21:29:23+00:00,SAT-63494,68.59742515695397,46.25311004104294,622.1139901915069,4.727084002383091,-165562.47730896037,10.5,10499834437.522692,47.655,-122.3035,60.0,6.266666666666667
2026-02-06T21:29:24+00:00,SAT-63494,68.46066619076952,45.74531830799891,626.8284015340173,4.77152525724878,-167118.99804067847,10.5,10499832881.001959,47.655,-122.3035,60.0,6.283333333333333
2026-02-06T21:29:25+00:00,SAT-63494,68.32847426123256,45.2445132819198,631.5871349905218,4.814963815829169,-168640.40010708434,10.5,10499831359.599894,47.655,-122.3035,60.0,6.3
2026-02-06T21:29:26+00:00,SAT-63494,68.20063055451465,44.75061223603714,636.3891905528258,4.85742065442179,-170127.4181868471,10.5,10499829872.581814,47.655,-122.3035,60.0,6.316666666666666
2026-02-06T21:29:27+00:00,SAT-63494,68.07692993047279,44.26353051591149,641.2335891327972,4.898916644045179,-171580.78327132025,10.5,10499828419.216728,47.655,-122.3035,60.0,6.333333333333333
2026-02-06T21:29:28+00:00,SAT-63494,67.95717987723178,43.78318181151866,646.1193724573701,4.939472504873799,-173001.22106865974,10.5,10499826998.77893,47.655,-122.3035,60.0,6.35
2026-02-06T21:29:29+00:00,SAT-63494,67.84119955992233,43.30947841176173,651.0456029181054,4.979108789593205,-174389.4514208515,10.5,10499825610.548578,47.655,-122.3035,60.0,6.366666666666666
2026-02-06T21:29:30+00:00,SAT-63494,67.72881895348483,42.84233143984248,656.0113634041506,5.01784579992228,-175746.1853799669,10.5,10499824253.814621,47.655,-122.3035,60.0,6.383333333333334
2026-02-06T21:29:31+00:00,SAT-63494,67.61987805221966,42.3816510770022,661.0157570519463,5.05570362077831,-177072.12640476853,10.5,10499822927.873594,47.655,-122.3035,60.0,6.4
2026-02-06T21:29:32+00:00,SAT-63494,67.5142261463747,41.9273467645732,666.0579070290042,5.092702117673754,-178367.97026953366,10.5,10499821632.02973,47.655,-122.3035,60.0,6.416666666666667
2026-02-06T21:29:33+00:00,SAT-63494,67.4117211598004,41.47932738948363,671.1369563150934,5.128860856761712,-179634.40226370865,10.5,10499820365.597736,47.655,-122.3035,60.0,6.433333333333334
2026-02-06T21:29:34+00:00,SAT-63494,67.31222904424683,41.03750146109313,676.2520674036809,5.164199154920857,-180872.0989460949,10.5,10499819127.901054,47.655,-122.3035,60.0,6.45
2026-02-06T21:29:35+00:00,SAT-63494,67.21562322265886,40.60177726871446,681.4024220533267,5.19873598768901,-182081.72492029337,10.5,10499817918.27508,47.655,-122.3035,60.0,6.466666666666667
2026-02-06T21:29:36+00:00,SAT-63494,67.12178407908813,40.17206303324452,686.5872209472585,5.232490088685283,-183263.93631688852,10.5,10499816736.063683,47.655,-122.3035,60.0,6.483333333333333
2026-02-06T21:29:37+00:00,SAT-63494,67.03059848804922,39.74826703750657,691.8056834520995,5.265479825418069,-184419.37644371868,10.5,10499815580.623556,47.655,-122.3035,60.0,6.5
2026-02-06T21:29:38+00:00,SAT-63494,66.94195938297709,39.33029775503134,697.057047252742,5.297723284567871,-185548.67877284173,10.5,10499814451.321228,47.655,-122.3035,60.0,6.516666666666667
2026-02-06T21:29:39+00:00,SAT-63494,66.85576535723669,38.91806396065226,702.3405680722695,5.32923818053049,-186652.4637373304,10.5,10499813347.536263,47.655,-122.3035,60.0,6.533333333333333
2026-02-06T21:29:40+00:00,SAT-63494,66.7719202972163,38.511474838043206,707.6555193006731,5.360041967757992,-187731.3426659283,10.5,10499812268.657333,47.655,-122.3035,60.0,6.55
2026-02-06T21:29:41+00:00,SAT-63494,66.69033304200474,38.11044006893955,713.0011917356012,5.390151673533558,-188785.91192611775,10.5,10499811214.088074,47.655,-122.3035,60.0,6.566666666666666
2026-02-06T21:29:42+00:00,SAT-63494,66.61091707085558,37.714869926227856,718.3768931563387,5.4195840503068125,-189816.7582595474,10.5,10499810183.241741,47.655,-122.3035,60.0,6.583333333333333
2026-02-06T21:29:43+00:00,SAT-63494,66.53359021214055,37.32467534712691,723.7819480497095,5.448355494629327,-190824.45594281075,10.5,10499809175.544058,47.655,-122.3035,60.0,6.6
2026-02-06T21:29:44+00:00,SAT-63494,66.45827437464092,36.93976800492662,729.2156972551307,5.4764820539209484,-191809.56702443116,10.5,10499808190.432976,47.655,-122.3035,60.0,6.616666666666666
2026-02-06T21:29:45+00:00,SAT-63494,66.38489529853234,36.56006037303367,734.6774976164196,5.503979436584753,-192772.64167913096,10.5,10499807227.35832,47.655,-122.3035,60.0,6.633333333333334
2026-02-06T21:29:46+00:00,SAT-63494,66.31338232401579,36.18546578171919,740.166721643684,5.5308630153632174,-193714.21832537823,10.5,10499806285.781675,47.655,-122.3035,60.0,6.65
2026-02-06T21:29:47+00:00,SAT-63494,66.24366817655898,35.81589846859898,745.682757178562,5.557147799729799,-194634.82265842357,10.5,10499805365.177341,47.655,-122.3035,60.0,6.666666666666667
2026-02-06T21:29:48+00:00,SAT-63494,66.17568876752192,35.45127362535432,751.2250070319271,5.5828485078529955,-195534.97017078547,10.5,10499804465.029829,47.655,-122.3035,60.0,6.683333333333334
2026-02-06T21:29:49+00:00,SAT-63494,66.10938300795142,35.091507434524374,756.7928886933638,5.607979476121152,-196415.16298342668,10.5,10499803584.837017,47.655,-122.3035,60.0,6.7
2026-02-06T21:29:50+00:00,SAT-63494,66.0446926361703,34.73651710755142,762.3858339504105,5.632554722319766,-197275.89205849048,10.5,10499802724.10794,47.655,-122.3035,60.0,6.716666666666667
2026-02-06T21:29:51+00:00,SAT-63494,65.9815620564889,34.38622091423599,768.0032885708123,5.656587964212765,-198117.63785009572,10.5,10499801882.36215,47.655,-122.3035,60.0,6.733333333333333
2026-02-06T21:29:52+00:00,SAT-63494,65.9199381886762,34.0405382071484,773.6447120033021,5.680092551432422,-198940.86791883348,10.5,10499801059.132082,47.655,-122.3035,60.0,6.75
2026-02-06T21:29:53+00:00,SAT-63494,65.85977032809707,33.699389446593706,779.309577010457,5.703081542715037,-199746.03963688738,10.5,10499800253.960363,47.655,-122.3035,60.0,6.766666666666667
2026-02-06T21:29:54+00:00,SAT-63494,65.80101001449098,33.36269621741494,784.9973693785811,5.725567649859156,-200533.5982252133,10.5,10499799466.401775,47.655,-122.3035,60.0,6.783333333333333
2026-02-06T21:29:55+00:00,SAT-63494,65.7436109097004,33.03038124611218,790.7075875716993,5.747563323513455,-201303.97975819415,10.5,10499798696.020243,47.655,-122.3035,60.0,6.8
2026-02-06T21:29:56+00:00,SAT-63494,65.68752868278814,32.702368410125665,796.4397424711061,5.769080658189956,-202057.6078368007,10.5,10499797942.392162,47.655,-122.3035,60.0,6.816666666666666
2026-02-06T21:29:57+00:00,SAT-63494,65.63272090316686,32.378582750118426,802.1933570201845,5.790131467130517,-202794.89621073267,10.5,10499797205.103788,47.655,-122.3035,60.0,6.833333333333333
2026-02-06T21:29:58+00:00,SAT-63494,65.57914694000914,32.05895047555958,807.9679659438897,5.810727272180933,-203516.24842376722,10.5,10499796483.751575,47.655,-122.3035,60.0,6.85
2026-02-06T21:29:59+00:00,SAT-63494,65.52676786803883,31.74339896884401,813.7631154581344,5.830879310372253,-204222.05804426427,10.5,10499795777.941956,47.655,-122.3035,60.0,6.866666666666666
2026-02-06T21:30:00+00:00,SAT-63494,65.47554637919588,31.431856787179786,819.578362985737,5.850598508797195,-204912.70778523237,10.5,10499795087.292215,47.655,-122.3035,60.0,6.883333333333334
2026-02-06T21:30:01+00:00,SAT-63494,65.42544669988614,31.124253664086304,825.4132768473146,5.869895540017529,-205588.5714449296,10.5,10499794411.428555,47.655,-122.3035,60.0,6.9
2026-02-06T21:30:02+00:00,SAT-63494,65.3764345129348,30.82052050637217,831.267436007435,5.888780768623889,-206250.0120351621,10.5,10499793749.987965,47.655,-122.3035,60.0,6.916666666666667
2026-02-06T21:30:03+00:00,SAT-63494,65.32847688463859,30.52058939254266,837.1404297674699,5.907264356187715,-206897.3854571452,10.5,10499793102.614542,47.655,-122.3035,60.0,6.933333333333334
2026-02-06T21:30:04+00:00,SAT-63494,65.28154219550207,30.22439356458139,843.0318575631211,5.925356137879865,-207531.03618016493,10.5,10499792468.96382,47.655,-122.3035,60.0,6.95
