DopplerPredictor/satellites_20260211_204923/SAT-47397.csv

timestamp,satellite,azimuth_deg,elevation_deg,distance_km,relative_velocity_kms,doppler_shift_hz,tx_freq_ghz,rx_freq_hz,ue_lat,ue_lon,ue_alt_m,time_minutes
2026-02-06T21:31:48+00:00,SAT-47397,265.0107516513047,30.171309975619337,990.9362549160381,-4.227350021318889,148059.67941944802,10.5,10500148059.679419,47.655,-122.3035,60.0,8.683333333333334
2026-02-06T21:31:49+00:00,SAT-47397,264.6747304492832,30.35712310463426,986.7202378367517,-4.195521941966042,146944.92544786914,10.5,10500146944.925447,47.655,-122.3035,60.0,8.7
2026-02-06T21:31:50+00:00,SAT-47397,264.33450717672775,30.54327658180483,982.5359635101299,-4.163280791029853,145815.70396215055,10.5,10500145815.703962,47.655,-122.3035,60.0,8.716666666666667
2026-02-06T21:31:51+00:00,SAT-47397,263.99002759025046,30.7297416017132,978.3838439003682,-4.130622789858609,144671.8826179256,10.5,10500144671.882618,47.655,-122.3035,60.0,8.733333333333333
2026-02-06T21:31:52+00:00,SAT-47397,263.64123732304887,30.916488155939017,974.2642947401832,-4.097544149498347,143513.32870999924,10.5,10500143513.32871,47.655,-122.3035,60.0,8.75
2026-02-06T21:31:53+00:00,SAT-47397,263.28808193400806,31.103485002697855,970.1777355410884,-4.064041171309442,142339.91269636655,10.5,10500142339.912697,47.655,-122.3035,60.0,8.766666666666667
2026-02-06T21:31:54+00:00,SAT-47397,262.9305069524879,31.29069964100761,966.1245895033218,-4.0301102405175495,141151.50797233955,10.5,10500141151.507973,47.655,-122.3035,60.0,8.783333333333333
2026-02-06T21:31:55+00:00,SAT-47397,262.56845792667633,31.478098284736166,962.1052834322037,-3.9957477880686687,139947.98953455,10.5,10500139947.989534,47.655,-122.3035,60.0,8.8
2026-02-06T21:31:56+00:00,SAT-47397,262.20188047895886,31.665645835072063,958.1202476925414,-3.9609503342073267,138729.23550724192,10.5,10500138729.235508,47.655,-122.3035,60.0,8.816666666666666
2026-02-06T21:31:57+00:00,SAT-47397,261.8307203613226,31.853305855262597,954.1699161195689,-3.9257144744699257,137495.12665169922,10.5,10500137495.126652,47.655,-122.3035,60.0,8.833333333333334
2026-02-06T21:31:58+00:00,SAT-47397,261.45492351595055,32.04104054504363,950.2547259438566,-3.8900369222191697,136245.54785598136,10.5,10500136245.547855,47.655,-122.3035,60.0,8.85
2026-02-06T21:31:59+00:00,SAT-47397,261.0744361358693,32.22881071754402,946.3751176738008,-3.8539144643027856,134980.3865819041,10.5,10500134980.386581,47.655,-122.3035,60.0,8.866666666666667
2026-02-06T21:32:00+00:00,SAT-47397,260.68920473387374,32.41657577461633,942.5315350223365,-3.8173440040794078,133699.53437198803,10.5,10500133699.534372,47.655,-122.3035,60.0,8.883333333333333
2026-02-06T21:32:01+00:00,SAT-47397,260.299176211733,32.604293684856586,938.7244247907385,-3.7803225318096905,132402.88581243012,10.5,10500132402.885813,47.655,-122.3035,60.0,8.9
2026-02-06T21:32:02+00:00,SAT-47397,259.9042979367695,32.791920960913906,934.9542367819523,-3.74284718419985,131090.34061857028,10.5,10500131090.340618,47.655,-122.3035,60.0,8.916666666666666
2026-02-06T21:32:03+00:00,SAT-47397,259.50451781713144,32.97941264057745,931.2214236545402,-3.704915204785802,129761.80224737649,10.5,10500129761.802248,47.655,-122.3035,60.0,8.933333333333334
2026-02-06T21:32:04+00:00,SAT-47397,259.09978438564013,33.166722266894666,927.5264408161404,-3.6665239741087134,128417.1789543201,10.5,10500128417.178955,47.655,-122.3035,60.0,8.95
2026-02-06T21:32:05+00:00,SAT-47397,258.69004688543424,33.35380187086984,923.8697462868254,-3.6276709960992846,127056.38331649585,10.5,10500127056.383316,47.655,-122.3035,60.0,8.966666666666667
2026-02-06T21:32:06+00:00,SAT-47397,258.275255361897,33.540601954692434,920.2518005760483,-3.58835393653512,125679.33357956176,10.5,10500125679.33358,47.655,-122.3035,60.0,8.983333333333333
2026-02-06T21:32:07+00:00,SAT-47397,257.8553607556615,33.727071478277374,916.6730665212241,-3.548570615130925,124285.95338070416,10.5,10500124285.95338,47.655,-122.3035,60.0,9.0
2026-02-06T21:32:08+00:00,SAT-47397,257.43031500131156,33.913157846922516,913.1340091342097,-3.508318988971811,122876.17116840216,10.5,10500122876.17117,47.655,-122.3035,60.0,9.016666666666667
2026-02-06T21:32:09+00:00,SAT-47397,257.0000711332981,34.098806899724025,909.6350954642992,-3.467597190919969,121449.9215475917,10.5,10500121449.921547,47.655,-122.3035,60.0,9.033333333333333
2026-02-06T21:32:10+00:00,SAT-47397,256.56458339280175,34.28396290176895,906.1767944229194,-3.4264035383334415,120007.14558503381,10.5,10500120007.145584,47.655,-122.3035,60.0,9.05
2026-02-06T21:32:11+00:00,SAT-47397,256.12380733886016,34.46856853876484,902.7595765996286,-3.3847365318942813,118547.79076827194,10.5,10500118547.790768,47.655,-122.3035,60.0,9.066666666666666
2026-02-06T21:32:12+00:00,SAT-47397,255.67769996470912,34.65256491372869,899.3839140792829,-3.342594829668014,117071.8100970844,10.5,10500117071.810097,47.655,-122.3035,60.0,9.083333333333334
2026-02-06T21:32:13+00:00,SAT-47397,255.22621982303835,34.83589154451578,896.0502802850751,-3.2999773404125206,115579.16535155619,10.5,10500115579.165352,47.655,-122.3035,60.0,9.1
2026-02-06T21:32:14+00:00,SAT-47397,254.7693271447334,35.01848636886881,892.7591497285154,-3.256883127663887,114069.82373275986,10.5,10500114069.823732,47.655,-122.3035,60.0,9.116666666666667
2026-02-06T21:32:15+00:00,SAT-47397,254.30698397519313,35.20028574684856,889.5109978550669,-3.213311499747588,112543.76101532772,10.5,10500112543.761015,47.655,-122.3035,60.0,9.133333333333333
2026-02-06T21:32:16+00:00,SAT-47397,253.8391543042872,35.381224470981614,886.3063008000131,-3.1692619553182886,111000.95964002547,10.5,10500111000.95964,47.655,-122.3035,60.0,9.15
2026-02-06T21:32:17+00:00,SAT-47397,253.36580420896993,35.56123577635351,883.1455351986386,-3.1247342653055847,109441.41158383858,10.5,10500109441.411583,47.655,-122.3035,60.0,9.166666666666666
2026-02-06T21:32:18+00:00,SAT-47397,252.88690198935882,35.740251358455566,880.0291779146851,-3.0797283985423918,107865.1157551639,10.5,10500107865.115755,47.655,-122.3035,60.0,9.183333333333334
2026-02-06T21:32:19+00:00,SAT-47397,252.40241832050518,35.91820139015628,876.9577058429765,-3.0342445844741794,106272.08019015237,10.5,10500106272.08019,47.655,-122.3035,60.0,9.2
2026-02-06T21:32:20+00:00,SAT-47397,251.9123263999968,36.095014545723224,873.9315956495077,-2.988283306300549,104662.32181249792,10.5,10500104662.321812,47.655,-122.3035,60.0,9.216666666666667
2026-02-06T21:32:21+00:00,SAT-47397,251.41660210099303,36.27061802815371,870.9513235183682,-2.9418452854891406,103035.86589104912,10.5,10500103035.86589,47.655,-122.3035,60.0,9.233333333333333
2026-02-06T21:32:22+00:00,SAT-47397,250.9152241322922,36.44493759943792,868.0173649141148,-2.8949315472065127,101392.74833147532,10.5,10500101392.748331,47.655,-122.3035,60.0,9.25
2026-02-06T21:32:23+00:00,SAT-47397,250.40817419209026,36.61789761869914,865.1301942788857,-2.8475433483645176,99733.01315614629,10.5,10500099733.013157,47.655,-122.3035,60.0,9.266666666666667
2026-02-06T21:32:24+00:00,SAT-47397,249.89543713709108,36.78942108027902,862.2902848012772,-2.799682265769239,98056.71559148098,10.5,10500098056.715591,47.655,-122.3035,60.0,9.283333333333333
2026-02-06T21:32:25+00:00,SAT-47397,249.37700114063873,36.95942966141701,859.4981080973062,-2.751350133634991,96363.91987942341,10.5,10500096363.91988,47.655,-122.3035,60.0,9.3
2026-02-06T21:32:26+00:00,SAT-47397,248.85285786434014,37.12784377071095,856.7541339536932,-2.7025491085907087,94654.70155424137,10.5,10500094654.701553,47.655,-122.3035,60.0,9.316666666666666
2026-02-06T21:32:27+00:00,SAT-47397,248.3230026210523,37.29458260515377,854.0588300063109,-2.6532816112246382,92929.14539517436,10.5,10500092929.145395,47.655,-122.3035,60.0,9.333333333333334
2026-02-06T21:32:28+00:00,SAT-47397,247.78743455042343,37.459564208395584,851.412661476933,-2.6035504092777515,91187.34834021873,10.5,10500091187.348341,47.655,-122.3035,60.0,9.35
2026-02-06T21:32:29+00:00,SAT-47397,247.24615678086516,37.622705539033994,848.8160908270127,-2.5533585593740638,89429.41744527698,10.5,10500089429.417446,47.655,-122.3035,60.0,9.366666666666667
2026-02-06T21:32:30+00:00,SAT-47397,246.69917660309576,37.78392254034518,846.2695774695727,-2.5027094557021146,87655.47158918923,10.5,10500087655.47159,47.655,-122.3035,60.0,9.383333333333333
2026-02-06T21:32:31+00:00,SAT-47397,246.14650563466034,37.9431302181729,843.7735774325474,-2.451606786036428,85865.63993341851,10.5,10500085865.639933,47.655,-122.3035,60.0,9.4
2026-02-06T21:32:32+00:00,SAT-47397,245.58815999321234,38.100242721229236,841.3285430659824,-2.400054602520958,84060.0644011867,10.5,10500084060.064402,47.655,-122.3035,60.0,9.416666666666666
2026-02-06T21:32:33+00:00,SAT-47397,245.02416045371479,38.25517343115398,838.934922678643,-2.348057274630941,82238.8980299994,10.5,10500082238.89803,47.655,-122.3035,60.0,9.433333333333334
2026-02-06T21:32:34+00:00,SAT-47397,244.45453261375923,38.407835054897525,836.5931602215338,-2.2956195064508393,80402.30557679277,10.5,10500080402.305576,47.655,-122.3035,60.0,9.45
2026-02-06T21:32:35+00:00,SAT-47397,243.87930705221873,38.558139723504034,834.3036949541842,-2.242746350084739,78550.46398762225,10.5,10500078550.463987,47.655,-122.3035,60.0,9.466666666666667
2026-02-06T21:32:36+00:00,SAT-47397,243.2985194816812,38.70599909707876,832.0669610975651,-2.189443207719845,76683.56246993503,10.5,10500076683.56247,47.655,-122.3035,60.0,9.483333333333333
2026-02-06T21:32:37+00:00,SAT-47397,242.71221089513506,38.85132447519189,829.8833874849419,-2.135715819299237,74801.80206081764,10.5,10500074801.802061,47.655,-122.3035,60.0,9.5
2026-02-06T21:32:38+00:00,SAT-47397,242.12042771027575,38.99402691168115,827.7533972250253,-2.0815702758123154,72905.39609248379,10.5,10500072905.396093,47.655,-122.3035,60.0,9.516666666666667
2026-02-06T21:32:39+00:00,SAT-47397,241.523221904195,39.13401733545742,825.6774073518656,-2.0270130275372424,70994.57048095936,10.5,10500070994.57048,47.655,-122.3035,60.0,9.533333333333333
2026-02-06T21:32:40+00:00,SAT-47397,240.92065113792844,39.27120667689023,823.6558284665277,-1.9720508790222724,69069.56355030739,10.5,10500069069.56355,47.655,-122.3035,60.0,9.55
2026-02-06T21:32:41+00:00,SAT-47397,240.31277887335358,39.40550599873288,821.6890643837689,-1.9166909724625139,67130.62545041207,10.5,10500067130.62545,47.655,-122.3035,60.0,9.566666666666666
2026-02-06T21:32:42+00:00,SAT-47397,239.69967448520634,39.536826630598085,819.7775117953,-1.8609408218650072,65178.01935358418,10.5,10500065178.019354,47.655,-122.3035,60.0,9.583333333333334
2026-02-06T21:32:43+00:00,SAT-47397,239.0814133522837,39.665080310225264,817.9215598989687,-1.8048082856899832,63212.02049634225,10.5,10500063212.020496,47.655,-122.3035,60.0,9.6
2026-02-06T21:32:44+00:00,SAT-47397,238.45807694390234,39.79017932711985,816.1215900552291,-1.7483015721111914,61232.91636365152,10.5,10500061232.916363,47.655,-122.3035,60.0,9.616666666666667
2026-02-06T21:32:45+00:00,SAT-47397,237.82975289221588,39.912036670486,814.3779754383672,-1.6914292408809404,59241.00675424555,10.5,10500059241.006754,47.655,-122.3035,60.0,9.633333333333333
2026-02-06T21:32:46+00:00,SAT-47397,237.19653504873014,40.030566180910604,812.6910806858638,-1.6342002045172965,57236.60382220694,10.5,10500057236.603823,47.655,-122.3035,60.0,9.65
2026-02-06T21:32:47+00:00,SAT-47397,236.5585235250918,40.145682705416064,811.0612615465751,-1.5766237086727013,55220.03138939327,10.5,10500055220.03139,47.655,-122.3035,60.0,9.666666666666666
2026-02-06T21:32:48+00:00,SAT-47397,235.91582472322096,40.25730225403082,809.4888645484913,-1.51870934521796,53191.62540369372,10.5,10500053191.625404,47.655,-122.3035,60.0,9.683333333333334
2026-02-06T21:32:49+00:00,SAT-47397,235.26855134330884,40.36534215973998,807.9742266534457,-1.4604670403214401,51151.73352151215,10.5,10500051151.733522,47.655,-122.3035,60.0,9.7
2026-02-06T21:32:50+00:00,SAT-47397,234.61682237660443,40.46972123962933,806.517674923715,-1.4019070428593725,49100.714701846875,10.5,10500049100.714703,47.655,-122.3035,60.0,9.716666666666667
2026-02-06T21:32:51+00:00,SAT-47397,233.9607630828372,40.570359956741044,805.1195262001742,-1.3430399380341087,47038.93968325961,10.5,10500047038.939684,47.655,-122.3035,60.0,9.733333333333333
2026-02-06T21:32:52+00:00,SAT-47397,233.30050494049325,40.66718058393824,803.7800867668744,-1.2838766152604761,44966.7898591198,10.5,10500044966.78986,47.655,-122.3035,60.0,9.75
2026-02-06T21:32:53+00:00,SAT-47397,232.63618558825803,40.760107365970974,802.4996520476446,-1.2244282744116728,42884.65749636225,10.5,10500042884.657495,47.655,-122.3035,60.0,9.766666666666667
2026-02-06T21:32:54+00:00,SAT-47397,231.9679487410785,40.84906668192028,801.2785062964655,-1.1647064214710643,40792.94558319467,10.5,10500040792.945583,47.655,-122.3035,60.0,9.783333333333333
2026-02-06T21:32:55+00:00,SAT-47397,231.2959440836268,40.9339872066914,800.116922292181,-1.104722850242245,38692.0671885067,10.5,10500038692.067188,47.655,-122.3035,60.0,9.8
2026-02-06T21:32:56+00:00,SAT-47397,230.6203271476742,41.0148000699484,799.0151610514483,-1.044489633284049,36582.44514437556,10.5,10500036582.445145,47.655,-122.3035,60.0,9.816666666666666
2026-02-06T21:32:57+00:00,SAT-47397,229.94125916837325,41.09143901252763,797.9734715507316,-0.9840191180244474,34464.51190995838,10.5,10500034464.51191,47.655,-122.3035,60.0,9.833333333333334
2026-02-06T21:32:58+00:00,SAT-47397,229.25890691718183,41.163840540098775,796.9920904521679,-0.9233239125012991,32338.70907207292,10.5,10500032338.709072,47.655,-122.3035,60.0,9.85
2026-02-06T21:32:59+00:00,SAT-47397,228.57344251437286,41.231944072683824,796.0712418436575,-0.8624168722540926,30205.486886090952,10.5,10500030205.486887,47.655,-122.3035,60.0,9.866666666666667
2026-02-06T21:33:00+00:00,SAT-47397,227.88504322306235,41.2956920894837,795.2111369920241,-0.801311086672274,28065.303797798933,10.5,10500028065.303799,47.655,-122.3035,60.0,9.883333333333333
2026-02-06T21:33:01+00:00,SAT-47397,227.19389122338742,41.35503026833685,794.4119741097943,-0.7400198715733315,25918.626183451153,10.5,10500025918.626183,47.655,-122.3035,60.0,9.9
2026-02-06T21:33:02+00:00,SAT-47397,226.50017336390025,41.409907619664544,793.6739381293736,-0.6785567502878731,23765.927687289146,10.5,10500023765.927687,47.655,-122.3035,60.0,9.916666666666666
2026-02-06T21:33:03+00:00,SAT-47397,225.80408089704883,41.46027661343186,792.9972004960927,-0.616935446320425,21607.68896449177,10.5,10500021607.688965,47.655,-122.3035,60.0,9.933333333333334
2026-02-06T21:33:04+00:00,SAT-47397,225.10580919192776,41.50609329940546,792.3819189685664,-0.5551698568176902,19444.39675192145,10.5,10500019444.396751,47.655,-122.3035,60.0,9.95
2026-02-06T21:33:05+00:00,SAT-47397,224.40555743895814,41.54731741870456,791.8282374455217,-0.49327405261301926,17276.54386968168,10.5,10500017276.543869,47.655,-122.3035,60.0,9.966666666666667
2026-02-06T21:33:06+00:00,SAT-47397,223.7035283254475,41.58391250809206,791.3362857925719,-0.4312622499184414,15104.628229652244,10.5,10500015104.62823,47.655,-122.3035,60.0,9.983333333333333
