DopplerPredictor/satellites_20260211_204923/SAT-61517.csv

timestamp,satellite,azimuth_deg,elevation_deg,distance_km,relative_velocity_kms,doppler_shift_hz,tx_freq_ghz,rx_freq_hz,ue_lat,ue_lon,ue_alt_m,time_minutes
2026-02-06T21:29:32+00:00,SAT-61517,230.609973515376,30.168432422265774,867.5537507029491,-5.844743687062394,204707.64716220828,10.5,10500204707.647161,47.655,-122.3035,60.0,6.416666666666667
2026-02-06T21:29:33+00:00,SAT-61517,230.53102931029127,30.455613016820703,861.7246759671373,-5.826152142768262,204056.49263887334,10.5,10500204056.49264,47.655,-122.3035,60.0,6.433333333333334
2026-02-06T21:29:34+00:00,SAT-61517,230.4504787789794,30.746224163966254,855.9141429342546,-5.807172798577055,203391.75572275097,10.5,10500203391.755722,47.655,-122.3035,60.0,6.45
2026-02-06T21:29:35+00:00,SAT-61517,230.3682742957142,31.040322630693915,850.1225383645606,-5.787796386465389,202713.11180845843,10.5,10500202713.111809,47.655,-122.3035,60.0,6.466666666666667
2026-02-06T21:29:36+00:00,SAT-61517,230.28436634876627,31.337966014985064,844.3502582614915,-5.768013309642764,202020.22477579812,10.5,10500202020.224775,47.655,-122.3035,60.0,6.483333333333333
2026-02-06T21:29:37+00:00,SAT-61517,230.19870344860072,31.63921273469698,838.5977081995462,-5.747813843502677,201312.75402791527,10.5,10500201312.754028,47.655,-122.3035,60.0,6.5
2026-02-06T21:29:38+00:00,SAT-61517,230.11123202702436,31.944122025114538,832.8653034517596,-5.727187926290338,200590.3471595958,10.5,10500200590.34716,47.655,-122.3035,60.0,6.516666666666667
2026-02-06T21:29:39+00:00,SAT-61517,230.02189633394525,32.25275392391835,827.1534693259478,-5.706125339683811,199852.64628198225,10.5,10500199852.646282,47.655,-122.3035,60.0,6.533333333333333
2026-02-06T21:29:40+00:00,SAT-61517,229.9306383244802,32.565169263701875,821.4626413208543,-5.684615530520192,199099.28177866974,10.5,10500199099.281778,47.655,-122.3035,60.0,6.55
2026-02-06T21:29:41+00:00,SAT-61517,229.83739754240847,32.8814296528497,815.7932654600946,-5.662647761053059,198329.877568358,10.5,10500198329.87757,47.655,-122.3035,60.0,6.566666666666666
2026-02-06T21:29:42+00:00,SAT-61517,229.7421109935037,33.20159746222896,810.1457984762435,-5.640211009688768,197544.0476282164,10.5,10500197544.047628,47.655,-122.3035,60.0,6.583333333333333
2026-02-06T21:29:43+00:00,SAT-61517,229.64471301270373,33.52573580399565,804.5207080939227,-5.617293994128503,196741.3968044162,10.5,10500196741.396805,47.655,-122.3035,60.0,6.6
2026-02-06T21:29:44+00:00,SAT-61517,229.54513512258472,33.85390850889777,798.9184732898059,-5.593885199329243,195921.5217914423,10.5,10500195921.521791,47.655,-122.3035,60.0,6.616666666666666
2026-02-06T21:29:45+00:00,SAT-61517,229.443305881881,34.18618010228869,793.3395845247398,-5.5699727669951935,195084.0072616154,10.5,10500195084.007261,47.655,-122.3035,60.0,6.633333333333334
2026-02-06T21:29:46+00:00,SAT-61517,229.33915072686824,34.522615770384206,787.7845440860767,-5.545544693368663,194228.43279256535,10.5,10500194228.432793,47.655,-122.3035,60.0,6.65
2026-02-06T21:29:47+00:00,SAT-61517,229.23259179781851,34.8632813348141,782.253866232746,-5.520588561706221,193354.36349741434,10.5,10500193354.363497,47.655,-122.3035,60.0,6.666666666666667
2026-02-06T21:29:48+00:00,SAT-61517,229.1235477600857,35.20824320732102,776.7480776071325,-5.495091812273883,192461.3594811507,10.5,10500192461.359482,47.655,-122.3035,60.0,6.683333333333334
2026-02-06T21:29:49+00:00,SAT-61517,229.01193360712645,35.55756835677479,771.2677173776844,-5.469041497568268,191548.9672674381,10.5,10500191548.967268,47.655,-122.3035,60.0,6.7
2026-02-06T21:29:50+00:00,SAT-61517,228.89766045596522,35.911324256651966,765.8133376256436,-5.442424485408082,190616.72691173857,10.5,10500190616.726912,47.655,-122.3035,60.0,6.716666666666667
2026-02-06T21:29:51+00:00,SAT-61517,228.78063532394918,36.2695788404709,760.3855035292263,-5.4152272907291215,189664.16611006198,10.5,10500189664.166111,47.655,-122.3035,60.0,6.733333333333333
2026-02-06T21:29:52+00:00,SAT-61517,228.66076089436325,36.63240044132437,754.9847937155622,-5.387436190744596,188690.80423236752,10.5,10500188690.804232,47.655,-122.3035,60.0,6.75
2026-02-06T21:29:53+00:00,SAT-61517,228.53793526296127,36.99985773323786,749.6118004977787,-5.359037206476161,187696.15167570257,10.5,10500187696.151676,47.655,-122.3035,60.0,6.766666666666667
2026-02-06T21:29:54+00:00,SAT-61517,228.41205166710515,37.37201966549988,744.2671301305061,-5.330015992583055,186679.70600555293,10.5,10500186679.706005,47.655,-122.3035,60.0,6.783333333333333
2026-02-06T21:29:55+00:00,SAT-61517,228.28299819909026,37.74895538283082,738.9514031752573,-5.300358022749106,185640.95844888003,10.5,10500185640.958448,47.655,-122.3035,60.0,6.8
2026-02-06T21:29:56+00:00,SAT-61517,228.15065749364416,38.130734151338025,733.6652546809177,-5.270048430728364,184579.38832686652,10.5,10500184579.388327,47.655,-122.3035,60.0,6.816666666666666
2026-02-06T21:29:57+00:00,SAT-61517,228.0149063976906,38.517425265924025,728.4093345227652,-5.239072118141945,183494.4668304178,10.5,10500183494.466831,47.655,-122.3035,60.0,6.833333333333333
2026-02-06T21:29:58+00:00,SAT-61517,227.87561561286236,38.909097957189275,723.1843076339802,-5.207413685588072,182385.65460734424,10.5,10500182385.654608,47.655,-122.3035,60.0,6.85
2026-02-06T21:29:59+00:00,SAT-61517,227.73264931395036,39.305821284641574,717.9908543058601,-5.175057482675809,181252.4035147542,10.5,10500181252.403515,47.655,-122.3035,60.0,6.866666666666666
2026-02-06T21:30:00+00:00,SAT-61517,227.58586473748207,39.70766402415113,712.8296704381376,-5.141987612180264,180094.1567645867,10.5,10500180094.156765,47.655,-122.3035,60.0,6.883333333333334
2026-02-06T21:30:01+00:00,SAT-61517,227.43511173941172,40.11469454575065,707.7014677851512,-5.108187897769111,178910.34779325788,10.5,10500178910.347794,47.655,-122.3035,60.0,6.9
2026-02-06T21:30:02+00:00,SAT-61517,227.28023232041951,40.52698067805478,702.606974234206,-5.073641935717248,177700.40207292707,10.5,10500177700.402073,47.655,-122.3035,60.0,6.916666666666667
2026-02-06T21:30:03+00:00,SAT-61517,227.12106011315933,40.94458956504934,697.5469340323559,-5.038333081566294,176463.7366442557,10.5,10500176463.736645,47.655,-122.3035,60.0,6.933333333333334
2026-02-06T21:30:04+00:00,SAT-61517,226.95741983040185,41.36758750937159,692.5221080264913,-5.002244465240176,175199.76064581936,10.5,10500175199.760645,47.655,-122.3035,60.0,6.95
2026-02-06T21:30:05+00:00,SAT-61517,226.78912666952039,41.79603980337277,687.5332738883527,-4.9653590101270115,173907.87598243591,10.5,10500173907.875982,47.655,-122.3035,60.0,6.966666666666667
2026-02-06T21:30:06+00:00,SAT-61517,226.61598566939597,42.230010547389504,682.5812263205123,-4.927659406402776,172587.47639084753,10.5,10500172587.47639,47.655,-122.3035,60.0,6.983333333333333
2026-02-06T21:30:07+00:00,SAT-61517,226.4377910168876,42.66956245014797,677.6667772889614,-4.889128211481193,171237.95095790076,10.5,10500171237.950958,47.655,-122.3035,60.0,7.0
2026-02-06T21:30:08+00:00,SAT-61517,226.2543252936295,43.11475662135651,672.7907561555154,-4.84974776447438,169858.68112459648,10.5,10500169858.681124,47.655,-122.3035,60.0,7.016666666666667
2026-02-06T21:30:09+00:00,SAT-61517,226.0653586646734,43.56565233893308,667.9540098955323,-4.80950029411077,168449.04446583203,10.5,10500168449.044466,47.655,-122.3035,60.0,7.033333333333333
2026-02-06T21:30:10+00:00,SAT-61517,225.87064799590158,44.02230680677575,663.1574032079992,-4.768367854019427,167008.41242378415,10.5,10500167008.412424,47.655,-122.3035,60.0,7.05
2026-02-06T21:30:11+00:00,SAT-61517,225.66993590066673,44.48477488599928,658.4018186901615,-4.726332430372008,165536.15407798576,10.5,10500165536.154078,47.655,-122.3035,60.0,7.066666666666666
2026-02-06T21:30:12+00:00,SAT-61517,225.462949701204,44.95310881419098,653.6881569048015,-4.683375905820629,164031.6348822778,10.5,10500164031.634882,47.655,-122.3035,60.0,7.083333333333333
2026-02-06T21:30:13+00:00,SAT-61517,225.2494003031404,45.42735789763241,649.0173364834785,-4.639480110302947,162494.21844421764,10.5,10500162494.218445,47.655,-122.3035,60.0,7.1
2026-02-06T21:30:14+00:00,SAT-61517,225.02898097063283,45.907568182921075,644.3902941791029,-4.594626850227695,160923.26754728035,10.5,10500160923.267548,47.655,-122.3035,60.0,7.116666666666666
2026-02-06T21:30:15+00:00,SAT-61517,224.80136599318845,46.393782104198046,639.8079848894023,-4.548797921587772,159318.14461013427,10.5,10500159318.14461,47.655,-122.3035,60.0,7.133333333333334
2026-02-06T21:30:16+00:00,SAT-61517,224.56620923418237,46.886038102182816,635.2713816673082,-4.501975185235969,157678.21432311574,10.5,10500157678.214323,47.655,-122.3035,60.0,7.15
2026-02-06T21:30:17+00:00,SAT-61517,224.3231425459734,47.38437021947304,630.7814756562713,-4.454140555623459,156002.84325380297,10.5,10500156002.843254,47.655,-122.3035,60.0,7.166666666666667
2026-02-06T21:30:18+00:00,SAT-61517,224.0717740423862,47.888807660524556,626.339276036806,-4.405276058404858,154291.40186458928,10.5,10500154291.401865,47.655,-122.3035,60.0,7.183333333333334
2026-02-06T21:30:19+00:00,SAT-61517,223.81168621064393,48.39937432092924,621.9458099155858,-4.355363911970519,152543.26736828868,10.5,10500152543.267368,47.655,-122.3035,60.0,7.2
2026-02-06T21:30:20+00:00,SAT-61517,223.54243384340134,48.91608828632262,617.6021221332232,-4.304386500407977,150757.82278113134,10.5,10500150757.82278,47.655,-122.3035,60.0,7.216666666666667
2026-02-06T21:30:21+00:00,SAT-61517,223.26354178002936,49.438961285250684,613.3092750990173,-4.252326479636144,148934.46064003222,10.5,10500148934.46064,47.655,-122.3035,60.0,7.233333333333333
2026-02-06T21:30:22+00:00,SAT-61517,222.9745024272544,49.967998107879296,609.0683485198521,-4.199166808592984,147072.58409491516,10.5,10500147072.584095,47.655,-122.3035,60.0,7.25
2026-02-06T21:30:23+00:00,SAT-61517,222.67477304126015,50.50319597829302,604.880439097988,-4.144890788690511,145171.60829059407,10.5,10500145171.60829,47.655,-122.3035,60.0,7.266666666666667
2026-02-06T21:30:24+00:00,SAT-61517,222.36377274440295,51.04454387687367,600.746660189507,-4.089482179383595,143230.96441448087,10.5,10500143230.964415,47.655,-122.3035,60.0,7.283333333333333
2026-02-06T21:30:25+00:00,SAT-61517,222.04087924214457,51.59202181809218,596.6681413474979,-4.03292515613484,141250.09822433832,10.5,10500141250.098225,47.655,-122.3035,60.0,7.3
2026-02-06T21:30:26+00:00,SAT-61517,221.7054252200188,52.14560005801755,592.646027907163,-3.975204502113307,139228.4767623798,10.5,10500139228.476763,47.655,-122.3035,60.0,7.316666666666666
2026-02-06T21:30:27+00:00,SAT-61517,221.35669436535215,52.705238256627844,588.6814803797416,-3.9163055524713943,137165.58640361007,10.5,10500137165.586403,47.655,-122.3035,60.0,7.333333333333333
2026-02-06T21:30:28+00:00,SAT-61517,220.9939169943136,53.27088455543058,584.7756739020064,-3.8562143728049314,135060.93910625257,10.5,10500135060.939106,47.655,-122.3035,60.0,7.35
2026-02-06T21:30:29+00:00,SAT-61517,220.61626521818465,53.84247459517296,580.9297975077772,-3.794917748837599,132914.07205045427,10.5,10500132914.07205,47.655,-122.3035,60.0,7.366666666666666
2026-02-06T21:30:30+00:00,SAT-61517,220.22284761598334,54.41993043922969,577.1450534097255,-3.73240329682353,130724.55150505174,10.5,10500130724.551504,47.655,-122.3035,60.0,7.383333333333334
2026-02-06T21:30:31+00:00,SAT-61517,219.81270334613987,55.003159410248166,573.4226561710692,-3.6686595732588185,128491.97667013222,10.5,10500128491.97667,47.655,-122.3035,60.0,7.4
2026-02-06T21:30:32+00:00,SAT-61517,219.38479563341926,55.59205283038948,569.7638317678511,-3.603676080990061,126215.97989098058,10.5,10500126215.97989,47.655,-122.3035,60.0,7.416666666666667
2026-02-06T21:30:33+00:00,SAT-61517,218.93800457447264,56.18648463689114,566.169816645127,-3.5374434338048224,123896.23242273371,10.5,10500123896.232422,47.655,-122.3035,60.0,7.433333333333334
2026-02-06T21:30:34+00:00,SAT-61517,218.4711191665489,56.786309884252454,562.6418566090011,-3.4699533754239393,121532.44509557128,10.5,10500121532.445095,47.655,-122.3035,60.0,7.45
2026-02-06T21:30:35+00:00,SAT-61517,217.98282849269842,57.39136309437735,559.181205699723,-3.4011989370119085,119124.37383139585,10.5,10500119124.37383,47.655,-122.3035,60.0,7.466666666666667
2026-02-06T21:30:36+00:00,SAT-61517,217.47171195308272,58.001456459891365,555.789124907696,-3.3311744225811997,116671.81913263006,10.5,10500116671.819132,47.655,-122.3035,60.0,7.483333333333333
2026-02-06T21:30:37+00:00,SAT-61517,216.93622846680339,58.61637785055829,552.4668809040395,-3.2598756277830248,114174.63374519502,10.5,10500114174.633745,47.655,-122.3035,60.0,7.5
2026-02-06T21:30:38+00:00,SAT-61517,216.3747045007131,59.235888640654004,549.2157445529518,-3.187299832134752,111632.72238628131,10.5,10500111632.722385,47.655,-122.3035,60.0,7.516666666666667
2026-02-06T21:30:39+00:00,SAT-61517,215.78532084540086,59.85972129050929,546.0369894318196,-3.113445913626385,109046.04575835275,10.5,10500109046.04576,47.655,-122.3035,60.0,7.533333333333333
2026-02-06T21:30:40+00:00,SAT-61517,215.1660980006743,60.48757667281158,542.9318902370321,-3.0383144602752465,106414.6244562633,10.5,10500106414.624456,47.655,-122.3035,60.0,7.55
2026-02-06T21:30:41+00:00,SAT-61517,214.51488004693348,61.11912110888073,539.9017210785375,-2.9619078464635122,103738.54164092039,10.5,10500103738.541641,47.655,-122.3035,60.0,7.566666666666666
2026-02-06T21:30:42+00:00,SAT-61517,213.8293168900098,61.75398306811585,536.9477536982672,-2.8842303128336586,101017.94583756145,10.5,10500101017.945837,47.655,-122.3035,60.0,7.583333333333333
2026-02-06T21:30:43+00:00,SAT-61517,213.10684476895625,62.39174948525536,534.0712556088783,-2.805288051064986,98253.05390498634,10.5,10500098253.053905,47.655,-122.3035,60.0,7.6
2026-02-06T21:30:44+00:00,SAT-61517,212.34466493642068,63.03196164443281,531.2734881479487,-2.7250892955618644,95444.15424686759,10.5,10500095444.154247,47.655,-122.3035,60.0,7.616666666666666
2026-02-06T21:30:45+00:00,SAT-61517,211.53972045270535,63.674110573239886,528.5557044407259,-2.6436444041254243,92591.60963721428,10.5,10500092591.609636,47.655,-122.3035,60.0,7.633333333333334
2026-02-06T21:30:46+00:00,SAT-61517,210.68867109474223,64.31763187929752,525.919147282425,-2.5609659000114786,89695.85869341824,10.5,10500089695.858694,47.655,-122.3035,60.0,7.65
2026-02-06T21:30:47+00:00,SAT-61517,209.78786647619603,64.96189994744412,523.3650469785781,-2.4770685821849203,86757.41973782962,10.5,10500086757.419739,47.655,-122.3035,60.0,7.666666666666667
2026-02-06T21:30:48+00:00,SAT-61517,208.83331756427788,65.606221435106,520.8946190754265,-2.3919695652433135,83776.89219604981,10.5,10500083776.892197,47.655,-122.3035,60.0,7.683333333333334
2026-02-06T21:30:49+00:00,SAT-61517,207.82066700104744,66.24982796551734,518.5090620504959,-2.30568831481986,80754.95783689304,10.5,10500080754.957836,47.655,-122.3035,60.0,7.7
2026-02-06T21:30:50+00:00,SAT-61517,206.74515887541037,66.89186792994848,516.2095549678631,-2.2182467455355814,77692.38420308627,10.5,10500077692.384203,47.655,-122.3035,60.0,7.716666666666667
2026-02-06T21:30:51+00:00,SAT-61517,205.601608907112,67.53139733163414,513.9972550357343,-2.129669192749099,74590.02362182688,10.5,10500074590.023623,47.655,-122.3035,60.0,7.733333333333333
2026-02-06T21:30:52+00:00,SAT-61517,204.38437657276728,68.1673695610397,511.8732951921967,-2.0399824988359594,71448.81622664962,10.5,10500071448.816227,47.655,-122.3035,60.0,7.75
2026-02-06T21:30:53+00:00,SAT-61517,203.0873412375213,68.7986240778149,509.8387816049223,-1.94921601048338,68269.78986267722,10.5,10500068269.789864,47.655,-122.3035,60.0,7.766666666666667
2026-02-06T21:30:54+00:00,SAT-61517,201.70388530646332,69.42387395428305,507.89479117357126,-1.8574015651951723,65054.0596139657,10.5,10500065054.059614,47.655,-122.3035,60.0,7.783333333333333
2026-02-06T21:30:55+00:00,SAT-61517,200.2268884954139,70.04169231346332,506.04236904565096,-1.764573521384452,61802.828857478285,10.5,10500061802.828857,47.655,-122.3035,60.0,7.8
2026-02-06T21:30:56+00:00,SAT-61517,198.64873867645147,70.65049780430098,504.28252610236643,-1.6707687149170993,58517.38774105366,10.5,10500058517.387741,47.655,-122.3035,60.0,7.816666666666666
2026-02-06T21:30:57+00:00,SAT-61517,196.9613665656889,71.24853935455157,502.6162364878077,-1.5760264649957374,55199.11338948774,10.5,10500055199.11339,47.655,-122.3035,60.0,7.833333333333333
2026-02-06T21:30:58+00:00,SAT-61517,195.1563134472981,71.83388067541813,501.04443513227307,-1.4803884772143965,51849.46650909798,10.5,10500051849.466509,47.655,-122.3035,60.0,7.85
2026-02-06T21:30:59+00:00,SAT-61517,193.224843518358,72.40438520644234,499.5680153722725,-1.3838988515750479,48469.99166849622,10.5,10500048469.991669,47.655,-122.3035,60.0,7.866666666666666
2026-02-06T21:31:00+00:00,SAT-61517,191.15811443864882,72.95770262016045,498.18782656254047,-1.286603965652768,45062.31320653859,10.5,10500045062.313206,47.655,-122.3035,60.0,7.883333333333334
2026-02-06T21:31:01+00:00,SAT-61517,188.94742170551112,73.49125837774893,496.90467180456835,-1.1885524267736578,41628.133557393914,10.5,10500041628.133558,47.655,-122.3035,60.0,7.9
2026-02-06T21:31:02+00:00,SAT-61517,186.5845328497529,74.0022484487389,495.71930572283065,-1.0897949483649088,38169.22891980005,10.5,10500038169.22892,47.655,-122.3035,60.0,7.916666666666667
2026-02-06T21:31:03+00:00,SAT-61517,184.0621260039208,74.48764186798029,494.63243236433055,-0.9903842646055815,34687.44626777304,10.5,10500034687.446268,47.655,-122.3035,60.0,7.933333333333334
2026-02-06T21:31:04+00:00,SAT-61517,181.37434183904833,74.94419445915419,493.6447031832653,-0.8903749986074228,31184.698733741792,10.5,10500031184.698734,47.655,-122.3035,60.0,7.95
2026-02-06T21:31:05+00:00,SAT-61517,178.51744721979898,75.36847749226993,492.7567151571575,-0.7898235314071784,27662.961020104693,10.5,10500027662.96102,47.655,-122.3035,60.0,7.966666666666667
2026-02-06T21:31:06+00:00,SAT-61517,175.4905911238515,75.75692519124875,491.9690090336422,-0.6887878575651594,24124.26434168058,10.5,10500024124.264341,47.655,-122.3035,60.0,7.983333333333333
2026-02-06T21:31:07+00:00,SAT-61517,172.29660824215034,76.10590451219699,491.2820677212706,-0.5873274262135366,20570.690858547663,10.5,10500020570.690859,47.655,-122.3035,60.0,8.0
2026-02-06T21:31:08+00:00,SAT-61517,168.94279484124937,76.41180920040269,490.6963148388355,-0.4855029828153191,17004.36813377357,10.5,10500017004.368134,47.655,-122.3035,60.0,8.016666666666667
2026-02-06T21:31:09+00:00,SAT-61517,165.44155004768928,76.67117757617282,490.2121134225178,-0.3833763845375774,13427.46266700466,10.5,10500013427.462667,47.655,-122.3035,60.0,8.033333333333333
2026-02-06T21:31:10+00:00,SAT-61517,161.81075338774585,76.88082976002488,489.82976481716116,-0.2810104223090919,9842.173662172198,10.5,10500009842.173662,47.655,-122.3035,60.0,8.05
2026-02-06T21:31:11+00:00,SAT-61517,158.0737478573664,77.03801557285543,489.54950774501475,-0.17846863409100736,6250.726487440778,10.5,10500006250.726488,47.655,-122.3035,60.0,8.066666666666666
2026-02-06T21:31:12+00:00,SAT-61517,154.2588286695872,77.14055997416091,489.3715175607031,-0.07581510413898193,2655.365644519684,10.5,10500002655.365644,47.655,-122.3035,60.0,8.083333333333334
2026-02-06T21:31:13+00:00,SAT-61517,150.39820492170756,77.18698995033353,489.2959057063959,0.026885732389589443,-941.6520748186706,10.5,10499999058.347925,47.655,-122.3035,60.0,8.1
2026-02-06T21:31:14+00:00,SAT-61517,146.52649512538093,77.17662655567194,489.32271936184713,0.1295692916721665,-4538.064671919626,10.5,10499995461.935328,47.655,-122.3035,60.0,8.116666666666667
2026-02-06T21:31:15+00:00,SAT-61517,142.67891508140409,77.10962906412607,489.4519412961289,0.23217104255435753,-8131.611992789872,10.5,10499991868.388008,47.655,-122.3035,60.0,8.133333333333333
2026-02-06T21:31:16+00:00,SAT-61517,138.889387156135,76.98698463221747,489.68348992015785,0.3346267134629585,-11720.042975067321,10.5,10499988279.957026,47.655,-122.3035,60.0,8.15
2026-02-06T21:31:17+00:00,SAT-61517,135.1888185875296,76.81044502916396,490.0172195455804,0.4368724834838805,-15301.122340378373,10.5,10499984698.877659,47.655,-122.3035,60.0,8.166666666666666
2026-02-06T21:31:18+00:00,SAT-61517,131.60375681486832,76.58241974821419,490.4529208342244,0.5388451886926415,-18872.63782090454,10.5,10499981127.362179,47.655,-122.3035,60.0,8.183333333333334
2026-02-06T21:31:19+00:00,SAT-61517,128.15554531538808,76.30584016382188,490.9903214533268,0.6404825103060283,-22432.406749249498,10.5,10499977567.59325,47.655,-122.3035,60.0,8.2
2026-02-06T21:31:20+00:00,SAT-61517,124.86000432722851,75.98401135135427,491.6290869184093,0.7417231598767442,-25978.282544739046,10.5,10499974021.717455,47.655,-122.3035,60.0,8.216666666666667
2026-02-06T21:31:21+00:00,SAT-61517,121.72757466830615,75.62046680858916,492.36882162085243,0.842507062099171,-29508.161116052142,10.5,10499970491.838884,47.655,-122.3035,60.0,8.233333333333333
2026-02-06T21:31:22+00:00,SAT-61517,118.76380910730977,75.2188376770057,493.2090700377838,0.9427755128919536,-33019.98639794171,10.5,10499966980.013601,47.655,-122.3035,60.0,8.25
2026-02-06T21:31:23+00:00,SAT-61517,115.97007794494087,74.78274352321574,494.1493180996289,1.0424713632156262,-36511.756789305466,10.5,10499963488.24321,47.655,-122.3035,60.0,8.266666666666667
2026-02-06T21:31:24+00:00,SAT-61517,113.34436601012084,74.31570743219767,495.18899474098066,1.1415391483280828,-39981.529680259235,10.5,10499960018.47032,47.655,-122.3035,60.0,8.283333333333333
2026-02-06T21:31:25+00:00,SAT-61517,110.88206564131364,73.82109488739967,496.32747358038455,1.2399252305526602,-43427.42645247911,10.5,10499956572.573547,47.655,-122.3035,60.0,8.3
2026-02-06T21:31:26+00:00,SAT-61517,108.5767020142025,73.3020737606629,497.56407474250375,1.337577931688505,-46847.63711677264,10.5,10499953152.362883,47.655,-122.3035,60.0,8.316666666666666
2026-02-06T21:31:27+00:00,SAT-61517,106.42055641494373,72.76159171330409,498.89806681234313,1.4344476531189174,-50240.42451978107,10.5,10499949759.57548,47.655,-122.3035,60.0,8.333333333333334
2026-02-06T21:31:28+00:00,SAT-61517,104.40517550389407,72.20236708758634,500.32866890925783,1.530486952550503,-53604.12703170899,10.5,10499946395.872969,47.655,-122.3035,60.0,8.35
2026-02-06T21:31:29+00:00,SAT-61517,102.52176964845454,71.62688966613688,501.8550528374957,1.6256506630052057,-56937.162713928774,10.5,10499943062.837286,47.655,-122.3035,60.0,8.366666666666667
2026-02-06T21:31:30+00:00,SAT-61517,100.76151186898197,71.03742818754304,503.47634535541323,1.719895939599209,-60238.0309573755,10.5,10499939761.969042,47.655,-122.3035,60.0,8.383333333333333
2026-02-06T21:31:31+00:00,SAT-61517,99.11575289427743,70.43604217643441,505.191630491344,1.8131823483951228,-63505.315594526364,10.5,10499936494.684406,47.655,-122.3035,60.0,8.4
2026-02-06T21:31:32+00:00,SAT-61517,97.57616833412946,69.82459619961534,506.99995194808224,1.9054718730233895,-66737.68513131037,10.5,10499933262.314869,47.655,-122.3035,60.0,8.416666666666666
2026-02-06T21:31:33+00:00,SAT-61517,96.1348529550854,69.2047752218242,508.900315513969,1.9967290070747317,-69933.89598308268,10.5,10499930066.104017,47.655,-122.3035,60.0,8.433333333333334
2026-02-06T21:31:34+00:00,SAT-61517,94.7843748876176,68.57810009440874,510.89169156612456,2.0869207217383683,-73092.79134117799,10.5,10499926907.208658,47.655,-122.3035,60.0,8.45
2026-02-06T21:31:35+00:00,SAT-61517,93.51780049859069,67.94594260376483,512.9730175414029,2.176016501477201,-76213.30242240653,10.5,10499923786.697578,47.655,-122.3035,60.0,8.466666666666667
2026-02-06T21:31:36+00:00,SAT-61517,92.32869832783835,67.30953967900831,515.1432004429299,2.2639883378105075,-79294.44825129767,10.5,10499920705.551748,47.655,-122.3035,60.0,8.483333333333333
2026-02-06T21:31:37+00:00,SAT-61517,91.21112865784852,66.67000656580417,517.4011193404372,2.350810727644249,-82335.33560162014,10.5,10499917664.664398,47.655,-122.3035,60.0,8.5
2026-02-06T21:31:38+00:00,SAT-61517,90.15962364426949,66.02834887506731,519.7456278689324,2.4364606254858945,-85335.15732274322,10.5,10499914664.842678,47.655,-122.3035,60.0,8.516666666666667
2026-02-06T21:31:39+00:00,SAT-61517,89.1691616685696,65.38547350714705,522.1755566797129,2.520917413956183,-88293.19130683373,10.5,10499911706.808693,47.655,-122.3035,60.0,8.533333333333333
2026-02-06T21:31:40+00:00,SAT-61517,88.23513852921053,64.74219848216651,524.6897158619688,2.6041628962023458,-91208.80022313513,10.5,10499908791.199778,47.655,-122.3035,60.0,8.55
2026-02-06T21:31:41+00:00,SAT-61517,87.35333732536895,64.09926173716897,527.286897356821,2.686181194232243,-94081.42795719882,10.5,10499905918.572042,47.655,-122.3035,60.0,8.566666666666666
2026-02-06T21:31:42+00:00,SAT-61517,86.51989834177972,63.45732899473133,529.9658772699644,2.766958729208138,-96910.59892068883,10.5,10499903089.40108,47.655,-122.3035,60.0,8.583333333333334
2026-02-06T21:31:43+00:00,SAT-61517,85.7312897531695,62.81700076787982,532.7254181646599,2.8464841273936448,-99695.91475724608,10.5,10499900304.085243,47.655,-122.3035,60.0,8.6
2026-02-06T21:31:44+00:00,SAT-61517,84.984279707954,62.17881860599675,535.5642712609227,2.924748194919343,-102437.0534586734,10.5,10499897562.94654,47.655,-122.3035,60.0,8.616666666666667
2026-02-06T21:31:45+00:00,SAT-61517,84.27591008589627,61.543270648019146,538.4811786095468,3.0017437621407903,-105133.76391369491,10.5,10499894866.236086,47.655,-122.3035,60.0,8.633333333333333
2026-02-06T21:31:46+00:00,SAT-61517,83.60347211744543,60.91079658882956,541.4748751109018,3.077465722651764,-107785.86727436459,10.5,10499892214.132725,47.655,-122.3035,60.0,8.65
2026-02-06T21:31:47+00:00,SAT-61517,82.96448386752617,60.281792086037626,544.5440905726415,3.151910809481359,-110393.24911754206,10.5,10499889606.750883,47.655,-122.3035,60.0,8.666666666666666
2026-02-06T21:31:48+00:00,SAT-61517,82.3566696181429,59.656612726693915,547.6875515442063,3.225077627662682,-112955.86058558605,10.5,10499887044.139414,47.655,-122.3035,60.0,8.683333333333334
2026-02-06T21:31:49+00:00,SAT-61517,81.77794102362996,59.035577555470944,550.9039831838099,3.29696651584588,-115473.71353945717,10.5,10499884526.28646,47.655,-122.3035,60.0,8.7
2026-02-06T21:31:50+00:00,SAT-61517,81.2263799765198,58.418972250299625,554.1921109874081,3.3675794326816715,-117946.87657938863,10.5,10499882053.12342,47.655,-122.3035,60.0,8.716666666666667
2026-02-06T21:31:51+00:00,SAT-61517,80.70022306141446,57.8070519826366,557.5506624043567,3.436919938014417,-120375.47438618811,10.5,10499879624.525614,47.655,-122.3035,60.0,8.733333333333333
2026-02-06T21:31:52+00:00,SAT-61517,80.19784746205016,57.2000439832374,560.9783684343123,3.504993015795486,-122759.68151891467,10.5,10499877240.318481,47.655,-122.3035,60.0,8.75
2026-02-06T21:31:53+00:00,SAT-61517,79.71775822409876,56.59814987620219,564.4739650475213,3.571805057929554,-125099.72184910777,10.5,10499874900.27815,47.655,-122.3035,60.0,8.766666666666667
2026-02-06T21:31:54+00:00,SAT-61517,79.25857673190201,56.00154778095474,568.0361945889998,3.6373637446864255,-127395.86437230342,10.5,10499872604.135628,47.655,-122.3035,60.0,8.783333333333333
2026-02-06T21:31:55+00:00,SAT-61517,78.81903030159519,55.41039422662898,571.6638070634428,3.701677932915807,-129648.41929284284,10.5,10499870351.580708,47.655,-122.3035,60.0,8.8
2026-02-06T21:31:56+00:00,SAT-61517,78.3979427834758,54.82482589878551,575.3555613086521,3.7647576111272256,-131857.73645058097,10.5,10499868142.26355,47.655,-122.3035,60.0,8.816666666666666
2026-02-06T21:31:57+00:00,SAT-61517,77.99422606817396,54.24496122693917,579.1102261241604,3.826613804458136,-134024.20199246783,10.5,10499865975.798008,47.655,-122.3035,60.0,8.833333333333334
2026-02-06T21:31:58+00:00,SAT-61517,77.60687241401811,53.67090183841928,582.9265813050815,3.8872584646750985,-136148.2345199242,10.5,10499863851.76548,47.655,-122.3035,60.0,8.85
2026-02-06T21:31:59+00:00,SAT-61517,77.23494751453232,53.10273389511319,586.8034185662543,3.946704423589073,-138230.2834572485,10.5,10499861769.716543,47.655,-122.3035,60.0,8.866666666666667
2026-02-06T21:32:00+00:00,SAT-61517,76.87758422637475,52.54052931636549,590.7395424199289,4.004965294878295,-140270.82561303824,10.5,10499859729.174387,47.655,-122.3035,60.0,8.883333333333333
2026-02-06T21:32:01+00:00,SAT-61517,76.53397689579468,51.98434690730812,594.7337709555368,4.062055427680814,-142270.3635548048,10.5,10499857729.636446,47.655,-122.3035,60.0,8.9
2026-02-06T21:32:02+00:00,SAT-61517,76.20337621925546,51.434233395124004,598.78493657318,4.117989761046464,-144229.4205112654,10.5,10499855770.579489,47.655,-122.3035,60.0,8.916666666666666
2026-02-06T21:32:03+00:00,SAT-61517,75.88508459164372,50.89022439561268,602.8918865719593,4.172783881039785,-146148.54237232928,10.5,10499853851.457628,47.655,-122.3035,60.0,8.933333333333334
2026-02-06T21:32:04+00:00,SAT-61517,75.5784518784377,50.35234529035471,607.0534837952584,4.226453818741991,-148028.29061427191,10.5,10499851971.709385,47.655,-122.3035,60.0,8.95
2026-02-06T21:32:05+00:00,SAT-61517,75.28287158772116,49.820612056345226,611.2686070745626,4.279016077597888,-149869.24325753993,10.5,10499850130.756742,47.655,-122.3035,60.0,8.966666666666667
2026-02-06T21:32:06+00:00,SAT-61517,74.99777738604249,49.295032023426536,615.5361517005608,4.330487558972474,-151671.99225942828,10.5,10499848328.00774,47.655,-122.3035,60.0,8.983333333333333
2026-02-06T21:32:07+00:00,SAT-61517,74.72263993144504,48.77560457897313,619.855029819995,4.380885448921875,-153437.13954831942,10.5,10499846562.86045,47.655,-122.3035,60.0,9.0
2026-02-06T21:32:08+00:00,SAT-61517,74.45696399391666,48.26232182886014,624.2241707195906,4.430227280787453,-155165.29921599381,10.5,10499844834.700785,47.655,-122.3035,60.0,9.016666666666667
2026-02-06T21:32:09+00:00,SAT-61517,74.20028582540742,47.755169198146405,628.6425211724094,4.478530735068279,-156857.09050831737,10.5,10499843142.909492,47.655,-122.3035,60.0,9.033333333333333
2026-02-06T21:32:10+00:00,SAT-61517,73.95217076939807,47.25412600664185,633.1090455846143,4.525813732393451,-158513.14108152525,10.5,10499841486.85892,47.655,-122.3035,60.0,9.05
2026-02-06T21:32:11+00:00,SAT-61517,73.71221107144103,46.759165988532686,637.6227262349536,4.572094285725557,-160134.08182576208,10.5,10499839865.918175,47.655,-122.3035,60.0,9.066666666666666
2026-02-06T21:32:12+00:00,SAT-61517,73.48002388358401,46.27025778724843,642.182563366848,4.617390549379499,-161720.54858192842,10.5,10499838279.451418,47.655,-122.3035,60.0,9.083333333333334
2026-02-06T21:32:13+00:00,SAT-61517,73.25524943492877,45.78736540640336,646.7875753293646,4.661720678169628,-163273.17720841762,10.5,10499836726.822792,47.655,-122.3035,60.0,9.1
2026-02-06T21:32:14+00:00,SAT-61517,73.03754936116485,45.310448640197,651.4367985777133,4.705102894712277,-164792.6059383352,10.5,10499835207.394062,47.655,-122.3035,60.0,9.116666666666667
2026-02-06T21:32:15+00:00,SAT-61517,72.82660516921759,44.83946346351942,656.1292877408692,4.747555372513613,-166279.47128474104,10.5,10499833720.528715,47.655,-122.3035,60.0,9.133333333333333
2026-02-06T21:32:16+00:00,SAT-61517,72.62211683223933,44.374362403477654,660.8641155725918,4.789096279253954,-167734.40955664907,10.5,10499832265.590443,47.655,-122.3035,60.0,9.15
2026-02-06T21:32:17+00:00,SAT-61517,72.42380149667078,43.91509487796169,665.6403729456163,4.829743660921789,-169158.05280091066,10.5,10499830841.947199,47.655,-122.3035,60.0,9.166666666666666
2026-02-06T21:32:18+00:00,SAT-61517,72.23139229699896,43.46160751904917,670.4571687302877,4.869515525389003,-170551.0317293724,10.5,10499829448.968271,47.655,-122.3035,60.0,9.183333333333334
2026-02-06T21:32:19+00:00,SAT-61517,72.0446372615907,43.013844463634115,675.3136297565463,4.90842971052415,-171913.9710996451,10.5,10499828086.0289,47.655,-122.3035,60.0,9.2
2026-02-06T21:32:20+00:00,SAT-61517,71.86329830888779,42.57174763364235,680.2089006443798,4.946503958028663,-173247.49230116044,10.5,10499826752.507698,47.655,-122.3035,60.0,9.216666666666667
2026-02-06T21:32:21+00:00,SAT-61517,71.68715031894598,42.135256987945326,685.1421437079146,4.983755786002146,-174552.2088918679,10.5,10499825447.79111,47.655,-122.3035,60.0,9.233333333333333
2026-02-06T21:32:22+00:00,SAT-61517,71.51598028049511,41.70431076584486,690.1125387324128,5.020202601223359,-175828.73053079032,10.5,10499824171.269468,47.655,-122.3035,60.0,9.25
2026-02-06T21:32:23+00:00,SAT-61517,71.34958649922352,41.27884570201479,695.1192828632501,5.055861578548913,-177077.65875405574,10.5,10499822922.341246,47.655,-122.3035,60.0,9.266666666666667
2026-02-06T21:32:24+00:00,SAT-61517,71.18777786940223,40.858797234843706,700.1615903746159,5.090749697163943,-178299.5882445495,10.5,10499821700.411755,47.655,-122.3035,60.0,9.283333333333333
2026-02-06T21:32:25+00:00,SAT-61517,71.03037319860009,40.444099695437465,705.2386924743649,5.124883707385456,-179495.10566922693,10.5,10499820504.894331,47.655,-122.3035,60.0,9.3
2026-02-06T21:32:26+00:00,SAT-61517,70.87720058317574,40.03468648443129,710.3498370757649,5.158280118930322,-180664.78926820896,10.5,10499819335.210732,47.655,-122.3035,60.0,9.316666666666666
2026-02-06T21:32:27+00:00,SAT-61517,70.72809682960994,39.630490235719954,715.4942885575391,5.190955244022866,-181809.2103645919,10.5,10499818190.789635,47.655,-122.3035,60.0,9.333333333333334
2026-02-06T21:32:28+00:00,SAT-61517,70.5829069165495,39.23144296386386,720.6713275669044,5.22292508416451,-182928.929398642,10.5,10499817071.0706,47.655,-122.3035,60.0,9.35
2026-02-06T21:32:29+00:00,SAT-61517,70.44148349824778,38.83747620826655,725.8802507096821,5.254205437047973,-184024.4996723824,10.5,10499815975.500328,47.655,-122.3035,60.0,9.366666666666667
2026-02-06T21:32:30+00:00,SAT-61517,70.30368644048531,38.44852115773696,731.1203703470335,5.284811793097698,-185096.4637260015,10.5,10499814903.536274,47.655,-122.3035,60.0,9.383333333333333
2026-02-06T21:32:31+00:00,SAT-61517,70.169382391532,38.06450877249184,736.391014289018,5.31475943009898,-186145.35665216533,10.5,10499813854.643349,47.655,-122.3035,60.0,9.4
2026-02-06T21:32:32+00:00,SAT-61517,70.03844438080905,37.68536988935399,741.6915255825216,5.3440632897072895,-187171.70177085156,10.5,10499812828.29823,47.655,-122.3035,60.0,9.416666666666666
2026-02-06T21:32:33+00:00,SAT-61517,69.91075144776744,37.31103532690706,747.0212621760298,5.372738090388688,-188176.01458500072,10.5,10499811823.985415,47.655,-122.3035,60.0,9.433333333333334
2026-02-06T21:32:34+00:00,SAT-61517,69.78618829376994,36.941435974024564,752.379596697036,5.400798258643583,-189158.8003716812,10.5,10499810841.199629,47.655,-122.3035,60.0,9.45
2026-02-06T21:32:35+00:00,SAT-61517,69.66464495877807,36.57650287556656,757.7659161608584,5.428257916437444,-190120.5537418595,10.5,10499809879.446259,47.655,-122.3035,60.0,9.466666666666667
2026-02-06T21:32:36+00:00,SAT-61517,69.54601652003294,36.216167311514624,763.1796216669214,5.4551309468744815,-191061.76094057062,10.5,10499808938.23906,47.655,-122.3035,60.0,9.483333333333333
2026-02-06T21:32:37+00:00,SAT-61517,69.43020280928317,35.86036086492512,768.6201281605355,5.481430930823149,-191982.89762727474,10.5,10499808017.102373,47.655,-122.3035,60.0,9.5
2026-02-06T21:32:38+00:00,SAT-61517,69.31710814985895,35.50901548792493,774.0868641314707,5.507171170293368,-192884.42969462683,10.5,10499807115.570305,47.655,-122.3035,60.0,9.516666666666667
2026-02-06T21:32:39+00:00,SAT-61517,69.20664111039758,35.162063560272095,779.579271335846,5.532364721742197,-193766.81443498176,10.5,10499806233.185566,47.655,-122.3035,60.0,9.533333333333333
2026-02-06T21:32:40+00:00,SAT-61517,69.0987142738242,34.81943794049298,785.0968045512357,5.55702427032095,-194630.49613599674,10.5,10499805369.503864,47.655,-122.3035,60.0,9.55
2026-02-06T21:32:41+00:00,SAT-61517,68.99324402324478,34.4810720198175,790.638931206357,5.581162377768157,-195475.91476289122,10.5,10499804524.085238,47.655,-122.3035,60.0,9.566666666666666
2026-02-06T21:32:42+00:00,SAT-61517,68.89015033724006,34.146899756199254,796.2051312579908,5.604791181552991,-196303.495421177,10.5,10499803696.50458,47.655,-122.3035,60.0,9.583333333333334
2026-02-06T21:32:43+00:00,SAT-61517,68.78935660294924,33.81685572254488,801.7948967678471,5.627922637661628,-197113.6568600638,10.5,10499802886.34314,47.655,-122.3035,60.0,9.6
2026-02-06T21:32:44+00:00,SAT-61517,68.69078943676858,33.490875136148134,807.4077317215705,5.65056841747235,-197906.80786058895,10.5,10499802093.192139,47.655,-122.3035,60.0,9.616666666666667
2026-02-06T21:32:45+00:00,SAT-61517,68.59437851788222,33.168893890823895,813.0431517448942,5.67273992132704,-198683.3477109485,10.5,10499801316.652288,47.655,-122.3035,60.0,9.633333333333333
2026-02-06T21:32:46+00:00,SAT-61517,68.50005643157911,32.850848584819516,818.70068383333,5.6944482853237925,-199443.6664444034,10.5,10499800556.333555,47.655,-122.3035,60.0,9.65
2026-02-06T21:32:47+00:00,SAT-61517,68.40775852209761,32.53667654521544,824.3798660886351,5.7157043819303395,-200188.1448607642,10.5,10499799811.855139,47.655,-122.3035,60.0,9.666666666666666
2026-02-06T21:32:48+00:00,SAT-61517,68.31742275416397,32.22631584941968,830.0802474558844,5.7365188595822465,-200917.15591328713,10.5,10499799082.844088,47.655,-122.3035,60.0,9.683333333333334
2026-02-06T21:32:49+00:00,SAT-61517,68.22898958229366,31.919705341903796,835.8013875000436,5.756902077616291,-201631.0624297662,10.5,10499798368.93757,47.655,-122.3035,60.0,9.7
2026-02-06T21:32:50+00:00,SAT-61517,68.14240182865905,31.616784652071125,841.5428561176424,5.77686418895313,-202330.22000842952,10.5,10499797669.779991,47.655,-122.3035,60.0,9.716666666666667
2026-02-06T21:32:51+00:00,SAT-61517,68.0576045670147,31.317494205465415,847.304233330912,5.796415065233977,-203014.97439590943,10.5,10499796985.025604,47.655,-122.3035,60.0,9.733333333333333
2026-02-06T21:32:52+00:00,SAT-61517,67.9745450143023,31.021775236927507,853.0851090072615,5.815564380507756,-203685.6644183205,10.5,10499796314.33558,47.655,-122.3035,60.0,9.75
2026-02-06T21:32:53+00:00,SAT-61517,67.8931724274588,30.729569797536634,858.885082662213,5.834321536126643,-204342.6193507835,10.5,10499795657.38065,47.655,-122.3035,60.0,9.766666666666667
2026-02-06T21:32:54+00:00,SAT-61517,67.81343800702008,30.44082076372488,864.7037631874375,5.852695754245409,-204986.16219216827,10.5,10499795013.837809,47.655,-122.3035,60.0,9.783333333333333
2026-02-06T21:32:55+00:00,SAT-61517,67.73529480504598,30.155471840143058,870.5407686720379,5.870695953576942,-205616.60531352623,10.5,10499794383.394686,47.655,-122.3035,60.0,9.8
