DopplerPredictor/satellites_20260211_204923/SAT-50806.csv

timestamp,satellite,azimuth_deg,elevation_deg,distance_km,relative_velocity_kms,doppler_shift_hz,tx_freq_ghz,rx_freq_hz,ue_lat,ue_lon,ue_alt_m,time_minutes
2026-02-06T21:23:07+00:00,SAT-50806,114.30356448356072,31.046619573094382,961.1871239657363,2.4401094270162087,-85462.95378675,10.5,10499914537.046213,47.655,-122.3035,60.0,0.0
2026-02-06T21:23:08+00:00,SAT-50806,113.8440513140614,30.934845660730137,963.6206917961136,2.485027400097049,-87036.17120687877,10.5,10499912963.828793,47.655,-122.3035,60.0,0.016666666666666666
2026-02-06T21:23:09+00:00,SAT-50806,113.38797116419967,30.821646073172655,966.0990571806848,2.5295978921117013,-88597.21837022618,10.5,10499911402.78163,47.655,-122.3035,60.0,0.03333333333333333
2026-02-06T21:23:10+00:00,SAT-50806,112.93534321708638,30.707065224837397,968.6218735699324,2.573818318365214,-90146.0047498418,10.5,10499909853.99525,47.655,-122.3035,60.0,0.05
2026-02-06T21:23:11+00:00,SAT-50806,112.48618463652595,30.59114728034697,971.188791836573,2.6176862475760183,-91682.44519196074,10.5,10499908317.554808,47.655,-122.3035,60.0,0.06666666666666667
2026-02-06T21:23:12+00:00,SAT-50806,112.04051061848627,30.473936121595276,973.79946042856,2.6611994987926693,-93206.463310438,10.5,10499906793.53669,47.655,-122.3035,60.0,0.08333333333333333
2026-02-06T21:23:13+00:00,SAT-50806,111.59833442749876,30.355475311932768,976.4535256187417,2.704356013720277,-94717.98701507998,10.5,10499905282.012985,47.655,-122.3035,60.0,0.1
2026-02-06T21:23:14+00:00,SAT-50806,111.15966745457919,30.235808067569188,979.1506316271905,2.7471539569756227,-96216.95202300265,10.5,10499903783.047977,47.655,-122.3035,60.0,0.11666666666666667
2026-02-06T21:23:15+00:00,SAT-50806,110.72451925918112,30.114977225953652,981.8904208435148,2.7895916767027926,-97703.30047922459,10.5,10499902296.69952,47.655,-122.3035,60.0,0.13333333333333333
