DopplerPredictor/satellites_20260211_204923/SAT-56488.csv

timestamp,satellite,azimuth_deg,elevation_deg,distance_km,relative_velocity_kms,doppler_shift_hz,tx_freq_ghz,rx_freq_hz,ue_lat,ue_lon,ue_alt_m,time_minutes
2026-02-06T21:28:46+00:00,SAT-56488,336.92356538824293,30.02555542071457,1040.0278173049533,-5.852293645882221,204972.07865637276,10.5,10500204972.078657,47.655,-122.3035,60.0,5.65
2026-02-06T21:28:47+00:00,SAT-56488,336.98154204507836,30.272580261639206,1034.1912128507192,-5.836948185613801,204434.61572654007,10.5,10500204434.615726,47.655,-122.3035,60.0,5.666666666666667
2026-02-06T21:28:48+00:00,SAT-56488,337.04041680573056,30.522034986184234,1028.369912717692,-5.821333519339574,203887.72406364384,10.5,10500203887.724064,47.655,-122.3035,60.0,5.683333333333334
2026-02-06T21:28:49+00:00,SAT-56488,337.10021210344877,30.773953691850757,1022.5641853901736,-5.805444203939808,203331.2130266065,10.5,10500203331.213026,47.655,-122.3035,60.0,5.7
2026-02-06T21:28:50+00:00,SAT-56488,337.1609511190137,31.028370916670603,1016.7743047809935,-5.789274797481587,202764.89201591813,10.5,10500202764.892015,47.655,-122.3035,60.0,5.716666666666667
2026-02-06T21:28:51+00:00,SAT-56488,337.2226578133851,31.285321643481474,1011.0005502303238,-5.772819651182738,202188.5631873326,10.5,10500202188.563187,47.655,-122.3035,60.0,5.733333333333333
2026-02-06T21:28:52+00:00,SAT-56488,337.2853569594728,31.544841294740383,1005.2432067119772,-5.756073064080641,201602.02686902395,10.5,10500201602.026869,47.655,-122.3035,60.0,5.75
2026-02-06T21:28:53+00:00,SAT-56488,337.34907417740453,31.806965733626026,999.5025648854429,-5.739029169768717,201005.07759461892,10.5,10500201005.077595,47.655,-122.3035,60.0,5.766666666666667
2026-02-06T21:28:54+00:00,SAT-56488,337.4138359703139,32.07173125958511,993.7789212608924,-5.721682045507533,200397.50792472935,10.5,10500200397.507925,47.655,-122.3035,60.0,5.783333333333333
2026-02-06T21:28:55+00:00,SAT-56488,337.4796697633013,32.33917460828395,988.0725782553568,-5.704025555623983,199779.10296212928,10.5,10500199779.102962,47.655,-122.3035,60.0,5.8
2026-02-06T21:28:56+00:00,SAT-56488,337.5466039423313,32.60933294371475,982.3838444050917,-5.686053544308413,199149.64710432553,10.5,10500199149.647104,47.655,-122.3035,60.0,5.816666666666666
2026-02-06T21:28:57+00:00,SAT-56488,337.61466789800846,32.88224385862233,976.7130343856605,-5.6677596588495485,198508.91785249734,10.5,10500198508.917852,47.655,-122.3035,60.0,5.833333333333333
2026-02-06T21:28:58+00:00,SAT-56488,337.68389206904084,33.157945365955186,971.0604692083054,-5.649137464235512,197856.68982530865,10.5,10500197856.689825,47.655,-122.3035,60.0,5.85
2026-02-06T21:28:59+00:00,SAT-56488,337.75430798974406,33.436475894969476,965.4264763020307,-5.63018033173884,197192.73085668427,10.5,10500197192.730856,47.655,-122.3035,60.0,5.866666666666666
2026-02-06T21:29:00+00:00,SAT-56488,337.82594833850953,33.71787428107858,959.811389706796,-5.610881604330835,196516.80778931995,10.5,10500196516.807789,47.655,-122.3035,60.0,5.883333333333334
2026-02-06T21:29:01+00:00,SAT-56488,337.89884699138395,34.00217976299276,954.2155501017448,-5.591234432762902,195828.6807335576,10.5,10500195828.680733,47.655,-122.3035,60.0,5.9
2026-02-06T21:29:02+00:00,SAT-56488,337.9730390761018,34.28943197085258,948.6393049969056,-5.57123182301585,195128.10472926046,10.5,10500195128.104729,47.655,-122.3035,60.0,5.916666666666667
2026-02-06T21:29:03+00:00,SAT-56488,338.04856102990703,34.57967091558056,943.0830088775775,-5.5508666908466155,194414.83165627025,10.5,10500194414.831656,47.655,-122.3035,60.0,5.933333333333334
2026-02-06T21:29:04+00:00,SAT-56488,338.1254506613551,34.872936979990314,937.5470232943095,-5.530131795607757,193688.60791648552,10.5,10500193688.607916,47.655,-122.3035,60.0,5.95
2026-02-06T21:29:05+00:00,SAT-56488,338.2037472147479,35.16927090535067,932.0317170188878,-5.509019775641401,192949.1756735078,10.5,10500192949.175674,47.655,-122.3035,60.0,5.966666666666667
2026-02-06T21:29:06+00:00,SAT-56488,338.2834914385862,35.46871377854124,926.5374661650201,-5.4875230925880105,192196.2709020989,10.5,10500192196.270903,47.655,-122.3035,60.0,5.983333333333333
2026-02-06T21:29:07+00:00,SAT-56488,338.3647256571876,35.771307014852354,921.0646543645651,-5.465634146647333,191429.62742510688,10.5,10500191429.627424,47.655,-122.3035,60.0,6.0
2026-02-06T21:29:08+00:00,SAT-56488,338.44749384839787,36.07709234565897,915.6136728288075,-5.443345131676677,190648.97183839467,10.5,10500190648.971838,47.655,-122.3035,60.0,6.016666666666667
2026-02-06T21:29:09+00:00,SAT-56488,338.5318417232702,36.386111796658675,910.184920554247,-5.420648164751513,189854.02804860048,10.5,10500189854.02805,47.655,-122.3035,60.0,6.033333333333333
2026-02-06T21:29:10+00:00,SAT-56488,338.61781681280894,36.698407671664285,904.778804399176,-5.397535129356667,189044.51178103022,10.5,10500189044.511782,47.655,-122.3035,60.0,6.05
2026-02-06T21:29:11+00:00,SAT-56488,338.70546855688553,37.01402252574339,899.3957393166411,-5.3739979186489,188220.13909974165,10.5,10500188220.1391,47.655,-122.3035,60.0,6.066666666666666
2026-02-06T21:29:12+00:00,SAT-56488,338.79484840326256,37.332999150555565,894.0361483448006,-5.350028128834576,187380.6156683336,10.5,10500187380.61567,47.655,-122.3035,60.0,6.083333333333333
2026-02-06T21:29:13+00:00,SAT-56488,338.8860099065115,37.655380539899575,888.7004629030754,-5.325617365163698,186525.64746715152,10.5,10500186525.647467,47.655,-122.3035,60.0,6.1
2026-02-06T21:29:14+00:00,SAT-56488,338.9790088391171,37.98120987116929,883.3891227831326,-5.300756978992513,185654.93158410737,10.5,10500185654.931583,47.655,-122.3035,60.0,6.116666666666666
2026-02-06T21:29:15+00:00,SAT-56488,339.0739033040644,38.310530468933486,878.1025764020961,-5.275438254735698,184768.1627625363,10.5,10500184768.162762,47.655,-122.3035,60.0,6.133333333333334
2026-02-06T21:29:16+00:00,SAT-56488,339.17075385830975,38.64338577737207,872.8412808693108,-5.249652337960768,183865.03088275844,10.5,10500183865.030882,47.655,-122.3035,60.0,6.15
2026-02-06T21:29:17+00:00,SAT-56488,339.26962364249556,38.97981932594501,867.6057021248163,-5.223390206338734,182945.2199446482,10.5,10500182945.219944,47.655,-122.3035,60.0,6.166666666666667
2026-02-06T21:29:18+00:00,SAT-56488,339.37057851822755,39.319874690460885,862.3963151067927,-5.196642733786151,182008.41031416,10.5,10500182008.410315,47.655,-122.3035,60.0,6.183333333333334
2026-02-06T21:29:19+00:00,SAT-56488,339.4736872155529,39.663595455361815,857.2136038550392,-5.169400665462977,181054.27784764773,10.5,10500181054.277847,47.655,-122.3035,60.0,6.2
2026-02-06T21:29:20+00:00,SAT-56488,339.5790214893794,40.01102517146358,852.058061639383,-5.141654629172083,180082.49429112347,10.5,10500180082.494291,47.655,-122.3035,60.0,6.216666666666667
2026-02-06T21:29:21+00:00,SAT-56488,339.686656286393,40.36220731127902,846.9301910767236,-5.113395090282822,179092.72570149056,10.5,10500179092.725702,47.655,-122.3035,60.0,6.233333333333333
2026-02-06T21:29:22+00:00,SAT-56488,339.79666992182547,40.71718521784564,841.8305042930292,-5.084612433555426,178084.6353123799,10.5,10500178084.635313,47.655,-122.3035,60.0,6.25
2026-02-06T21:29:23+00:00,SAT-56488,339.90914426997443,41.07600205549822,836.7595230037315,-5.0552969229446365,177057.88212630313,10.5,10500177057.882126,47.655,-122.3035,60.0,6.266666666666667
2026-02-06T21:29:24+00:00,SAT-56488,340.02416496659026,41.438700754179635,831.7177786342065,-5.025438693092742,176012.12061670274,10.5,10500176012.120617,47.655,-122.3035,60.0,6.283333333333333
2026-02-06T21:29:25+00:00,SAT-56488,340.141821624622,41.80532394902858,826.7058124487395,-4.99502776713366,174947.0013515264,10.5,10500174947.001352,47.655,-122.3035,60.0,6.3
2026-02-06T21:29:26+00:00,SAT-56488,340.2622080652469,42.175913916875,821.7241756617356,-4.964054104099927,173862.17265362036,10.5,10500173862.172653,47.655,-122.3035,60.0,6.316666666666666
2026-02-06T21:29:27+00:00,SAT-56488,340.385422566227,42.550512511734524,816.7734295016495,-4.932507523967782,172757.27797549102,10.5,10500172757.277975,47.655,-122.3035,60.0,6.333333333333333
2026-02-06T21:29:28+00:00,SAT-56488,340.5115681254758,42.929161089960594,811.8541453496673,-4.900377777473733,171631.95834457647,10.5,10500171631.958345,47.655,-122.3035,60.0,6.35
2026-02-06T21:29:29+00:00,SAT-56488,340.6407527452008,43.31190043542812,806.9669048087628,-4.867654531815912,170485.85186244771,10.5,10500170485.851862,47.655,-122.3035,60.0,6.366666666666666
2026-02-06T21:29:30+00:00,SAT-56488,340.7730897359856,43.698770678297755,802.1122997870103,-4.83432735743313,169318.59324175486,10.5,10500169318.593243,47.655,-122.3035,60.0,6.383333333333334
2026-02-06T21:29:31+00:00,SAT-56488,340.9086980422307,44.08981120693885,797.2909325940853,-4.800385798288615,168129.81626786105,10.5,10500168129.816267,47.655,-122.3035,60.0,6.4
2026-02-06T21:29:32+00:00,SAT-56488,341.047702593833,44.4850605793964,792.5034159676686,-4.76581930193681,166919.1513494863,10.5,10500166919.15135,47.655,-122.3035,60.0,6.416666666666667
2026-02-06T21:29:33+00:00,SAT-56488,341.19023468116546,44.88455642282812,787.7503731695974,-4.7306172668620174,165686.2271767063,10.5,10500165686.227177,47.655,-122.3035,60.0,6.433333333333334
2026-02-06T21:29:34+00:00,SAT-56488,341.33643235969066,45.288335329817954,783.0324380348028,-4.694769084646662,164430.67219786413,10.5,10500164430.672197,47.655,-122.3035,60.0,6.45
2026-02-06T21:29:35+00:00,SAT-56488,341.4864408866645,45.6964327510961,778.3502549781937,-4.658264102167614,163152.11329552508,10.5,10500163152.113295,47.655,-122.3035,60.0,6.466666666666667
2026-02-06T21:29:36+00:00,SAT-56488,341.64041318958175,46.108882877467636,773.7044790392436,-4.621091610960551,161850.17541397185,10.5,10500161850.175413,47.655,-122.3035,60.0,6.483333333333333
2026-02-06T21:29:37+00:00,SAT-56488,341.7985103702708,46.52571851241887,769.0957759371813,-4.583240974020408,160524.48600029253,10.5,10500160524.486,47.655,-122.3035,60.0,6.5
2026-02-06T21:29:38+00:00,SAT-56488,341.9609022533164,46.946970947378475,764.5248219997251,-4.544701505393313,159174.67078718098,10.5,10500159174.670788,47.655,-122.3035,60.0,6.516666666666667
2026-02-06T21:29:39+00:00,SAT-56488,342.12776797279014,47.37266981713513,759.992304211899,-4.5054625673942015,157800.35719790895,10.5,10500157800.357199,47.655,-122.3035,60.0,6.533333333333333
2026-02-06T21:29:40+00:00,SAT-56488,342.2992966097664,47.802842954182836,755.498920167894,-4.465513551077968,156401.17366234295,10.5,10500156401.173662,47.655,-122.3035,60.0,6.55
2026-02-06T21:29:41+00:00,SAT-56488,342.47568788047937,48.237516230961404,751.0453780424056,-4.42484393797291,154976.751779111,10.5,10500154976.75178,47.655,-122.3035,60.0,6.566666666666666
2026-02-06T21:29:42+00:00,SAT-56488,342.6571528834392,48.67671339705317,746.632396500402,-4.383443223448696,153526.7236316242,10.5,10500153526.72363,47.655,-122.3035,60.0,6.583333333333333
2026-02-06T21:29:43+00:00,SAT-56488,342.8439149047306,49.12045589712074,742.2607046833203,-4.341301047768449,152050.7263780756,10.5,10500152050.726377,47.655,-122.3035,60.0,6.6
2026-02-06T21:29:44+00:00,SAT-56488,343.0362102966886,49.568762689189555,737.9310420645613,-4.298407140922001,150548.40031926692,10.5,10500150548.40032,47.655,-122.3035,60.0,6.616666666666666
2026-02-06T21:29:45+00:00,SAT-56488,343.23428942870765,50.02165004425058,733.644158360004,-4.25475136500405,149019.3903828712,10.5,10500149019.390383,47.655,-122.3035,60.0,6.633333333333334
2026-02-06T21:29:46+00:00,SAT-56488,343.43841772113825,50.47913133583912,729.4008133962539,-4.21032374710081,147463.34727526238,10.5,10500147463.347275,47.655,-122.3035,60.0,6.65
2026-02-06T21:29:47+00:00,SAT-56488,343.6488767710755,50.94121681787844,725.2017769460941,-4.165114487047858,145879.9277532276,10.5,10500145879.927753,47.655,-122.3035,60.0,6.666666666666667
2026-02-06T21:29:48+00:00,SAT-56488,343.8659655773574,51.40791338710925,721.0478285562002,-4.119113963777035,144268.79484626284,10.5,10500144268.794846,47.655,-122.3035,60.0,6.683333333333334
2026-02-06T21:29:49+00:00,SAT-56488,344.09000187465557,51.87922432854666,716.9397573685225,-4.0723128099055765,142629.62046899978,10.5,10500142629.620468,47.655,-122.3035,60.0,6.7
2026-02-06T21:29:50+00:00,SAT-56488,344.3213235924873,52.35514905047424,712.878361867281,-4.02470190837246,140962.08530339622,10.5,10500140962.085304,47.655,-122.3035,60.0,6.716666666666667
2026-02-06T21:29:51+00:00,SAT-56488,344.5602904470564,52.83568279901496,708.8644496293161,-3.976272385986043,139265.87857274732,10.5,10500139265.878572,47.655,-122.3035,60.0,6.733333333333333
2026-02-06T21:29:52+00:00,SAT-56488,344.80728567947665,53.320816349884154,704.8988370808713,-3.9270157231461758,137540.70188461794,10.5,10500137540.701885,47.655,-122.3035,60.0,6.75
2026-02-06T21:29:53+00:00,SAT-56488,345.062717964287,53.810535689613886,700.9823491449507,-3.87692369825677,135786.26728393577,10.5,10500135786.267284,47.655,-122.3035,60.0,6.766666666666667
2026-02-06T21:29:54+00:00,SAT-56488,345.32702349488204,54.304821664565445,697.1158189441136,-3.8259884713889396,134002.3001832283,10.5,10500134002.300182,47.655,-122.3035,60.0,6.783333333333333
2026-02-06T21:29:55+00:00,SAT-56488,345.60066827476237,54.80364961233167,693.30008741983,-3.774202589457474,132188.539543925,10.5,10500132188.539543,47.655,-122.3035,60.0,6.8
2026-02-06T21:29:56+00:00,SAT-56488,345.88415063231076,55.306988963590946,689.5360029466749,-3.7215590559452822,130344.74031840208,10.5,10500130344.740318,47.655,-122.3035,60.0,6.816666666666666
2026-02-06T21:29:57+00:00,SAT-56488,346.1780039883783,55.81480282008408,685.8244208769834,-3.6680512816707513,128470.67172564725,10.5,10500128470.671726,47.655,-122.3035,60.0,6.833333333333333
2026-02-06T21:29:58+00:00,SAT-56488,346.48279989514685,56.327047489691836,682.1662031346076,-3.6136732260483186,126566.12219880242,10.5,10500126566.122198,47.655,-122.3035,60.0,6.85
2026-02-06T21:29:59+00:00,SAT-56488,346.7991513941697,56.84367200084797,678.5622176677916,-3.5584193554746726,124630.89792767256,10.5,10500124630.897928,47.655,-122.3035,60.0,6.866666666666666
2026-02-06T21:30:00+00:00,SAT-56488,347.12771671339584,57.36461756773775,675.0133379435471,-3.5022846832430683,122664.82425669367,10.5,10500122664.824257,47.655,-122.3035,60.0,6.883333333333334
2026-02-06T21:30:01+00:00,SAT-56488,347.4692033493137,57.88981701241175,671.5204424022244,-3.4452648590798294,120667.74882087998,10.5,10500120667.748821,47.655,-122.3035,60.0,6.9
2026-02-06T21:30:02+00:00,SAT-56488,347.8243725853204,58.419194146466815,668.0844138227853,-3.387356150895321,118639.54090666576,10.5,10500118639.540907,47.655,-122.3035,60.0,6.916666666666667
2026-02-06T21:30:03+00:00,SAT-56488,348.1940444854975,58.95266309068687,664.7061387062755,-3.3285554860766817,116580.09289815142,10.5,10500116580.092897,47.655,-122.3035,60.0,6.933333333333334
2026-02-06T21:30:04+00:00,SAT-56488,348.57910342593226,59.49012753421454,661.3865066181161,-3.2688605199137637,114489.32267366952,10.5,10500114489.322674,47.655,-122.3035,60.0,6.95
2026-02-06T21:30:05+00:00,SAT-56488,348.980504231462,60.03147993019046,658.1264094621536,-3.2082696788406406,112367.17512028513,10.5,10500112367.17512,47.655,-122.3035,60.0,6.966666666666667
2026-02-06T21:30:06+00:00,SAT-56488,349.3992789869541,60.57660061554229,654.9267407115806,-3.1467821056434087,110213.62021474133,10.5,10500110213.620214,47.655,-122.3035,60.0,6.983333333333333
2026-02-06T21:30:07+00:00,SAT-56488,349.8365445891312,61.125356827629766,651.7883946945066,-3.084397824860063,108028.65881646248,10.5,10500108028.658817,47.655,-122.3035,60.0,7.0
2026-02-06T21:30:08+00:00,SAT-56488,350.29351115888494,61.67760164291419,648.712265714568,-3.0211177097092357,105812.32150925882,10.5,10500105812.321508,47.655,-122.3035,60.0,7.016666666666667
2026-02-06T21:30:09+00:00,SAT-56488,350.77149138849524,62.23317279114143,645.6992472045243,-2.9569435016487797,103564.66928635072,10.5,10500103564.669287,47.655,-122.3035,60.0,7.033333333333333
2026-02-06T21:30:10+00:00,SAT-56488,351.271910939263,62.7918913370266,642.7502308603451,-2.8918778900760653,101285.7963418102,10.5,10500101285.79634,47.655,-122.3035,60.0,7.05
2026-02-06T21:30:11+00:00,SAT-56488,351.7963200247723,63.35356022229273,639.8661056958133,-2.8259245304494454,98975.83070525136,10.5,10500098975.830706,47.655,-122.3035,60.0,7.066666666666666
2026-02-06T21:30:12+00:00,SAT-56488,352.34640630517583,63.91796263591503,637.0477570790525,-2.7590880704534384,96634.93515824572,10.5,10500096634.935158,47.655,-122.3035,60.0,7.083333333333333
2026-02-06T21:30:13+00:00,SAT-56488,352.9240092416693,64.48486018903988,634.2960657429618,-2.6913741827850073,94263.30838263642,10.5,10500094263.308382,47.655,-122.3035,60.0,7.1
2026-02-06T21:30:14+00:00,SAT-56488,353.5311360715422,65.05399086710204,631.6119067629512,-2.622789605151086,91861.18636142075,10.5,10500091861.186361,47.655,-122.3035,60.0,7.116666666666666
2026-02-06T21:30:15+00:00,SAT-56488,354.1699795761386,65.62506672765662,628.9961484947867,-2.5533421706460215,89428.8434426967,10.5,10500089428.843443,47.655,-122.3035,60.0,7.133333333333334
2026-02-06T21:30:16+00:00,SAT-56488,354.84293781748613,66.19777130383878,626.4496514821387,-2.483040812811409,86966.59251687978,10.5,10500086966.592516,47.655,-122.3035,60.0,7.15
2026-02-06T21:30:17+00:00,SAT-56488,355.5526360135068,66.77175666343449,623.9732673590869,-2.411895622924529,84474.7870231864,10.5,10500084474.787024,47.655,-122.3035,60.0,7.166666666666667
2026-02-06T21:30:18+00:00,SAT-56488,356.3019507401418,67.34664008424787,621.567837695486,-2.3399178382451304,81953.82053798655,10.5,10500081953.820538,47.655,-122.3035,60.0,7.183333333333334
2026-02-06T21:30:19+00:00,SAT-56488,357.0940365900436,67.92200027182797,619.2341928540565,-2.267119892654068,79404.12854838303,10.5,10500079404.128548,47.655,-122.3035,60.0,7.2
2026-02-06T21:30:20+00:00,SAT-56488,357.93235542211283,68.49737306738447,616.973150796972,-2.1935154143929947,76826.18837304588,10.5,10500076826.188374,47.655,-122.3035,60.0,7.216666666666667
2026-02-06T21:30:21+00:00,SAT-56488,358.8207082285232,69.07224655831533,614.7855158947,-2.1191192315836274,74220.51935552058,10.5,10500074220.519356,47.655,-122.3035,60.0,7.233333333333333
2026-02-06T21:30:22+00:00,SAT-56488,359.7632695582112,69.64605550825193,612.6720777293376,-2.043947416992888,71587.68443209243,10.5,10500071587.684433,47.655,-122.3035,60.0,7.25
2026-02-06T21:30:23+00:00,SAT-56488,0.764624286954186,70.21817502443224,610.633609853305,-1.9680172577103523,68928.28906976272,10.5,10500068928.28907,47.655,-122.3035,60.0,7.266666666666667
2026-02-06T21:30:24+00:00,SAT-56488,1.8298062306383966,70.78791334227674,608.670868578276,-1.8913472797143234,66242.98212665641,10.5,10500066242.982126,47.655,-122.3035,60.0,7.283333333333333
2026-02-06T21:30:25+00:00,SAT-56488,2.9643377969510176,71.35450363639559,606.7845917396128,-1.813957225955616,63532.455084423666,10.5,10500063532.455084,47.655,-122.3035,60.0,7.3
2026-02-06T21:30:26+00:00,SAT-56488,4.1742693218561095,71.91709473991052,604.975497482654,-1.735868089979597,60797.44322582581,10.5,10500060797.443226,47.655,-122.3035,60.0,7.316666666666666
2026-02-06T21:30:27+00:00,SAT-56488,5.466216092240467,72.47474069196436,603.2442830154736,-1.6571020598736135,58038.72367153726,10.5,10500058038.723671,47.655,-122.3035,60.0,7.333333333333333
2026-02-06T21:30:28+00:00,SAT-56488,6.847389996641237,73.02638901059204,601.5916234175428,-1.577682536749162,55257.116027469245,10.5,10500055257.116028,47.655,-122.3035,60.0,7.35
2026-02-06T21:30:29+00:00,SAT-56488,8.325621556829804,73.57086767892109,600.0181704299542,-1.4976341004136808,52453.48118245073,10.5,10500052453.481182,47.655,-122.3035,60.0,7.366666666666666
2026-02-06T21:30:30+00:00,SAT-56488,9.90936629477279,74.10687086390425,598.5245512798904,-1.4169824949754775,49628.72080405209,10.5,10500049628.720804,47.655,-122.3035,60.0,7.383333333333334
2026-02-06T21:30:31+00:00,SAT-56488,11.607687250618529,74.63294352170645,597.1113675194403,-1.3357546004900192,46783.776345518345,10.5,10500046783.776346,47.655,-122.3035,60.0,7.4
2026-02-06T21:30:32+00:00,SAT-56488,13.430202728829574,75.1474652033912,595.7791938926998,-1.2539783961333146,43919.62775594509,10.5,10500043919.627756,47.655,-122.3035,60.0,7.416666666666667
2026-02-06T21:30:33+00:00,SAT-56488,15.386985154020303,75.64863362383512,594.5285772395977,-1.171682923391809,41037.29219103301,10.5,10500041037.29219,47.655,-122.3035,60.0,7.433333333333334
2026-02-06T21:30:34+00:00,SAT-56488,17.488393442729592,76.13444890742139,593.3600354364313,-1.0888982537088585,38137.822879930536,10.5,10500038137.82288,47.655,-122.3035,60.0,7.45
2026-02-06T21:30:35+00:00,SAT-56488,19.744817996363455,76.60269989252747,592.2740563686725,-1.0056554333507648,35222.307194209105,10.5,10500035222.307194,47.655,-122.3035,60.0,7.466666666666667
2026-02-06T21:30:36+00:00,SAT-56488,22.166315074613465,77.05095446004,591.2710969587582,-0.9219864342363845,32291.86492570816,10.5,10500032291.864925,47.655,-122.3035,60.0,7.483333333333333
2026-02-06T21:30:37+00:00,SAT-56488,24.76210753421042,77.47655657057533,590.3515822429179,-0.8379241075294214,29347.6466611409,10.5,10500029347.646662,47.655,-122.3035,60.0,7.5
2026-02-06T21:30:38+00:00,SAT-56488,27.539933692711973,77.8766334584323,589.5159044942874,-0.7535021135451385,26390.831327130833,10.5,10500026390.831327,47.655,-122.3035,60.0,7.516666666666667
2026-02-06T21:30:39+00:00,SAT-56488,30.50523809722113,78.24811710710692,588.7644224159253,-0.668754869953742,23422.62437607517,10.5,10500023422.624376,47.655,-122.3035,60.0,7.533333333333333
2026-02-06T21:30:40+00:00,SAT-56488,33.66022038164519,78.58778453809084,588.0974603854896,-0.5837174806559143,20444.255295065162,10.5,10500020444.255295,47.655,-122.3035,60.0,7.55
2026-02-06T21:30:41+00:00,SAT-56488,37.002792570498336,78.89232117993028,587.5153077708464,-0.49842566533618443,17456.975138547135,10.5,10500017456.975138,47.655,-122.3035,60.0,7.566666666666666
2026-02-06T21:30:42+00:00,SAT-56488,40.52554027607462,79.15841030643462,587.0182183159362,-0.4129156898697279,14462.054090874237,10.5,10500014462.05409,47.655,-122.3035,60.0,7.583333333333333
2026-02-06T21:30:43+00:00,SAT-56488,44.21483232281095,79.38284884280887,586.6064095960485,-0.32722429259937114,11460.778884215282,10.5,10500011460.778885,47.655,-122.3035,60.0,7.6
2026-02-06T21:30:44+00:00,SAT-56488,48.05026237083051,79.56268562664044,586.2800625466208,-0.24138860344682533,8454.449965488011,10.5,10500008454.449966,47.655,-122.3035,60.0,7.616666666666666
2026-02-06T21:30:45+00:00,SAT-56488,52.004615033068546,79.69537287308617,586.0393210727082,-0.15544606691281718,5444.378799497952,10.5,10500005444.3788,47.655,-122.3035,60.0,7.633333333333334
2026-02-06T21:30:46+00:00,SAT-56488,56.04450809349401,79.77891622344113,585.8842917352493,-0.06943436047872083,2431.8850110184185,10.5,10500002431.885012,47.655,-122.3035,60.0,7.65
2026-02-06T21:30:47+00:00,SAT-56488,60.1317630254105,79.8120050216378,585.8150435187091,0.016608687168162977,-581.7064793061313,10.5,10499999418.29352,47.655,-122.3035,60.0,7.666666666666667
2026-02-06T21:30:48+00:00,SAT-56488,64.22541247646542,79.79410415279284,585.8316076802788,0.10264517904672335,-3595.068358893122,10.5,10499996404.93164,47.655,-122.3035,60.0,7.683333333333334
2026-02-06T21:30:49+00:00,SAT-56488,68.28410510890632,79.72549289700791,585.9339776817656,0.18863723307075442,-6606.8738368425575,10.5,10499993393.126163,47.655,-122.3035,60.0,7.7
2026-02-06T21:30:50+00:00,SAT-56488,72.26856661885508,79.60724432191859,586.1221092044462,0.27454706685114105,-9615.799614068279,10.5,10499990384.200386,47.655,-122.3035,60.0,7.716666666666667
2026-02-06T21:30:51+00:00,SAT-56488,76.14376106039093,79.44114868211574,586.3959202484988,0.360337073699871,-12620.528545279967,10.5,10499987379.471455,47.655,-122.3035,60.0,7.733333333333333
2026-02-06T21:30:52+00:00,SAT-56488,79.8804741662009,79.22959323107608,586.7552913082305,0.44596991625390003,-15619.752918086919,10.5,10499984380.247082,47.655,-122.3035,60.0,7.75
2026-02-06T21:30:53+00:00,SAT-56488,83.45618012433386,78.97541630734156,587.200065640683,0.5314085947083561,-18612.1768428135,10.5,10499981387.823156,47.655,-122.3035,60.0,7.766666666666667
2026-02-06T21:30:54+00:00,SAT-56488,86.85520291206277,78.68175459094641,587.7300496022832,0.6166165323818175,-21596.519249357112,10.5,10499978403.480751,47.655,-122.3035,60.0,7.783333333333333
2026-02-06T21:30:55+00:00,SAT-56488,90.06829950750209,78.35189955591876,588.3450130708347,0.7015576502905759,-24571.51649909434,10.5,10499975428.483501,47.655,-122.3035,60.0,7.8
2026-02-06T21:30:56+00:00,SAT-56488,93.09185085645798,77.98917409810367,589.0446899418798,0.7861964410885145,-27535.924974568243,10.5,10499972464.075026,47.655,-122.3035,60.0,7.816666666666666
2026-02-06T21:30:57+00:00,SAT-56488,95.9268511642161,77.5968348160766,589.8287786988049,0.8704980405849356,-30488.52358434522,10.5,10499969511.476416,47.655,-122.3035,60.0,7.833333333333333
2026-02-06T21:30:58+00:00,SAT-56488,98.57785394141914,77.17800079590326,590.6969430542717,0.9544282964100088,-33428.11616796941,10.5,10499966571.883833,47.655,-122.3035,60.0,7.85
2026-02-06T21:30:59+00:00,SAT-56488,101.0519854175095,76.73560658558277,591.6488126601303,1.0379538293182704,-36353.53364307063,10.5,10499963646.466356,47.655,-122.3035,60.0,7.866666666666666
2026-02-06T21:31:00+00:00,SAT-56488,103.35808860289255,76.27237535829795,592.6839838784697,1.1210420959692664,-39263.63620420798,10.5,10499960736.363796,47.655,-122.3035,60.0,7.883333333333334
2026-02-06T21:31:01+00:00,SAT-56488,105.50602337551275,75.79080773470335,593.8020206152836,1.2036614568543014,-42157.31570195193,10.5,10499957842.684298,47.655,-122.3035,60.0,7.9
2026-02-06T21:31:02+00:00,SAT-56488,107.50612208326254,75.29318196448675,595.0024552218773,1.2857812062939817,-45033.49669352525,10.5,10499954966.503307,47.655,-122.3035,60.0,7.916666666666667
2026-02-06T21:31:03+00:00,SAT-56488,109.36878514588882,74.78156180980952,596.284789426195,1.3673716318896383,-47891.13852504323,10.5,10499952108.861475,47.655,-122.3035,60.0,7.933333333333334
2026-02-06T21:31:04+00:00,SAT-56488,111.10419455319473,74.25780920167229,597.6484953234367,1.4484040756723302,-50729.237473210436,10.5,10499949270.762527,47.655,-122.3035,60.0,7.95
2026-02-06T21:31:05+00:00,SAT-56488,112.72212174822845,73.72359948815703,599.0930164276618,1.5288509498847154,-53546.82729806869,10.5,10499946453.172703,47.655,-122.3035,60.0,7.966666666666667
2026-02-06T21:31:06+00:00,SAT-56488,114.23180806389631,73.18043774261693,600.6177687391314,1.6086857663002563,-56342.98026987954,10.5,10499943657.01973,47.655,-122.3035,60.0,7.983333333333333
2026-02-06T21:31:07+00:00,SAT-56488,115.64189908246162,72.62967508087272,602.2221418408909,1.6878832119177196,-59116.80982026591,10.5,10499940883.19018,47.655,-122.3035,60.0,8.0
2026-02-06T21:31:08+00:00,SAT-56488,116.96041778725329,72.07252431003303,603.9055000708453,1.76641911669634,-61867.46941216103,10.5,10499938132.530588,47.655,-122.3035,60.0,8.016666666666667
2026-02-06T21:31:09+00:00,SAT-56488,118.19476456302317,71.5100745609223,605.6671836616558,1.8442705090131417,-64594.15448215842,10.5,10499935405.845518,47.655,-122.3035,60.0,8.033333333333333
2026-02-06T21:31:10+00:00,SAT-56488,119.3517351461601,70.94330467941857,607.5065099359433,1.9214156317609257,-67296.10300433148,10.5,10499932703.896996,47.655,-122.3035,60.0,8.05
2026-02-06T21:31:11+00:00,SAT-56488,120.43754985688409,70.3730953257225,609.4227745175508,1.9978339414361435,-69972.59545828703,10.5,10499930027.404541,47.655,-122.3035,60.0,8.066666666666666
2026-02-06T21:31:12+00:00,SAT-56488,121.4578893315742,69.80023980262257,611.4152525418913,2.073506124505477,-72622.95540239212,10.5,10499927377.044598,47.655,-122.3035,60.0,8.083333333333334
2026-02-06T21:31:13+00:00,SAT-56488,122.4179334054392,69.22545367252663,613.4831998826206,2.148414096481901,-75246.54944141375,10.5,10499924753.450558,47.655,-122.3035,60.0,8.1
2026-02-06T21:31:14+00:00,SAT-56488,123.32240083770147,68.64938326020744,615.6258543773911,2.2225410141634954,-77842.78765517409,10.5,10499922157.212345,47.655,-122.3035,60.0,8.116666666666667
2026-02-06T21:31:15+00:00,SAT-56488,124.17558835872676,68.07261314113634,617.8424370658063,2.295871240004199,-80411.12235066331,10.5,10499919588.87765,47.655,-122.3035,60.0,8.133333333333333
2026-02-06T21:31:16+00:00,SAT-56488,124.98140805940228,67.4956727336801,620.1321533918464,2.368390382937573,-82951.04949186053,10.5,10499917048.950508,47.655,-122.3035,60.0,8.15
2026-02-06T21:31:17+00:00,SAT-56488,125.74342258048108,66.91904207722851,622.494194447005,2.44008524010331,-85462.10665874975,10.5,10499914537.893341,47.655,-122.3035,60.0,8.166666666666666
2026-02-06T21:31:18+00:00,SAT-56488,126.46487777506404,66.3431569173028,624.9277381553114,2.51094380081058,-87943.87318613297,10.5,10499912056.126814,47.655,-122.3035,60.0,8.183333333333334
2026-02-06T21:31:19+00:00,SAT-56488,127.14873275977658,65.76841316805017,627.4319504623022,2.580955247251072,-90395.9701886038,10.5,10499909604.029812,47.655,-122.3035,60.0,8.2
2026-02-06T21:31:20+00:00,SAT-56488,127.79768736740915,65.1951708318846,630.0059865247074,2.6501099083067614,-92818.05894270027,10.5,10499907181.941057,47.655,-122.3035,60.0,8.216666666666667
2026-02-06T21:31:21+00:00,SAT-56488,128.4142070853927,64.62375745622437,632.6489918540651,2.718399218779386,-95209.83945894848,10.5,10499904790.160542,47.655,-122.3035,60.0,8.233333333333333
2026-02-06T21:31:22+00:00,SAT-56488,129.00054562553353,64.05447118579171,635.3601034196779,2.7858157728094195,-97571.05235282103,10.5,10499902428.947647,47.655,-122.3035,60.0,8.25
2026-02-06T21:31:23+00:00,SAT-56488,129.55876531026254,63.48758344408662,638.1384508048429,2.8523531949479617,-99901.47432912939,10.5,10499900098.525671,47.655,-122.3035,60.0,8.266666666666667
2026-02-06T21:31:24+00:00,SAT-56488,130.09075541573264,62.923341328984705,640.9831572345,2.918006181307927,-102200.91962331232,10.5,10499897799.080378,47.655,-122.3035,60.0,8.283333333333333
2026-02-06T21:31:25+00:00,SAT-56488,130.59824868534673,62.361969726198204,643.8933406439209,2.9827704421540164,-104469.23799069414,10.5,10499895530.762009,47.655,-122.3035,60.0,8.3
2026-02-06T21:31:26+00:00,SAT-56488,131.0828361647148,61.80367319621186,646.8681146901416,3.046642669534198,-106706.31357280203,10.5,10499893293.686428,47.655,-122.3035,60.0,8.316666666666666
2026-02-06T21:31:27+00:00,SAT-56488,131.5459805285888,61.24863765908955,649.9065897311156,3.109620515826737,-108912.06414599242,10.5,10499891087.935854,47.655,-122.3035,60.0,8.333333333333334
2026-02-06T21:31:28+00:00,SAT-56488,131.98902805071273,60.69703190106524,653.007873783467,3.1717025469271793,-111086.43948186109,10.5,10499888913.560518,47.655,-122.3035,60.0,8.35
2026-02-06T21:31:29+00:00,SAT-56488,132.4132193545513,60.14900892992216,656.1710734335607,3.232888196709578,-113229.41975228266,10.5,10499886770.580248,47.655,-122.3035,60.0,8.366666666666667
2026-02-06T21:31:30+00:00,SAT-56488,132.819699070995,59.60470719772493,659.3952947031537,3.293177750497913,-115341.01495050982,10.5,10499884658.98505,47.655,-122.3035,60.0,8.383333333333333
2026-02-06T21:31:31+00:00,SAT-56488,133.20952452306486,59.064251702494126,662.6796438985609,3.3525723287016693,-117421.26431802208,10.5,10499882578.735682,47.655,-122.3035,60.0,8.4
2026-02-06T21:31:32+00:00,SAT-56488,133.5836735384548,58.527754983690635,666.0232284435043,3.4110737819669232,-119470.23267227321,10.5,10499880529.767328,47.655,-122.3035,60.0,8.416666666666666
2026-02-06T21:31:33+00:00,SAT-56488,133.9430514763728,57.99531803801505,669.4251576073899,3.4686847093426567,-121488.01104295258,10.5,10499878511.988956,47.655,-122.3035,60.0,8.433333333333334
2026-02-06T21:31:34+00:00,SAT-56488,134.28849756252828,57.46703114585436,672.8845432517054,3.525408409341735,-123474.7149579334,10.5,10499876525.285042,47.655,-122.3035,60.0,8.45
2026-02-06T21:31:35+00:00,SAT-56488,134.62079060055981,56.94297462898607,676.400500527608,3.581248871492262,-125430.48414736554,10.5,10499874569.515852,47.655,-122.3035,60.0,8.466666666666667
2026-02-06T21:31:36+00:00,SAT-56488,134.94065412886812,56.423219541438215,679.9721485650879,3.6362106291996987,-127355.47739028456,10.5,10499872644.52261,47.655,-122.3035,60.0,8.483333333333333
2026-02-06T21:31:37+00:00,SAT-56488,135.24876107117393,55.90782832054599,683.5986110153881,3.690298882554611,-129249.87681585844,10.5,10499870750.123184,47.655,-122.3035,60.0,8.5
2026-02-06T21:31:38+00:00,SAT-56488,135.54573795439595,55.396855364768435,687.2790167158996,3.743519360361551,-131113.88307105537,10.5,10499868886.116928,47.655,-122.3035,60.0,8.516666666666667
2026-02-06T21:31:39+00:00,SAT-56488,135.83216871922514,54.890347582095046,691.0125002174619,3.7958782747433393,-132947.71373069385,10.5,10499867052.28627,47.655,-122.3035,60.0,8.533333333333333
2026-02-06T21:31:40+00:00,SAT-56488,136.10859817402525,54.38834489923239,694.7982022663817,3.8473823631521666,-134751.60476884895,10.5,10499865248.395231,47.655,-122.3035,60.0,8.55
2026-02-06T21:31:41+00:00,SAT-56488,136.37553513250623,53.89088072427985,698.635270328357,3.8980387886159584,-136525.8070650582,10.5,10499863474.192934,47.655,-122.3035,60.0,8.566666666666666
2026-02-06T21:31:42+00:00,SAT-56488,136.6334552602592,53.397982385770966,702.52285901291,3.9478551484337694,-138270.58670887104,10.5,10499861729.413292,47.655,-122.3035,60.0,8.583333333333334
2026-02-06T21:31:43+00:00,SAT-56488,136.88280366477358,52.909671536601834,706.4601305064948,3.9968394036402035,-139986.22252939446,10.5,10499860013.777472,47.655,-122.3035,60.0,8.6
2026-02-06T21:31:44+00:00,SAT-56488,137.12399725161882,52.42596453589844,710.4462549352578,4.0449998802094,-141673.0061374616,10.5,10499858326.993862,47.655,-122.3035,60.0,8.616666666666667
2026-02-06T21:31:45+00:00,SAT-56488,137.35742687269928,51.94687280217593,714.4804107289983,4.09234523864493,-143331.2408605415,10.5,10499856668.75914,47.655,-122.3035,60.0,8.633333333333333
2026-02-06T21:31:46+00:00,SAT-56488,137.58345928629842,51.4724031441676,718.561784954802,4.138884411117467,-144961.2395410341,10.5,10499855038.76046,47.655,-122.3035,60.0,8.65
2026-02-06T21:31:47+00:00,SAT-56488,137.8024389452919,51.00255807489259,722.6895735879791,4.18462662946172,-146563.32551684158,10.5,10499853436.674482,47.655,-122.3035,60.0,8.666666666666666
2026-02-06T21:31:48+00:00,SAT-56488,138.01468963457978,50.53733610014491,726.862981810926,4.2295813242551645,-148137.82908667848,10.5,10499851862.170914,47.655,-122.3035,60.0,8.683333333333334
2026-02-06T21:31:49+00:00,SAT-56488,138.22051596644428,50.076731997767354,731.0812242113328,4.273758185268381,-149685.0896272981,10.5,10499850314.910372,47.655,-122.3035,60.0,8.7
2026-02-06T21:31:50+00:00,SAT-56488,138.4202047539812,49.62073707090235,735.3435250406851,4.317167091000625,-151205.45312553048,10.5,10499848794.546875,47.655,-122.3035,60.0,8.716666666666667
2026-02-06T21:31:51+00:00,SAT-56488,138.61402626881667,49.16933939136568,739.6491184024837,4.359818025177298,-152699.26925367027,10.5,10499847300.730747,47.655,-122.3035,60.0,8.733333333333333
2026-02-06T21:31:52+00:00,SAT-56488,138.80223539360443,48.722524034907536,743.9972483571906,4.401721209852061,-154166.8960312759,10.5,10499845833.10397,47.655,-122.3035,60.0,8.75
2026-02-06T21:31:53+00:00,SAT-56488,138.98507268673458,48.28027328702829,748.3871691599163,4.4428869451251245,-155608.69421142613,10.5,10499844391.305788,47.655,-122.3035,60.0,8.766666666666667
2026-02-06T21:31:54+00:00,SAT-56488,139.16276535647327,47.84256685110521,752.8181453382604,4.483325607633071,-157025.0272278272,10.5,10499842974.972773,47.655,-122.3035,60.0,8.783333333333333
2026-02-06T21:31:55+00:00,SAT-56488,139.33552815919822,47.40938204257882,757.2894517686383,4.523047721594292,-158416.26368312462,10.5,10499841583.736317,47.655,-122.3035,60.0,8.8
2026-02-06T21:31:56+00:00,SAT-56488,139.50356422955053,46.98069396348692,761.8003738234713,4.5620638326586835,-159782.77293058578,10.5,10499840217.22707,47.655,-122.3035,60.0,8.816666666666666
2026-02-06T21:31:57+00:00,SAT-56488,139.667065843234,46.5564756774039,766.3502073925596,4.600384548660639,-161124.9265014422,10.5,10499838875.073498,47.655,-122.3035,60.0,8.833333333333334
2026-02-06T21:31:58+00:00,SAT-56488,139.82621512291445,46.136698369007206,770.9382589450983,4.638020539423516,-162443.09809804126,10.5,10499837556.901901,47.655,-122.3035,60.0,8.85
2026-02-06T21:31:59+00:00,SAT-56488,139.9811846911842,45.72133149327941,775.5638455915024,4.674982447171923,-163737.66045610525,10.5,10499836262.339544,47.655,-122.3035,60.0,8.866666666666667
2026-02-06T21:32:00+00:00,SAT-56488,140.13213827239375,45.310342922882256,780.226295055881,4.711280946512202,-165008.98744550179,10.5,10499834991.012554,47.655,-122.3035,60.0,8.883333333333333
2026-02-06T21:32:01+00:00,SAT-56488,140.27923125198737,44.90369908061572,784.9249457083323,4.74692670451697,-166257.45267223564,10.5,10499833742.547327,47.655,-122.3035,60.0,8.9
2026-02-06T21:32:02+00:00,SAT-56488,140.42261119393075,44.50136506671227,789.6591465574304,4.781930384059425,-167483.42959523006,10.5,10499832516.570404,47.655,-122.3035,60.0,8.916666666666666
2026-02-06T21:32:03+00:00,SAT-56488,140.5624183210987,44.10330477756885,794.4282572460365,4.816302546164889,-168687.28810626492,10.5,10499831312.711893,47.655,-122.3035,60.0,8.933333333333334
2026-02-06T21:32:04+00:00,SAT-56488,140.69878595915657,43.70948102472107,799.2316479497251,4.85005379945435,-169869.39976412174,10.5,10499830130.600235,47.655,-122.3035,60.0,8.95
2026-02-06T21:32:05+00:00,SAT-56488,140.83184095243865,43.31985563394035,804.0686994242504,4.883194645682892,-171030.13238468583,10.5,10499828969.867615,47.655,-122.3035,60.0,8.966666666666667
2026-02-06T21:32:06+00:00,SAT-56488,140.9617040476105,42.93438955022702,808.9388028989691,4.915735541452426,-172169.85220238753,10.5,10499827830.147799,47.655,-122.3035,60.0,8.983333333333333
2026-02-06T21:32:07+00:00,SAT-56488,141.0884902519134,42.553042931038384,813.8413600318065,4.947686855415909,-173288.92237131277,10.5,10499826711.07763,47.655,-122.3035,60.0,9.0
2026-02-06T21:32:08+00:00,SAT-56488,141.21230916626953,42.17577523668106,818.7757828215437,4.979058898671301,-174387.70402972802,10.5,10499825612.29597,47.655,-122.3035,60.0,9.016666666666667
2026-02-06T21:32:09+00:00,SAT-56488,141.33326529629485,41.80254531245559,823.7414935504179,5.009861904970847,-175466.55560692554,10.5,10499824533.444393,47.655,-122.3035,60.0,9.033333333333333
2026-02-06T21:32:10+00:00,SAT-56488,141.451458342202,41.43331146687976,828.7379247069823,5.040105960057443,-176525.8303482843,10.5,10499823474.169651,47.655,-122.3035,60.0,9.05
2026-02-06T21:32:11+00:00,SAT-56488,141.56698346808776,41.06803154982549,833.7645188384955,5.069801114746704,-177565.88027588202,10.5,10499822434.119724,47.655,-122.3035,60.0,9.066666666666666
2026-02-06T21:32:12+00:00,SAT-56488,141.67993155569903,40.70666301732528,838.8207285160861,5.098957303886758,-178587.0533501245,10.5,10499821412.94665,47.655,-122.3035,60.0,9.083333333333334
2026-02-06T21:32:13+00:00,SAT-56488,141.79038944005805,40.349162997822006,843.9060162190975,5.127584295725192,-179589.69169636187,10.5,10499820410.308304,47.655,-122.3035,60.0,9.1
2026-02-06T21:32:14+00:00,SAT-56488,141.89844012934938,39.99548835738695,849.0198541689323,5.155691832986284,-180574.1365460101,10.5,10499819425.863455,47.655,-122.3035,60.0,9.116666666666667
2026-02-06T21:32:15+00:00,SAT-56488,142.00416301279785,39.645595750915874,854.1617243036,5.183289479063641,-181540.72284956626,10.5,10499818459.277151,47.655,-122.3035,60.0,9.133333333333333
2026-02-06T21:32:16+00:00,SAT-56488,142.10763405321762,39.29944168017486,859.331118098864,5.210386685652665,-182489.78164538406,10.5,10499817510.218355,47.655,-122.3035,60.0,9.15
2026-02-06T21:32:17+00:00,SAT-56488,142.20892596830086,38.95698254334602,864.5275364568461,5.236992801304165,-183421.64035925726,10.5,10499816578.35964,47.655,-122.3035,60.0,9.166666666666666
2026-02-06T21:32:18+00:00,SAT-56488,142.30810840114145,38.618174680595274,869.7504896031544,5.263117040059949,-184336.62170590519,10.5,10499815663.378294,47.655,-122.3035,60.0,9.183333333333334
2026-02-06T21:32:19+00:00,SAT-56488,142.40524807941568,38.28297441847388,874.9994969527404,5.288768450085245,-185235.04259034785,10.5,10499814764.957409,47.655,-122.3035,60.0,9.2
2026-02-06T21:32:20+00:00,SAT-56488,142.50040896473155,37.9513381131217,880.2740869444608,5.3139560205281295,-186117.21785057502,10.5,10499813882.78215,47.655,-122.3035,60.0,9.216666666666667
2026-02-06T21:32:21+00:00,SAT-56488,142.59365239431582,37.62322218379701,885.5737969822242,5.338688553740128,-186983.45578217096,10.5,10499813016.544218,47.655,-122.3035,60.0,9.233333333333333
2026-02-06T21:32:22+00:00,SAT-56488,142.68503721250016,37.298583151780534,890.8981732486906,5.362974703605631,-187834.0594807729,10.5,10499812165.94052,47.655,-122.3035,60.0,9.25
2026-02-06T21:32:23+00:00,SAT-56488,142.77461989502788,36.97737767410607,896.2467705572062,5.386823053019877,-188669.32955567786,10.5,10499811330.670444,47.655,-122.3035,60.0,9.266666666666667
2026-02-06T21:32:24+00:00,SAT-56488,142.86245466688993,36.659562570251346,901.6191522810027,5.410242007464936,-189489.56040242288,10.5,10499810510.439598,47.655,-122.3035,60.0,9.283333333333333
2026-02-06T21:32:25+00:00,SAT-56488,142.94859361211076,36.34509485301515,907.014890176259,5.4332398219508224,-190295.04114637745,10.5,10499809704.958853,47.655,-122.3035,60.0,9.3
2026-02-06T21:32:26+00:00,SAT-56488,143.0330867774549,36.03393175549053,912.4335642320343,5.455824637612014,-191086.0569245079,10.5,10499808913.943075,47.655,-122.3035,60.0,9.316666666666666
2026-02-06T21:32:27+00:00,SAT-56488,143.11598227064144,35.726030753896055,917.8747625566964,5.478004467770928,-191862.88839726165,10.5,10499808137.111603,47.655,-122.3035,60.0,9.333333333333334
2026-02-06T21:32:28+00:00,SAT-56488,143.19732635284987,35.4213495893888,923.3380812504539,5.499787156226292,-192625.81028764928,10.5,10499807374.189713,47.655,-122.3035,60.0,9.35
2026-02-06T21:32:29+00:00,SAT-56488,143.27716352553156,35.11984629040538,928.8231242362851,5.521180442831911,-193375.09367809066,10.5,10499806624.906322,47.655,-122.3035,60.0,9.366666666666667
2026-02-06T21:32:30+00:00,SAT-56488,143.35553661309865,34.8214791896552,934.3295031562725,5.542191907511819,-194111.00404958855,10.5,10499805888.99595,47.655,-122.3035,60.0,9.383333333333333
2026-02-06T21:32:31+00:00,SAT-56488,143.43248684048592,34.52620694265237,939.8568372121031,5.562829023780902,-194833.8031562471,10.5,10499805166.196844,47.655,-122.3035,60.0,9.4
2026-02-06T21:32:32+00:00,SAT-56488,143.50805390683692,34.23398854187656,945.4047530589415,5.583099081628134,-195543.74632431686,10.5,10499804456.253675,47.655,-122.3035,60.0,9.416666666666666
2026-02-06T21:32:33+00:00,SAT-56488,143.58227605474738,33.94478333365086,950.9728846223996,5.603009285823694,-196241.08589532558,10.5,10499803758.914104,47.655,-122.3035,60.0,9.433333333333334
2026-02-06T21:32:34+00:00,SAT-56488,143.65519013631172,33.6585510285234,956.5608730135428,5.622566683281012,-196926.0686819901,10.5,10499803073.931318,47.655,-122.3035,60.0,9.45
2026-02-06T21:32:35+00:00,SAT-56488,143.7268316753461,33.375251714290556,962.1683663714606,5.641778194860535,-197598.93708211838,10.5,10499802401.062918,47.655,-122.3035,60.0,9.466666666666667
2026-02-06T21:32:36+00:00,SAT-56488,143.79723492624765,33.09484586621176,967.795019737546,5.660650615004692,-198259.9290658248,10.5,10499801740.070934,47.655,-122.3035,60.0,9.483333333333333
2026-02-06T21:32:37+00:00,SAT-56488,143.86643293000725,32.81729435621107,973.4404949294216,5.679190579779005,-198909.2770561945,10.5,10499801090.722944,47.655,-122.3035,60.0,9.5
2026-02-06T21:32:38+00:00,SAT-56488,143.93445756693373,32.54255846264453,979.1044603829846,5.697404670578018,-199547.2115615036,10.5,10499800452.788439,47.655,-122.3035,60.0,9.516666666666667
2026-02-06T21:32:39+00:00,SAT-56488,144.00133960741863,32.270599874125836,984.7865910978826,5.715299249628021,-200173.95541382907,10.5,10499799826.044586,47.655,-122.3035,60.0,9.533333333333333
2026-02-06T21:32:40+00:00,SAT-56488,144.06710875890977,32.001380700464395,990.4865684189335,5.732880607559722,-200789.72893766756,10.5,10499799210.271063,47.655,-122.3035,60.0,9.55
2026-02-06T21:32:41+00:00,SAT-56488,144.13179371158236,31.734863475648417,996.2040799647222,5.750154907296966,-201394.74798468125,10.5,10499798605.252016,47.655,-122.3035,60.0,9.566666666666666
2026-02-06T21:32:42+00:00,SAT-56488,144.19542218120793,31.471011162844423,1001.938819500234,5.767128199927547,-201989.22448956085,10.5,10499798010.77551,47.655,-122.3035,60.0,9.583333333333334
2026-02-06T21:32:43+00:00,SAT-56488,144.25802095003743,31.209787157976596,1007.690486825321,5.783806371381055,-202573.364602458,10.5,10499797426.635397,47.655,-122.3035,60.0,9.6
2026-02-06T21:32:44+00:00,SAT-56488,144.31961590536645,30.95115529507069,1013.4587876099856,5.800195239741008,-203147.37209726797,10.5,10499796852.627903,47.655,-122.3035,60.0,9.616666666666667
2026-02-06T21:32:45+00:00,SAT-56488,144.38023207661573,30.69507984658423,1019.243433326716,5.816300480617989,-203711.4457578812,10.5,10499796288.554241,47.655,-122.3035,60.0,9.633333333333333
2026-02-06T21:32:46+00:00,SAT-56488,144.43989367039688,30.441525526595438,1025.0441411083948,5.832127660864191,-204265.7805590093,10.5,10499795734.21944,47.655,-122.3035,60.0,9.65
2026-02-06T21:32:47+00:00,SAT-56488,144.49862410378176,30.190457491955463,1030.860633639834,5.847682233574051,-204810.56749108588,10.5,10499795189.432508,47.655,-122.3035,60.0,9.666666666666666
