DopplerPredictor/satellites_20260211_204923/SAT-47621.csv

timestamp,satellite,azimuth_deg,elevation_deg,distance_km,relative_velocity_kms,doppler_shift_hz,tx_freq_ghz,rx_freq_hz,ue_lat,ue_lon,ue_alt_m,time_minutes
2026-02-06T21:23:55+00:00,SAT-47621,295.38120855856863,30.197712980328753,996.2188162187033,-5.795413650941174,202979.9006313972,10.5,10500202979.90063,47.655,-122.3035,60.0,0.8
2026-02-06T21:23:56+00:00,SAT-47621,295.35165987660645,30.452445891732054,990.4389392719931,-5.78002446219684,202440.90614536678,10.5,10500202440.906145,47.655,-122.3035,60.0,0.8166666666666667
2026-02-06T21:23:57+00:00,SAT-47621,295.3215517206292,30.70980298040731,984.6744102577361,-5.764356777239012,201892.15754390202,10.5,10500201892.157543,47.655,-122.3035,60.0,0.8333333333333334
2026-02-06T21:23:58+00:00,SAT-47621,295.2908696276774,30.9698231216,978.9255069255357,-5.748404831761197,201333.45293660645,10.5,10500201333.452936,47.655,-122.3035,60.0,0.85
2026-02-06T21:23:59+00:00,SAT-47621,295.2595986318248,31.232545753662198,973.1925127738483,-5.732162690811181,200764.5844563488,10.5,10500200764.584455,47.655,-122.3035,60.0,0.8666666666666667
2026-02-06T21:24:00+00:00,SAT-47621,295.22772324232955,31.498010878066957,967.4757172201728,-5.715624337049627,200185.34135045216,10.5,10500200185.34135,47.655,-122.3035,60.0,0.8833333333333333
2026-02-06T21:24:01+00:00,SAT-47621,295.19522742028516,31.766259063047446,961.7754156832148,-5.698783618684993,199595.50815715457,10.5,10500199595.508158,47.655,-122.3035,60.0,0.9
2026-02-06T21:24:02+00:00,SAT-47621,295.1620945542275,32.0373314444804,956.0919097169791,-5.68163422680527,198994.86391167098,10.5,10500198994.863913,47.655,-122.3035,60.0,0.9166666666666666
2026-02-06T21:24:03+00:00,SAT-47621,295.12830743449365,32.31126972519177,950.4255071674706,-5.664169737986883,198383.18363853663,10.5,10500198383.183638,47.655,-122.3035,60.0,0.9333333333333333
2026-02-06T21:24:04+00:00,SAT-47621,295.09384822599696,32.588116175750386,944.7765222868957,-5.6463835895255805,197760.2374840884,10.5,10500197760.237484,47.655,-122.3035,60.0,0.95
2026-02-06T21:24:05+00:00,SAT-47621,295.0586984396795,32.86791363354441,939.1452758725728,-5.6282690738272105,197125.79052000603,10.5,10500197125.79052,47.655,-122.3035,60.0,0.9666666666666667
2026-02-06T21:24:06+00:00,SAT-47621,295.02283890227636,33.15070550095557,933.5320954114313,-5.609819364524629,196479.60365803668,10.5,10500196479.603659,47.655,-122.3035,60.0,0.9833333333333333
2026-02-06T21:24:07+00:00,SAT-47621,294.9862497243884,33.43653574418629,927.9373151984677,-5.591027458154017,195821.4316072527,10.5,10500195821.431608,47.655,-122.3035,60.0,1.0
2026-02-06T21:24:08+00:00,SAT-47621,294.9489102669325,33.72544888842477,922.3612765133671,-5.57188624203297,195151.0252514297,10.5,10500195151.025251,47.655,-122.3035,60.0,1.0166666666666666
2026-02-06T21:24:09+00:00,SAT-47621,294.9107991053927,34.01749001566686,916.8043277294291,-5.55238844302711,194468.1298546365,10.5,10500194468.129854,47.655,-122.3035,60.0,1.0333333333333334
2026-02-06T21:24:10+00:00,SAT-47621,294.8718939922411,34.31270475910374,911.2668244735879,-5.532526636180556,193772.4853635105,10.5,10500193772.485363,47.655,-122.3035,60.0,1.05
2026-02-06T21:24:11+00:00,SAT-47621,294.8321718171464,34.6111392970098,905.7491297778303,-5.5122932337273145,193063.82602239045,10.5,10500193063.826023,47.655,-122.3035,60.0,1.0666666666666667
2026-02-06T21:24:12+00:00,SAT-47621,294.79160856491814,34.91284034502308,900.2516142415661,-5.491680563538183,192341.8831208586,10.5,10500192341.883121,47.655,-122.3035,60.0,1.0833333333333333
2026-02-06T21:24:13+00:00,SAT-47621,294.7501792704564,35.217855151689406,894.774656115767,-5.470680702854364,191606.37917038868,10.5,10500191606.37917,47.655,-122.3035,60.0,1.1
2026-02-06T21:24:14+00:00,SAT-47621,294.70785797205747,35.52623148375783,889.318641552923,-5.44928566078321,190857.03429611863,10.5,10500190857.034296,47.655,-122.3035,60.0,1.1166666666666667
2026-02-06T21:24:15+00:00,SAT-47621,294.6646176607362,35.83801762028105,883.8839646749947,-5.427487249801087,190093.56173633764,10.5,10500190093.561737,47.655,-122.3035,60.0,1.1333333333333333
2026-02-06T21:24:16+00:00,SAT-47621,294.6204302272763,36.15326233831896,878.4710277695174,-5.4052771366874035,189315.66962641114,10.5,10500189315.669626,47.655,-122.3035,60.0,1.15
2026-02-06T21:24:17+00:00,SAT-47621,294.57526640568796,36.472014900042886,873.0802414349054,-5.382646838081765,188523.06084317347,10.5,10500188523.060843,47.655,-122.3035,60.0,1.1666666666666667
2026-02-06T21:24:18+00:00,SAT-47621,294.5290957132303,36.79432503811903,867.7120247301909,-5.359587703319224,187715.43240374597,10.5,10500187715.432404,47.655,-122.3035,60.0,1.1833333333333333
2026-02-06T21:24:19+00:00,SAT-47621,294.4818863866698,37.12024293845849,862.3668053418811,-5.336090912882499,186892.47541132683,10.5,10500186892.47541,47.655,-122.3035,60.0,1.2
2026-02-06T21:24:20+00:00,SAT-47621,294.4336053146547,37.4498192210888,857.0450197523556,-5.312147544835576,186053.8773819772,10.5,10500186053.877382,47.655,-122.3035,60.0,1.2166666666666666
2026-02-06T21:24:21+00:00,SAT-47621,294.38421796515854,37.78310492331181,851.7471133420114,-5.287748460701812,185199.31824758925,10.5,10500185199.318247,47.655,-122.3035,60.0,1.2333333333333334
2026-02-06T21:24:22+00:00,SAT-47621,294.3336883091233,38.120151473889656,846.4735406052234,-5.262884393045071,184328.47342334827,10.5,10500184328.473423,47.655,-122.3035,60.0,1.25
2026-02-06T21:24:23+00:00,SAT-47621,294.28197873843567,38.4610106704947,841.224765278958,-5.237545914574275,183441.01272564332,10.5,10500183441.012726,47.655,-122.3035,60.0,1.2666666666666666
2026-02-06T21:24:24+00:00,SAT-47621,294.22904997874866,38.805734653040666,836.0012605021994,-5.211723442662629,182536.6005303496,10.5,10500182536.60053,47.655,-122.3035,60.0,1.2833333333333334
2026-02-06T21:24:25+00:00,SAT-47621,294.17486099640774,39.15437587491742,830.8035089708685,-5.185407245574071,181614.89599090494,10.5,10500181614.89599,47.655,-122.3035,60.0,1.3
2026-02-06T21:24:26+00:00,SAT-47621,294.11936889905564,39.50698707211489,825.6320030865336,-5.15858741821852,180675.55218915635,10.5,10500180675.552189,47.655,-122.3035,60.0,1.3166666666666667
2026-02-06T21:24:27+00:00,SAT-47621,294.06252882973104,39.8636212279966,820.4872451292981,-5.1312539444772876,179718.21831825908,10.5,10500179718.218319,47.655,-122.3035,60.0,1.3333333333333333
2026-02-06T21:24:28+00:00,SAT-47621,294.0042938529832,40.22433153947921,815.3697473685331,-5.103396644195489,178742.53782612714,10.5,10500178742.537827,47.655,-122.3035,60.0,1.35
2026-02-06T21:24:29+00:00,SAT-47621,293.94461483367877,40.58917137662456,810.280032226472,-5.075005147065912,177748.14750073562,10.5,10500177748.147501,47.655,-122.3035,60.0,1.3666666666666667
2026-02-06T21:24:30+00:00,SAT-47621,293.8834403073673,40.9581942369779,805.2186324678547,-5.046069027119083,176734.6821805316,10.5,10500176734.68218,47.655,-122.3035,60.0,1.3833333333333333
2026-02-06T21:24:31+00:00,SAT-47621,293.8207163402737,41.33145370617541,800.1860912554399,-5.016577648711838,175701.76936030295,10.5,10500175701.76936,47.655,-122.3035,60.0,1.4
2026-02-06T21:24:32+00:00,SAT-47621,293.75638638052806,41.709003403881006,795.1829623591165,-4.986520292891723,174649.03361699343,10.5,10500174649.033617,47.655,-122.3035,60.0,1.4166666666666667
2026-02-06T21:24:33+00:00,SAT-47621,293.6903910974439,42.09089693508912,790.2098102389901,-4.955886063744414,173576.09332959386,10.5,10500173576.09333,47.655,-122.3035,60.0,1.4333333333333333
2026-02-06T21:24:34+00:00,SAT-47621,293.6226682097787,42.47718783038925,785.2672102218704,-4.924663982401544,172482.56397169342,10.5,10500172482.563972,47.655,-122.3035,60.0,1.45
2026-02-06T21:24:35+00:00,SAT-47621,293.5531523002387,42.86792948905371,780.355748584002,-4.892842944478692,171368.0566207782,10.5,10500171368.056622,47.655,-122.3035,60.0,1.4666666666666666
2026-02-06T21:24:36+00:00,SAT-47621,293.4817746163765,43.26317511443292,775.4760226762451,-4.8604117357939876,170232.1785087631,10.5,10500170232.178509,47.655,-122.3035,60.0,1.4833333333333334
2026-02-06T21:24:37+00:00,SAT-47621,293.40846285609274,43.66297764577566,770.628641033578,-4.827359015199048,169074.53242065883,10.5,10500169074.532421,47.655,-122.3035,60.0,1.5
2026-02-06T21:24:38+00:00,SAT-47621,293.33314093677035,44.06738968351102,765.8142235017231,-4.793673381469593,167894.71903736392,10.5,10500167894.719038,47.655,-122.3035,60.0,1.5166666666666666
2026-02-06T21:24:39+00:00,SAT-47621,293.255728745429,44.476463414700596,761.033401297062,-4.759343344318498,166692.3359204194,10.5,10500166692.33592,47.655,-122.3035,60.0,1.5333333333333334
2026-02-06T21:24:40+00:00,SAT-47621,293.1761418694137,44.8902505305902,756.2868170954603,-4.724357317051507,165466.9772547808,10.5,10500165466.977255,47.655,-122.3035,60.0,1.55
2026-02-06T21:24:41+00:00,SAT-47621,293.09429130546147,45.308802137500024,751.5751251284147,-4.688703658801822,164218.235328052,10.5,10500164218.235329,47.655,-122.3035,60.0,1.5666666666666667
2026-02-06T21:24:42+00:00,SAT-47621,293.0100831446319,45.732168665047695,746.8989912370808,-4.652370702936031,162945.701525381,10.5,10500162945.701525,47.655,-122.3035,60.0,1.5833333333333333
2026-02-06T21:24:43+00:00,SAT-47621,292.92341823055705,46.160399770459165,742.2590928979723,-4.615346699734916,161648.96432189972,10.5,10500161648.964321,47.655,-122.3035,60.0,1.6
2026-02-06T21:24:44+00:00,SAT-47621,292.8341917901935,46.593544230742225,737.6561193058216,-4.577619880234254,160327.61151869828,10.5,10500160327.611519,47.655,-122.3035,60.0,1.6166666666666667
2026-02-06T21:24:45+00:00,SAT-47621,292.7422930320574,47.03164983317937,733.0907713927749,-4.539178509017532,158981.23209184964,10.5,10500158981.232092,47.655,-122.3035,60.0,1.6333333333333333
2026-02-06T21:24:46+00:00,SAT-47621,292.64760470920623,47.474763263321165,728.563761794933,-4.500010801175,157609.41328396427,10.5,10500157609.413284,47.655,-122.3035,60.0,1.65
2026-02-06T21:24:47+00:00,SAT-47621,292.5500026452858,47.92292997697074,724.0758149017146,-4.4601050253345615,156211.74421276766,10.5,10500156211.744213,47.655,-122.3035,60.0,1.6666666666666667
2026-02-06T21:24:48+00:00,SAT-47621,292.4493552170501,48.3761940734854,719.6276668024584,-4.419449452592538,154787.81408243979,10.5,10500154787.814083,47.655,-122.3035,60.0,1.6833333333333333
2026-02-06T21:24:49+00:00,SAT-47621,292.34552279120174,48.834598155046194,715.2200652839643,-4.378032459295408,153337.2157834664,10.5,10500153337.215784,47.655,-122.3035,60.0,1.7
2026-02-06T21:24:50+00:00,SAT-47621,292.23835710812824,49.29818318688221,710.8537697255236,-4.335842463916877,151859.54368180674,10.5,10500151859.543682,47.655,-122.3035,60.0,1.7166666666666666
2026-02-06T21:24:51+00:00,SAT-47621,292.12770060974333,49.76698834113476,706.5295510569064,-4.292868014838356,150354.39669333753,10.5,10500150354.396694,47.655,-122.3035,60.0,1.7333333333333334
2026-02-06T21:24:52+00:00,SAT-47621,292.01338570253046,50.24105083939986,702.2481916288,-4.249097726632686,148821.37605223944,10.5,10500148821.376053,47.655,-122.3035,60.0,1.75
2026-02-06T21:24:53+00:00,SAT-47621,291.8952339517879,50.72040577721273,698.0104851467967,-4.2045204341023785,147260.09070606763,10.5,10500147260.090706,47.655,-122.3035,60.0,1.7666666666666666
2026-02-06T21:24:54+00:00,SAT-47621,291.773055194282,51.20508595381527,693.8172364517544,-4.1591250878194845,145670.15365711632,10.5,10500145670.153658,47.655,-122.3035,60.0,1.7833333333333334
2026-02-06T21:24:55+00:00,SAT-47621,291.64664656617936,51.69512167805959,689.6692614043361,-4.112900866111694,144051.18588464553,10.5,10500144051.185884,47.655,-122.3035,60.0,1.8
2026-02-06T21:24:56+00:00,SAT-47621,291.51579143113867,52.19054057385604,685.567386657866,-4.065837140661198,142402.8151400079,10.5,10500142402.81514,47.655,-122.3035,60.0,1.8166666666666667
2026-02-06T21:24:57+00:00,SAT-47621,291.38025820040883,52.6913673677685,681.5124494654938,-4.017923578249646,140724.67951018727,10.5,10500140724.67951,47.655,-122.3035,60.0,1.8333333333333333
2026-02-06T21:24:58+00:00,SAT-47621,291.2397990283948,53.19762367413151,677.5052973858836,-3.9691501208006095,139016.42671880158,10.5,10500139016.42672,47.655,-122.3035,60.0,1.85
2026-02-06T21:24:59+00:00,SAT-47621,291.0941483718269,53.7093277624034,673.546788008814,-3.9195069966089546,137277.7145194027,10.5,10500137277.71452,47.655,-122.3035,60.0,1.8666666666666667
2026-02-06T21:25:00+00:00,SAT-47621,290.9430213947697,54.22649430897377,669.6377886695713,-3.868984833894549,135508.21467260784,10.5,10500135508.214672,47.655,-122.3035,60.0,1.8833333333333333
2026-02-06T21:25:01+00:00,SAT-47621,290.7861121968049,54.74913414587977,665.7791760500965,-3.8175746059668616,133707.6110255317,10.5,10500133707.611025,47.655,-122.3035,60.0,1.9
2026-02-06T21:25:02+00:00,SAT-47621,290.6230918472086,55.27725398345191,661.9718358348229,-3.7652677381465356,131875.60325663237,10.5,10500131875.603256,47.655,-122.3035,60.0,1.9166666666666667
2026-02-06T21:25:03+00:00,SAT-47621,290.4536061941015,55.8108561267644,658.2166622598753,-3.7120560908593263,130011.90628358943,10.5,10500130011.906284,47.655,-122.3035,60.0,1.9333333333333333
2026-02-06T21:25:04+00:00,SAT-47621,290.27727342317684,56.34993816783809,654.5145576791317,-3.6579320389529424,128116.25304131533,10.5,10500128116.253042,47.655,-122.3035,60.0,1.95
2026-02-06T21:25:05+00:00,SAT-47621,290.09368132859277,56.89449266507685,650.8664320511807,-3.6028884731663156,126188.39453341522,10.5,10500126188.394533,47.655,-122.3035,60.0,1.9666666666666666
2026-02-06T21:25:06+00:00,SAT-47621,289.9023842590537,57.4445067969741,647.2732024248122,-3.5469188933063496,124228.10309563114,10.5,10500124228.103096,47.655,-122.3035,60.0,1.9833333333333334
2026-02-06T21:25:07+00:00,SAT-47621,289.7028996899559,57.999962001357495,643.735792331584,-3.4900173819166804,122235.17147361039,10.5,10500122235.171474,47.655,-122.3035,60.0,2.0
2026-02-06T21:25:08+00:00,SAT-47621,289.49470437323,58.56083357953609,640.255131204646,-3.4321787095243965,120209.41650909098,10.5,10500120209.41651,47.655,-122.3035,60.0,2.0166666666666666
2026-02-06T21:25:09+00:00,SAT-47621,289.2772299971151,59.12709028232468,636.832153692601,-3.3733983303773463,118150.678990604,10.5,10500118150.678991,47.655,-122.3035,60.0,2.033333333333333
2026-02-06T21:25:10+00:00,SAT-47621,289.049858288455,59.69869385737078,633.4677989776184,-3.313672442375827,116058.82575253505,10.5,10500116058.825752,47.655,-122.3035,60.0,2.05
2026-02-06T21:25:11+00:00,SAT-47621,288.81191546985633,60.27559856337294,630.1630100337738,-3.2529980561454965,113933.75209434959,10.5,10500113933.752094,47.655,-122.3035,60.0,2.066666666666667
2026-02-06T21:25:12+00:00,SAT-47621,288.56266597097346,60.85775064826216,626.9187328165033,-3.1913729949485603,111775.3817774825,10.5,10500111775.381777,47.655,-122.3035,60.0,2.0833333333333335
2026-02-06T21:25:13+00:00,SAT-47621,288.3013052808915,61.445087773263666,623.7359154521447,-3.128795968478301,109583.66960993448,10.5,10500109583.66961,47.655,-122.3035,60.0,2.1
2026-02-06T21:25:14+00:00,SAT-47621,288.0269517987572,62.03753838822641,620.6155073538838,-3.0652666019518615,107358.60246522461,10.5,10500107358.602465,47.655,-122.3035,60.0,2.1166666666666667
2026-02-06T21:25:15+00:00,SAT-47621,287.738637521126,62.635021041725125,617.5584583086851,-3.0007854810589816,105100.20085668501,10.5,10500105100.200857,47.655,-122.3035,60.0,2.1333333333333333
2026-02-06T21:25:16+00:00,SAT-47621,287.4352973704374,63.23744361809371,614.5657175193921,-2.935354217773665,102808.52124246395,10.5,10500102808.521242,47.655,-122.3035,60.0,2.15
2026-02-06T21:25:17+00:00,SAT-47621,287.1157569298582,63.8447024930796,611.6382325811976,-2.868975471352418,100483.65676097292,10.5,10500100483.656761,47.655,-122.3035,60.0,2.1666666666666665
2026-02-06T21:25:18+00:00,SAT-47621,286.77871831080904,64.45668158398612,608.7769484371652,-2.801652960115042,98125.73764349983,10.5,10500098125.737644,47.655,-122.3035,60.0,2.183333333333333
2026-02-06T21:25:19+00:00,SAT-47621,286.42274382186724,65.07325127251993,605.9828063220082,-2.7333915891931655,95734.935688503,10.5,10500095734.935688,47.655,-122.3035,60.0,2.2
2026-02-06T21:25:20+00:00,SAT-47621,286.0462370260562,65.69426720257637,603.2567425784576,-2.6641973729243262,93311.46154352363,10.5,10500093311.461544,47.655,-122.3035,60.0,2.216666666666667
2026-02-06T21:25:21+00:00,SAT-47621,285.6474207254823,66.31956888019542,600.599687551031,-2.594077596816653,90855.57037787409,10.5,10500090855.570377,47.655,-122.3035,60.0,2.2333333333333334
2026-02-06T21:25:22+00:00,SAT-47621,285.2243112606286,66.94897809384331,598.0125643182686,-2.523040731457074,88367.55886733907,10.5,10500088367.558867,47.655,-122.3035,60.0,2.25
2026-02-06T21:25:23+00:00,SAT-47621,284.7746884448384,67.58229705561541,595.4962875108328,-2.4510965478639903,85847.76923431442,10.5,10500085847.769234,47.655,-122.3035,60.0,2.2666666666666666
2026-02-06T21:25:24+00:00,SAT-47621,284.2960602436975,68.2193062561469,593.0517620145622,-2.3782561273344136,83296.58959269531,10.5,10500083296.589592,47.655,-122.3035,60.0,2.283333333333333
2026-02-06T21:25:25+00:00,SAT-47621,283.7856211554845,68.85976194267334,590.679881663706,-2.3045318659898695,80714.45410709307,10.5,10500080714.454107,47.655,-122.3035,60.0,2.3
2026-02-06T21:25:26+00:00,SAT-47621,283.24020300383563,69.50339313422982,588.3815279296235,-2.229937505493066,78101.84406866298,10.5,10500078101.844069,47.655,-122.3035,60.0,2.316666666666667
2026-02-06T21:25:27+00:00,SAT-47621,282.65621655264016,70.14989807529118,586.157568578851,-2.1544881877614426,75459.28981140396,10.5,10500075459.289812,47.655,-122.3035,60.0,2.3333333333333335
2026-02-06T21:25:28+00:00,SAT-47621,282.0295819874162,70.79894000327519,584.0088562766017,-2.0782004244385335,72787.36964291678,10.5,10500072787.369642,47.655,-122.3035,60.0,2.35
2026-02-06T21:25:29+00:00,SAT-47621,281.3556458856147,71.45014203784754,581.9362272207095,-2.001092118294846,70086.71059395325,10.5,10500070086.710594,47.655,-122.3035,60.0,2.3666666666666667
2026-02-06T21:25:30+00:00,SAT-47621,280.62908171896834,72.10308099186265,579.9404997542329,-1.923182604601909,67357.98986751042,10.5,10500067357.989868,47.655,-122.3035,60.0,2.3833333333333333
2026-02-06T21:25:31+00:00,SAT-47621,279.8437702593007,72.75727983861049,578.0224729367948,-1.844492601066015,64601.933085298486,10.5,10500064601.933084,47.655,-122.3035,60.0,2.4
2026-02-06T21:25:32+00:00,SAT-47621,278.9926554876572,73.41219845548271,576.1829251658521,-1.765044253341081,61819.315881793635,10.5,10500061819.315882,47.655,-122.3035,60.0,2.4166666666666665
2026-02-06T21:25:33+00:00,SAT-47621,278.0675705934233,74.06722222408331,574.4226127525782,-1.684861089985385,59010.962326632456,10.5,10500059010.962326,47.655,-122.3035,60.0,2.433333333333333
2026-02-06T21:25:34+00:00,SAT-47621,277.05902762694103,74.72164787450072,572.7422685426641,-1.6039680436347628,56177.74566618687,10.5,10500056177.745667,47.655,-122.3035,60.0,2.45
2026-02-06T21:25:35+00:00,SAT-47621,275.95596314929014,75.37466584519017,571.1426005160067,-1.5223913996738085,53320.58652581243,10.5,10500053320.586525,47.655,-122.3035,60.0,2.466666666666667
2026-02-06T21:25:36+00:00,SAT-47621,274.74543119401557,76.02533815990654,569.6242904375855,-1.4401587963383466,50440.45291343734,10.5,10500050440.452913,47.655,-122.3035,60.0,2.4833333333333334
2026-02-06T21:25:37+00:00,SAT-47621,273.4122340875289,76.67257058899882,568.1879925082382,-1.3572991838846087,47538.358789494276,10.5,10500047538.35879,47.655,-122.3035,60.0,2.5
2026-02-06T21:25:38+00:00,SAT-47621,271.9384820101135,77.3150774756737,566.8343320561584,-1.2738427956622551,44615.36305377529,10.5,10500044615.363054,47.655,-122.3035,60.0,2.5166666666666666
2026-02-06T21:25:39+00:00,SAT-47621,270.3030746105073,77.95133720340715,565.5639042572408,-1.1898211047855258,41672.56802787221,10.5,10500041672.568027,47.655,-122.3035,60.0,2.533333333333333
2026-02-06T21:25:40+00:00,SAT-47621,268.4811047662863,78.57953578737379,564.3772728986421,-1.1052667757660937,38711.11776115456,10.5,10500038711.117762,47.655,-122.3035,60.0,2.55
2026-02-06T21:25:41+00:00,SAT-47621,266.44319944099533,79.19749559672006,563.2749691905749,-1.0202136032250613,35732.19588420448,10.5,10500035732.195885,47.655,-122.3035,60.0,2.566666666666667
2026-02-06T21:25:42+00:00,SAT-47621,264.1548420300089,79.8025858869356,562.2574906392306,-0.9346964872052355,32737.024744148075,10.5,10500032737.024744,47.655,-122.3035,60.0,2.5833333333333335
2026-02-06T21:25:43+00:00,SAT-47621,261.57577496997743,80.39161202169862,561.3252999443192,-0.8487513335601784,29726.861915858713,10.5,10500029726.861916,47.655,-122.3035,60.0,2.6
2026-02-06T21:25:44+00:00,SAT-47621,258.65967687369454,80.96068153680868,560.4788239959566,-0.7624150022725765,26702.99839184765,10.5,10500026702.998392,47.655,-122.3035,60.0,2.6166666666666667
2026-02-06T21:25:45+00:00,SAT-47621,255.35446442970218,81.50504901636667,559.7184529230921,-0.6757252349482432,23666.756042797297,10.5,10500023666.756042,47.655,-122.3035,60.0,2.6333333333333333
2026-02-06T21:25:46+00:00,SAT-47621,251.60380315076372,82.0189499606863,559.0445392142486,-0.5887205796968517,20619.48498656675,10.5,10500020619.484987,47.655,-122.3035,60.0,2.65
2026-02-06T21:25:47+00:00,SAT-47621,247.3507095283129,82.49544956115781,558.4573969131825,-0.5014402991665197,17562.560367173934,10.5,10500017562.560368,47.655,-122.3035,60.0,2.6666666666666665
2026-02-06T21:25:48+00:00,SAT-47621,242.5443872174706,82.92635847280869,557.9573009062593,-0.4139242962404273,14497.379752376848,10.5,10500014497.379753,47.655,-122.3035,60.0,2.683333333333333
2026-02-06T21:25:49+00:00,SAT-47621,237.15136369321883,83.30230391883642,557.5444862839354,-0.32621302366841815,11425.359968589972,10.5,10500011425.359968,47.655,-122.3035,60.0,2.7
2026-02-06T21:25:50+00:00,SAT-47621,231.17101141819262,83.61307906384367,557.219147792366,-0.23834738433693684,8347.933607915636,10.5,10500008347.933607,47.655,-122.3035,60.0,2.716666666666667
2026-02-06T21:25:51+00:00,SAT-47621,224.65300790725183,83.84839347869942,556.9814393844745,-0.15036864917387677,5266.546152824519,10.5,10500005266.546152,47.655,-122.3035,60.0,2.7333333333333334
2026-02-06T21:25:52+00:00,SAT-47621,217.71040298247365,83.99905935616044,556.8314738528983,-0.06231835176793996,2182.6522852798707,10.5,10500002182.652285,47.655,-122.3035,60.0,2.75
2026-02-06T21:25:53+00:00,SAT-47621,210.51915412519742,84.05844018792315,556.7693225680314,0.02576180392928182,-902.2873459260244,10.5,10499999097.712654,47.655,-122.3035,60.0,2.7666666666666666
2026-02-06T21:25:54+00:00,SAT-47621,203.29767244178217,84.02373560777168,556.7950153081194,0.1138300444353163,-3986.809656735331,10.5,10499996013.190344,47.655,-122.3035,60.0,2.783333333333333
2026-02-06T21:25:55+00:00,SAT-47621,196.26982328121525,83.8965847103011,556.9085401899142,0.20184462478739632,-7069.452561970927,10.5,10499992930.547438,47.655,-122.3035,60.0,2.8
2026-02-06T21:25:56+00:00,SAT-47621,189.6256394630451,83.68270775231157,557.1098436971171,0.2897639253228141,-10148.758364993784,10.5,10499989851.241634,47.655,-122.3035,60.0,2.816666666666667
2026-02-06T21:25:57+00:00,SAT-47621,183.4956357670261,83.3907552992828,557.3988308053434,0.3775465539331194,-13223.277339077536,10.5,10499986776.72266,47.655,-122.3035,60.0,2.8333333333333335
2026-02-06T21:25:58+00:00,SAT-47621,177.94538457891173,83.03085299997292,557.7753652090669,0.46515143970945694,-16291.571007264292,10.5,10499983708.428993,47.655,-122.3035,60.0,2.85
2026-02-06T21:25:59+00:00,SAT-47621,172.9859134302442,82.61331814400678,558.2392696419575,0.552537923743206,-19352.215322587144,10.5,10499980647.784678,47.655,-122.3035,60.0,2.8666666666666667
2026-02-06T21:26:00+00:00,SAT-47621,168.59078484639085,82.14779061279854,558.7903262877772,0.6396658638613084,-22403.804336344372,10.5,10499977596.195663,47.655,-122.3035,60.0,2.8833333333333333
2026-02-06T21:26:01+00:00,SAT-47621,164.71251338883326,81.64278749254304,559.4282772957315,0.7264957108632355,-25444.95286824051,10.5,10499974555.047132,47.655,-122.3035,60.0,2.9
2026-02-06T21:26:02+00:00,SAT-47621,161.2949275984195,81.1055710943791,560.1528253718503,0.8129886038577445,-28474.299845482827,10.5,10499971525.700155,47.655,-122.3035,60.0,2.9166666666666665
2026-02-06T21:26:03+00:00,SAT-47621,158.28105949393267,80.54220212405858,560.9636344654534,0.899106450195683,-31490.511102366265,10.5,10499968509.488897,47.655,-122.3035,60.0,2.933333333333333
2026-02-06T21:26:04+00:00,SAT-47621,155.61748544842158,79.95767947194412,561.8603305353329,0.9848120042133702,-34492.28213819971,10.5,10499965507.717861,47.655,-122.3035,60.0,2.95
2026-02-06T21:26:05+00:00,SAT-47621,153.25629199595517,79.35610570974407,562.842502394467,1.0700689451398278,-37478.340845946805,10.5,10499962521.659155,47.655,-122.3035,60.0,2.966666666666667
2026-02-06T21:26:06+00:00,SAT-47621,151.15562951825362,78.7408465443866,563.9097026324343,1.1548419452460017,-40447.44989909992,10.5,10499959552.5501,47.655,-122.3035,60.0,2.9833333333333334
2026-02-06T21:26:07+00:00,SAT-47621,149.27951256108614,78.11467074049546,565.0614486057932,1.2390967240113335,-43398.40864882265,10.5,10499956601.59135,47.655,-122.3035,60.0,3.0
2026-02-06T21:26:08+00:00,SAT-47621,147.59727112316898,77.47986693208719,566.2972234824831,1.3228001313596764,-46330.05603922365,10.5,10499953669.94396,47.655,-122.3035,60.0,3.0166666666666666
2026-02-06T21:26:09+00:00,SAT-47621,146.08288156960492,76.83833842055022,567.6164773692369,1.4059201845651985,-49241.271899957486,10.5,10499950758.7281,47.655,-122.3035,60.0,3.033333333333333
2026-02-06T21:26:10+00:00,SAT-47621,144.7142965893568,76.19167892274865,569.0186284758042,1.4884261164199282,-52130.97863325582,10.5,10499947869.021366,47.655,-122.3035,60.0,3.05
2026-02-06T21:26:11+00:00,SAT-47621,143.47282996917386,75.54123259582883,570.5030643272089,1.5702884288927381,-54998.14309329206,10.5,10499945001.856907,47.655,-122.3035,60.0,3.066666666666667
2026-02-06T21:26:12+00:00,SAT-47621,142.34261715451626,74.88814143641467,572.0691430295235,1.6514789155518148,-57841.77737151098,10.5,10499942158.222628,47.655,-122.3035,60.0,3.0833333333333335
2026-02-06T21:26:13+00:00,SAT-47621,141.31015464902717,74.23338270979798,573.7161945580068,1.731970720815903,-60660.94087185802,10.5,10499939339.059128,47.655,-122.3035,60.0,3.1
2026-02-06T21:26:14+00:00,SAT-47621,140.3639127950808,73.57779854536228,575.4435221043321,1.8117383317458569,-63454.74002328469,10.5,10499936545.259977,47.655,-122.3035,60.0,3.1166666666666667
2026-02-06T21:26:15+00:00,SAT-47621,139.49401321857675,72.92211943446557,577.2504034156304,1.8907576153323442,-66222.32958572164,10.5,10499933777.670414,47.655,-122.3035,60.0,3.1333333333333333
2026-02-06T21:26:16+00:00,SAT-47621,138.69196141687843,72.2669829493052,579.1360921707206,1.9690058526317618,-68962.91384566286,10.5,10499931037.086155,47.655,-122.3035,60.0,3.15
2026-02-06T21:26:17+00:00,SAT-47621,137.950425538608,71.61294872540479,581.0998193903844,2.046461694813229,-71675.7450767454,10.5,10499928324.254923,47.655,-122.3035,60.0,3.1666666666666665
2026-02-06T21:26:18+00:00,SAT-47621,137.26305345313466,70.96051053876441,583.1407948038054,2.1231052310214267,-74360.12591659321,10.5,10499925639.874083,47.655,-122.3035,60.0,3.183333333333333
2026-02-06T21:26:19+00:00,SAT-47621,136.62432128889657,70.31010606209175,585.2582082826909,2.198917957337459,-77015.40827969501,10.5,10499922984.59172,47.655,-122.3035,60.0,3.2
2026-02-06T21:26:20+00:00,SAT-47621,136.02940782561797,69.6621248167744,587.4512312444356,2.2738827482951645,-79640.99235978522,10.5,10499920359.00764,47.655,-122.3035,60.0,3.216666666666667
2026-02-06T21:26:21+00:00,SAT-47621,135.47409006534724,69.01691469180635,589.7190180268784,2.3479839144408206,-82236.32864582809,10.5,10499917763.671354,47.655,-122.3035,60.0,3.2333333333333334
2026-02-06T21:26:22+00:00,SAT-47621,134.95465613851113,68.37478729677089,592.0607073204662,2.4212070862712447,-84800.9138570393,10.5,10499915199.086143,47.655,-122.3035,60.0,3.25
2026-02-06T21:26:23+00:00,SAT-47621,134.46783248069482,67.73602242674112,594.4754234846657,2.493539318179098,-87334.29458348991,10.5,10499912665.705416,47.655,-122.3035,60.0,3.2666666666666666
2026-02-06T21:26:24+00:00,SAT-47621,134.01072269020491,67.10087175623752,596.9622779680412,2.5649689660456105,-89836.06299888609,10.5,10499910163.937,47.655,-122.3035,60.0,3.283333333333333
2026-02-06T21:26:25+00:00,SAT-47621,133.5807560654432,66.46956196588803,599.5203706062546,2.6354857060265453,-92305.8575185328,10.5,10499907694.14248,47.655,-122.3035,60.0,3.3
2026-02-06T21:26:26+00:00,SAT-47621,133.17564411164295,65.84229737421927,602.1487909388005,2.705080511705685,-94743.36199915242,10.5,10499905256.638,47.655,-122.3035,60.0,3.316666666666667
2026-02-06T21:26:27+00:00,SAT-47621,132.79334366485662,65.21926217541487,604.8466195029553,2.773745603535483,-97148.30396808239,10.5,10499902851.696032,47.655,-122.3035,60.0,3.3333333333333335
2026-02-06T21:26:28+00:00,SAT-47621,132.43202552314347,64.60062236017873,607.6129290773046,2.841474428362149,-99520.4539061572,10.5,10499900479.546093,47.655,-122.3035,60.0,3.35
2026-02-06T21:26:29+00:00,SAT-47621,132.09004766826024,63.986527369060305,610.4467859048476,2.9082616091540867,-101859.62348698548,10.5,10499898140.376513,47.655,-122.3035,60.0,3.3666666666666667
2026-02-06T21:26:30+00:00,SAT-47621,131.76593233432152,63.3771115306896,613.3472508659678,2.974102929304627,-104165.6650271655,10.5,10499895834.334972,47.655,-122.3035,60.0,3.3833333333333333
2026-02-06T21:26:31+00:00,SAT-47621,131.45834630300644,62.77249531425501,616.313380635745,3.038995281552516,-106438.46969726442,10.5,10499893561.530302,47.655,-122.3035,60.0,3.4
2026-02-06T21:26:32+00:00,SAT-47621,131.16608392221679,62.17278643394946,619.344228790329,3.102936616575356,-108677.96572134325,10.5,10499891322.034279,47.655,-122.3035,60.0,3.4166666666666665
2026-02-06T21:26:33+00:00,SAT-47621,130.8880524265321,61.57808082926054,622.4388468620406,3.1659259132557023,-110884.11733554976,10.5,10499889115.882664,47.655,-122.3035,60.0,3.433333333333333
2026-02-06T21:26:34+00:00,SAT-47621,130.6232592075438,60.98846353659162,625.5962853648207,3.2279631308484324,-113056.9231128174,10.5,10499886943.076887,47.655,-122.3035,60.0,3.45
2026-02-06T21:26:35+00:00,SAT-47621,130.37080074482802,60.40400947222157,628.8155947719744,3.2890491964297515,-115196.4155232764,10.5,10499884803.584476,47.655,-122.3035,60.0,3.466666666666667
2026-02-06T21:26:36+00:00,SAT-47621,130.1298529510804,59.824784133674775,632.0958264813972,3.3491858919200657,-117302.65697731693,10.5,10499882697.343023,47.655,-122.3035,60.0,3.4833333333333334
2026-02-06T21:26:37+00:00,SAT-47621,129.89966273577144,59.25084424854597,635.4360336681286,3.4083758787857508,-119375.7406907494,10.5,10499880624.25931,47.655,-122.3035,60.0,3.5
2026-02-06T21:26:38+00:00,SAT-47621,129.6795406036242,58.68223835499626,638.8352721615393,3.4666226066355663,-121415.78748346446,10.5,10499878584.212517,47.655,-122.3035,60.0,3.5166666666666666
2026-02-06T21:26:39+00:00,SAT-47621,129.46885415288776,58.11900734236279,642.2926012313603,3.5239303155082893,-123422.94585955542,10.5,10499876577.05414,47.655,-122.3035,60.0,3.533333333333333
2026-02-06T21:26:40+00:00,SAT-47621,129.26702234369682,57.561184942111495,645.8070843759951,3.580303952285931,-125397.38907975555,10.5,10499874602.61092,47.655,-122.3035,60.0,3.55
2026-02-06T21:26:41+00:00,SAT-47621,129.0735104386857,57.00879818888075,649.377790027467,3.6357491224338205,-127339.31347117183,10.5,10499872660.68653,47.655,-122.3035,60.0,3.566666666666667
2026-02-06T21:26:42+00:00,SAT-47621,128.8878255245689,56.46186784966327,653.003792208237,3.6902721104328244,-129248.93914290752,10.5,10499870751.060858,47.655,-122.3035,60.0,3.5833333333333335
2026-02-06T21:26:43+00:00,SAT-47621,128.70951253517734,55.92040881487036,656.6841712083992,3.7438797446952896,-131126.50525484714,10.5,10499868873.494745,47.655,-122.3035,60.0,3.6
2026-02-06T21:26:44+00:00,SAT-47621,128.5381507208059,55.384430478045424,660.4180141281543,3.7965794509523887,-132972.27188750717,10.5,10499867027.728113,47.655,-122.3035,60.0,3.6166666666666667
2026-02-06T21:26:45+00:00,SAT-47621,128.3733504973938,54.853937078614365,664.2044154735268,3.8483791466399526,-134786.5163429812,10.5,10499865213.483658,47.655,-122.3035,60.0,3.6333333333333333
2026-02-06T21:26:46+00:00,SAT-47621,128.2147506369198,54.32892803370229,668.0424776467506,3.8992872136094845,-136569.53218916396,10.5,10499863430.467812,47.655,-122.3035,60.0,3.65
2026-02-06T21:26:47+00:00,SAT-47621,128.0620157534574,53.80939824916316,671.9313114094423,3.9493125147258525,-138321.6298410731,10.5,10499861678.37016,47.655,-122.3035,60.0,3.6666666666666665
2026-02-06T21:26:48+00:00,SAT-47621,127.91483404759934,53.29533840620636,675.8700363623212,3.998464239423753,-140043.1311515829,10.5,10499859956.868849,47.655,-122.3035,60.0,3.683333333333333
2026-02-06T21:26:49+00:00,SAT-47621,127.77291528638942,52.78673524777355,679.8577812709073,4.046752021152085,-141734.37352482326,10.5,10499858265.626474,47.655,-122.3035,60.0,3.7
2026-02-06T21:26:50+00:00,SAT-47621,127.6359889796362,52.28357183015569,683.8936845083424,4.0941857846429865,-143395.70456689526,10.5,10499856604.295433,47.655,-122.3035,60.0,3.716666666666667
2026-02-06T21:26:51+00:00,SAT-47621,127.50380274173241,51.78582777655745,687.9768943458942,4.140775750255843,-145027.48223801662,10.5,10499854972.517761,47.655,-122.3035,60.0,3.7333333333333334
2026-02-06T21:26:52+00:00,SAT-47621,127.37612081137901,51.293479512846865,692.1065692477908,4.186532431466931,-146630.0747645986,10.5,10499853369.925236,47.655,-122.3035,60.0,3.75
2026-02-06T21:26:53+00:00,SAT-47621,127.25272271230482,50.80650048794926,696.2818781635503,4.23146654784213,-148203.85759118185,10.5,10499851796.142408,47.655,-122.3035,60.0,3.7666666666666666
2026-02-06T21:26:54+00:00,SAT-47621,127.13340204260298,50.32486138974733,700.5020007335202,4.275589068428839,-149749.2149002054,10.5,10499850250.785099,47.655,-122.3035,60.0,3.783333333333333
2026-02-06T21:26:55+00:00,SAT-47621,127.0179653743276,49.848530341884064,704.7661275376879,4.318911112625943,-151266.53614005327,10.5,10499848733.46386,47.655,-122.3035,60.0,3.8
2026-02-06T21:26:56+00:00,SAT-47621,126.90623125636931,49.37747309876805,709.0734602456305,4.361443955592791,-152756.21621449964,10.5,10499847243.783785,47.655,-122.3035,60.0,3.816666666666667
2026-02-06T21:26:57+00:00,SAT-47621,126.79802930652696,48.91165322718939,713.4232117718577,4.403199042633977,-154218.65598652503,10.5,10499845781.344013,47.655,-122.3035,60.0,3.8333333333333335
2026-02-06T21:26:58+00:00,SAT-47621,126.69319938328611,48.451032274740435,717.8146064454997,4.444187874860182,-155654.25827367516,10.5,10499844345.741726,47.655,-122.3035,60.0,3.85
2026-02-06T21:26:59+00:00,SAT-47621,126.59159083314921,47.99556993922331,722.2468800659657,4.484422085854018,-157063.43053322306,10.5,10499842936.569468,47.655,-122.3035,60.0,3.8666666666666667
2026-02-06T21:27:00+00:00,SAT-47621,126.4930618002769,47.54522421923193,726.7192800350577,4.523913344701442,-158446.58146591912,10.5,10499841553.418533,47.655,-122.3035,60.0,3.8833333333333333
2026-02-06T21:27:01+00:00,SAT-47621,126.39747859732677,47.09995156474876,731.231065392382,4.562673374180299,-159804.12165303086,10.5,10499840195.878347,47.655,-122.3035,60.0,3.9
2026-02-06T21:27:02+00:00,SAT-47621,126.30471512830746,46.65970701613749,735.781506868895,4.600713949411521,-161136.46350910192,10.5,10499838863.536491,47.655,-122.3035,60.0,3.9166666666666665
2026-02-06T21:27:03+00:00,SAT-47621,126.21465235898798,46.22444433432531,740.3698869391068,4.638046820228287,-162444.01856299205,10.5,10499837555.981438,47.655,-122.3035,60.0,3.933333333333333
2026-02-06T21:27:04+00:00,SAT-47621,126.12717783242626,45.79411612980374,744.9954997958603,4.674683752014671,-163727.19888821902,10.5,10499836272.801111,47.655,-122.3035,60.0,3.95
2026-02-06T21:27:05+00:00,SAT-47621,126.04218522211403,45.368673979396135,749.6576513658424,4.710636481039597,-164986.41553856488,10.5,10499835013.584461,47.655,-122.3035,60.0,3.966666666666667
2026-02-06T21:27:06+00:00,SAT-47621,125.95957392182721,44.94806853945501,754.355659280544,4.7459167259896144,-166222.0789520027,10.5,10499833777.921047,47.655,-122.3035,60.0,3.9833333333333334
2026-02-06T21:27:07+00:00,SAT-47621,125.87924866714364,44.53224965059319,759.0888528587276,4.780536129627948,-167434.59690734933,10.5,10499832565.403093,47.655,-122.3035,60.0,4.0
2026-02-06T21:27:08+00:00,SAT-47621,125.80111918750484,44.12116644055404,763.8565730307062,4.814506312687125,-168624.37641181354,10.5,10499831375.623589,47.655,-122.3035,60.0,4.016666666666667
2026-02-06T21:27:09+00:00,SAT-47621,125.72509988364338,43.71476741564323,768.6581723163708,4.84783877541995,-169791.8202528947,10.5,10499830208.179747,47.655,-122.3035,60.0,4.033333333333333
2026-02-06T21:27:10+00:00,SAT-47621,125.65110953138772,43.313000554283335,773.4930147050356,4.880545000596982,-170937.33060578964,10.5,10499829062.669394,47.655,-122.3035,60.0,4.05
2026-02-06T21:27:11+00:00,SAT-47621,125.57907100536703,42.9158133858033,778.3604756380014,4.912636317499798,-172061.30426986216,10.5,10499827938.69573,47.655,-122.3035,60.0,4.066666666666666
2026-02-06T21:27:12+00:00,SAT-47621,125.50891102581234,42.52315307487705,783.2599418554777,4.9441239991421675,-173164.13607373924,10.5,10499826835.863926,47.655,-122.3035,60.0,4.083333333333333
2026-02-06T21:27:13+00:00,SAT-47621,125.44055992180915,42.134966492444775,788.1908113404671,4.975019212278895,-174246.21712440948,10.5,10499825753.782875,47.655,-122.3035,60.0,4.1
2026-02-06T21:27:14+00:00,SAT-47621,125.37395141257694,41.75120028569887,793.1524932127907,5.00533296280446,-175307.93289485233,10.5,10499824692.067104,47.655,-122.3035,60.0,4.116666666666666
2026-02-06T21:27:15+00:00,SAT-47621,125.309022405185,41.37180094731713,798.1444075686578,5.0350762142270495,-176349.66737350018,10.5,10499823650.332626,47.655,-122.3035,60.0,4.133333333333334
2026-02-06T21:27:16+00:00,SAT-47621,125.24571280447857,40.99671487097942,803.1659854383951,5.064259730809196,-177371.7975703597,10.5,10499822628.202429,47.655,-122.3035,60.0,4.15
2026-02-06T21:27:17+00:00,SAT-47621,125.18396533884406,40.62588841452106,808.2166685877337,5.092894184814601,-178374.69727324933,10.5,10499821625.302727,47.655,-122.3035,60.0,4.166666666666667
2026-02-06T21:27:18+00:00,SAT-47621,125.12372539616855,40.259267950760005,813.2959094260585,5.120990099646857,-179358.73505627684,10.5,10499820641.264944,47.655,-122.3035,60.0,4.183333333333334
2026-02-06T21:27:19+00:00,SAT-47621,125.06494087189645,39.89679991870912,818.4031708579447,5.148557877211229,-180324.2752381646,10.5,10499819675.724762,47.655,-122.3035,60.0,4.2
2026-02-06T21:27:20+00:00,SAT-47621,125.00756202684431,39.538430869131126,823.5379261619881,5.175607739875971,-181271.6758494895,10.5,10499818728.32415,47.655,-122.3035,60.0,4.216666666666667
2026-02-06T21:27:21+00:00,SAT-47621,124.95154135543937,39.18410751067902,828.6996588117474,5.202149818513,-182201.29171623956,10.5,10499817798.708284,47.655,-122.3035,60.0,4.233333333333333
2026-02-06T21:27:22+00:00,SAT-47621,124.8968334611961,38.83377674663348,833.8878623844937,5.228194031211516,-183113.4702118521,10.5,10499816886.529789,47.655,-122.3035,60.0,4.25
2026-02-06T21:27:23+00:00,SAT-47621,124.84339494223794,38.48738571687943,839.1020403489983,5.253750195255833,-184008.5551791508,10.5,10499815991.44482,47.655,-122.3035,60.0,4.266666666666667
2026-02-06T21:27:24+00:00,SAT-47621,124.79118428247214,38.14488182931149,844.3417059649983,5.2788279616575275,-184886.88463738485,10.5,10499815113.115362,47.655,-122.3035,60.0,4.283333333333333
2026-02-06T21:27:25+00:00,SAT-47621,124.74016175070922,37.806212792977334,849.6063821173686,5.303436794484366,-185748.79005824038,10.5,10499814251.209942,47.655,-122.3035,60.0,4.3
2026-02-06T21:27:26+00:00,SAT-47621,124.69028930645756,37.47132664984445,854.8956011296814,5.327586057768545,-186594.5994097347,10.5,10499813405.40059,47.655,-122.3035,60.0,4.316666666666666
2026-02-06T21:27:27+00:00,SAT-47621,124.6415305104171,37.1401717985852,860.208904664436,5.351284927567652,-187424.6340762193,10.5,10499812575.365923,47.655,-122.3035,60.0,4.333333333333333
2026-02-06T21:27:28+00:00,SAT-47621,124.59385044169485,36.81269702173683,865.5458435355903,5.374542408962332,-188239.20945370974,10.5,10499811760.790546,47.655,-122.3035,60.0,4.35
2026-02-06T21:27:29+00:00,SAT-47621,124.5472156199047,36.48885150951334,870.9059775380408,5.397367401136235,-189038.63722926102,10.5,10499810961.36277,47.655,-122.3035,60.0,4.366666666666666
2026-02-06T21:27:30+00:00,SAT-47621,124.50159393122435,36.168584877694094,876.2888753420111,5.4197685824336075,-189823.22135519795,10.5,10499810176.778645,47.655,-122.3035,60.0,4.383333333333334
2026-02-06T21:27:31+00:00,SAT-47621,124.45695456019021,35.851847190565586,881.6941142728035,5.441754524194296,-190593.2620360987,10.5,10499809406.737965,47.655,-122.3035,60.0,4.4
2026-02-06T21:27:32+00:00,SAT-47621,124.41326792444718,35.53858897524453,887.1212802040806,5.4633336155532275,-191349.0530949544,10.5,10499808650.946905,47.655,-122.3035,60.0,4.416666666666667
2026-02-06T21:27:33+00:00,SAT-47621,124.37050561396342,35.22876123884152,892.5699673761504,5.4845141169590015,-192090.88384761673,10.5,10499807909.116152,47.655,-122.3035,60.0,4.433333333333334
2026-02-06T21:27:34+00:00,SAT-47621,124.32864033348571,34.92231548096724,898.0397782676248,5.505304088784895,-192819.03660245312,10.5,10499807180.963398,47.655,-122.3035,60.0,4.45
2026-02-06T21:27:35+00:00,SAT-47621,124.28764584885631,34.619203708824614,903.5303233958799,5.525711488584971,-193533.79006666734,10.5,10499806466.209934,47.655,-122.3035,60.0,4.466666666666667
2026-02-06T21:27:36+00:00,SAT-47621,124.24749693564199,34.31937844549154,909.0412212145121,5.54574407986063,-194235.41615091803,10.5,10499805764.583849,47.655,-122.3035,60.0,4.483333333333333
2026-02-06T21:27:37+00:00,SAT-47621,124.20816933146055,34.02279274202416,914.5720979198072,5.565409503580596,-194924.1824742511,10.5,10499805075.817526,47.655,-122.3035,60.0,4.5
2026-02-06T21:27:38+00:00,SAT-47621,124.16963969037387,33.72940018445128,920.1225873285354,5.58471524657651,-195600.35125717992,10.5,10499804399.648743,47.655,-122.3035,60.0,4.516666666666667
2026-02-06T21:27:39+00:00,SAT-47621,124.13188554015252,33.439154901433575,925.6923307242263,5.603668647631782,-196264.1795349425,10.5,10499803735.820465,47.655,-122.3035,60.0,4.533333333333333
2026-02-06T21:27:40+00:00,SAT-47621,124.09488524187122,33.152011570576946,931.2809767095201,5.622276870670456,-196915.9182184623,10.5,10499803084.081781,47.655,-122.3035,60.0,4.55
2026-02-06T21:27:41+00:00,SAT-47621,124.05861795193583,32.867925425145465,936.8881810317747,5.640546978136528,-197555.81466440207,10.5,10499802444.185335,47.655,-122.3035,60.0,4.566666666666666
2026-02-06T21:27:42+00:00,SAT-47621,124.02306358559072,32.58685225614918,942.5136064818581,5.658485861109143,-198184.1102275028,10.5,10499801815.889772,47.655,-122.3035,60.0,4.583333333333333
2026-02-06T21:27:43+00:00,SAT-47621,123.98820278298233,32.308748417215774,948.1569227232447,5.676100294423868,-198801.04219116352,10.5,10499801198.95781,47.655,-122.3035,60.0,4.6
2026-02-06T21:27:44+00:00,SAT-47621,123.9540168765835,32.0335708259402,953.8178061760813,5.693396883880594,-199406.8419184389,10.5,10499800593.158081,47.655,-122.3035,60.0,4.616666666666666
2026-02-06T21:27:45+00:00,SAT-47621,123.92048786088397,31.761276967151627,959.4959398486047,5.710382114497482,-200001.7365420966,10.5,10499799998.263458,47.655,-122.3035,60.0,4.633333333333334
2026-02-06T21:27:46+00:00,SAT-47621,123.88759836312423,31.491824893162498,965.1910132166863,5.727062349775057,-200585.94893884254,10.5,10499799414.051062,47.655,-122.3035,60.0,4.65
2026-02-06T21:27:47+00:00,SAT-47621,123.8553316157749,31.22517322353209,970.9027221026361,5.743443787478806,-201159.6961806406,10.5,10499798840.30382,47.655,-122.3035,60.0,4.666666666666667
2026-02-06T21:27:48+00:00,SAT-47621,123.82367143063006,30.961281146362477,976.6307685099159,5.759532532939965,-201723.19210201624,10.5,10499798276.807898,47.655,-122.3035,60.0,4.683333333333334
2026-02-06T21:27:49+00:00,SAT-47621,123.79260217381572,30.700108415674933,982.3748605309505,5.775334524850353,-202276.64470107754,10.5,10499797723.355299,47.655,-122.3035,60.0,4.7
2026-02-06T21:27:50+00:00,SAT-47621,123.76210874251434,30.441615351780978,988.1347121809359,5.790855614097426,-202820.25890065246,10.5,10499797179.741098,47.655,-122.3035,60.0,4.716666666666667
2026-02-06T21:27:51+00:00,SAT-47621,123.7321765424239,30.1857628376472,993.9100433102699,5.806101493567554,-203354.2340897025,10.5,10499796645.765911,47.655,-122.3035,60.0,4.733333333333333
