DopplerPredictor/satellites_20260211_204923/SAT-53013.csv

timestamp,satellite,azimuth_deg,elevation_deg,distance_km,relative_velocity_kms,doppler_shift_hz,tx_freq_ghz,rx_freq_hz,ue_lat,ue_lon,ue_alt_m,time_minutes
2026-02-06T21:23:07+00:00,SAT-53013,64.84145284494043,43.594039383904835,756.9511866204775,3.479986401914083,-121883.84412291611,10.5,10499878116.155876,47.655,-122.3035,60.0,0.0
2026-02-06T21:23:08+00:00,SAT-53013,65.37443192492171,43.30230888734697,760.4218436590863,3.5279545894501227,-123563.89295566031,10.5,10499876436.107044,47.655,-122.3035,60.0,0.016666666666666666
2026-02-06T21:23:09+00:00,SAT-53013,65.89754935804363,43.010474069859725,763.94034028914,3.5752595003213035,-125220.71103394365,10.5,10499874779.288965,47.655,-122.3035,60.0,0.03333333333333333
2026-02-06T21:23:10+00:00,SAT-53013,66.4109957905881,42.71864922251969,767.5060150121266,3.621904556313135,-126854.41820316878,10.5,10499873145.581797,47.655,-122.3035,60.0,0.05
2026-02-06T21:23:11+00:00,SAT-53013,66.91496093622527,42.42694352827702,771.1182097421472,3.667893517915968,-128465.14617161472,10.5,10499871534.853828,47.655,-122.3035,60.0,0.06666666666666667
2026-02-06T21:23:12+00:00,SAT-53013,67.40963327907792,42.135461179707384,774.7762701437108,3.7132304506063973,-130053.03732946869,10.5,10499869946.962671,47.655,-122.3035,60.0,0.08333333333333333
2026-02-06T21:23:13+00:00,SAT-53013,67.89519980517944,41.844301502079496,778.479545935905,3.7579196834876956,-131618.2433002394,10.5,10499868381.7567,47.655,-122.3035,60.0,0.1
2026-02-06T21:23:14+00:00,SAT-53013,68.37184575955024,41.55355908144052,782.2273911553141,3.801965814416865,-133160.92512032803,10.5,10499866839.07488,47.655,-122.3035,60.0,0.11666666666666667
2026-02-06T21:23:15+00:00,SAT-53013,68.8397544333609,41.263323893320226,786.0191644240541,3.845373730135858,-134681.25394410858,10.5,10499865318.746056,47.655,-122.3035,60.0,0.13333333333333333
2026-02-06T21:23:16+00:00,SAT-53013,69.29910697988922,40.97368143045897,789.8542292378809,3.888148518252482,-136179.40796112712,10.5,10499863820.59204,47.655,-122.3035,60.0,0.15
2026-02-06T21:23:17+00:00,SAT-53013,69.75008224507401,40.684712837229526,793.7319541665204,3.9302954651966036,-137655.57232451905,10.5,10499862344.427675,47.655,-122.3035,60.0,0.16666666666666666
2026-02-06T21:23:18+00:00,SAT-53013,70.19285662142637,40.396495043466395,797.6517130519557,3.9718201236384107,-139109.94151228218,10.5,10499860890.058487,47.655,-122.3035,60.0,0.18333333333333332
2026-02-06T21:23:19+00:00,SAT-53013,70.62760393084284,40.109100892355094,801.6128852739536,4.012728164135896,-140542.71413134385,10.5,10499859457.28587,47.655,-122.3035,60.0,0.2
2026-02-06T21:23:20+00:00,SAT-53013,71.05449531068058,39.822599277827536,805.6148558676382,4.0530255061781775,-141954.09750725236,10.5,10499858045.902493,47.655,-122.3035,60.0,0.21666666666666667
2026-02-06T21:23:21+00:00,SAT-53013,71.47369913228204,39.5370552706506,809.6570157717516,4.092718141466173,-143344.30149471876,10.5,10499856655.698505,47.655,-122.3035,60.0,0.23333333333333334
2026-02-06T21:23:22+00:00,SAT-53013,71.88538091785531,39.252530255105896,813.7387619006755,4.1318122808083215,-144713.54362252628,10.5,10499855286.456377,47.655,-122.3035,60.0,0.25
2026-02-06T21:23:23+00:00,SAT-53013,72.28970328776529,38.96908205285902,817.8594973629494,4.170314233436173,-146062.04486665176,10.5,10499853937.955133,47.655,-122.3035,60.0,0.26666666666666666
2026-02-06T21:23:24+00:00,SAT-53013,72.68682590958576,38.686765052813925,822.0186315594287,4.208230441547704,-147390.03086011886,10.5,10499852609.96914,47.655,-122.3035,60.0,0.2833333333333333
2026-02-06T21:23:25+00:00,SAT-53013,73.0769054636206,38.40563033573775,826.2155803158987,4.245567429793701,-148697.73012379737,10.5,10499851302.269876,47.655,-122.3035,60.0,0.3
2026-02-06T21:23:26+00:00,SAT-53013,73.46009561538298,38.12572579936009,830.4497659653014,4.282331848506943,-149985.37558047206,10.5,10499850014.62442,47.655,-122.3035,60.0,0.31666666666666665
2026-02-06T21:23:27+00:00,SAT-53013,73.83654700256565,37.8470962774978,834.7206174730843,4.318530432353176,-151253.20310662503,10.5,10499848746.796894,47.655,-122.3035,60.0,0.3333333333333333
2026-02-06T21:23:28+00:00,SAT-53013,74.2064072278731,37.569783658803395,839.0275705213054,4.354169956524356,-152501.4499981375,10.5,10499847498.550001,47.655,-122.3035,60.0,0.35
2026-02-06T21:23:29+00:00,SAT-53013,74.56982085695137,37.293827005019516,843.3700675490521,4.389257297465695,-153730.3570972082,10.5,10499846269.642902,47.655,-122.3035,60.0,0.36666666666666664
2026-02-06T21:23:30+00:00,SAT-53013,74.92692942921144,37.01926266196571,847.7475578534207,4.423799365765248,-154940.1664418626,10.5,10499845059.833559,47.655,-122.3035,60.0,0.38333333333333336
2026-02-06T21:23:31+00:00,SAT-53013,75.2778714701945,36.746124371457114,852.1594976235708,4.457803128719118,-156131.1220562818,10.5,10499843868.877943,47.655,-122.3035,60.0,0.4
2026-02-06T21:23:32+00:00,SAT-53013,75.62278251197826,36.47444337835238,856.6053499972784,4.491275557865902,-157303.4681132371,10.5,10499842696.531887,47.655,-122.3035,60.0,0.4166666666666667
2026-02-06T21:23:33+00:00,SAT-53013,75.9617951153335,36.204248537375044,861.0845850651696,4.524223701719415,-158457.4514814974,10.5,10499841542.54852,47.655,-122.3035,60.0,0.43333333333333335
2026-02-06T21:23:34+00:00,SAT-53013,76.29503890227227,35.93556641206772,865.5966799474878,4.556654585486008,-159593.31821350585,10.5,10499840406.681786,47.655,-122.3035,60.0,0.45
2026-02-06T21:23:35+00:00,SAT-53013,76.62264058556813,35.66842137640358,870.1411187708483,4.588575264296518,-160711.31540978738,10.5,10499839288.68459,47.655,-122.3035,60.0,0.4666666666666667
2026-02-06T21:23:36+00:00,SAT-53013,76.94472400619489,35.40283570974488,874.7173926980846,4.619992794712422,-161811.69022097424,10.5,10499838188.309778,47.655,-122.3035,60.0,0.48333333333333334
2026-02-06T21:23:37+00:00,SAT-53013,77.26141017199342,35.13882969013655,879.3249999296737,4.650914224433874,-162894.68948733754,10.5,10499837105.310513,47.655,-122.3035,60.0,0.5
2026-02-06T21:23:38+00:00,SAT-53013,77.57281729883692,34.87642168483294,883.9634456948979,4.68134661026109,-163960.56036787105,10.5,10499836039.439632,47.655,-122.3035,60.0,0.5166666666666667
2026-02-06T21:23:39+00:00,SAT-53013,77.87906085527887,34.61562823652436,888.6322422609228,4.711296971593371,-165009.54871163037,10.5,10499834990.451288,47.655,-122.3035,60.0,0.5333333333333333
2026-02-06T21:23:40+00:00,SAT-53013,78.1802536066131,34.35646414894888,893.3309088954942,4.740772307688764,-166041.89966223907,10.5,10499833958.100338,47.655,-122.3035,60.0,0.55
2026-02-06T21:23:41+00:00,SAT-53013,78.47650566182097,34.09894256830606,898.0589718468526,4.769779615707891,-167057.8582898602,10.5,10499832942.14171,47.655,-122.3035,60.0,0.5666666666666667
2026-02-06T21:23:42+00:00,SAT-53013,78.76792452317028,33.84307506060147,902.8159643416403,4.798325832735859,-168057.6675605579,10.5,10499831942.33244,47.655,-122.3035,60.0,0.5833333333333334
2026-02-06T21:23:43+00:00,SAT-53013,79.05461513355333,33.58887168910002,907.6014265249877,4.826417880376893,-169041.56989819065,10.5,10499830958.430101,47.655,-122.3035,60.0,0.6
2026-02-06T21:23:44+00:00,SAT-53013,79.33667992754256,33.33634108636443,912.414905445073,4.854062618550808,-170009.80556616766,10.5,10499829990.194433,47.655,-122.3035,60.0,0.6166666666666667
2026-02-06T21:23:45+00:00,SAT-53013,79.61421888056935,33.085490525850275,917.2559549916041,4.881266884159634,-170962.61402171815,10.5,10499829037.385979,47.655,-122.3035,60.0,0.6333333333333333
2026-02-06T21:23:46+00:00,SAT-53013,79.8873295608269,32.83632598862507,922.1241358728622,4.908037474012707,-171900.23331785557,10.5,10499828099.766682,47.655,-122.3035,60.0,0.65
2026-02-06T21:23:47+00:00,SAT-53013,80.15610718058124,32.588852228275435,927.0190155757164,4.934381065017359,-172822.89730811797,10.5,10499827177.102692,47.655,-122.3035,60.0,0.6666666666666666
2026-02-06T21:23:48+00:00,SAT-53013,80.42064464355747,32.34307283711586,931.9401682460428,4.9603044031626045,-173730.8422655761,10.5,10499826269.157734,47.655,-122.3035,60.0,0.6833333333333333
2026-02-06T21:23:49+00:00,SAT-53013,80.68103260223037,32.09899030030991,936.8871747576226,4.985814052399864,-174624.29808757422,10.5,10499825375.701912,47.655,-122.3035,60.0,0.7
2026-02-06T21:23:50+00:00,SAT-53013,80.93735950204858,31.85660606005332,941.8596225305901,5.010916566169183,-175503.4943033037,10.5,10499824496.505697,47.655,-122.3035,60.0,0.7166666666666667
2026-02-06T21:23:51+00:00,SAT-53013,81.18971163446095,31.61592056868323,946.8571055209521,5.035618462149968,-176368.65918946723,10.5,10499823631.34081,47.655,-122.3035,60.0,0.7333333333333333
2026-02-06T21:23:52+00:00,SAT-53013,81.43817318806852,31.376933340795702,951.8792241849204,5.059926148322273,-177220.01718063187,10.5,10499822779.982819,47.655,-122.3035,60.0,0.75
2026-02-06T21:23:53+00:00,SAT-53013,81.68282629594097,31.13964300661474,956.9255853695087,5.083845987396337,-178057.79112582462,10.5,10499821942.208874,47.655,-122.3035,60.0,0.7666666666666667
2026-02-06T21:23:54+00:00,SAT-53013,81.92375108555139,30.904047360035488,961.9958022673836,5.107384267618048,-178882.20126601553,10.5,10499821117.798735,47.655,-122.3035,60.0,0.7833333333333333
2026-02-06T21:23:55+00:00,SAT-53013,82.16102572681383,30.670143405936102,967.0894943425993,5.130547206830748,-179693.46537638,10.5,10499820306.534624,47.655,-122.3035,60.0,0.8
2026-02-06T21:23:56+00:00,SAT-53013,82.3947264796626,30.437927405234127,972.2062872603841,5.153340949987757,-180491.79867917643,10.5,10499819508.20132,47.655,-122.3035,60.0,0.8166666666666667
2026-02-06T21:23:57+00:00,SAT-53013,82.62492774090974,30.207394918067855,977.345812814446,5.175771572466221,-181277.41395981124,10.5,10499818722.58604,47.655,-122.3035,60.0,0.8333333333333334
