DopplerPredictor/satellites_20260211_204923/SAT-60333.csv

timestamp,satellite,azimuth_deg,elevation_deg,distance_km,relative_velocity_kms,doppler_shift_hz,tx_freq_ghz,rx_freq_hz,ue_lat,ue_lon,ue_alt_m,time_minutes
2026-02-06T21:26:36+00:00,SAT-60333,311.4746927309902,30.26455323592688,873.5389761504385,-5.567696336920655,195004.27705111538,10.5,10500195004.277052,47.655,-122.3035,60.0,3.4833333333333334
2026-02-06T21:26:37+00:00,SAT-60333,311.6591874841948,30.536391687262377,867.9862060390552,-5.546018917500256,194245.0421276198,10.5,10500194245.042128,47.655,-122.3035,60.0,3.5
2026-02-06T21:26:38+00:00,SAT-60333,311.84704631316606,30.811051240176443,862.4550552329222,-5.523915105459864,193470.873130933,10.5,10500193470.87313,47.655,-122.3035,60.0,3.5166666666666666
2026-02-06T21:26:39+00:00,SAT-60333,312.03836030492175,31.0885642810378,856.9459489815597,-5.501375645347797,192681.44589598672,10.5,10500192681.445896,47.655,-122.3035,60.0,3.533333333333333
2026-02-06T21:26:40+00:00,SAT-60333,312.233223708216,31.36896300222535,851.4593217651271,-5.478391052956305,191876.42824570724,10.5,10500191876.428246,47.655,-122.3035,60.0,3.55
2026-02-06T21:26:41+00:00,SAT-60333,312.4317340623626,31.65227934958939,845.9956175225656,-5.4549517062253114,191055.4831748495,10.5,10500191055.483175,47.655,-122.3035,60.0,3.566666666666667
2026-02-06T21:26:42+00:00,SAT-60333,312.63399233539275,31.93854497088537,840.5552897890816,-5.431047747267302,190218.26541849386,10.5,10500190218.265419,47.655,-122.3035,60.0,3.5833333333333335
2026-02-06T21:26:43+00:00,SAT-60333,312.840103064917,32.227791155296146,835.1388019313401,-5.406669165003978,189364.42434633154,10.5,10500189364.424347,47.655,-122.3035,60.0,3.6
2026-02-06T21:26:44+00:00,SAT-60333,313.0501745087151,32.52004877310826,829.746627300247,-5.381805697519844,188493.60054267393,10.5,10500188493.600542,47.655,-122.3035,60.0,3.6166666666666667
2026-02-06T21:26:45+00:00,SAT-60333,313.2643187983365,32.81534820576374,824.3792494811131,-5.35644697024537,187605.4306462119,10.5,10500187605.430647,47.655,-122.3035,60.0,3.6333333333333333
2026-02-06T21:26:46+00:00,SAT-60333,313.4826521055004,33.113719278695996,819.0371624060052,-5.330582385005266,186699.54346401631,10.5,10500186699.543465,47.655,-122.3035,60.0,3.65
2026-02-06T21:26:47+00:00,SAT-60333,313.7052948116135,33.41519118326441,813.7208705767537,-5.304201121925553,185775.5600383326,10.5,10500185775.560038,47.655,-122.3035,60.0,3.6666666666666665
2026-02-06T21:26:48+00:00,SAT-60333,313.9323716850527,33.71979239335125,808.4308892860563,-5.277292216479066,184833.09634503946,10.5,10500184833.096346,47.655,-122.3035,60.0,3.683333333333333
2026-02-06T21:26:49+00:00,SAT-60333,314.1640120699713,34.0275505807126,803.1677447617435,-5.249844498178382,183871.7611464162,10.5,10500183871.761147,47.655,-122.3035,60.0,3.7
2026-02-06T21:26:50+00:00,SAT-60333,314.4003500810838,34.338492520953054,797.9319743721859,-5.221846605095153,182891.15649967123,10.5,10500182891.1565,47.655,-122.3035,60.0,3.716666666666667
2026-02-06T21:26:51+00:00,SAT-60333,314.6415248079025,34.65264399396605,792.7241268172244,-5.19328697817809,181890.8775579336,10.5,10500181890.877558,47.655,-122.3035,60.0,3.7333333333333334
2026-02-06T21:26:52+00:00,SAT-60333,314.8876805279448,34.970029677296054,787.5447623247612,-5.164153929634939,180870.51496527926,10.5,10500180870.514965,47.655,-122.3035,60.0,3.75
2026-02-06T21:26:53+00:00,SAT-60333,315.13896693295385,35.29067303659729,782.3944527791583,-5.134435540357722,179829.65126412912,10.5,10500179829.651264,47.655,-122.3035,60.0,3.7666666666666666
2026-02-06T21:26:54+00:00,SAT-60333,315.39553936016046,35.61459620235464,777.2737819519322,-5.104119730027727,178767.86335062215,10.5,10500178767.86335,47.655,-122.3035,60.0,3.783333333333333
2026-02-06T21:26:55+00:00,SAT-60333,315.6575590372618,35.9418198428481,772.1833456625321,-5.073194253300802,177684.72234100837,10.5,10500177684.722342,47.655,-122.3035,60.0,3.8
2026-02-06T21:26:56+00:00,SAT-60333,315.92519333807445,36.272363028502944,767.1237519429235,-5.041646704106256,176579.7937222146,10.5,10500176579.793722,47.655,-122.3035,60.0,3.816666666666667
2026-02-06T21:26:57+00:00,SAT-60333,316.19861604954343,36.60624308762786,762.0956211978838,-5.00946452635163,175452.63772677068,10.5,10500175452.637726,47.655,-122.3035,60.0,3.8333333333333335
2026-02-06T21:26:58+00:00,SAT-60333,316.4780076509445,36.943475453466235,757.099586354621,-4.976634981853001,174302.80820959317,10.5,10500174302.80821,47.655,-122.3035,60.0,3.85
2026-02-06T21:26:59+00:00,SAT-60333,316.76355560302176,37.284073499118556,752.1362930443789,-4.9431452015859065,173129.85444300945,10.5,10500173129.854443,47.655,-122.3035,60.0,3.8666666666666667
2026-02-06T21:27:00+00:00,SAT-60333,317.05545465220627,37.628048365315124,747.2063997329242,-4.9089821929475415,171933.32137111062,10.5,10500171933.321371,47.655,-122.3035,60.0,3.8833333333333333
2026-02-06T21:27:01+00:00,SAT-60333,317.35390714786297,37.97540877767864,742.3105778437965,-4.874132828185873,170712.74920449025,10.5,10500170712.749205,47.655,-122.3035,60.0,3.9
2026-02-06T21:27:02+00:00,SAT-60333,317.65912337166316,38.326160851504596,737.4495118930926,-4.838583876041781,169467.67452848566,10.5,10500169467.674528,47.655,-122.3035,60.0,3.9166666666666665
2026-02-06T21:27:03+00:00,SAT-60333,317.971321882034,38.68030788645152,732.6238995926981,-4.802321962858299,168197.62894105943,10.5,10500168197.62894,47.655,-122.3035,60.0,3.933333333333333
2026-02-06T21:27:04+00:00,SAT-60333,318.2907298691411,39.037850145382016,727.8344519923015,-4.7653336688648915,166902.1424250818,10.5,10500166902.142426,47.655,-122.3035,60.0,3.95
2026-02-06T21:27:05+00:00,SAT-60333,318.6175835297849,39.398784626573324,723.0818935253869,-4.727605466102083,165580.7411741888,10.5,10500165580.741175,47.655,-122.3035,60.0,3.966666666666667
2026-02-06T21:27:06+00:00,SAT-60333,318.95212845151167,39.76310481703896,718.3669621171299,-4.689123759610643,164232.9490354015,10.5,10500164232.949036,47.655,-122.3035,60.0,3.9833333333333334
2026-02-06T21:27:07+00:00,SAT-60333,319.29462001292995,40.13080043374329,713.6904092512196,-4.649874938317347,162858.28929136085,10.5,10500162858.289291,47.655,-122.3035,60.0,4.0
2026-02-06T21:27:08+00:00,SAT-60333,319.6453238011657,40.50185715298399,709.0529999859291,-4.609845333191713,161456.28319479935,10.5,10500161456.283195,47.655,-122.3035,60.0,4.016666666666667
2026-02-06T21:27:09+00:00,SAT-60333,320.00451603937415,40.87625631995414,704.455513011917,-4.569021278992293,160026.4521311576,10.5,10500160026.452131,47.655,-122.3035,60.0,4.033333333333333
2026-02-06T21:27:10+00:00,SAT-60333,320.37248403153745,41.25397464576217,699.8987406484488,-4.5273890890531225,158568.31673549901,10.5,10500158568.316736,47.655,-122.3035,60.0,4.05
2026-02-06T21:27:11+00:00,SAT-60333,320.74952661737973,41.634983884196764,695.3834888647636,-4.484935152765362,157081.40030672922,10.5,10500157081.400307,47.655,-122.3035,60.0,4.066666666666666
2026-02-06T21:27:12+00:00,SAT-60333,321.1359546466347,42.01925049756313,690.9105772042218,-4.441645886376411,155565.22708437286,10.5,10500155565.227085,47.655,-122.3035,60.0,4.083333333333333
2026-02-06T21:27:13+00:00,SAT-60333,321.5320914597798,42.40673529871794,686.4808387575196,-4.39750778092659,154019.3239275192,10.5,10500154019.323927,47.655,-122.3035,60.0,4.1
2026-02-06T21:27:14+00:00,SAT-60333,321.9382733817339,42.79739307643021,682.0951200880977,-4.352507443602863,152443.2217632041,10.5,10500152443.221764,47.655,-122.3035,60.0,4.116666666666666
2026-02-06T21:27:15+00:00,SAT-60333,322.3548502268462,43.19117220292499,677.754281116305,-4.306631607413809,150836.45592526882,10.5,10500150836.455925,47.655,-122.3035,60.0,4.133333333333334
2026-02-06T21:27:16+00:00,SAT-60333,322.7821858103465,43.58801422007955,673.4591949939155,-4.259867178829012,149198.56782289242,10.5,10500149198.567823,47.655,-122.3035,60.0,4.15
2026-02-06T21:27:17+00:00,SAT-60333,323.22065846749786,43.98785340690109,669.2107479311314,-4.212201254852562,147529.10553857862,10.5,10500147529.10554,47.655,-122.3035,60.0,4.166666666666667
2026-02-06T21:27:18+00:00,SAT-60333,323.67066157474153,44.39061632483086,665.0098390065591,-4.163621135243464,145827.62425616584,10.5,10500145827.624256,47.655,-122.3035,60.0,4.183333333333334
2026-02-06T21:27:19+00:00,SAT-60333,324.13260406840885,44.79622133956603,660.8573799649996,-4.114114421962555,144093.68974387887,10.5,10500144093.689743,47.655,-122.3035,60.0,4.2
2026-02-06T21:27:20+00:00,SAT-60333,324.60691096692864,45.204578127238214,656.7542949160544,-4.063669011312631,142326.87807904303,10.5,10500142326.878078,47.655,-122.3035,60.0,4.216666666666667
2026-02-06T21:27:21+00:00,SAT-60333,325.09402388010074,45.6155871543005,652.7015200405749,-4.012273087439838,140526.77542047537,10.5,10500140526.775421,47.655,-122.3035,60.0,4.233333333333333
2026-02-06T21:27:22+00:00,SAT-60333,325.5944014988659,46.029139130241994,648.7000033035888,-3.959915274190632,138692.98332715774,10.5,10500138692.983328,47.655,-122.3035,60.0,4.25
2026-02-06T21:27:23+00:00,SAT-60333,326.1085200785093,46.445114448975204,644.7507040157799,-3.906584595631233,136825.11737546095,10.5,10500136825.117376,47.655,-122.3035,60.0,4.266666666666667
2026-02-06T21:27:24+00:00,SAT-60333,326.6368738849077,46.863382599567274,640.8545924343408,-3.852270524075537,134922.8088412856,10.5,10500134922.808842,47.655,-122.3035,60.0,4.283333333333333
2026-02-06T21:27:25+00:00,SAT-60333,327.1799756045406,47.283801554816584,637.0126493159271,-3.7969630710695417,132985.7078867214,10.5,10500132985.707888,47.655,-122.3035,60.0,4.3
2026-02-06T21:27:26+00:00,SAT-60333,327.7383567147253,47.706217142751186,633.22586537887,-3.740652764306224,131013.48275150855,10.5,10500131013.482752,47.655,-122.3035,60.0,4.316666666666666
2026-02-06T21:27:27+00:00,SAT-60333,328.31256778593183,48.130462389092614,629.4952407884149,-3.683330797847935,129005.82501446157,10.5,10500129005.825014,47.655,-122.3035,60.0,4.333333333333333
2026-02-06T21:27:28+00:00,SAT-60333,328.90317872839233,48.55635685060624,625.8217844921362,-3.624988958829677,126962.44702630781,10.5,10500126962.447027,47.655,-122.3035,60.0,4.35
2026-02-06T21:27:29+00:00,SAT-60333,329.5107789330778,48.98370591538442,622.2065136284567,-3.565619774268416,124883.08705157075,10.5,10500124883.087051,47.655,-122.3035,60.0,4.366666666666666
2026-02-06T21:27:30+00:00,SAT-60333,330.1359773236416,49.41230009630803,618.6504527887478,-3.5052165407358795,122767.51030783681,10.5,10500122767.510307,47.655,-122.3035,60.0,4.383333333333334
2026-02-06T21:27:31+00:00,SAT-60333,330.77940228182115,49.841914306678774,615.1546332498375,-3.4437733503025356,120615.50987442328,10.5,10500120615.509874,47.655,-122.3035,60.0,4.4
2026-02-06T21:27:32+00:00,SAT-60333,331.44170142149466,50.27230711968387,611.7200921806465,-3.3812851796141654,118426.9098122166,10.5,10500118426.909813,47.655,-122.3035,60.0,4.416666666666667
2026-02-06T21:27:33+00:00,SAT-60333,332.1235411981712,50.70322002247345,608.3478717599814,-3.3177478952421415,116201.56535106193,10.5,10500116201.565351,47.655,-122.3035,60.0,4.433333333333334
2026-02-06T21:27:34+00:00,SAT-60333,332.8256063085175,51.13437665830904,605.0390182889972,-3.2531583960490056,113939.3678760076,10.5,10500113939.367876,47.655,-122.3035,60.0,4.45
2026-02-06T21:27:35+00:00,SAT-60333,333.54859887747307,51.56548207890941,601.7945811616721,-3.1875145880497535,111640.24404684127,10.5,10500111640.244047,47.655,-122.3035,60.0,4.466666666666667
2026-02-06T21:27:36+00:00,SAT-60333,334.29323736287324,51.996221991298334,598.6156118603558,-3.1208154577723426,109304.15836748501,10.5,10500109304.158367,47.655,-122.3035,60.0,4.483333333333333
2026-02-06T21:27:37+00:00,SAT-60333,335.060255158978,52.42626201808748,595.5031628781534,-3.053061175069411,106931.11678689667,10.5,10500106931.116787,47.655,-122.3035,60.0,4.5
2026-02-06T21:27:38+00:00,SAT-60333,335.85039886605614,52.855246983531494,592.4582865387717,-2.984253084664927,104521.16640299781,10.5,10500104521.166403,47.655,-122.3035,60.0,4.516666666666667
2026-02-06T21:27:39+00:00,SAT-60333,336.6644261535539,53.28280021938388,589.4820338247997,-2.9143938054212013,102074.39893942433,10.5,10500102074.39894,47.655,-122.3035,60.0,4.533333333333333
2026-02-06T21:27:40+00:00,SAT-60333,337.5031031949582,53.70852291589238,586.5754531069846,-2.843487253501257,99590.95155677065,10.5,10500099590.951557,47.655,-122.3035,60.0,4.55
2026-02-06T21:27:41+00:00,SAT-60333,338.36720160358783,54.13199351971055,583.7395888504085,-2.7715387301842505,97071.0099282572,10.5,10500097071.009928,47.655,-122.3035,60.0,4.566666666666666
2026-02-06T21:27:42+00:00,SAT-60333,339.25749483420947,54.552767202104704,580.9754802330878,-2.6985549374463424,94514.80878543848,10.5,10500094514.808784,47.655,-122.3035,60.0,4.583333333333333
2026-02-06T21:27:43+00:00,SAT-60333,340.17475397450534,54.970375402947425,578.2841597490282,-2.6245440270285605,91922.63363676709,10.5,10500091922.633636,47.655,-122.3035,60.0,4.6
2026-02-06T21:27:44+00:00,SAT-60333,341.1197428793998,55.3843254731617,575.6666517623489,-2.549515678201662,89294.82349124823,10.5,10500089294.823492,47.655,-122.3035,60.0,4.616666666666666
2026-02-06T21:27:45+00:00,SAT-60333,342.0932126056366,55.79410044048368,573.1239709838471,-2.473481095494326,86631.77077887137,10.5,10500086631.770779,47.655,-122.3035,60.0,4.633333333333334
2026-02-06T21:27:46+00:00,SAT-60333,343.09589506704333,56.19915890837355,570.6571209498296,-2.3964530869427416,83933.92409124177,10.5,10500083933.924091,47.655,-122.3035,60.0,4.65
2026-02-06T21:27:47+00:00,SAT-60333,344.1284958936264,56.59893512526106,568.2670924229025,-2.3184460763514023,81201.78861100542,10.5,10500081201.78861,47.655,-122.3035,60.0,4.666666666666667
2026-02-06T21:27:48+00:00,SAT-60333,345.19168643324673,56.9928392403406,565.954861780536,-2.2394761142342556,78435.9264950544,10.5,10500078435.926495,47.655,-122.3035,60.0,4.683333333333334
2026-02-06T21:27:49+00:00,SAT-60333,346.28609486482674,57.38025777384322,563.7213893927164,-2.159560949891383,75636.959398957,10.5,10500075636.959398,47.655,-122.3035,60.0,4.7
2026-02-06T21:27:50+00:00,SAT-60333,347.4122964433606,57.76055434256304,561.5676179277123,-2.0787200146378124,72805.56788955987,10.5,10500072805.56789,47.655,-122.3035,60.0,4.716666666666667
2026-02-06T21:27:51+00:00,SAT-60333,348.57080284470385,58.13307065715153,559.4944706745703,-1.9969744430472265,69942.49218903258,10.5,10500069942.49219,47.655,-122.3035,60.0,4.733333333333333
2026-02-06T21:27:52+00:00,SAT-60333,349.7620506616966,58.49712782965238,557.5028498444224,-1.914347086137415,67048.5326366778,10.5,10500067048.532637,47.655,-122.3035,60.0,4.75
2026-02-06T21:27:53+00:00,SAT-60333,350.9863891130034,58.852028022088575,555.5936348586431,-1.8308625187277023,64124.549946619656,10.5,10500064124.549946,47.655,-122.3035,60.0,4.766666666666667
2026-02-06T21:27:54+00:00,SAT-60333,352.24406706420973,59.19705646619892,553.7676806296689,-1.7465470194267791,61171.464506892895,10.5,10500061171.464506,47.655,-122.3035,60.0,4.783333333333333
2026-02-06T21:27:55+00:00,SAT-60333,353.5352194843906,59.531483878044305,552.0258158617778,-1.661428559281805,58190.25598188648,10.5,10500058190.255981,47.655,-122.3035,60.0,4.8
2026-02-06T21:27:56+00:00,SAT-60333,354.8598535289129,59.854569294018134,550.3688413631862,-1.5755368024769583,55181.9633368097,10.5,10500055181.963337,47.655,-122.3035,60.0,4.816666666666666
2026-02-06T21:27:57+00:00,SAT-60333,356.21783449713314,60.16556335058313,548.7975283574526,-1.4889030570290631,52147.68311084451,10.5,10500052147.683111,47.655,-122.3035,60.0,4.833333333333333
2026-02-06T21:27:58+00:00,SAT-60333,357.60887191411143,60.46371201083687,547.3126168440509,-1.401560265135674,49088.56907909463,10.5,10500049088.569078,47.655,-122.3035,60.0,4.85
2026-02-06T21:27:59+00:00,SAT-60333,359.0325061097314,60.748260749333845,545.9148139685707,-1.3135429179841625,46005.82926883939,10.5,10500046005.82927,47.655,-122.3035,60.0,4.866666666666666
2026-02-06T21:28:00+00:00,SAT-60333,0.48809560964189946,61.018459172763365,544.6047924778807,-1.224887070796803,42900.726486476284,10.5,10500042900.726486,47.655,-122.3035,60.0,4.883333333333334
2026-02-06T21:28:01+00:00,SAT-60333,1.974805872240246,61.27356607655251,543.3831891602861,-1.1356302291882574,39774.574337279366,10.5,10500039774.574337,47.655,-122.3035,60.0,4.9
2026-02-06T21:28:02+00:00,SAT-60333,3.4915996995271965,61.51285487656175,542.2506033990253,-1.0458113106172335,36628.73587527326,10.5,10500036628.735876,47.655,-122.3035,60.0,4.916666666666667
2026-02-06T21:28:03+00:00,SAT-60333,5.037229878917082,61.73561938023908,541.2075957642099,-0.9554705763600622,33464.621220660105,10.5,10500033464.621222,47.655,-122.3035,60.0,4.933333333333334
2026-02-06T21:28:04+00:00,SAT-60333,6.610234508739856,61.94117982385047,540.2546866726102,-0.8646495406127952,30283.68437619051,10.5,10500030283.684376,47.655,-122.3035,60.0,4.95
2026-02-06T21:28:05+00:00,SAT-60333,8.208935430243308,62.128889086451004,539.392355138094,-0.7733908879272204,27087.42033542356,10.5,10500027087.420336,47.655,-122.3035,60.0,4.966666666666667
2026-02-06T21:28:06+00:00,SAT-60333,9.831440181031912,62.298138981711624,538.6210376044095,-0.68173838795401,23877.362096671244,10.5,10500023877.362097,47.655,-122.3035,60.0,4.983333333333333
2026-02-06T21:28:07+00:00,SAT-60333,11.475647807020609,62.44836651209743,537.9411268629938,-0.5897367904262196,20655.076984876338,10.5,10500020655.076984,47.655,-122.3035,60.0,5.0
2026-02-06T21:28:08+00:00,SAT-60333,13.139258726250398,62.5790599544392,537.3529710755188,-0.4974317265115451,17422.163196551206,10.5,10500017422.163197,47.655,-122.3035,60.0,5.016666666666667
2026-02-06T21:28:09+00:00,SAT-60333,14.819788768956471,62.689764643727536,536.8568728948204,-0.40486959515837234,14180.245819135682,10.5,10500014180.24582,47.655,-122.3035,60.0,5.033333333333333
2026-02-06T21:28:10+00:00,SAT-60333,16.51458731593382,62.78008831421505,536.4530886991747,-0.31209744967948594,10930.972858678793,10.5,10500010930.972858,47.655,-122.3035,60.0,5.05
2026-02-06T21:28:11+00:00,SAT-60333,18.22085933285515,62.84970586256159,536.1418279396885,-0.2191628875061133,7676.011378559061,10.5,10500007676.01138,47.655,-122.3035,60.0,5.066666666666666
2026-02-06T21:28:12+00:00,SAT-60333,19.93569097317107,62.8983634066993,535.9232525976391,-0.1261139219039175,4417.043006435918,10.5,10500004417.043007,47.655,-122.3035,60.0,5.083333333333333
2026-02-06T21:28:13+00:00,SAT-60333,21.65607815426878,62.92588152356637,535.7974767697561,-0.03299886284094685,1155.7597617413774,10.5,10500001155.759762,47.655,-122.3035,60.0,5.1
2026-02-06T21:28:14+00:00,SAT-60333,23.37895750462136,62.93215757470624,535.7645663723126,0.06013380839005475,-2106.140335577004,10.5,10499997893.859665,47.655,-122.3035,60.0,5.116666666666666
2026-02-06T21:28:15+00:00,SAT-60333,25.101238846059307,62.91716704999528,535.8245389702607,0.1532355657155114,-5366.957697157511,10.5,10499994633.042303,47.655,-122.3035,60.0,5.133333333333334
2026-02-06T21:28:16+00:00,SAT-60333,26.819838443850195,62.88096388905569,535.9773637325711,0.24625796290514218,-8624.995531088354,10.5,10499991375.004469,47.655,-122.3035,60.0,5.15
2026-02-06T21:28:17+00:00,SAT-60333,28.531712032510434,62.82367977127011,536.2229615118613,0.3391527612463597,-11878.56431360517,10.5,10499988121.435686,47.655,-122.3035,60.0,5.166666666666667
2026-02-06T21:28:18+00:00,SAT-60333,30.233886824076887,62.745522395002645,536.5612050513579,0.4318720494943629,-15125.985990250663,10.5,10499984874.01401,47.655,-122.3035,60.0,5.183333333333334
2026-02-06T21:28:19+00:00,SAT-60333,31.923491611385813,62.64677279905352,536.9919193114858,0.5243683724578379,-18365.598479489756,10.5,10499981634.40152,47.655,-122.3035,60.0,5.2
2026-02-06T21:28:20+00:00,SAT-60333,33.597784282896974,62.5277818026023,537.5148819246999,0.6165948498962731,-21595.759836996524,10.5,10499978404.240164,47.655,-122.3035,60.0,5.216666666666667
2026-02-06T21:28:21+00:00,SAT-60333,35.25417609553041,62.38896566704157,538.1298237688937,0.7085052806921164,-24814.851904203748,10.5,10499975185.148096,47.655,-122.3035,60.0,5.233333333333333
2026-02-06T21:28:22+00:00,SAT-60333,36.89025222407153,62.2308011019216,538.836429644702,0.8000542754166611,-28021.284951321028,10.5,10499971978.715048,47.655,-122.3035,60.0,5.25
2026-02-06T21:28:23+00:00,SAT-60333,38.50378836127585,62.053819739448,539.6343390850138,0.8911973443718157,-31213.500760929972,10.5,10499968786.499239,47.655,-122.3035,60.0,5.266666666666667
2026-02-06T21:28:24+00:00,SAT-60333,40.09276311906842,61.858602224367445,540.5231472522906,0.9818910173894471,-34389.97682386391,10.5,10499965610.023176,47.655,-122.3035,60.0,5.283333333333333
2026-02-06T21:28:25+00:00,SAT-60333,41.65536632655536,61.645772049180266,541.5024059553634,1.0720929206294199,-37549.229029000155,10.5,10499962450.770971,47.655,-122.3035,60.0,5.3
2026-02-06T21:28:26+00:00,SAT-60333,43.190003298300404,61.41598927614545,542.5716247428213,1.1617618858432934,-40689.81549013678,10.5,10499959310.18451,47.655,-122.3035,60.0,5.316666666666666
2026-02-06T21:28:27+00:00,SAT-60333,44.69529540509377,61.16994426155153,543.7302721053718,1.2508580221874224,-43810.33906119125,10.5,10499956189.660938,47.655,-122.3035,60.0,5.333333333333333
2026-02-06T21:28:28+00:00,SAT-60333,46.17007724939578,60.908351500161864,544.9777767498201,1.3393428000867822,-46909.45027346624,10.5,10499953090.549726,47.655,-122.3035,60.0,5.35
2026-02-06T21:28:29+00:00,SAT-60333,47.61339089711974,60.63194368176606,546.3135289566892,1.427179102832549,-49985.849142815205,10.5,10499950014.150858,47.655,-122.3035,60.0,5.366666666666666
2026-02-06T21:28:30+00:00,SAT-60333,49.024477594895224,60.341466044552874,547.7368819892978,1.5143313228706905,-53038.28854207617,10.5,10499946961.711458,47.655,-122.3035,60.0,5.383333333333334
2026-02-06T21:28:31+00:00,SAT-60333,50.40276750018161,60.0376710772028,549.2471535988695,1.6007653872703822,-56065.57509308327,10.5,10499943934.424908,47.655,-122.3035,60.0,5.4
2026-02-06T21:28:32+00:00,SAT-60333,51.74786782508153,59.721313628888396,550.8436275550422,1.6864488109897586,-59066.571032258806,10.5,10499940933.428968,47.655,-122.3035,60.0,5.416666666666667
2026-02-06T21:28:33+00:00,SAT-60333,53.0595498767181,59.393146450365535,552.5255552294998,1.7713507378079967,-62040.19564422786,10.5,10499937959.804356,47.655,-122.3035,60.0,5.433333333333334
2026-02-06T21:28:34+00:00,SAT-60333,54.33773539606737,59.05391618376866,554.2921572204259,1.8554419813152745,-64985.42669746009,10.5,10499935014.573303,47.655,-122.3035,60.0,5.45
2026-02-06T21:28:35+00:00,SAT-60333,55.58248256167887,58.704359804118184,556.1426250178404,1.9386950376798862,-67901.30089142805,10.5,10499932098.699108,47.655,-122.3035,60.0,5.466666666666667
2026-02-06T21:28:36+00:00,SAT-60333,56.79397195841585,58.34520151064119,558.0761226816641,2.0210840931049057,-70786.91411777113,10.5,10499929213.085882,47.655,-122.3035,60.0,5.483333333333333
2026-02-06T21:28:37+00:00,SAT-60333,57.97249277727792,57.97715005309834,560.091788527225,2.1025850750181774,-73641.42325318558,10.5,10499926358.576746,47.655,-122.3035,60.0,5.5
2026-02-06T21:28:38+00:00,SAT-60333,59.11842948807047,57.600896463204094,562.1887368618139,2.1831755964533825,-76464.04421141415,10.5,10499923535.955788,47.655,-122.3035,60.0,5.516666666666667
2026-02-06T21:28:39+00:00,SAT-60333,60.23224909081312,57.21711218406481,564.3660596657714,2.2628350072496843,-79254.05373647419,10.5,10499920745.946264,47.655,-122.3035,60.0,5.533333333333333
2026-02-06T21:28:40+00:00,SAT-60333,61.31448913281478,56.82644754839657,566.6228283246378,2.341544338571982,-82010.78745952244,10.5,10499917989.21254,47.655,-122.3035,60.0,5.55
2026-02-06T21:28:41+00:00,SAT-60333,62.36574651894312,56.429530593151355,568.9580953059711,2.419286325019804,-84733.6406732018,10.5,10499915266.359327,47.655,-122.3035,60.0,5.566666666666666
2026-02-06T21:28:42+00:00,SAT-60333,63.38666720810777,56.02696616461385,571.3708958582151,2.4960453605499158,-87422.06678786466,10.5,10499912577.933212,47.655,-122.3035,60.0,5.583333333333333
2026-02-06T21:28:43+00:00,SAT-60333,64.37793678698024,55.61933529358445,573.8602496656077,2.571807499086819,-90075.57735295528,10.5,10499909924.422647,47.655,-122.3035,60.0,5.6
2026-02-06T21:28:44+00:00,SAT-60333,65.34027194234231,55.20719480203009,576.4251625036987,2.646560352790305,-92693.73849390903,10.5,10499907306.261507,47.655,-122.3035,60.0,5.616666666666666
2026-02-06T21:28:45+00:00,SAT-60333,66.27441277652156,54.79107712811332,579.0646277934087,2.720293168370686,-95276.17358503463,10.5,10499904723.826414,47.655,-122.3035,60.0,5.633333333333334
2026-02-06T21:28:46+00:00,SAT-60333,67.18111599972157,54.371490313146225,581.7776282311954,2.7929966845419183,-97822.55825691967,10.5,10499902177.441744,47.655,-122.3035,60.0,5.65
2026-02-06T21:28:47+00:00,SAT-60333,68.06114887876268,53.94891815976171,584.5631372770595,2.8646631692654725,-100332.62170086835,10.5,10499899667.3783,47.655,-122.3035,60.0,5.666666666666667
2026-02-06T21:28:48+00:00,SAT-60333,68.9152839565456,53.5238205091311,587.4201206796919,2.9352862902164194,-102806.14213207593,10.5,10499897193.857868,47.655,-122.3035,60.0,5.683333333333334
2026-02-06T21:28:49+00:00,SAT-60333,69.74429443664167,53.09663364141513,590.3475378724337,3.004861170518624,-105242.948741711,10.5,10499894757.051258,47.655,-122.3035,60.0,5.7
2026-02-06T21:28:50+00:00,SAT-60333,70.54895023241609,52.66777075228907,593.344343424825,3.0733842385968053,-107642.9164380995,10.5,10499892357.083563,47.655,-122.3035,60.0,5.716666666666667
2026-02-06T21:28:51+00:00,SAT-60333,71.33001456698102,52.237622518906306,596.4094883444052,3.1408532303374863,-110005.96592241025,10.5,10499889994.034077,47.655,-122.3035,60.0,5.733333333333333
2026-02-06T21:28:52+00:00,SAT-60333,72.08824111223993,51.80655771742102,599.5419213806698,3.207267145473953,-112332.06216107182,10.5,10499887667.93784,47.655,-122.3035,60.0,5.75
2026-02-06T21:28:53+00:00,SAT-60333,72.82437160033624,51.37492388585585,602.7405902855295,3.2726261441044544,-114621.21076140204,10.5,10499885378.789238,47.655,-122.3035,60.0,5.766666666666667
2026-02-06T21:28:54+00:00,SAT-60333,73.53913384362843,50.943048028623984,606.004442970564,3.3369315429304827,-116873.45783985688,10.5,10499883126.54216,47.655,-122.3035,60.0,5.783333333333333
2026-02-06T21:28:55+00:00,SAT-60333,74.23324013998445,50.51123733894432,609.3324286605246,3.4001857105937425,-119088.88635628817,10.5,10499880911.113644,47.655,-122.3035,60.0,5.8
2026-02-06T21:28:56+00:00,SAT-60333,74.90738599640619,50.07977994408109,612.7234989424537,3.462392074631523,-121267.61635755024,10.5,10499878732.383642,47.655,-122.3035,60.0,5.816666666666666
2026-02-06T21:28:57+00:00,SAT-60333,75.56224915391954,49.648945651378966,616.1766088217435,3.5235549741681735,-123409.79981813225,10.5,10499876590.200182,47.655,-122.3035,60.0,5.833333333333333
2026-02-06T21:28:58+00:00,SAT-60333,76.19848884683077,49.21898670855268,619.6907176312765,3.5836797135019287,-125515.62251699557,10.5,10499874484.377483,47.655,-122.3035,60.0,5.85
2026-02-06T21:28:59+00:00,SAT-60333,76.81674530056058,48.79013854763722,623.2647899940142,3.6427723968514054,-127585.29824969699,10.5,10499872414.70175,47.655,-122.3035,60.0,5.866666666666666
2026-02-06T21:29:00+00:00,SAT-60333,77.41763939780543,48.362620535452486,626.8977966207723,3.7008399887265213,-129619.07094283364,10.5,10499870380.929058,47.655,-122.3035,60.0,5.883333333333334
2026-02-06T21:29:01+00:00,SAT-60333,78.00177252536659,47.93663669951736,630.588715168205,3.75789013057055,-131617.20823207224,10.5,10499868382.791767,47.655,-122.3035,60.0,5.9
2026-02-06T21:29:02+00:00,SAT-60333,78.56972653696776,47.51237645556096,634.3365309139243,3.813931218160597,-133580.00417304115,10.5,10499866419.995827,47.655,-122.3035,60.0,5.916666666666667
2026-02-06T21:29:03+00:00,SAT-60333,79.12206385196279,47.090015303711375,638.1402375088115,3.868972249663611,-135507.7739196091,10.5,10499864492.22608,47.655,-122.3035,60.0,5.933333333333334
2026-02-06T21:29:04+00:00,SAT-60333,79.6593276357596,46.66971551822533,641.9988375777918,3.923022826373805,-137400.85374971293,10.5,10499862599.14625,47.655,-122.3035,60.0,5.95
2026-02-06T21:29:05+00:00,SAT-60333,80.18204206786545,46.25162681177017,645.9113433213455,3.976093116076375,-139259.59978219977,10.5,10499860740.400217,47.655,-122.3035,60.0,5.966666666666667
2026-02-06T21:29:06+00:00,SAT-60333,80.69071267700812,45.83588697790401,649.8767770804784,4.028193747982455,-141084.38429700516,10.5,10499858915.615704,47.655,-122.3035,60.0,5.983333333333333
2026-02-06T21:29:07+00:00,SAT-60333,81.18582672170209,45.42262251820606,653.8941717969134,4.07933581567959,-142875.5958384907,10.5,10499857124.404161,47.655,-122.3035,60.0,6.0
2026-02-06T21:29:08+00:00,SAT-60333,81.66785361948769,45.011949242107974,657.9625714762194,4.129530832638239,-144633.6376570938,10.5,10499855366.362343,47.655,-122.3035,60.0,6.016666666666667
2026-02-06T21:29:09+00:00,SAT-60333,82.13724540816092,44.603972844573406,662.0810316065705,4.178790679272303,-146358.92585516334,10.5,10499853641.074144,47.655,-122.3035,60.0,6.033333333333333
2026-02-06T21:29:10+00:00,SAT-60333,82.59443723011685,44.198789462477514,666.2486195247048,4.227127542155272,-148051.88725805221,10.5,10499851948.112741,47.655,-122.3035,60.0,6.05
2026-02-06T21:29:11+00:00,SAT-60333,83.03984783199685,43.79648621046495,670.4644147212631,4.274553928732178,-149712.95992939177,10.5,10499850287.040071,47.655,-122.3035,60.0,6.066666666666666
2026-02-06T21:29:12+00:00,SAT-60333,83.47388008141888,43.39714168940352,674.7275091608011,4.321082552533201,-151342.58915078713,10.5,10499848657.410849,47.655,-122.3035,60.0,6.083333333333333
2026-02-06T21:29:13+00:00,SAT-60333,83.89692148207013,43.00082648028818,679.03700748732,4.366726417861505,-152941.23038794327,10.5,10499847058.769611,47.655,-122.3035,60.0,6.1
2026-02-06T21:29:14+00:00,SAT-60333,84.3093447026431,42.60760360541086,683.3920273142636,4.411498622372605,-154509.34237615927,10.5,10499845490.657623,47.655,-122.3035,60.0,6.116666666666666
2026-02-06T21:29:15+00:00,SAT-60333,84.71150808866598,42.217528983494866,687.7916993176166,4.4554124882025565,-156047.39171299248,10.5,10499843952.608288,47.655,-122.3035,60.0,6.133333333333334
2026-02-06T21:29:16+00:00,SAT-60333,85.10375618513623,41.83065184933391,692.235167459785,4.498481455664016,-157555.8491350445,10.5,10499842444.150866,47.655,-122.3035,60.0,6.15
2026-02-06T21:29:17+00:00,SAT-60333,85.48642024485042,41.44701516050321,696.7215891074567,4.540719028439942,-159035.18759841315,10.5,10499840964.8124,47.655,-122.3035,60.0,6.166666666666667
2026-02-06T21:29:18+00:00,SAT-60333,85.85981872591556,41.066655986753496,701.2501350948007,4.582138796217419,-160485.88307142435,10.5,10499839514.116928,47.655,-122.3035,60.0,6.183333333333334
2026-02-06T21:29:19+00:00,SAT-60333,86.22425778303021,40.68960587625024,705.8199898092408,4.622754407407181,-161908.41357915482,10.5,10499838091.58642,47.655,-122.3035,60.0,6.2
2026-02-06T21:29:20+00:00,SAT-60333,86.58003174659947,40.315891203934754,710.4303512500217,4.66257953894291,-163303.25814567538,10.5,10499836696.741854,47.655,-122.3035,60.0,6.216666666666667
2026-02-06T21:29:21+00:00,SAT-60333,86.9274235884784,39.94553350296887,715.0804310566568,4.701627831158456,-164670.89451317617,10.5,10499835329.105486,47.655,-122.3035,60.0,6.233333333333333
2026-02-06T21:29:22+00:00,SAT-60333,87.26670537127904,39.5785497826625,719.7694544724244,4.739912963032452,-166011.80177735075,10.5,10499833988.198223,47.655,-122.3035,60.0,6.25
2026-02-06T21:29:23+00:00,SAT-60333,87.59813869056013,39.21495282256026,724.496660382911,4.777448530510962,-167326.45612574116,10.5,10499832673.543875,47.655,-122.3035,60.0,6.266666666666667
2026-02-06T21:29:24+00:00,SAT-60333,87.92197509544377,38.85475145905115,729.2613012331998,4.814248121867835,-168615.33347717594,10.5,10499831384.666523,47.655,-122.3035,60.0,6.283333333333333
2026-02-06T21:29:25+00:00,SAT-60333,88.23845650110093,38.497950849821976,734.062643020219,4.850325191460636,-169878.9050601689,10.5,10499830121.09494,47.655,-122.3035,60.0,6.3
2026-02-06T21:29:26+00:00,SAT-60333,88.5478155796214,38.14455273227419,738.8999651591861,4.88569318518494,-171117.64180685917,10.5,10499828882.358192,47.655,-122.3035,60.0,6.316666666666666
2026-02-06T21:29:27+00:00,SAT-60333,88.85027614525174,37.79455565776558,743.7725604751674,4.920365425120648,-172332.01031283717,10.5,10499827667.989687,47.655,-122.3035,60.0,6.333333333333333
2026-02-06T21:29:28+00:00,SAT-60333,89.14605351873257,37.44795522040202,748.6797350795937,4.954355103600803,-173522.4726294096,10.5,10499826477.52737,47.655,-122.3035,60.0,6.35
2026-02-06T21:29:29+00:00,SAT-60333,89.43535487823874,37.10474427265066,753.6208082408629,4.98767530655883,-174689.4870813185,10.5,10499825310.512918,47.655,-122.3035,60.0,6.366666666666666
2026-02-06T21:29:30+00:00,SAT-60333,89.71837959840516,36.76491312651981,758.595112278224,5.020339011688523,-175833.50820229604,10.5,10499824166.491798,47.655,-122.3035,60.0,6.383333333333334
2026-02-06T21:29:31+00:00,SAT-60333,89.99531957613301,36.428449742883245,763.6019924538291,5.052359020779159,-176954.98436515426,10.5,10499823045.015635,47.655,-122.3035,60.0,6.4
2026-02-06T21:29:32+00:00,SAT-60333,90.26635953997389,36.09533991391488,768.640806797299,5.083748035688506,-178054.36044268103,10.5,10499821945.639557,47.655,-122.3035,60.0,6.416666666666667
2026-02-06T21:29:33+00:00,SAT-60333,90.5316773511682,35.765567429528,773.7109260060611,5.114518556948664,-179132.07425638768,10.5,10499820867.925743,47.655,-122.3035,60.0,6.433333333333334
2026-02-06T21:29:34+00:00,SAT-60333,90.79144428732715,35.439114240240805,778.8117332445618,5.144682964397415,-180188.5594005599,10.5,10499819811.4406,47.655,-122.3035,60.0,6.45
2026-02-06T21:29:35+00:00,SAT-60333,91.04582531838805,35.115960604974404,783.942624023898,5.174253445023718,-181224.24271510207,10.5,10499818775.757284,47.655,-122.3035,60.0,6.466666666666667
2026-02-06T21:29:36+00:00,SAT-60333,91.29497936770129,34.796085234291574,789.1030060094828,5.203242019359442,-182239.545209887,10.5,10499817760.45479,47.655,-122.3035,60.0,6.483333333333333
2026-02-06T21:29:37+00:00,SAT-60333,91.53905956335915,34.479465423156,794.2922988550356,5.2316605275834895,-183234.88157806374,10.5,10499816765.118422,47.655,-122.3035,60.0,6.5
2026-02-06T21:29:38+00:00,SAT-60333,91.7782134782942,34.166077176295566,799.5099340227138,5.259520680345046,-184210.66197610277,10.5,10499815789.338024,47.655,-122.3035,60.0,6.516666666666667
2026-02-06T21:29:39+00:00,SAT-60333,92.01258336219277,33.85589532277302,804.7553546539289,5.286833924868758,-185167.28733423294,10.5,10499814832.712666,47.655,-122.3035,60.0,6.533333333333333
2026-02-06T21:29:40+00:00,SAT-60333,92.2423063578559,33.54889363117518,810.028015306628,5.3136115684591285,-186105.1536820878,10.5,10499813894.846317,47.655,-122.3035,60.0,6.55
2026-02-06T21:29:41+00:00,SAT-60333,92.46751471335152,33.24504491040841,815.3273818157509,5.339864753847541,-187024.6512852541,10.5,10499812975.348715,47.655,-122.3035,60.0,6.566666666666666
2026-02-06T21:29:42+00:00,SAT-60333,92.68833598384727,32.944321105555275,820.6529311290943,5.365604372492374,-187926.16160867503,10.5,10499812073.838392,47.655,-122.3035,60.0,6.583333333333333
2026-02-06T21:29:43+00:00,SAT-60333,92.90489322122146,32.64669339243325,826.0041510567174,5.390841192810728,-188810.0618078679,10.5,10499811189.938192,47.655,-122.3035,60.0,6.6
2026-02-06T21:29:44+00:00,SAT-60333,93.11730516042404,32.35213225905188,831.3805401482265,5.415585744422994,-189676.72067467897,10.5,10499810323.279325,47.655,-122.3035,60.0,6.616666666666666
2026-02-06T21:29:45+00:00,SAT-60333,93.32568639307826,32.060607588095166,836.7816074546196,5.439848391674455,-190526.5012123213,10.5,10499809473.498787,47.655,-122.3035,60.0,6.633333333333334
2026-02-06T21:29:46+00:00,SAT-60333,93.5301475363764,31.772088730121858,842.206872363455,5.463639285724283,-191359.7589573283,10.5,10499808640.241043,47.655,-122.3035,60.0,6.65
2026-02-06T21:29:47+00:00,SAT-60333,93.73079539265363,31.486544574507974,847.6558643862363,5.486968415014657,-192176.84374719628,10.5,10499807823.156252,47.655,-122.3035,60.0,6.666666666666667
2026-02-06T21:29:48+00:00,SAT-60333,93.92773310370426,31.203943613117715,853.1281229961322,5.50984555879943,-192978.09809276127,10.5,10499807021.901907,47.655,-122.3035,60.0,6.683333333333334
2026-02-06T21:29:49+00:00,SAT-60333,94.12106029671038,30.924254002139374,858.6231974193472,5.532280307509112,-193763.85789146728,10.5,10499806236.142109,47.655,-122.3035,60.0,6.7
2026-02-06T21:29:50+00:00,SAT-60333,94.31087322436794,30.647443618766726,864.1406464468066,5.554282091679124,-194534.45344055587,10.5,10499805465.54656,47.655,-122.3035,60.0,6.716666666666667
2026-02-06T21:29:51+00:00,SAT-60333,94.49726489973584,30.37348011265711,869.6800382746887,5.575860093120613,-195290.20632589242,10.5,10499804709.793674,47.655,-122.3035,60.0,6.733333333333333
2026-02-06T21:29:52+00:00,SAT-60333,94.68032522236227,30.102330958221888,875.2409502563685,5.5970233602757835,-196031.4334621978,10.5,10499803968.566538,47.655,-122.3035,60.0,6.75
