DopplerPredictor/satellites_20260211_204923/SAT-58009.csv

timestamp,satellite,azimuth_deg,elevation_deg,distance_km,relative_velocity_kms,doppler_shift_hz,tx_freq_ghz,rx_freq_hz,ue_lat,ue_lon,ue_alt_m,time_minutes
2026-02-06T21:26:07+00:00,SAT-58009,234.28832850576094,30.138212742345456,1009.0123925847976,-4.176575158333394,146281.3289402385,10.5,10500146281.32894,47.655,-122.3035,60.0,3.0
2026-02-06T21:26:08+00:00,SAT-58009,233.96185700391945,30.319556132293382,1004.8470142480963,-4.1459780524483385,145209.6888665143,10.5,10500145209.688866,47.655,-122.3035,60.0,3.0166666666666666
2026-02-06T21:26:09+00:00,SAT-58009,233.63142087561687,30.50122130969751,1000.7121509906617,-4.114995592214017,144124.55205343151,10.5,10500144124.552053,47.655,-122.3035,60.0,3.033333333333333
2026-02-06T21:26:10+00:00,SAT-58009,233.2969703386082,30.683181835421077,996.6081871337609,-4.083624308761663,143025.79700653264,10.5,10500143025.797007,47.655,-122.3035,60.0,3.05
2026-02-06T21:26:11+00:00,SAT-58009,232.95845550134243,30.865410195591387,992.535510458231,-4.0518608193243395,141913.30524701046,10.5,10500141913.305246,47.655,-122.3035,60.0,3.066666666666667
2026-02-06T21:26:12+00:00,SAT-58009,232.6158263978775,31.047877779472955,988.4945121186065,-4.019701760740323,140786.95898271527,10.5,10500140786.958982,47.655,-122.3035,60.0,3.0833333333333335
2026-02-06T21:26:13+00:00,SAT-58009,232.26903303105726,31.230554854418063,984.4855866235679,-3.9871438441989175,139646.64302558484,10.5,10500139646.643026,47.655,-122.3035,60.0,3.1
2026-02-06T21:26:14+00:00,SAT-58009,231.91802541414788,31.413410543344185,980.5091317617894,-3.9541838797363935,138492.2456495958,10.5,10500138492.24565,47.655,-122.3035,60.0,3.1166666666666667
2026-02-06T21:26:15+00:00,SAT-58009,231.5627536131788,31.59641280352549,976.5655485033573,-3.920818684087102,137323.65536331994,10.5,10500137323.655363,47.655,-122.3035,60.0,3.1333333333333333
2026-02-06T21:26:16+00:00,SAT-58009,231.20316780058204,31.779528401364583,972.655240993089,-3.887045179181553,136140.7643597435,10.5,10500136140.76436,47.655,-122.3035,60.0,3.15
2026-02-06T21:26:17+00:00,SAT-58009,230.83921830354558,31.962722891938554,968.7786164456206,-3.852860397649921,134943.46870902326,10.5,10500134943.46871,47.655,-122.3035,60.0,3.1666666666666665
2026-02-06T21:26:18+00:00,SAT-58009,230.4708556549114,32.14596059923683,964.936085035002,-3.8182613942970276,133731.66525796585,10.5,10500133731.665258,47.655,-122.3035,60.0,3.183333333333333
2026-02-06T21:26:19+00:00,SAT-58009,230.0980306559034,32.32920459263775,961.1280598725829,-3.783245352449611,132505.25535475917,10.5,10500132505.255354,47.655,-122.3035,60.0,3.2
2026-02-06T21:26:20+00:00,SAT-58009,229.72069443259608,32.51241666889729,957.3549568788353,-3.747809546506123,131264.1435373077,10.5,10500131264.143538,47.655,-122.3035,60.0,3.216666666666667
2026-02-06T21:26:21+00:00,SAT-58009,229.33879849948852,32.695557332990795,953.6171946925258,-3.7119513558373,130008.23802008938,10.5,10500130008.23802,47.655,-122.3035,60.0,3.2333333333333334
2026-02-06T21:26:22+00:00,SAT-58009,228.95229482554814,32.87858578030799,949.9151945660243,-3.675668252576944,128737.45026653711,10.5,10500128737.450266,47.655,-122.3035,60.0,3.25
2026-02-06T21:26:23+00:00,SAT-58009,228.56113590545354,33.06145987902237,946.2493802727904,-3.638957825772023,127451.69583487735,10.5,10500127451.695835,47.655,-122.3035,60.0,3.2666666666666666
2026-02-06T21:26:24+00:00,SAT-58009,228.16527483247106,33.24413615451117,942.6201779907727,-3.601817782761464,126150.89442642141,10.5,10500126150.894426,47.655,-122.3035,60.0,3.283333333333333
2026-02-06T21:26:25+00:00,SAT-58009,227.7646653752717,33.4265697748271,939.0280161844362,-3.5642459748615862,124834.97078517785,10.5,10500124834.970785,47.655,-122.3035,60.0,3.3
2026-02-06T21:26:26+00:00,SAT-58009,227.35926205607802,33.60871453857318,935.4733254611674,-3.526240361491881,123503.85344138561,10.5,10500123503.853441,47.655,-122.3035,60.0,3.316666666666667
2026-02-06T21:26:27+00:00,SAT-58009,226.94902023703654,33.790522862164444,931.9565384634634,-3.487799030819788,122157.47543458139,10.5,10500122157.475435,47.655,-122.3035,60.0,3.3333333333333335
2026-02-06T21:26:28+00:00,SAT-58009,226.5338962088868,33.971945769414994,928.4780897405288,-3.4489202452938854,120795.77590836457,10.5,10500120795.775908,47.655,-122.3035,60.0,3.35
2026-02-06T21:26:29+00:00,SAT-58009,226.1138472786638,34.1529328849326,925.0384155744615,-3.409602407403343,119418.6989111484,10.5,10500119418.698912,47.655,-122.3035,60.0,3.3666666666666667
2026-02-06T21:26:30+00:00,SAT-58009,225.68883186570864,34.33343242733821,921.6379538405876,-3.3698440553109177,118026.19324320905,10.5,10500118026.193243,47.655,-122.3035,60.0,3.3833333333333333
2026-02-06T21:26:31+00:00,SAT-58009,225.25880960297053,34.51339120390124,918.2771438721504,-3.329643908336336,116618.21404970609,10.5,10500116618.21405,47.655,-122.3035,60.0,3.4
2026-02-06T21:26:32+00:00,SAT-58009,224.82374143729353,34.692754609401476,914.9564262796414,-3.289000855335212,115194.72241366301,10.5,10500115194.722414,47.655,-122.3035,60.0,3.4166666666666665
2026-02-06T21:26:33+00:00,SAT-58009,224.38358973555748,34.87146662635694,911.6762427817172,-3.247913969536655,113755.68587564293,10.5,10500113755.685875,47.655,-122.3035,60.0,3.433333333333333
2026-02-06T21:26:34+00:00,SAT-58009,223.93831839337096,35.04946982816199,908.4370360213206,-3.206382472809061,112301.0771821856,10.5,10500112301.077183,47.655,-122.3035,60.0,3.45
2026-02-06T21:26:35+00:00,SAT-58009,223.48789295323303,35.22670538249562,905.2392494174405,-3.164405805063879,110830.87671662084,10.5,10500110830.876717,47.655,-122.3035,60.0,3.466666666666667
2026-02-06T21:26:36+00:00,SAT-58009,223.0322807178844,35.40311306089808,902.0833269476518,-3.1219836198537934,109345.07234489812,10.5,10500109345.072346,47.655,-122.3035,60.0,3.4833333333333334
2026-02-06T21:26:37+00:00,SAT-58009,222.5714508682229,35.57863125069905,898.9697129350495,-3.0791157243428153,107843.65731308544,10.5,10500107843.657312,47.655,-122.3035,60.0,3.5
2026-02-06T21:26:38+00:00,SAT-58009,222.1053745943437,35.75319696624644,895.8988518950455,-3.0358021699775244,106326.63342305965,10.5,10500106326.633423,47.655,-122.3035,60.0,3.5166666666666666
2026-02-06T21:26:39+00:00,SAT-58009,221.6340252178285,35.926745868014244,892.871188291745,-2.9920432125223146,104794.0096327717,10.5,10500104794.009632,47.655,-122.3035,60.0,3.533333333333333
2026-02-06T21:26:40+00:00,SAT-58009,221.1573783237909,36.09921228245683,889.8871663341733,-2.9478393385189676,103245.80298297285,10.5,10500103245.802982,47.655,-122.3035,60.0,3.55
2026-02-06T21:26:41+00:00,SAT-58009,220.67541189284862,36.270529226482125,886.9472297461191,-2.9031912600925183,101682.0384152941,10.5,10500101682.038416,47.655,-122.3035,60.0,3.566666666666667
2026-02-06T21:26:42+00:00,SAT-58009,220.18810643755285,36.44062843488806,884.0518215411546,-2.858099909552693,100102.74858316574,10.5,10500100102.748583,47.655,-122.3035,60.0,3.5833333333333335
2026-02-06T21:26:43+00:00,SAT-58009,219.69544514341484,36.609440390863035,881.2013838030416,-2.812566478944966,98507.97523706264,10.5,10500098507.975237,47.655,-122.3035,60.0,3.6
2026-02-06T21:26:44+00:00,SAT-58009,219.19741400663042,36.77689436233376,878.3963574266925,-2.7665924166555285,96897.76910559587,10.5,10500096897.769106,47.655,-122.3035,60.0,3.6166666666666667
2026-02-06T21:26:45+00:00,SAT-58009,218.69400197493545,36.94291844182023,875.6371818625163,-2.7201793880170118,95272.18851575853,10.5,10500095272.188517,47.655,-122.3035,60.0,3.6333333333333333
2026-02-06T21:26:46+00:00,SAT-58009,218.18520109830845,37.10743958771031,872.9242949000535,-2.6733293517556675,93631.30207042937,10.5,10500093631.30207,47.655,-122.3035,60.0,3.65
2026-02-06T21:26:47+00:00,SAT-58009,217.67100666832428,37.27038367401511,870.2581323753707,-2.6260445166001993,91975.18712863047,10.5,10500091975.187128,47.655,-122.3035,60.0,3.6666666666666665
2026-02-06T21:26:48+00:00,SAT-58009,217.15141736701912,37.43167554156306,867.6391279217254,-2.5783273635448376,90303.93058527441,10.5,10500090303.930586,47.655,-122.3035,60.0,3.683333333333333
2026-02-06T21:26:49+00:00,SAT-58009,216.62643541314227,37.59123905465982,865.0677126980328,-2.530180649026985,88617.62898245874,10.5,10500088617.628983,47.655,-122.3035,60.0,3.7
2026-02-06T21:26:50+00:00,SAT-58009,216.09606670869832,37.748997162162055,862.5443151141611,-2.4816074091094826,86916.38865594666,10.5,10500086916.388657,47.655,-122.3035,60.0,3.716666666666667
2026-02-06T21:26:51+00:00,SAT-58009,215.56032098503186,37.90487196311132,860.0693605520536,-2.4326109624193903,85200.32583809564,10.5,10500085200.325838,47.655,-122.3035,60.0,3.7333333333333334
2026-02-06T21:26:52+00:00,SAT-58009,215.0192119482033,38.0587847769137,857.6432710839241,-2.3831949270119916,83469.567248506,10.5,10500083469.56725,47.655,-122.3035,60.0,3.75
2026-02-06T21:26:53+00:00,SAT-58009,214.4727574198658,38.21065621900888,855.2664651736306,-2.3333631944900803,81724.2491875691,10.5,10500081724.249187,47.655,-122.3035,60.0,3.7666666666666666
2026-02-06T21:26:54+00:00,SAT-58009,213.92097948252348,38.360406279345106,852.9393574038611,-2.283119961676853,79964.5186457858,10.5,10500079964.518646,47.655,-122.3035,60.0,3.783333333333333
2026-02-06T21:26:55+00:00,SAT-58009,213.3639046158023,38.50795440733402,850.6623581717306,-2.232469743087623,78190.53374057877,10.5,10500078190.533741,47.655,-122.3035,60.0,3.8
2026-02-06T21:26:56+00:00,SAT-58009,212.8015638264814,38.653219602108294,848.4358733719436,-2.181417326938697,76402.46217553719,10.5,10500076402.462175,47.655,-122.3035,60.0,3.816666666666667
2026-02-06T21:26:57+00:00,SAT-58009,212.2339927855911,38.79612050439292,846.2603041238228,-2.1299678173738323,74600.48271936594,10.5,10500074600.48272,47.655,-122.3035,60.0,3.8333333333333335
2026-02-06T21:26:58+00:00,SAT-58009,211.6612319512175,38.936575495504634,844.1360464562315,-2.078126632619651,72784.78514128043,10.5,10500072784.785141,47.655,-122.3035,60.0,3.85
2026-02-06T21:26:59+00:00,SAT-58009,211.0833266861021,39.074502800612144,842.0634909943328,-2.025899492062629,70955.56975838801,10.5,10500070955.569757,47.655,-122.3035,60.0,3.8666666666666667
2026-02-06T21:27:00+00:00,SAT-58009,210.50032737258087,39.20982059540981,840.0430226592343,-1.9732924283397741,69113.04785915471,10.5,10500069113.04786,47.655,-122.3035,60.0,3.8833333333333333
2026-02-06T21:27:01+00:00,SAT-58009,209.91228951736468,39.342447117747604,838.0750203555802,-1.9203117757472705,67257.44129742697,10.5,10500067257.441298,47.655,-122.3035,60.0,3.9
2026-02-06T21:27:02+00:00,SAT-58009,209.31927385183758,39.47230078250455,836.1598566707007,-1.8669641966943393,65388.983418957665,10.5,10500065388.98342,47.655,-122.3035,60.0,3.9166666666666665
2026-02-06T21:27:03+00:00,SAT-58009,208.72134641564256,39.59930030210471,834.2978975473768,-1.813256647514658,63507.917863977455,10.5,10500063507.917864,47.655,-122.3035,60.0,3.933333333333333
2026-02-06T21:27:04+00:00,SAT-58009,208.11857864063262,39.72336480840486,832.4895019907048,-1.7591963969647968,61614.49921508822,10.5,10500061614.499214,47.655,-122.3035,60.0,3.95
2026-02-06T21:27:05+00:00,SAT-58009,207.51104741888395,39.84441397927623,830.7350217565113,-1.7047910289588228,59708.993093040524,10.5,10500059708.993093,47.655,-122.3035,60.0,3.966666666666667
2026-02-06T21:27:06+00:00,SAT-58009,206.89883515766263,39.96236816860169,829.0348010370396,-1.650048427184615,57791.67561793185,10.5,10500057791.675617,47.655,-122.3035,60.0,3.9833333333333334
2026-02-06T21:27:07+00:00,SAT-58009,206.28202982687185,40.07714853816393,827.3891761619815,-1.5949767816264828,55862.83363765632,10.5,10500055862.833637,47.655,-122.3035,60.0,4.0
2026-02-06T21:27:08+00:00,SAT-58009,205.66072499066476,40.188677192625846,825.798475293,-1.5395845785456148,53922.764376977604,10.5,10500053922.764378,47.655,-122.3035,60.0,4.016666666666667
2026-02-06T21:27:09+00:00,SAT-58009,205.035019828152,40.29687731614123,824.2630181282468,-1.4838806035955916,51971.775546647375,10.5,10500051971.775547,47.655,-122.3035,60.0,4.033333333333333
2026-02-06T21:27:10+00:00,SAT-58009,204.4050191373831,40.40167331115781,822.7831156037738,-1.4278739365659965,50010.18515930432,10.5,10500050010.18516,47.655,-122.3035,60.0,4.05
2026-02-06T21:27:11+00:00,SAT-58009,203.77083332478102,40.50299093845185,821.3590696001854,-1.371573947599863,48038.321396993124,10.5,10500048038.321398,47.655,-122.3035,60.0,4.066666666666666
2026-02-06T21:27:12+00:00,SAT-58009,203.13257837832126,40.60075745810957,819.9911726530615,-1.3149902733684584,46056.52177670465,10.5,10500046056.521776,47.655,-122.3035,60.0,4.083333333333333
2026-02-06T21:27:13+00:00,SAT-58009,202.49037583345648,40.694901769583026,818.6797076871474,-1.2581328462395416,44065.13417197168,10.5,10500044065.134172,47.655,-122.3035,60.0,4.1
2026-02-06T21:27:14+00:00,SAT-58009,201.84435270661479,40.78535455417261,817.4249477214463,-1.201011858953675,42064.51557568398,10.5,10500042064.515575,47.655,-122.3035,60.0,4.116666666666666
2026-02-06T21:27:15+00:00,SAT-58009,201.19464142464477,40.87204841486628,816.2271556095467,-1.1436377605986152,40055.031959094376,10.5,10500040055.03196,47.655,-122.3035,60.0,4.133333333333334
2026-02-06T21:27:16+00:00,SAT-58009,200.54137973665442,40.95491801528966,815.0865837839625,-1.08602126651096,38037.05861861635,10.5,10500038037.058619,47.655,-122.3035,60.0,4.15
2026-02-06T21:27:17+00:00,SAT-58009,199.88471059892908,41.03390021828249,814.0034739905959,-1.028173334242053,36010.979334048345,10.5,10500036010.979334,47.655,-122.3035,60.0,4.166666666666667
2026-02-06T21:27:18+00:00,SAT-58009,199.2247820501976,41.10893422115956,812.9780570471752,-0.97010515200869,33977.18596406866,10.5,10500033977.185965,47.655,-122.3035,60.0,4.183333333333334
2026-02-06T21:27:19+00:00,SAT-58009,198.56174707183163,41.17996168802942,812.0105526132046,-0.9118281426831526,31936.078585983312,10.5,10500031936.078587,47.655,-122.3035,60.0,4.2
2026-02-06T21:27:20+00:00,SAT-58009,197.8957634224505,41.24692687980011,811.1011689559394,-0.8533539430475495,29888.064769125278,10.5,10500029888.06477,47.655,-122.3035,60.0,4.216666666666667
2026-02-06T21:27:21+00:00,SAT-58009,197.2269934617934,41.309776779544464,810.2501027370506,-0.7946944035996777,27833.559568054963,10.5,10500027833.559568,47.655,-122.3035,60.0,4.233333333333333
2026-02-06T21:27:22+00:00,SAT-58009,196.55560395023326,41.368461214226826,809.4575387994792,-0.7358615625746052,25772.984612686138,10.5,10500025772.984613,47.655,-122.3035,60.0,4.25
2026-02-06T21:27:23+00:00,SAT-58009,195.8817658426483,41.42293297037613,808.7236499802049,-0.6768676436824594,23706.768029053695,10.5,10500023706.768028,47.655,-122.3035,60.0,4.266666666666667
2026-02-06T21:27:24+00:00,SAT-58009,195.20565406058884,41.47314790495908,808.0485969252674,-0.6177250516481618,21635.34428309634,10.5,10500021635.344282,47.655,-122.3035,60.0,4.283333333333333
2026-02-06T21:27:25+00:00,SAT-58009,194.52744724082973,41.51906505081232,807.4325279092367,-0.5584463444407765,19559.15320801083,10.5,10500019559.153208,47.655,-122.3035,60.0,4.3
2026-02-06T21:27:26+00:00,SAT-58009,193.84732748279055,41.56064671444178,806.8755786823797,-0.4990442284182316,17478.639834199672,10.5,10500017478.639833,47.655,-122.3035,60.0,4.316666666666666
2026-02-06T21:27:27+00:00,SAT-58009,193.16548007590177,41.59785856744101,806.3778723226699,-0.4395315457191499,15394.253947679608,10.5,10500015394.253948,47.655,-122.3035,60.0,4.333333333333333
2026-02-06T21:27:28+00:00,SAT-58009,192.48209321287507,41.63066973053115,805.9395191003695,-0.3799212610892836,13306.449628687715,10.5,10500013306.449629,47.655,-122.3035,60.0,4.35
2026-02-06T21:27:29+00:00,SAT-58009,191.79735768920054,41.6590528498,805.5606163557519,-0.320226441369638,11215.684533268675,10.5,10500011215.684534,47.655,-122.3035,60.0,4.366666666666666
2026-02-06T21:27:30+00:00,SAT-58009,191.1114666030653,41.68298416422334,805.2412483972804,-0.2604602527785119,9122.41979808036,10.5,10500009122.419798,47.655,-122.3035,60.0,4.383333333333334
2026-02-06T21:27:31+00:00,SAT-58009,190.4246150275079,41.7024435654824,804.981486402496,-0.20063593639027485,7027.119181556882,10.5,10500007027.11918,47.655,-122.3035,60.0,4.4
2026-02-06T21:27:32+00:00,SAT-58009,189.73699969070987,41.71741464815804,804.7813883433635,-0.14076680049568055,4930.248796334448,10.5,10500004930.248796,47.655,-122.3035,60.0,4.416666666666667
2026-02-06T21:27:33+00:00,SAT-58009,189.0488186354724,41.72788475131979,804.6409989192342,-0.08086619996433286,2832.2763864376307,10.5,10500002832.276386,47.655,-122.3035,60.0,4.433333333333334
2026-02-06T21:27:34+00:00,SAT-58009,188.36027088920187,41.73384499034158,804.5603495103923,-0.02094752721222264,733.6710109242898,10.5,10500000733.671011,47.655,-122.3035,60.0,4.45
2026-02-06T21:27:35+00:00,SAT-58009,187.67155611470386,41.73529027964707,804.53945814061,0.03897580583461055,-1365.097587823276,10.5,10499998634.902412,47.655,-122.3035,60.0,4.466666666666667
2026-02-06T21:27:36+00:00,SAT-58009,186.98287426171572,41.73221934560194,804.5783294576877,0.09889038245570887,-3463.559499501963,10.5,10499996536.4405,47.655,-122.3035,60.0,4.483333333333333
2026-02-06T21:27:37+00:00,SAT-58009,186.29442522462435,41.72463472974662,804.6769547286749,0.1587827954724407,-5561.245148003782,10.5,10499994438.754852,47.655,-122.3035,60.0,4.5
2026-02-06T21:27:38+00:00,SAT-58009,185.60640849158446,41.712542782367855,804.8353118493849,0.2186396619520689,-7657.685806414528,10.5,10499992342.314194,47.655,-122.3035,60.0,4.516666666666667
2026-02-06T21:27:39+00:00,SAT-58009,184.9190228019927,41.695953646425345,805.0533653685751,0.27844763892444746,-9752.414147478981,10.5,10499990247.585852,47.655,-122.3035,60.0,4.533333333333333
2026-02-06T21:27:40+00:00,SAT-58009,184.23246580121878,41.67488123182764,805.3310665278058,0.3381934381487277,-11844.964760793417,10.5,10499988155.035238,47.655,-122.3035,60.0,4.55
2026-02-06T21:27:41+00:00,SAT-58009,183.54693370295863,41.649343180262704,805.6683533160173,0.39786383979209333,-13934.874631892775,10.5,10499986065.125368,47.655,-122.3035,60.0,4.566666666666666
2026-02-06T21:27:42+00:00,SAT-58009,182.86262095969437,41.61936082083171,806.0651505377601,0.45744570464533135,-16021.68357009161,10.5,10499983978.31643,47.655,-122.3035,60.0,4.583333333333333
2026-02-06T21:27:43+00:00,SAT-58009,182.17971994230456,41.58495911681247,806.521369893599,0.516925998200251,-18104.93505177717,10.5,10499981895.064949,47.655,-122.3035,60.0,4.6
2026-02-06T21:27:44+00:00,SAT-58009,181.49842061302226,41.54616660292015,807.0369100845338,0.5762917893234849,-20184.176173960288,10.5,10499979815.823826,47.655,-122.3035,60.0,4.616666666666666
2026-02-06T21:27:45+00:00,SAT-58009,180.8189102343756,41.503015315274084,807.6116569150984,0.6355302760379693,-22258.958557251888,10.5,10499977741.041443,47.655,-122.3035,60.0,4.633333333333334
2026-02-06T21:27:46+00:00,SAT-58009,180.14137306807038,41.45554071236117,808.2454834221694,0.6946287954841789,-24328.83869474755,10.5,10499975671.161304,47.655,-122.3035,60.0,4.65
2026-02-06T21:27:47+00:00,SAT-58009,179.46599009390962,41.403781588565664,808.9382500137117,0.7535748342425783,-26393.37831356342,10.5,10499973606.621687,47.655,-122.3035,60.0,4.666666666666667
2026-02-06T21:27:48+00:00,SAT-58009,178.7929387439522,41.34777998062558,809.689804617817,0.8123560475138359,-28452.145046608468,10.5,10499971547.854954,47.655,-122.3035,60.0,4.683333333333334
2026-02-06T21:27:49+00:00,SAT-58009,178.12239264482557,41.28758106678906,810.4999828508724,0.8709602584032515,-30504.712407522074,10.5,10499969495.287592,47.655,-122.3035,60.0,4.7
2026-02-06T21:27:50+00:00,SAT-58009,177.45452138643986,41.22323306060084,811.3686081850157,0.9293754850501611,-32550.66074086057,10.5,10499967449.339258,47.655,-122.3035,60.0,4.716666666666667
2026-02-06T21:27:51+00:00,SAT-58009,176.7894902926806,41.15478709771722,812.2954921426442,0.987589947714428,-34589.57747029611,10.5,10499965410.42253,47.655,-122.3035,60.0,4.733333333333333
2026-02-06T21:27:52+00:00,SAT-58009,176.12746021341187,41.08229711774326,813.2804344979961,1.0455920683041782,-36621.057082076,10.5,10499963378.942919,47.655,-122.3035,60.0,4.75
2026-02-06T21:27:53+00:00,SAT-58009,175.46858734099632,41.00581974212388,814.3232234782572,1.1033704947540872,-38644.70197885337,10.5,10499961355.298021,47.655,-122.3035,60.0,4.766666666666667
2026-02-06T21:27:54+00:00,SAT-58009,174.81302303323986,40.92541414678344,815.4236359889796,1.1609141068729567,-40660.1226844941,10.5,10499959339.877316,47.655,-122.3035,60.0,4.783333333333333
2026-02-06T21:27:55+00:00,SAT-58009,174.16091365737174,40.841141931389636,816.5814378453384,1.2182120227963256,-42666.938070074524,10.5,10499957333.06193,47.655,-122.3035,60.0,4.8
2026-02-06T21:27:56+00:00,SAT-58009,173.51240045309345,40.75306698571261,817.7963840098149,1.275253607144161,-44664.77563959828,10.5,10499955335.22436,47.655,-122.3035,60.0,4.816666666666666
2026-02-06T21:27:57+00:00,SAT-58009,172.86761941315243,40.66125535346123,819.0682188380231,1.332028483187258,-46653.27195611508,10.5,10499953346.728045,47.655,-122.3035,60.0,4.833333333333333
2026-02-06T21:27:58+00:00,SAT-58009,172.2267011791057,40.56577509381742,820.3966763366669,1.3885265410854817,-48632.07293025884,10.5,10499951367.92707,47.655,-122.3035,60.0,4.85
2026-02-06T21:27:59+00:00,SAT-58009,171.58977095439403,40.466696141463224,821.7814804297125,1.4447379417450283,-50600.83395534519,10.5,10499949399.166044,47.655,-122.3035,60.0,4.866666666666666
2026-02-06T21:28:00+00:00,SAT-58009,170.9569484360744,40.36409016588928,823.2223452284096,1.5006531165349661,-52559.21989744367,10.5,10499947440.780102,47.655,-122.3035,60.0,4.883333333333334
2026-02-06T21:28:01+00:00,SAT-58009,170.32834776594692,40.25803043075761,824.718975301029,1.5562627887380476,-54506.90584667577,10.5,10499945493.094152,47.655,-122.3035,60.0,4.9
2026-02-06T21:28:02+00:00,SAT-58009,169.7040774908786,40.14859165221772,826.2710659639949,1.611557975580794,-56443.577188317184,10.5,10499943556.422812,47.655,-122.3035,60.0,4.916666666666667
2026-02-06T21:28:03+00:00,SAT-58009,169.0842405409828,40.03584985802261,827.8783035750382,1.6665299745592068,-58368.92912386632,10.5,10499941631.070877,47.655,-122.3035,60.0,4.933333333333334
2026-02-06T21:28:04+00:00,SAT-58009,168.46893423035982,39.91988224893329,829.5403658127168,1.721170384454925,-60282.66740711908,10.5,10499939717.332592,47.655,-122.3035,60.0,4.95
2026-02-06T21:28:05+00:00,SAT-58009,167.85825026501314,39.80076706036419,831.2569219768926,1.7754711156036813,-62184.50870381353,10.5,10499937815.491297,47.655,-122.3035,60.0,4.966666666666667
2026-02-06T21:28:06+00:00,SAT-58009,167.25227476289623,39.67858342542562,833.0276332994504,1.8294243727449124,-64074.17999095088,10.5,10499935925.82001,47.655,-122.3035,60.0,4.983333333333333
2026-02-06T21:28:07+00:00,SAT-58009,166.65108829457435,39.55341124158618,834.8521532379123,1.883022674809684,-65951.41924985212,10.5,10499934048.58075,47.655,-122.3035,60.0,5.0
2026-02-06T21:28:08+00:00,SAT-58009,166.05476593016965,39.42533103872055,836.7301277887879,1.9362588315845033,-67815.97464882617,10.5,10499932184.02535,47.655,-122.3035,60.0,5.016666666666667
2026-02-06T21:28:09+00:00,SAT-58009,165.46337730620968,39.29442385178327,838.6611957776488,1.9891259827518755,-69667.60591053525,10.5,10499930332.394089,47.655,-122.3035,60.0,5.033333333333333
2026-02-06T21:28:10+00:00,SAT-58009,164.87698669128287,39.16077109412079,840.6449891881404,2.0416175780622354,-71506.08361753206,10.5,10499928493.916382,47.655,-122.3035,60.0,5.05
2026-02-06T21:28:11+00:00,SAT-58009,164.29565306893002,39.02445443568432,842.6811334712189,2.093727364002835,-73331.18874534784,10.5,10499926668.811255,47.655,-122.3035,60.0,5.066666666666666
2026-02-06T21:28:12+00:00,SAT-58009,163.71943023370667,38.88555568586204,844.7692478410933,2.1454493927518143,-75142.71297610179,10.5,10499924857.287024,47.655,-122.3035,60.0,5.083333333333333
2026-02-06T21:28:13+00:00,SAT-58009,163.14836689250686,38.74415667960665,846.9089455800953,2.196778058907751,-76940.45998492524,10.5,10499923059.540014,47.655,-122.3035,60.0,5.1
2026-02-06T21:28:14+00:00,SAT-58009,162.58250676381223,38.60033916522439,849.0998343801824,2.2477080306347754,-78724.24302837245,10.5,10499921275.756971,47.655,-122.3035,60.0,5.116666666666666
2026-02-06T21:28:15+00:00,SAT-58009,162.02188870259056,38.45418470091069,851.3415166157708,2.2982342933124245,-80493.88647322294,10.5,10499919506.113527,47.655,-122.3035,60.0,5.133333333333334
2026-02-06T21:28:16+00:00,SAT-58009,161.46654681859047,38.30577455269163,853.6335896600992,2.3483521440261583,-82249.22560351623,10.5,10499917750.774397,47.655,-122.3035,60.0,5.15
2026-02-06T21:28:17+00:00,SAT-58009,160.91651060157903,38.15518959712014,855.9756461960998,2.3980571741792533,-83990.1060115467,10.5,10499916009.893988,47.655,-122.3035,60.0,5.166666666666667
2026-02-06T21:28:18+00:00,SAT-58009,160.37180505490542,38.00251022953752,858.367274509927,2.447345277684799,-85716.38388478202,10.5,10499914283.616116,47.655,-122.3035,60.0,5.183333333333334
2026-02-06T21:28:19+00:00,SAT-58009,159.83245083038994,37.847816276266265,860.8080587926561,2.4962126376352214,-87427.92553897345,10.5,10499912572.074461,47.655,-122.3035,60.0,5.2
2026-02-06T21:28:20+00:00,SAT-58009,159.29846436878708,37.69118691212793,863.2975794286872,2.544655727967843,-89124.6074764908,10.5,10499910875.392523,47.655,-122.3035,60.0,5.216666666666667
2026-02-06T21:28:21+00:00,SAT-58009,158.76985804166512,37.53270058231982,865.8354132858107,2.5926713350311923,-90806.31714166579,10.5,10499909193.682858,47.655,-122.3035,60.0,5.233333333333333
2026-02-06T21:28:22+00:00,SAT-58009,158.2466402900351,37.372434927411916,868.421134026781,2.6402564882723376,-92472.95049316934,10.5,10499907527.049507,47.655,-122.3035,60.0,5.25
2026-02-06T21:28:23+00:00,SAT-58009,157.72881577827454,37.21046671705905,871.0543123517642,2.687408520171245,-94124.41410316624,10.5,10499905875.585897,47.655,-122.3035,60.0,5.266666666666667
2026-02-06T21:28:24+00:00,SAT-58009,157.21638553504508,37.04687178432239,873.7345163005555,2.734125036484511,-95760.62411512488,10.5,10499904239.375885,47.655,-122.3035,60.0,5.283333333333333
2026-02-06T21:28:25+00:00,SAT-58009,156.70934710022712,36.88172496612683,876.4613115251263,2.780403902865969,-97381.50577521425,10.5,10499902618.494225,47.655,-122.3035,60.0,5.3
2026-02-06T21:28:26+00:00,SAT-58009,156.2076946730845,36.715100048723436,879.2342615488243,2.826243264003959,-98986.994102572,10.5,10499901013.005898,47.655,-122.3035,60.0,5.316666666666666
2026-02-06T21:28:27+00:00,SAT-58009,155.7114192554282,36.54706971609139,882.0529280446591,2.8716414888603916,-100577.03197134503,10.5,10499899422.968029,47.655,-122.3035,60.0,5.333333333333333
2026-02-06T21:28:28+00:00,SAT-58009,155.22050880257615,36.37770550560556,884.9168710589744,2.9165972360482706,-102151.5724004866,10.5,10499897848.427599,47.655,-122.3035,60.0,5.35
2026-02-06T21:28:29+00:00,SAT-58009,154.73494836026634,36.207077763681646,887.8256493003232,2.9611093909805293,-103710.576352443,10.5,10499896289.423647,47.655,-122.3035,60.0,5.366666666666666
2026-02-06T21:28:30+00:00,SAT-58009,154.25472021008477,36.03525560892685,890.7788203656597,3.0051770758596037,-105254.01308303038,10.5,10499894745.986917,47.655,-122.3035,60.0,5.383333333333334
2026-02-06T21:28:31+00:00,SAT-58009,153.77980400983193,35.86230689829851,893.7759409764931,3.048799648098389,-106781.86008613025,10.5,10499893218.139914,47.655,-122.3035,60.0,5.4
2026-02-06T21:28:32+00:00,SAT-58009,153.3101769308345,35.68829819684473,896.8165672134694,3.0919767110003553,-108294.10346775211,10.5,10499891705.896532,47.655,-122.3035,60.0,5.416666666666667
2026-02-06T21:28:33+00:00,SAT-58009,152.84581379010694,35.513294750211415,899.9002547616006,3.13470805656716,-109790.73594291415,10.5,10499890209.264057,47.655,-122.3035,60.0,5.433333333333334
2026-02-06T21:28:34+00:00,SAT-58009,152.38668718770205,35.33736046362043,903.0265590984577,3.1769937094022307,-111271.75837333247,10.5,10499888728.241627,47.655,-122.3035,60.0,5.45
2026-02-06T21:28:35+00:00,SAT-58009,151.9327676330273,35.16055788140168,906.1950357261501,3.2188339037257627,-112737.17896238908,10.5,10499887262.821037,47.655,-122.3035,60.0,5.466666666666667
2026-02-06T21:28:36+00:00,SAT-58009,151.48402367083784,34.98294817077495,909.4052403803792,3.2602290672974408,-114187.01269203753,10.5,10499885812.987309,47.655,-122.3035,60.0,5.483333333333333
2026-02-06T21:28:37+00:00,SAT-58009,151.04042200510955,34.80459110929154,912.6567292234588,3.3011798295864545,-115621.28160895153,10.5,10499884378.718391,47.655,-122.3035,60.0,5.5
2026-02-06T21:28:38+00:00,SAT-58009,150.60192761750758,34.62554507446388,915.9490590454851,3.341686988404327,-117040.01365586533,10.5,10499882959.986343,47.655,-122.3035,60.0,5.516666666666667
2026-02-06T21:28:39+00:00,SAT-58009,150.16850388581813,34.44586703768461,919.2817874322263,3.381751541151286,-118443.24376595391,10.5,10499881556.756233,47.655,-122.3035,60.0,5.533333333333333
2026-02-06T21:28:40+00:00,SAT-58009,149.7401126937227,34.26561255878942,922.6544729641774,3.42137466971921,-119831.01333407027,10.5,10499880168.986666,47.655,-122.3035,60.0,5.55
2026-02-06T21:28:41+00:00,SAT-58009,149.31671453816855,34.08483578366857,926.0666754005568,3.4605576903286908,-121203.36845982714,10.5,10499878796.63154,47.655,-122.3035,60.0,5.566666666666666
2026-02-06T21:28:42+00:00,SAT-58009,148.89826863865187,33.90358944658744,929.5179558132747,3.4993021011593837,-122560.36161581334,10.5,10499877439.638384,47.655,-122.3035,60.0,5.583333333333333
2026-02-06T21:28:43+00:00,SAT-58009,148.48473303563338,33.721924871881406,933.0078767684048,3.537609560790825,-123902.05089249999,10.5,10499876097.949108,47.655,-122.3035,60.0,5.6
2026-02-06T21:28:44+00:00,SAT-58009,148.07606468739044,33.539891978600565,936.5360024861532,3.5754818576511744,-125228.49892820629,10.5,10499874771.501072,47.655,-122.3035,60.0,5.616666666666666
2026-02-06T21:28:45+00:00,SAT-58009,147.67221956595182,33.35753928838758,940.1018989703604,3.612920937164919,-126539.77385992695,10.5,10499873460.226141,47.655,-122.3035,60.0,5.633333333333334
2026-02-06T21:28:46+00:00,SAT-58009,147.27315274528252,33.17491393346806,943.7051341650761,3.6499288609825977,-127835.9478953846,10.5,10499872164.052105,47.655,-122.3035,60.0,5.65
2026-02-06T21:28:47+00:00,SAT-58009,146.8788184898077,32.99206166812562,947.3452780704723,3.6865078485881155,-129117.09877029399,10.5,10499870882.90123,47.655,-122.3035,60.0,5.666666666666667
2026-02-06T21:28:48+00:00,SAT-58009,146.48917033386041,32.8090268793569,951.0219029002565,3.722660225899047,-130383.30794812721,10.5,10499869616.69205,47.655,-122.3035,60.0,5.683333333333334
2026-02-06T21:28:49+00:00,SAT-58009,146.1041611627637,32.6258526012965,954.734583187817,3.758388417220503,-131634.66033830403,10.5,10499868365.339663,47.655,-122.3035,60.0,5.7
2026-02-06T21:28:50+00:00,SAT-58009,145.72374329021696,32.44258053104751,958.4828958843487,3.7936949985707256,-132871.24616387987,10.5,10499867128.753836,47.655,-122.3035,60.0,5.716666666666667
2026-02-06T21:28:51+00:00,SAT-58009,145.34786852617506,32.25925104285511,962.2664205101581,3.8285826166011008,-134093.15812178154,10.5,10499865906.841879,47.655,-122.3035,60.0,5.733333333333333
2026-02-06T21:28:52+00:00,SAT-58009,144.9764882491094,32.07590320710582,966.0847392251085,3.863054032295055,-135300.49291332765,10.5,10499864699.507086,47.655,-122.3035,60.0,5.75
2026-02-06T21:28:53+00:00,SAT-58009,144.60955346987544,31.892574807926277,969.9374369426444,3.897112101815162,-136493.35057341304,10.5,10499863506.649427,47.655,-122.3035,60.0,5.766666666666667
2026-02-06T21:28:54+00:00,SAT-58009,144.247014893687,31.709302362382083,973.8241014247161,3.9307597516254003,-137671.83359918516,10.5,10499862328.1664,47.655,-122.3035,60.0,5.783333333333333
2026-02-06T21:28:55+00:00,SAT-58009,143.8888229808392,31.52612114140834,977.7443233518923,3.964000021920561,-138836.04847112563,10.5,10499861163.951529,47.655,-122.3035,60.0,5.8
2026-02-06T21:28:56+00:00,SAT-58009,143.53492799968998,31.3430651891864,981.6976964367861,3.9968360176197715,-139986.10393663606,10.5,10499860013.896063,47.655,-122.3035,60.0,5.816666666666666
2026-02-06T21:28:57+00:00,SAT-58009,143.18528008088848,31.160167345246144,985.6838174886059,4.02927087792653,-141122.10994390183,10.5,10499858877.890057,47.655,-122.3035,60.0,5.833333333333333
2026-02-06T21:28:58+00:00,SAT-58009,142.83982927076872,30.977459268240445,989.7022864473481,4.061307892647393,-142244.18171586434,10.5,10499857755.818285,47.655,-122.3035,60.0,5.85
2026-02-06T21:28:59+00:00,SAT-58009,142.49852557126655,30.794971454692224,993.7527065339957,4.092950331943802,-143352.4337874101,10.5,10499856647.566212,47.655,-122.3035,60.0,5.866666666666666
2026-02-06T21:29:00+00:00,SAT-58009,142.16131899171555,30.612733265688167,997.8346842309271,4.124201564948429,-144446.98415981667,10.5,10499855553.01584,47.655,-122.3035,60.0,5.883333333333334
2026-02-06T21:29:01+00:00,SAT-58009,141.82815958720016,30.4307729482983,1001.9478293806196,4.155065011493567,-145527.95261007684,10.5,10499854472.04739,47.655,-122.3035,60.0,5.9
2026-02-06T21:29:02+00:00,SAT-58009,141.49899749826116,30.24911765927447,1006.0917552362162,4.185544148818237,-146595.46092580984,10.5,10499853404.539074,47.655,-122.3035,60.0,5.916666666666667
2026-02-06T21:29:03+00:00,SAT-58009,141.17378298726018,30.067793488479197,1010.2660785187768,4.2156424655374485,-147649.63129307012,10.5,10499852350.368708,47.655,-122.3035,60.0,5.933333333333334
