DopplerPredictor/satellites_20260211_204923/SAT-58549.csv

timestamp,satellite,azimuth_deg,elevation_deg,distance_km,relative_velocity_kms,doppler_shift_hz,tx_freq_ghz,rx_freq_hz,ue_lat,ue_lon,ue_alt_m,time_minutes
2026-02-06T21:29:41+00:00,SAT-58549,283.34096123466304,30.259240682788445,873.1592499893842,-5.55163828677273,194441.85620945028,10.5,10500194441.856209,47.655,-122.3035,60.0,6.566666666666666
2026-02-06T21:29:42+00:00,SAT-58549,283.15140326157575,30.530133629905635,867.6224948787321,-5.529284487988639,193658.93161955636,10.5,10500193658.93162,47.655,-122.3035,60.0,6.583333333333333
2026-02-06T21:29:43+00:00,SAT-58549,282.95827738750216,30.80378938789815,862.1080336394147,-5.506492445608906,192860.65788517438,10.5,10500192860.657885,47.655,-122.3035,60.0,6.6
2026-02-06T21:29:44+00:00,SAT-58549,282.76148791738757,31.08023749586818,856.6163033401565,-5.483252711356407,192046.70408767342,10.5,10500192046.704088,47.655,-122.3035,60.0,6.616666666666666
2026-02-06T21:29:45+00:00,SAT-58549,282.5609358907425,31.359507162749686,851.1477504726304,-5.459555673626671,191216.7335880079,10.5,10500191216.733587,47.655,-122.3035,60.0,6.633333333333334
2026-02-06T21:29:46+00:00,SAT-58549,282.35651895000103,31.64162721177619,845.7028311143459,-5.435391512418696,190370.40244820403,10.5,10500190370.402449,47.655,-122.3035,60.0,6.65
2026-02-06T21:29:47+00:00,SAT-58549,282.1481312047943,31.926626018738197,840.2820111364878,-5.410750254120528,189507.36135018297,10.5,10500189507.361351,47.655,-122.3035,60.0,6.666666666666667
2026-02-06T21:29:48+00:00,SAT-58549,281.93566308825956,32.21453144890306,834.8857663571151,-5.385621677447698,188627.2523013265,10.5,10500188627.252302,47.655,-122.3035,60.0,6.683333333333334
2026-02-06T21:29:49+00:00,SAT-58549,281.7190012105231,32.505370784547665,829.514582788169,-5.359995426418052,187729.7125913339,10.5,10500187729.712591,47.655,-122.3035,60.0,6.7
2026-02-06T21:29:50+00:00,SAT-58549,281.4980282016508,32.79917065372679,824.1689567698097,-5.333860967284587,186814.37328382744,10.5,10500186814.373283,47.655,-122.3035,60.0,6.716666666666667
2026-02-06T21:29:51+00:00,SAT-58549,281.272622549273,33.095956951899765,818.8493951477058,-5.307207525725576,185880.85701648486,10.5,10500185880.857016,47.655,-122.3035,60.0,6.733333333333333
2026-02-06T21:29:52+00:00,SAT-58549,281.0426584317705,33.395754754737005,813.5564155129617,-5.280024193159444,184928.78172463618,10.5,10500184928.781725,47.655,-122.3035,60.0,6.75
2026-02-06T21:29:53+00:00,SAT-58549,280.8080055400239,33.69858823118245,808.2905463360208,-5.25229985183991,183957.75801777863,10.5,10500183957.758018,47.655,-122.3035,60.0,6.766666666666667
2026-02-06T21:29:54+00:00,SAT-58549,280.5685288946707,34.00448054644297,803.0523271752663,-5.224023232846407,182967.39121064637,10.5,10500182967.39121,47.655,-122.3035,60.0,6.783333333333333
2026-02-06T21:29:55+00:00,SAT-58549,280.32408865301426,34.31345376200663,797.842308827792,-5.195182823343492,181957.27807504305,10.5,10500181957.278074,47.655,-122.3035,60.0,6.8
2026-02-06T21:29:56+00:00,SAT-58549,280.07453991213237,34.62552872355626,792.6610535726627,-5.165767023433743,180927.0123334934,10.5,10500180927.012333,47.655,-122.3035,60.0,6.816666666666666
2026-02-06T21:29:57+00:00,SAT-58549,279.81973249660354,34.940724951117666,787.5091352577427,-5.135763994785762,179876.17935755578,10.5,10500179876.179358,47.655,-122.3035,60.0,6.833333333333333
2026-02-06T21:29:58+00:00,SAT-58549,279.55951074446995,35.25906051281464,782.3871395374916,-5.105161757849636,178804.35957271873,10.5,10500178804.359573,47.655,-122.3035,60.0,6.85
2026-02-06T21:29:59+00:00,SAT-58549,279.29371328001116,35.580551896542225,777.2956640138026,-5.073948166254342,177711.12756169,10.5,10500177711.127562,47.655,-122.3035,60.0,6.866666666666666
2026-02-06T21:30:00+00:00,SAT-58549,279.02217277865714,35.905213871841184,772.2353184023771,-5.042110920087279,176596.05252950173,10.5,10500176596.05253,47.655,-122.3035,60.0,6.883333333333334
2026-02-06T21:30:01+00:00,SAT-58549,278.74471572193704,36.23305934384893,767.2067246858551,-5.009637546794614,175458.69763455974,10.5,10500175458.697634,47.655,-122.3035,60.0,6.9
2026-02-06T21:30:02+00:00,SAT-58549,278.46116214402144,36.56409919676096,762.2105172859933,-4.976515477454889,174298.62266006818,10.5,10500174298.62266,47.655,-122.3035,60.0,6.916666666666667
2026-02-06T21:30:03+00:00,SAT-58549,278.1713253646202,36.89834213257277,757.2473431597745,-4.942731946431805,173115.38049944522,10.5,10500173115.380499,47.655,-122.3035,60.0,6.933333333333334
2026-02-06T21:30:04+00:00,SAT-58549,277.87501171743367,37.235794492961,752.3178619955942,-4.908274103994063,171908.52110074653,10.5,10500171908.521101,47.655,-122.3035,60.0,6.95
2026-02-06T21:30:05+00:00,SAT-58549,277.5720202627147,37.57646007784208,747.4227462971309,-4.873128980976937,170677.59022896382,10.5,10500170677.590229,47.655,-122.3035,60.0,6.966666666666667
2026-02-06T21:30:06+00:00,SAT-58549,277.26214249157886,37.92033995034913,742.5626815024604,-4.837283469090927,169422.12877635082,10.5,10500169422.128777,47.655,-122.3035,60.0,6.983333333333333
2026-02-06T21:30:07+00:00,SAT-58549,276.9451620218534,38.26743222844218,737.7383661228048,-4.800724383922449,168141.67496897376,10.5,10500168141.674969,47.655,-122.3035,60.0,7.0
2026-02-06T21:30:08+00:00,SAT-58549,276.6208542801692,38.61773186838995,732.9505118184555,-4.76343848030266,166835.7649049928,10.5,10500166835.764906,47.655,-122.3035,60.0,7.016666666666667
2026-02-06T21:30:09+00:00,SAT-58549,276.2889861733808,38.97123043640005,728.199843459364,-4.725412413851485,165503.93120777106,10.5,10500165503.931208,47.655,-122.3035,60.0,7.033333333333333
2026-02-06T21:30:10+00:00,SAT-58549,275.94931575278474,39.32791586372044,723.4870992240874,-4.686632767050309,164145.70393905052,10.5,10500164145.70394,47.655,-122.3035,60.0,7.05
2026-02-06T21:30:11+00:00,SAT-58549,275.6015918679252,39.68777218911655,718.8130306727302,-4.647086165226488,162760.6146612205,10.5,10500162760.614662,47.655,-122.3035,60.0,7.066666666666666
2026-02-06T21:30:12+00:00,SAT-58549,275.24555380349767,40.05077929526524,714.1784027042147,-4.6067591134002015,161348.19072300385,10.5,10500161348.190723,47.655,-122.3035,60.0,7.083333333333333
2026-02-06T21:30:13+00:00,SAT-58549,274.88093091972786,40.41691261699103,709.5839936762648,-4.565638195412958,159907.96223377992,10.5,10500159907.962234,47.655,-122.3035,60.0,7.1
2026-02-06T21:30:14+00:00,SAT-58549,274.50744227132014,40.78614284852918,705.0305953267955,-4.523709970336134,158439.45843537335,10.5,10500158439.458435,47.655,-122.3035,60.0,7.116666666666666
2026-02-06T21:30:15+00:00,SAT-58549,274.1247962275948,41.158435625783,700.5190127986178,-4.480961047600616,156942.21033341158,10.5,10500156942.210333,47.655,-122.3035,60.0,7.133333333333334
2026-02-06T21:30:16+00:00,SAT-58549,273.73269008222024,41.533751196819395,696.0500645892132,-4.437378103570331,155415.75127780056,10.5,10500155415.751278,47.655,-122.3035,60.0,7.15
2026-02-06T21:30:17+00:00,SAT-58549,273.3308096578198,41.91204407546792,691.6245824839805,-4.392947916926177,153859.6182020191,10.5,10500153859.618202,47.655,-122.3035,60.0,7.166666666666667
2026-02-06T21:30:18+00:00,SAT-58549,272.9188289060749,42.29326267898695,687.2434114541928,-4.347657350138731,152273.35097421522,10.5,10500152273.350975,47.655,-122.3035,60.0,7.183333333333334
2026-02-06T21:30:19+00:00,SAT-58549,272.49640950969854,42.67734894452957,682.9074095734329,-4.301493452583383,150656.4960087339,10.5,10500150656.496008,47.655,-122.3035,60.0,7.2
2026-02-06T21:30:20+00:00,SAT-58549,272.06320047845804,43.06423793438292,678.6174478311898,-4.254443412053369,149008.6045678987,10.5,10500149008.604568,47.655,-122.3035,60.0,7.216666666666667
2026-02-06T21:30:21+00:00,SAT-58549,271.61883775520784,43.453857416320226,674.3744099948111,-4.206494626640212,147329.23527956873,10.5,10500147329.23528,47.655,-122.3035,60.0,7.233333333333333
2026-02-06T21:30:22+00:00,SAT-58549,271.1629438250623,43.84612742902328,670.1791923997685,-4.157634745777686,145617.9555746719,10.5,10500145617.955574,47.655,-122.3035,60.0,7.25
2026-02-06T21:30:23+00:00,SAT-58549,270.6951273335989,44.2409598297123,666.0327036989906,-4.107851693180306,143874.342490608,10.5,10500143874.342491,47.655,-122.3035,60.0,7.266666666666667
2026-02-06T21:30:24+00:00,SAT-58549,270.21498272104895,44.638257822006764,661.935864589316,-4.057133689632929,142097.98346943656,10.5,10500142097.983469,47.655,-122.3035,60.0,7.283333333333333
2026-02-06T21:30:25+00:00,SAT-58549,269.7220898775162,45.03791546366294,657.8896075152206,-4.005469287866054,140288.47757935783,10.5,10500140288.47758,47.655,-122.3035,60.0,7.3
2026-02-06T21:30:26+00:00,SAT-58549,269.21601382490564,45.43981715515813,653.8948763377608,-3.952847476616624,138445.43915936188,10.5,10500138445.43916,47.655,-122.3035,60.0,7.316666666666666
2026-02-06T21:30:27+00:00,SAT-58549,268.69630442353247,45.84383711627407,649.9526258997357,-3.899257645843046,136568.49660091178,10.5,10500136568.496601,47.655,-122.3035,60.0,7.333333333333333
2026-02-06T21:30:28+00:00,SAT-58549,268.1624961279088,46.24983883718873,646.0638216255436,-3.844689628396927,134657.29380746375,10.5,10500134657.293808,47.655,-122.3035,60.0,7.35
2026-02-06T21:30:29+00:00,SAT-58549,267.61410779285615,46.65767451168136,642.2294390794733,-3.789133838737211,132711.49505282321,10.5,10500132711.495052,47.655,-122.3035,60.0,7.366666666666666
2026-02-06T21:30:30+00:00,SAT-58549,267.05064252663453,47.067184463696755,638.4504633856574,-3.732581204991108,130730.78260163113,10.5,10500130730.782602,47.655,-122.3035,60.0,7.383333333333334
2026-02-06T21:30:31+00:00,SAT-58549,266.4715876301025,47.478196546571645,634.7278887157804,-3.675023284257724,128714.86074778473,10.5,10500128714.860748,47.655,-122.3035,60.0,7.4
2026-02-06T21:30:32+00:00,SAT-58549,265.8764146112268,47.8905255353421,631.0627176617946,-3.616452310744097,126663.45750036518,10.5,10500126663.4575,47.655,-122.3035,60.0,7.416666666666667
2026-02-06T21:30:33+00:00,SAT-58549,265.2645792979472,48.303972507007,627.4559605606253,-3.5568611888838984,124576.32434262549,10.5,10500124576.324343,47.655,-122.3035,60.0,7.433333333333334
2026-02-06T21:30:34+00:00,SAT-58549,264.63552207538953,48.71832420434552,623.9086348257421,-3.4962436196458055,122453.24065584385,10.5,10500122453.240656,47.655,-122.3035,60.0,7.45
2026-02-06T21:30:35+00:00,SAT-58549,263.98866824531416,49.13335240093964,620.4217641527586,-3.4345941357288585,120294.01495201395,10.5,10500120294.014952,47.655,-122.3035,60.0,7.466666666666667
2026-02-06T21:30:36+00:00,SAT-58549,263.3234285410424,49.548813260537955,616.9963776899336,-3.3719080861148716,118098.48433280516,10.5,10500118098.484333,47.655,-122.3035,60.0,7.483333333333333
2026-02-06T21:30:37+00:00,SAT-58549,262.63919983207944,49.96444668794654,613.6335092240744,-3.3081817850402184,115866.51970718453,10.5,10500115866.519707,47.655,-122.3035,60.0,7.5
2026-02-06T21:30:38+00:00,SAT-58549,261.9353660130207,50.37997569560807,610.3341962178708,-3.2434125209754487,113598.02610592096,10.5,10500113598.026106,47.655,-122.3035,60.0,7.516666666666667
2026-02-06T21:30:39+00:00,SAT-58549,261.21129912866485,50.79510577456462,607.0994788382731,-3.177598591541887,111292.94390451215,10.5,10500111292.943905,47.655,-122.3035,60.0,7.533333333333333
2026-02-06T21:30:40+00:00,SAT-58549,260.46636076153055,51.209524278573454,603.9303989500465,-3.110739396544057,108951.25208157371,10.5,10500108951.25208,47.655,-122.3035,60.0,7.55
2026-02-06T21:30:41+00:00,SAT-58549,259.69990370136554,51.62289983590791,600.8279990165425,-3.04283548897881,106572.97000539456,10.5,10500106572.970005,47.655,-122.3035,60.0,7.566666666666666
2026-02-06T21:30:42+00:00,SAT-58549,258.9112739375559,52.03488179190186,597.7933209495984,-2.973888592457736,104158.15804414342,10.5,10500104158.158045,47.655,-122.3035,60.0,7.583333333333333
2026-02-06T21:30:43+00:00,SAT-58549,258.0998130195361,52.445099686823326,594.8274049420603,-2.903901695558544,101706.92087045335,10.5,10500101706.92087,47.655,-122.3035,60.0,7.6
2026-02-06T21:30:44+00:00,SAT-58549,257.26486080343216,52.8531627899186,591.9312882062092,-2.8328790601837497,99219.40775417829,10.5,10500099219.407755,47.655,-122.3035,60.0,7.616666666666666
2026-02-06T21:30:45+00:00,SAT-58549,256.4057586448404,53.25865968987472,589.1060037038484,-2.7608263355754654,96695.81655567329,10.5,10500096695.816555,47.655,-122.3035,60.0,7.633333333333334
2026-02-06T21:30:46+00:00,SAT-58549,255.5218530470178,53.66115796982546,586.3525787626846,-2.687750531608193,94136.3927903951,10.5,10500094136.39279,47.655,-122.3035,60.0,7.65
2026-02-06T21:30:47+00:00,SAT-58549,254.61249984177184,54.06020396185817,583.672033719342,-2.613660115607487,91541.43301990144,10.5,10500091541.43302,47.655,-122.3035,60.0,7.666666666666667
2026-02-06T21:30:48+00:00,SAT-58549,253.67706890405256,54.4553226148696,581.0653804658193,-2.5385650264470834,88911.2853455919,10.5,10500088911.285345,47.655,-122.3035,60.0,7.683333333333334
2026-02-06T21:30:49+00:00,SAT-58549,252.71494945749257,54.84601748183879,578.5336209818862,-2.4624767371339984,86246.351600703,10.5,10500086246.3516,47.655,-122.3035,60.0,7.7
2026-02-06T21:30:50+00:00,SAT-58549,251.72555598335776,55.231770853060866,576.0777458050627,-2.3854082797548837,83547.0882240349,10.5,10500083547.088224,47.655,-122.3035,60.0,7.716666666666667
2026-02-06T21:30:51+00:00,SAT-58549,250.70833476579844,55.612044050618486,573.6987324757193,-2.3073742598909126,80814.00676482188,10.5,10500080814.006765,47.655,-122.3035,60.0,7.733333333333333
2026-02-06T21:30:52+00:00,SAT-58549,249.66277109153873,55.98627790426049,571.3975439678015,-2.2283909093617846,78047.67573005035,10.5,10500078047.67573,47.655,-122.3035,60.0,7.75
2026-02-06T21:30:53+00:00,SAT-58549,248.58839708834097,56.35389343787261,569.1751270669498,-2.1484761196688686,75248.7217557792,10.5,10500075248.721756,47.655,-122.3035,60.0,7.766666666666667
2026-02-06T21:30:54+00:00,SAT-58549,247.4848001925419,56.71429278756555,567.032410715268,-2.067649404139062,72417.82828125767,10.5,10500072417.828281,47.655,-122.3035,60.0,7.783333333333333
2026-02-06T21:30:55+00:00,SAT-58549,246.35163224683458,57.06686036339336,564.9703043938458,-1.9859319650893934,69555.73790131381,10.5,10500069555.737902,47.655,-122.3035,60.0,7.8
2026-02-06T21:30:56+00:00,SAT-58549,245.18861912673546,57.41096429567265,562.9896964382963,-1.9033466969832615,66663.25247689936,10.5,10500066663.252478,47.655,-122.3035,60.0,7.816666666666666
2026-02-06T21:30:57+00:00,SAT-58549,243.99557084138257,57.745958178269824,561.0914523511454,-1.8199181296771527,63741.23114734963,10.5,10500063741.231148,47.655,-122.3035,60.0,7.833333333333333
2026-02-06T21:30:58+00:00,SAT-58549,242.77239204054337,58.07118311876263,559.2764131708254,-1.7356725065932272,60790.59306831824,10.5,10500060790.59307,47.655,-122.3035,60.0,7.85
2026-02-06T21:30:59+00:00,SAT-58549,241.51909271074933,58.385970136968616,557.5453937626996,-1.650637695290552,57812.31427960337,10.5,10500057812.31428,47.655,-122.3035,60.0,7.866666666666666
2026-02-06T21:31:00+00:00,SAT-58549,240.23579898923285,58.68964289625196,555.8991811992821,-1.5648432194252648,54807.42882452794,10.5,10500054807.428825,47.655,-122.3035,60.0,7.883333333333334
2026-02-06T21:31:01+00:00,SAT-58549,238.9227638169609,58.98152079771127,554.3385331085798,-1.4783202031860827,51777.026803835965,10.5,10500051777.026804,47.655,-122.3035,60.0,7.9
2026-02-06T21:31:02+00:00,SAT-58549,237.58037724868092,59.26092242375228,552.8641760778503,-1.3911013540640609,48722.253772216776,10.5,10500048722.253773,47.655,-122.3035,60.0,7.916666666666667
2026-02-06T21:31:03+00:00,SAT-58549,236.20917612352576,59.52716933234032,551.4768040745444,-1.3032209005250304,45644.308555330026,10.5,10500045644.308556,47.655,-122.3035,60.0,7.933333333333334
2026-02-06T21:31:04+00:00,SAT-58549,234.8098528352939,59.77959017880362,550.177076929409,-1.2147145676577396,42544.44239690067,10.5,10500042544.442396,47.655,-122.3035,60.0,7.95
2026-02-06T21:31:05+00:00,SAT-58549,233.38326284962608,60.01752514748567,548.9656188438767,-1.1256195075067683,39423.95651868289,10.5,10500039423.956518,47.655,-122.3035,60.0,7.966666666666667
2026-02-06T21:31:06+00:00,SAT-58549,231.93043067420194,60.240330648689465,547.843016966934,-1.035974228089795,36284.19963434452,10.5,10500036284.199635,47.655,-122.3035,60.0,7.983333333333333
2026-02-06T21:31:07+00:00,SAT-58549,230.45255395652006,60.44738423279127,546.8098200427853,-0.9458185417625903,33126.56614099077,10.5,10500033126.566141,47.655,-122.3035,60.0,8.0
2026-02-06T21:31:08+00:00,SAT-58549,228.9510053610436,60.63808966584197,545.8665371100102,-0.855193472842645,29952.492883752846,10.5,10500029952.492884,47.655,-122.3035,60.0,8.016666666666667
2026-02-06T21:31:09+00:00,SAT-58549,227.42733197964236,60.811882087580614,545.0136362928515,-0.7641411805645134,26763.456457358214,10.5,10500026763.456457,47.655,-122.3035,60.0,8.033333333333333
2026-02-06T21:31:10+00:00,SAT-58549,225.88325200520825,60.968233173267365,544.2515436693405,-0.6727048607933487,23560.96976372288,10.5,10500023560.969763,47.655,-122.3035,60.0,8.05
2026-02-06T21:31:11+00:00,SAT-58549,224.32064851156366,61.10665620454364,543.5806422374457,-0.5809286667781957,20346.579236396447,10.5,10500020346.579237,47.655,-122.3035,60.0,8.066666666666666
2026-02-06T21:31:12+00:00,SAT-58549,222.74156018621548,61.226710956066704,543.0012709602549,-0.4888575878229705,17121.860591106633,10.5,10500017121.860592,47.655,-122.3035,60.0,8.083333333333334
2026-02-06T21:31:13+00:00,SAT-58549,221.14816907211912,61.32800828837511,542.5137239321624,-0.39653735562403414,13888.415545304873,10.5,10500013888.415545,47.655,-122.3035,60.0,8.1
2026-02-06T21:31:14+00:00,SAT-58549,219.5427853389047,61.41021435139332,542.1182496384669,-0.3040143302072538,10647.867823199758,10.5,10500010647.867823,47.655,-122.3035,60.0,8.116666666666667
2026-02-06T21:31:15+00:00,SAT-58549,217.9278293082182,61.47305429659743,541.8150503287249,-0.21133538560879384,7401.859151814738,10.5,10500007401.859152,47.655,-122.3035,60.0,8.133333333333333
2026-02-06T21:31:16+00:00,SAT-58549,216.30581101986618,61.51631540739122,541.6042815041206,-0.11854779304746162,4152.045169189503,10.5,10500004152.04517,47.655,-122.3035,60.0,8.15
2026-02-06T21:31:17+00:00,SAT-58549,214.67930773605838,61.53984956814019,541.4860515213467,-0.02569910178357286,900.0912515534832,10.5,10500000900.091251,47.655,-122.3035,60.0,8.166666666666666
2026-02-06T21:31:18+00:00,SAT-58549,213.05093985528754,61.5435750072278,541.4604213153084,0.06716298410280645,-2352.3318024213527,10.5,10499997647.668198,47.655,-122.3035,60.0,8.183333333333334
2026-02-06T21:31:19+00:00,SAT-58549,211.4233458232917,61.52747726710855,541.5274042447194,0.15999072434934855,-5603.551926807177,10.5,10499994396.448072,47.655,-122.3035,60.0,8.2
2026-02-06T21:31:20+00:00,SAT-58549,209.7991565680049,61.49160937624752,541.6869660560155,0.25273646825132384,-8851.900192362078,10.5,10499991148.099808,47.655,-122.3035,60.0,8.216666666666667
2026-02-06T21:31:21+00:00,SAT-58549,208.18097015058788,61.4360912169336,541.9390249726731,0.34535277461398123,-12095.715007769819,10.5,10499987904.284992,47.655,-122.3035,60.0,8.233333333333333
2026-02-06T21:31:22+00:00,SAT-58549,206.57132718927804,61.36110810723493,542.2834519041569,0.4377925329816399,-15333.346365595424,10.5,10499984666.653635,47.655,-122.3035,60.0,8.25
2026-02-06T21:31:23+00:00,SAT-58549,204.97268764712123,61.26690863476141,542.7200707757729,0.5300090812884691,-18563.159962913163,10.5,10499981436.840036,47.655,-122.3035,60.0,8.266666666666667
2026-02-06T21:31:24+00:00,SAT-58549,203.38740949409436,61.153801799903924,543.2486589758557,0.6219563256735859,-21783.541397738074,10.5,10499978216.458603,47.655,-122.3035,60.0,8.283333333333333
2026-02-06T21:31:25+00:00,SAT-58549,201.81772966726533,61.02215354123397,543.8689479224502,0.71358884281911,-24992.899753337537,10.5,10499975007.100246,47.655,-122.3035,60.0,8.3
2026-02-06T21:31:26+00:00,SAT-58549,200.2657477028496,60.87238273280994,544.5806237320569,0.8048620055093504,-28189.67199584514,10.5,10499971810.328005,47.655,-122.3035,60.0,8.316666666666666
2026-02-06T21:31:27+00:00,SAT-58549,198.7334122016957,60.70495674358984,545.3833280136005,0.8957320702858849,-31372.326044312267,10.5,10499968627.673956,47.655,-122.3035,60.0,8.333333333333334
2026-02-06T21:31:28+00:00,SAT-58549,197.2225103466123,60.52038666719534,546.2766587498169,0.9861562829825061,-34539.36446698841,10.5,10499965460.635532,47.655,-122.3035,60.0,8.35
2026-02-06T21:31:29+00:00,SAT-58549,195.7346604329833,60.31922231965936,547.2601712838941,1.076092979048313,-37689.32799506012,10.5,10499962310.672005,47.655,-122.3035,60.0,8.366666666666667
2026-02-06T21:31:30+00:00,SAT-58549,194.27130735110472,60.102047105388294,548.3333794061667,1.1655016576077815,-40820.79811654803,10.5,10499959179.201883,47.655,-122.3035,60.0,8.383333333333333
2026-02-06T21:31:31+00:00,SAT-58549,192.83372090463948,59.86947285029933,549.4957565146696,1.2543430729297147,-43932.400279936344,10.5,10499956067.59972,47.655,-122.3035,60.0,8.4
2026-02-06T21:31:32+00:00,SAT-58549,191.4229966995867,59.62213468408059,550.7467368669201,1.3425793062225602,-47022.806408748555,10.5,10499952977.193592,47.655,-122.3035,60.0,8.416666666666666
2026-02-06T21:31:33+00:00,SAT-58549,190.04005936161408,59.36068605118526,552.0857169032985,1.430173827841906,-50090.73708031712,10.5,10499949909.26292,47.655,-122.3035,60.0,8.433333333333334
2026-02-06T21:31:34+00:00,SAT-58549,188.68566777239653,59.085793916880924,553.5120566324721,1.517091568759078,-53134.96402891602,10.5,10499946865.03597,47.655,-122.3035,60.0,8.45
2026-02-06T21:31:35+00:00,SAT-58549,187.36042198710297,58.79813421920781,555.0250810880938,1.603298963027982,-56154.31163312925,10.5,10499943845.688366,47.655,-122.3035,60.0,8.466666666666667
2026-02-06T21:31:36+00:00,SAT-58549,186.06477152866472,58.49838761338286,556.624081827857,1.6887640014263667,-59147.65879459467,10.5,10499940852.341206,47.655,-122.3035,60.0,8.483333333333333
2026-02-06T21:31:37+00:00,SAT-58549,184.79902471919897,58.187235535916344,558.3083184860452,1.7734562536964116,-62113.93971696353,10.5,10499937886.060284,47.655,-122.3035,60.0,8.5
2026-02-06T21:31:38+00:00,SAT-58549,183.5633587688307,57.86535661320916,560.0770203482623,1.8573469327588006,-65052.14615494899,10.5,10499934947.853846,47.655,-122.3035,60.0,8.516666666666667
2026-02-06T21:31:39+00:00,SAT-58549,182.35783030524988,57.5334234162412,561.9293879902083,1.9404088864147016,-67961.32712369424,10.5,10499932038.672876,47.655,-122.3035,60.0,8.533333333333333
2026-02-06T21:31:40+00:00,SAT-58549,181.18238615120475,57.192099575716014,563.8645949081748,2.0226166187157095,-70840.58964723839,10.5,10499929159.410353,47.655,-122.3035,60.0,8.55
2026-02-06T21:31:41+00:00,SAT-58549,180.0368741013684,56.84203724596771,565.881789170857,2.103946321280919,-73689.09985537275,10.5,10499926310.900145,47.655,-122.3035,60.0,8.566666666666666
2026-02-06T21:31:42+00:00,SAT-58549,178.92105351364273,56.48387490431803,567.980095102395,2.184375854932592,-76506.0823404444,10.5,10499923493.91766,47.655,-122.3035,60.0,8.583333333333334
2026-02-06T21:31:43+00:00,SAT-58549,177.83460559272908,56.118235478355786,570.1586149471044,2.263884756079277,-79290.82038091967,10.5,10499920709.179619,47.655,-122.3035,60.0,8.6
2026-02-06T21:31:44+00:00,SAT-58549,176.7771432313396,55.74572477713416,572.4164305405687,2.342454228269634,-82042.65564556382,10.5,10499917957.344355,47.655,-122.3035,60.0,8.616666666666667
2026-02-06T21:31:45+00:00,SAT-58549,175.7482203262551,55.36693020702863,574.752604972311,2.420067115845246,-84760.98727065069,10.5,10499915239.01273,47.655,-122.3035,60.0,8.633333333333333
2026-02-06T21:31:46+00:00,SAT-58549,174.74734051430127,54.982419751867724,577.166184222188,2.496707911269973,-87445.27211666784,10.5,10499912554.727882,47.655,-122.3035,60.0,8.65
2026-02-06T21:31:47+00:00,SAT-58549,173.77396527046508,54.59274118803157,579.6561988040934,2.572362703673526,-90095.02296609484,10.5,10499909904.977034,47.655,-122.3035,60.0,8.666666666666666
2026-02-06T21:31:48+00:00,SAT-58549,172.8275213739217,54.19842152016178,582.2216653583446,2.647019149626988,-92709.80749983835,10.5,10499907290.192501,47.655,-122.3035,60.0,8.683333333333334
2026-02-06T21:31:49+00:00,SAT-58549,171.90740772338984,53.79996661025972,584.86158821492,2.720666456327729,-95289.24770829677,10.5,10499904710.752293,47.655,-122.3035,60.0,8.7
2026-02-06T21:31:50+00:00,SAT-58549,171.01300150566274,53.39786097591409,587.5749609399302,2.7932953502686715,-97833.01879402534,10.5,10499902166.981207,47.655,-122.3035,60.0,8.716666666666667
2026-02-06T21:31:51+00:00,SAT-58549,170.14366374200628,52.99256773871591,590.3607678508397,2.864897993233121,-100340.8462295198,10.5,10499899659.15377,47.655,-122.3035,60.0,8.733333333333333
2026-02-06T21:31:52+00:00,SAT-58549,169.29874425413036,52.58452871045759,593.2179854479089,2.9354679901717935,-102812.50603310319,10.5,10499897187.493967,47.655,-122.3035,60.0,8.75
2026-02-06T21:31:53+00:00,SAT-58549,168.47758604986808,52.17416458504968,596.1455838534933,3.0050003191353154,-105247.82231486561,10.5,10499894752.177685,47.655,-122.3035,60.0,8.766666666666667
2026-02-06T21:31:54+00:00,SAT-58549,167.67952918985392,51.761875230743925,599.1425281814634,3.0734912767956057,-107646.66536859263,10.5,10499892353.334631,47.655,-122.3035,60.0,8.783333333333333
2026-02-06T21:31:55+00:00,SAT-58549,166.9039141667228,51.34804006466898,602.2077798522877,3.140938419432543,-110008.94960486866,10.5,10499889991.050396,47.655,-122.3035,60.0,8.8
2026-02-06T21:31:56+00:00,SAT-58549,166.1500848345945,50.933018496236734,605.3402978492671,3.2073405762517337,-112334.63401752156,10.5,10499887665.365982,47.655,-122.3035,60.0,8.816666666666666
2026-02-06T21:31:57+00:00,SAT-58549,165.41739091034077,50.51715041749816,608.539039988047,3.27269769578627,-114623.71680396254,10.5,10499885376.283195,47.655,-122.3035,60.0,8.833333333333334
2026-02-06T21:31:58+00:00,SAT-58549,164.7051901263369,50.10075675146573,611.802964032943,3.3370108719978813,-116876.2362793588,10.5,10499883123.763721,47.655,-122.3035,60.0,8.85
2026-02-06T21:31:59+00:00,SAT-58549,164.0128500249593,49.684140024675145,615.1310288393007,3.4002822425616994,-119092.26731413585,10.5,10499880907.732685,47.655,-122.3035,60.0,8.866666666666667
2026-02-06T21:32:00+00:00,SAT-58549,163.33974946106258,49.267584972205164,618.522195394409,3.462514984138929,-121271.9211684063,10.5,10499878728.07883,47.655,-122.3035,60.0,8.883333333333333
2026-02-06T21:32:01+00:00,SAT-58549,162.68527982317195,48.851359155319024,621.9754278537025,3.52371318462196,-123415.34101745341,10.5,10499876584.658983,47.655,-122.3035,60.0,8.9
2026-02-06T21:32:02+00:00,SAT-58549,162.0488460294572,48.43571360038422,625.4896944495489,3.583881877263988,-125522.70314709477,10.5,10499874477.296852,47.655,-122.3035,60.0,8.916666666666666
2026-02-06T21:32:03+00:00,SAT-58549,161.42986729361428,48.02088343376569,629.0639684340755,3.6430268972968833,-127594.21193183343,10.5,10499872405.788069,47.655,-122.3035,60.0,8.933333333333334
2026-02-06T21:32:04+00:00,SAT-58549,160.82777772160762,47.607088529249246,632.6972288789987,3.701154908148086,-129630.10075308465,10.5,10499870369.899246,47.655,-122.3035,60.0,8.95
2026-02-06T21:32:05+00:00,SAT-58549,160.24202673036257,47.194534143867656,636.3884615015971,3.7582732863599544,-131630.62796856457,10.5,10499868369.372032,47.655,-122.3035,60.0,8.966666666666667
2026-02-06T21:32:06+00:00,SAT-58549,159.6720793362462,46.783411555222685,640.1366593759184,3.8143901226242507,-133596.07694852227,10.5,10499866403.923052,47.655,-122.3035,60.0,8.983333333333333
2026-02-06T21:32:07+00:00,SAT-58549,159.11741631169406,46.373898684232955,643.9408236450097,3.8695141219196243,-135526.7525781321,10.5,10499864473.247421,47.655,-122.3035,60.0,9.0
2026-02-06T21:32:08+00:00,SAT-58549,158.57753424487183,45.96616071227308,647.7999641335613,3.923654598796852,-137422.98109236272,10.5,10499862577.018908,47.655,-122.3035,60.0,9.016666666666667
2026-02-06T21:32:09+00:00,SAT-58549,158.05194550221566,45.56035068040243,651.7130999558431,3.9768214148913184,-139285.10788740002,10.5,10499860714.892113,47.655,-122.3035,60.0,9.033333333333333
2026-02-06T21:32:10+00:00,SAT-58549,157.540178117557,45.15661007564143,655.6792600613226,4.029024899969671,-141113.49475536688,10.5,10499858886.505245,47.655,-122.3035,60.0,9.05
2026-02-06T21:32:11+00:00,SAT-58549,157.04177562132,44.75506940457328,659.6974837015408,4.080275863008001,-142908.5202723279,10.5,10499857091.479727,47.655,-122.3035,60.0,9.066666666666666
2026-02-06T21:32:12+00:00,SAT-58549,156.55629680885357,44.355848744302236,663.7668209080382,4.130585538484698,-144670.57791723806,10.5,10499855329.422083,47.655,-122.3035,60.0,9.083333333333334
2026-02-06T21:32:13+00:00,SAT-58549,156.08331546671175,43.959058277059725,667.8863329167149,4.179965486127113,-146400.0725606469,10.5,10499853599.927439,47.655,-122.3035,60.0,9.1
2026-02-06T21:32:14+00:00,SAT-58549,155.62242007067505,43.564798812306925,672.0550924922089,4.228427609354476,-148097.42111064715,10.5,10499851902.57889,47.655,-122.3035,60.0,9.116666666666667
2026-02-06T21:32:15+00:00,SAT-58549,155.1732134476244,43.17316228454998,676.2721842706659,4.2759841541650205,-149763.0524738975,10.5,10499850236.947527,47.655,-122.3035,60.0,9.133333333333333
2026-02-06T21:32:16+00:00,SAT-58549,154.7353124119472,42.78423222932867,680.5367051013992,4.322647557659425,-151397.40225027263,10.5,10499848602.59775,47.655,-122.3035,60.0,9.15
2026-02-06T21:32:17+00:00,SAT-58549,154.30834739810624,42.39808425120888,684.847764237482,4.36843051823207,-153000.91519125784,10.5,10499846999.084808,47.655,-122.3035,60.0,9.166666666666666
2026-02-06T21:32:18+00:00,SAT-58549,153.89196206969586,42.01478646343111,689.2044835963379,4.413345900532409,-154574.0418712945,10.5,10499845425.958128,47.655,-122.3035,60.0,9.183333333333334
2026-02-06T21:32:19+00:00,SAT-58549,153.48581292703037,41.63439991482569,693.6059979255529,4.457406769731819,-156117.23988794978,10.5,10499843882.760113,47.655,-122.3035,60.0,9.2
2026-02-06T21:32:20+00:00,SAT-58549,153.08956890394646,41.25697899286393,698.0514550028573,4.500626270481659,-157630.96962251607,10.5,10499842369.030378,47.655,-122.3035,60.0,9.216666666666667
2026-02-06T21:32:21+00:00,SAT-58549,152.7029109721128,40.88257181680487,702.5400157153942,4.54301769232026,-159115.69653084045,10.5,10499840884.303469,47.655,-122.3035,60.0,9.233333333333333
2026-02-06T21:32:22+00:00,SAT-58549,152.32553173711312,40.51122060538988,707.0708542042178,4.58459438818828,-160571.88828938766,10.5,10499839428.111712,47.655,-122.3035,60.0,9.25
2026-02-06T21:32:23+00:00,SAT-58549,151.9571350430855,40.142962032287734,711.6431579275252,4.625369741739745,-162000.0136503345,10.5,10499837999.98635,47.655,-122.3035,60.0,9.266666666666667
2026-02-06T21:32:24+00:00,SAT-58549,151.59743558248667,39.77782756548725,716.2561276912885,4.665357245360652,-163400.54517411123,10.5,10499836599.454826,47.655,-122.3035,60.0,9.283333333333333
2026-02-06T21:32:25+00:00,SAT-58549,151.24615850373945,39.415843782662755,720.9089777576935,4.7045702854454765,-164773.9517088769,10.5,10499835226.04829,47.655,-122.3035,60.0,9.3
2026-02-06T21:32:26+00:00,SAT-58549,150.90303904219093,39.05703268619996,725.6009357394347,4.743022335951022,-166120.7051695935,10.5,10499833879.29483,47.655,-122.3035,60.0,9.316666666666666
2026-02-06T21:32:27+00:00,SAT-58549,150.56782214177585,38.70141198637609,730.3312426870398,4.780726800037301,-167441.2749916199,10.5,10499832558.725008,47.655,-122.3035,60.0,9.333333333333334
2026-02-06T21:32:28+00:00,SAT-58549,150.24026209723272,38.348995380988775,735.0991530182666,4.817697043876721,-168736.1293148528,10.5,10499831263.870686,47.655,-122.3035,60.0,9.35
2026-02-06T21:32:29+00:00,SAT-58549,149.92012220164463,37.99979281699041,739.903934481211,4.853946372886184,-170005.73415127385,10.5,10499829994.265848,47.655,-122.3035,60.0,9.366666666666667
2026-02-06T21:32:30+00:00,SAT-58549,149.60717440467565,37.653810739271705,744.7448680937159,4.889488012991041,-171250.55272873456,10.5,10499828749.447271,47.655,-122.3035,60.0,9.383333333333333
2026-02-06T21:32:31+00:00,SAT-58549,149.30119898135735,37.31105232679356,749.6212480640936,4.924335122705493,-172471.04591406256,10.5,10499827528.954086,47.655,-122.3035,60.0,9.4
2026-02-06T21:32:32+00:00,SAT-58549,149.00198420952242,36.97151771453071,754.5323817238933,4.958500721858178,-173667.6697167307,10.5,10499826332.330284,47.655,-122.3035,60.0,9.416666666666666
2026-02-06T21:32:33+00:00,SAT-58549,148.70932606196797,36.63520420762543,759.4775893895894,4.991997743670232,-174840.87711285063,10.5,10499825159.122887,47.655,-122.3035,60.0,9.433333333333334
2026-02-06T21:32:34+00:00,SAT-58549,148.42302790459115,36.30210647971099,764.4562042762042,5.024839006753897,-175991.1170644457,10.5,10499824008.882936,47.655,-122.3035,60.0,9.45
2026-02-06T21:32:35+00:00,SAT-58549,148.14290020670555,35.97221676166986,769.467572383009,5.0570371655561335,-177118.8327837767,10.5,10499822881.167215,47.655,-122.3035,60.0,9.466666666666667
2026-02-06T21:32:36+00:00,SAT-58549,147.8687602638431,35.64552502261522,774.5110523297952,5.088604780563601,-178224.46419221733,10.5,10499821775.535809,47.655,-122.3035,60.0,9.483333333333333
2026-02-06T21:32:37+00:00,SAT-58549,147.60043192633438,35.32201913578186,779.5860152631697,5.119554227105029,-179308.44472612717,10.5,10499820691.555273,47.655,-122.3035,60.0,9.5
2026-02-06T21:32:38+00:00,SAT-58549,147.3377453428695,35.00168504041906,784.6918446718905,5.149897726413351,-180371.20242477945,10.5,10499819628.797575,47.655,-122.3035,60.0,9.516666666666667
2026-02-06T21:32:39+00:00,SAT-58549,147.0805367115441,34.684506892121114,789.8279362331851,5.179647382834008,-181413.16123355276,10.5,10499818586.838766,47.655,-122.3035,60.0,9.533333333333333
2026-02-06T21:32:40+00:00,SAT-58549,146.82864803837924,34.370467201969724,794.9936976961773,5.208815070698018,-182434.7370417477,10.5,10499817565.262959,47.655,-122.3035,60.0,9.55
2026-02-06T21:32:41+00:00,SAT-58549,146.58192691100453,34.059546974128814,800.1885486524873,5.237412555843926,-183436.34193879963,10.5,10499816563.658062,47.655,-122.3035,60.0,9.566666666666666
2026-02-06T21:32:42+00:00,SAT-58549,146.34022627466481,33.75172582794606,805.4119204280319,5.265451404659433,-184418.38102853156,10.5,10499815581.61897,47.655,-122.3035,60.0,9.583333333333334
2026-02-06T21:32:43+00:00,SAT-58549,146.10340422177387,33.446982117995276,810.6632558841076,5.292942988366573,-185381.25257923937,10.5,10499814618.747421,47.655,-122.3035,60.0,9.6
2026-02-06T21:32:44+00:00,SAT-58549,145.8713237895421,33.14529304652257,815.9420092227485,5.319898517030254,-186325.3492148147,10.5,10499813674.650785,47.655,-122.3035,60.0,9.616666666666667
2026-02-06T21:32:45+00:00,SAT-58549,145.6438527638447,32.846634767081916,821.2476458260007,5.346329040316146,-187251.05794128924,10.5,10499812748.942059,47.655,-122.3035,60.0,9.633333333333333
2026-02-06T21:32:46+00:00,SAT-58549,145.42086349135354,32.550982481781055,826.5796420959532,5.372245385148626,-188158.7579633527,10.5,10499811841.242037,47.655,-122.3035,60.0,9.65
2026-02-06T21:32:47+00:00,SAT-58549,145.20223270186565,32.258310535905764,831.9374852325942,5.39765821510643,-189048.8227646391,10.5,10499810951.177235,47.655,-122.3035,60.0,9.666666666666666
2026-02-06T21:32:48+00:00,SAT-58549,144.98784133542495,31.968592503431875,837.3206730709023,5.42257800372205,-189921.61917255944,10.5,10499810078.380827,47.655,-122.3035,60.0,9.683333333333334
2026-02-06T21:32:49+00:00,SAT-58549,144.7775743776595,31.68180126861314,842.7287138913127,5.447015042527237,-190777.50764008873,10.5,10499809222.49236,47.655,-122.3035,60.0,9.7
2026-02-06T21:32:50+00:00,SAT-58549,144.57132070166287,31.397909102005823,848.1611262381987,5.47097941826341,-191616.84144757842,10.5,10499808383.158552,47.655,-122.3035,60.0,9.716666666666667
2026-02-06T21:32:51+00:00,SAT-58549,144.36897291734624,31.116887732839228,853.6174387156369,5.494481053753073,-192439.96813424595,10.5,10499807560.031866,47.655,-122.3035,60.0,9.733333333333333
2026-02-06T21:32:52+00:00,SAT-58549,144.1704272254794,30.838708414696644,859.0971898239231,5.517529695425808,-193247.22906128273,10.5,10499806752.770939,47.655,-122.3035,60.0,9.75
2026-02-06T21:32:53+00:00,SAT-58549,143.9755832783563,30.56334198761432,864.5999277836552,5.5401348346499315,-194038.95665655565,10.5,10499805961.043343,47.655,-122.3035,60.0,9.766666666666667
2026-02-06T21:32:54+00:00,SAT-58549,143.78434404932835,30.29075894002391,870.1252102813515,5.56230589424647,-194815.48094711555,10.5,10499805184.519053,47.655,-122.3035,60.0,9.783333333333333
2026-02-06T21:32:55+00:00,SAT-58549,143.59661570080354,30.020929457607284,875.6726044010938,5.584051997679001,-195577.1214752491,10.5,10499804422.878525,47.655,-122.3035,60.0,9.8
