DopplerPredictor/satellites_20260211_204923/SAT-55432.csv

timestamp,satellite,azimuth_deg,elevation_deg,distance_km,relative_velocity_kms,doppler_shift_hz,tx_freq_ghz,rx_freq_hz,ue_lat,ue_lon,ue_alt_m,time_minutes
2026-02-06T21:23:07+00:00,SAT-55432,75.69221297938067,67.49084672586353,619.1817522358403,0.7569393648445625,-26511.21840719524,10.5,10499973488.781593,47.655,-122.3035,60.0,0.0
2026-02-06T21:23:08+00:00,SAT-55432,77.39681574828161,67.30197874944604,619.9366623507054,0.8370728781810043,-29317.83300866276,10.5,10499970682.166992,47.655,-122.3035,60.0,0.016666666666666666
2026-02-06T21:23:09+00:00,SAT-55432,79.06931077718669,67.0957062149228,620.7714911520161,0.9168834676618469,-32113.137450740647,10.5,10499967886.862549,47.655,-122.3035,60.0,0.03333333333333333
2026-02-06T21:23:10+00:00,SAT-55432,80.70785074226906,66.87269095987038,621.685916581631,0.9963422433839254,-34896.11988681589,10.5,10499965103.880114,47.655,-122.3035,60.0,0.05
2026-02-06T21:23:11+00:00,SAT-55432,82.31088332593606,66.63362298212952,622.6795877689557,1.0754209810330781,-37665.79178201781,10.5,10499962334.208218,47.655,-122.3035,60.0,0.06666666666666667
2026-02-06T21:23:12+00:00,SAT-55432,83.87714374939156,66.3792137351132,623.7521256947467,1.1540921634039225,-40421.18936741626,10.5,10499959578.810633,47.655,-122.3035,60.0,0.08333333333333333
2026-02-06T21:23:13+00:00,SAT-55432,85.40564309864054,66.11018976458408,624.9031238963252,1.232329014599361,-43161.37483783295,10.5,10499956838.625162,47.655,-122.3035,60.0,0.1
2026-02-06T21:23:14+00:00,SAT-55432,86.89565326591803,65.82728677316327,626.132149206898,1.3101055534664605,-45885.43822339198,10.5,10499954114.561777,47.655,-122.3035,60.0,0.11666666666666667
2026-02-06T21:23:15+00:00,SAT-55432,88.3466893549358,65.53124416874212,627.43874254817,1.387396615139506,-48592.49814404875,10.5,10499951407.501856,47.655,-122.3035,60.0,0.13333333333333333
2026-02-06T21:23:16+00:00,SAT-55432,89.75849028748955,65.22280014255178,628.8224197444449,1.4641778949649262,-51281.70334802661,10.5,10499948718.296652,47.655,-122.3035,60.0,0.15
2026-02-06T21:23:17+00:00,SAT-55432,91.130998351863,64.90268728999973,630.28267238053,1.540425972446578,-53952.233550482015,10.5,10499946047.766449,47.655,-122.3035,60.0,0.16666666666666666
2026-02-06T21:23:18+00:00,SAT-55432,92.4643382941678,64.57162878003076,631.8189686835234,1.6161183453053634,-56603.300626416414,10.5,10499943396.699373,47.655,-122.3035,60.0,0.18333333333333332
2026-02-06T21:23:19+00:00,SAT-55432,93.75879649592396,64.230335057898,633.4307544385695,1.6912334315964737,-59234.14868483107,10.5,10499940765.851315,47.655,-122.3035,60.0,0.2
2026-02-06T21:23:20+00:00,SAT-55432,95.01480064386074,63.87950106429859,635.1174539067259,1.7657506236135914,-61844.05595668024,10.5,10499938155.944044,47.655,-122.3035,60.0,0.21666666666666667
2026-02-06T21:23:21+00:00,SAT-55432,96.23290027429472,63.51980392793288,636.8784707965912,1.8396502683676628,-64432.33411115519,10.5,10499935567.66589,47.655,-122.3035,60.0,0.23333333333333334
2026-02-06T21:23:22+00:00,SAT-55432,97.41374838914939,63.151901109523074,638.7131892164609,1.912913705047139,-66998.32956770033,10.5,10499933001.670433,47.655,-122.3035,60.0,0.25
2026-02-06T21:23:23+00:00,SAT-55432,98.55808436194992,62.77642894460613,640.6209746638472,1.9855232562234881,-69541.42318799303,10.5,10499930458.576813,47.655,-122.3035,60.0,0.26666666666666666
2026-02-06T21:23:24+00:00,SAT-55432,99.66671821038211,62.394001552524855,642.6011750062229,2.0574622602837493,-72061.03141186883,10.5,10499927938.968588,47.655,-122.3035,60.0,0.2833333333333333
2026-02-06T21:23:25+00:00,SAT-55432,100.74051631318156,62.0052100614787,644.6531214941166,2.128715042901868,-74556.60525812699,10.5,10499925443.394741,47.655,-122.3035,60.0,0.3
2026-02-06T21:23:26+00:00,SAT-55432,101.7803885438518,61.61062212083329,646.7761297457512,2.199266933727999,-77027.63090906039,10.5,10499922972.369091,47.655,-122.3035,60.0,0.31666666666666665
2026-02-06T21:23:27+00:00,SAT-55432,102.78727681871642,61.21078165312773,648.9695007483288,2.2691042736762514,-79473.62996570328,10.5,10499920526.370035,47.655,-122.3035,60.0,0.3333333333333333
2026-02-06T21:23:28+00:00,SAT-55432,103.7621449970206,60.80620881192574,651.2325218665835,2.3382143808278415,-81894.15825361536,10.5,10499918105.841747,47.655,-122.3035,60.0,0.35
2026-02-06T21:23:29+00:00,SAT-55432,104.70597004150113,60.397400119931234,653.5644678173301,2.406585588883003,-84288.80716963044,10.5,10499915711.192831,47.655,-122.3035,60.0,0.36666666666666664
2026-02-06T21:23:30+00:00,SAT-55432,105.6197343825384,59.984828744558776,655.964601682358,2.474207158683098,-86657.2005829864,10.5,10499913342.799417,47.655,-122.3035,60.0,0.38333333333333336
2026-02-06T21:23:31+00:00,SAT-55432,106.50441934448905,59.568944906499524,658.4321758330893,2.541069370333459,-88998.9980618569,10.5,10499911001.001938,47.655,-122.3035,60.0,0.4
2026-02-06T21:23:32+00:00,SAT-55432,107.36099960165022,59.150176366463455,660.9664329471085,2.6071634208392833,-91313.89128812733,10.5,10499908686.108711,47.655,-122.3035,60.0,0.4166666666666667
2026-02-06T21:23:33+00:00,SAT-55432,108.1904384987351,58.72892900296222,663.566606922605,2.6724814448934775,-93601.60478547301,10.5,10499906398.395214,47.655,-122.3035,60.0,0.43333333333333335
2026-02-06T21:23:34+00:00,SAT-55432,108.99368418573837,58.30558744195323,666.2319238135474,2.7370164784042625,-95861.89464194179,10.5,10499904138.105358,47.655,-122.3035,60.0,0.45
2026-02-06T21:23:35+00:00,SAT-55432,109.77166645777504,57.88051573260913,668.9616027284811,2.800762477958086,-98094.54919162743,10.5,10499901905.450808,47.655,-122.3035,60.0,0.4666666666666667
2026-02-06T21:23:36+00:00,SAT-55432,110.52529423154711,57.45405804730962,671.754856748741,2.86371424816605,-100299.3864700343,10.5,10499899700.61353,47.655,-122.3035,60.0,0.48333333333333334
2026-02-06T21:23:37+00:00,SAT-55432,111.25545355469625,57.02653940923403,674.6108937742002,2.925867436487182,-102476.25403276627,10.5,10499897523.745968,47.655,-122.3035,60.0,0.5
2026-02-06T21:23:38+00:00,SAT-55432,111.96300609710944,56.59826642745392,677.5289173638599,2.9872185484203975,-104625.02948761363,10.5,10499895374.970512,47.655,-122.3035,60.0,0.5166666666666667
2026-02-06T21:23:39+00:00,SAT-55432,112.64878805983598,56.16952802935094,680.5081275915883,3.0477648423248582,-106745.61681071714,10.5,10499893254.38319,47.655,-122.3035,60.0,0.5333333333333333
2026-02-06T21:23:40+00:00,SAT-55432,113.31360941869288,55.74059620158292,683.5477217969623,3.1075043853322803,-108837.94830485343,10.5,10499891162.051695,47.655,-122.3035,60.0,0.55
2026-02-06T21:23:41+00:00,SAT-55432,113.95825348443016,55.31172671095829,686.646895391873,3.166435953733318,-110901.98111054495,10.5,10499889098.01889,47.655,-122.3035,60.0,0.5666666666666667
2026-02-06T21:23:42+00:00,SAT-55432,114.58347670096755,54.88315982352826,689.8048425677828,3.2245590761518494,-112937.69871820597,10.5,10499887062.301281,47.655,-122.3035,60.0,0.5833333333333334
2026-02-06T21:23:43+00:00,SAT-55432,115.19000866895244,54.45512099857864,693.0207570460404,3.2818739540761745,-114945.10818480908,10.5,10499885054.891815,47.655,-122.3035,60.0,0.6
2026-02-06T21:23:44+00:00,SAT-55432,115.77855233509017,54.02782157215216,696.2938327489443,3.338381437307557,-116924.23927398917,10.5,10499883075.760727,47.655,-122.3035,60.0,0.6166666666666667
2026-02-06T21:23:45+00:00,SAT-55432,116.34978432729083,53.60145942037252,699.6232644463153,3.3940830189203326,-118875.14427952518,10.5,10499881124.85572,47.655,-122.3035,60.0,0.6333333333333333
2026-02-06T21:23:46+00:00,SAT-55432,116.90435541070458,53.17621959891837,703.0082483970455,3.448980806892066,-120797.89703170817,10.5,10499879202.102968,47.655,-122.3035,60.0,0.65
2026-02-06T21:23:47+00:00,SAT-55432,117.44289103714014,52.75227496099488,706.4479829623533,3.503077472567654,-122692.59109233618,10.5,10499877307.408907,47.655,-122.3035,60.0,0.6666666666666666
2026-02-06T21:23:48+00:00,SAT-55432,117.96599196416943,52.32978675601839,709.9416691676419,3.5563762203982656,-124559.33869484399,10.5,10499875440.661304,47.655,-122.3035,60.0,0.6833333333333333
2026-02-06T21:23:49+00:00,SAT-55432,118.47423493073782,51.90890520591394,713.488511234173,3.6088807845923028,-126398.2706270055,10.5,10499873601.729374,47.655,-122.3035,60.0,0.7
2026-02-06T21:23:50+00:00,SAT-55432,118.96817337743418,51.48977005592045,717.0877171074073,3.6605954074915403,-128209.53547357477,10.5,10499871790.464527,47.655,-122.3035,60.0,0.7166666666666667
2026-02-06T21:23:51+00:00,SAT-55432,119.44833819625715,51.07251110253196,720.7384989637736,3.7115247495086074,-129993.29646191558,10.5,10499870006.703539,47.655,-122.3035,60.0,0.7333333333333333
2026-02-06T21:23:52+00:00,SAT-55432,119.91523849094273,50.657248706579864,724.4400736276192,3.7616739597459046,-131749.7339353747,10.5,10499868250.266064,47.655,-122.3035,60.0,0.75
2026-02-06T21:23:53+00:00,SAT-55432,120.36936235894306,50.24409427354447,728.19166305859,3.8110485335938264,-133479.04036576924,10.5,10499866520.959635,47.655,-122.3035,60.0,0.7666666666666667
2026-02-06T21:23:54+00:00,SAT-55432,120.81117766222604,49.83315072579496,731.9924946969901,3.8596543997800357,-135181.4234022204,10.5,10499864818.576597,47.655,-122.3035,60.0,0.7833333333333333
2026-02-06T21:23:55+00:00,SAT-55432,121.24113280734935,49.42451294169175,735.8418018959565,3.9074978343065117,-136857.10285686498,10.5,10499863142.897142,47.655,-122.3035,60.0,0.8
2026-02-06T21:23:56+00:00,SAT-55432,121.65965750974051,49.01826818162346,739.7388242678039,3.9545853994542886,-138506.3085685432,10.5,10499861493.691431,47.655,-122.3035,60.0,0.8166666666666667
2026-02-06T21:23:57+00:00,SAT-55432,122.06716354257911,48.61449649831337,743.6828079695354,4.000924032225632,-140129.28350041795,10.5,10499859870.7165,47.655,-122.3035,60.0,0.8333333333333334
2026-02-06T21:23:58+00:00,SAT-55432,122.46404548082346,48.21327111683718,747.673006076558,4.046520908976535,-141726.278998832,10.5,10499858273.721,47.655,-122.3035,60.0,0.85
2026-02-06T21:23:59+00:00,SAT-55432,122.85068141614592,47.81465880836432,751.7086788213974,4.0913834545714,-143297.55511394385,10.5,10499856702.444885,47.655,-122.3035,60.0,0.8666666666666667
2026-02-06T21:24:00+00:00,SAT-55432,123.22743365554585,47.41872024311316,755.7890938415379,4.135519385476903,-144843.38210905722,10.5,10499855156.617891,47.655,-122.3035,60.0,0.8833333333333333
2026-02-06T21:24:01+00:00,SAT-55432,123.59464940369774,47.02551032047402,759.9135264702442,4.178936593131657,-146364.03637573298,10.5,10499853635.963625,47.655,-122.3035,60.0,0.9
2026-02-06T21:24:02+00:00,SAT-55432,123.95266141483899,46.63507849258818,764.0812599110626,4.221643156924107,-147859.80088833027,10.5,10499852140.199112,47.655,-122.3035,60.0,0.9166666666666666
2026-02-06T21:24:03+00:00,SAT-55432,124.30178862498569,46.24746906920111,768.2915854252699,4.263647380199904,-149330.96646513703,10.5,10499850669.033535,47.655,-122.3035,60.0,0.9333333333333333
2026-02-06T21:24:04+00:00,SAT-55432,124.64233676481324,45.862721502836735,772.5438025552271,4.304957666462366,-150777.82743238605,10.5,10499849222.172567,47.655,-122.3035,60.0,0.95
2026-02-06T21:24:05+00:00,SAT-55432,124.97459894101267,45.48087066963793,776.8372192242695,4.345582609057635,-152200.68476540915,10.5,10499847799.315235,47.655,-122.3035,60.0,0.9666666666666667
2026-02-06T21:24:06+00:00,SAT-55432,125.29885620277352,45.10194712696909,781.171151926043,4.385530902924477,-153599.84299774145,10.5,10499846400.157001,47.655,-122.3035,60.0,0.9833333333333333
2026-02-06T21:24:07+00:00,SAT-55432,125.6153780794622,44.725977364681306,785.5449258258196,4.424811328559947,-154975.60965953136,10.5,10499845024.39034,47.655,-122.3035,60.0,1.0
2026-02-06T21:24:08+00:00,SAT-55432,125.92442309637963,44.35298404391222,789.9578748458318,4.463432787114382,-156328.29650671536,10.5,10499843671.703493,47.655,-122.3035,60.0,1.0166666666666666
2026-02-06T21:24:09+00:00,SAT-55432,126.2262392713202,43.98298621982906,794.4093417855977,4.501404243151744,-157658.21751624357,10.5,10499842341.782484,47.655,-122.3035,60.0,1.0333333333333334
2026-02-06T21:24:10+00:00,SAT-55432,126.52106458683359,43.615999556871216,798.8986783851675,4.538734745814061,-158965.6896273476,10.5,10499841034.310373,47.655,-122.3035,60.0,1.05
2026-02-06T21:24:11+00:00,SAT-55432,126.80912744349966,43.25203653041253,803.4252454094731,4.575433308799474,-160251.0285378643,10.5,10499839748.971462,47.655,-122.3035,60.0,1.0666666666666667
2026-02-06T21:24:12+00:00,SAT-55432,127.09064708690387,42.8911066267446,807.9884126129814,4.61150909379617,-161514.5551288678,10.5,10499838485.444872,47.655,-122.3035,60.0,1.0833333333333333
2026-02-06T21:24:13+00:00,SAT-55432,127.36583402612456,42.533216517605965,812.5875588872856,4.6469712028998735,-162756.58819425228,10.5,10499837243.411806,47.655,-122.3035,60.0,1.1
2026-02-06T21:24:14+00:00,SAT-55432,127.63489042202183,42.17837024110413,817.2220722016724,4.681828796325061,-163977.44856347633,10.5,10499836022.551437,47.655,-122.3035,60.0,1.1166666666666667
2026-02-06T21:24:15+00:00,SAT-55432,127.89801046470362,41.82656936354896,821.8913496610871,4.716090986171639,-165177.45538082285,10.5,10499834822.544619,47.655,-122.3035,60.0,1.1333333333333333
2026-02-06T21:24:16+00:00,SAT-55432,128.1553807283713,41.47781314019808,826.5947974581451,4.749766935596166,-166356.9295787946,10.5,10499833643.070421,47.655,-122.3035,60.0,1.15
2026-02-06T21:24:17+00:00,SAT-55432,128.40718051489722,41.13209865972276,831.3318309240551,4.782865727920988,-167516.18929376258,10.5,10499832483.810707,47.655,-122.3035,60.0,1.1666666666666667
2026-02-06T21:24:18+00:00,SAT-55432,128.65358217525974,40.78942099005916,836.1018744489949,4.8153964623277,-168655.5532175558,10.5,10499831344.446783,47.655,-122.3035,60.0,1.1833333333333333
2026-02-06T21:24:19+00:00,SAT-55432,128.89475142096157,40.449773309210485,840.9043614979316,4.847368182359911,-169775.33809332544,10.5,10499830224.661907,47.655,-122.3035,60.0,1.2
2026-02-06T21:24:20+00:00,SAT-55432,129.1308476173588,40.1131470337385,845.7387345551316,4.878789899366388,-170875.8595366234,10.5,10499829124.140463,47.655,-122.3035,60.0,1.2166666666666666
2026-02-06T21:24:21+00:00,SAT-55432,129.36202406473834,39.779531938370376,850.6044450920508,4.909670540033731,-171957.43019777426,10.5,10499828042.569801,47.655,-122.3035,60.0,1.2333333333333334
2026-02-06T21:24:22+00:00,SAT-55432,129.58842826395986,39.448916272377474,855.5009534829013,4.940019028156006,-173020.36262579382,10.5,10499826979.637375,47.655,-122.3035,60.0,1.25
2026-02-06T21:24:23+00:00,SAT-55432,129.81020217308264,39.121286863908736,860.4277290017651,4.9698441687986294,-174064.9652113183,10.5,10499825935.034788,47.655,-122.3035,60.0,1.2666666666666666
2026-02-06T21:24:24+00:00,SAT-55432,130.0274824472887,38.796629226027314,865.3842497041858,4.9991547485710175,-175091.54569857684,10.5,10499824908.454302,47.655,-122.3035,60.0,1.2833333333333334
2026-02-06T21:24:25+00:00,SAT-55432,130.24040067157358,38.47492765018625,870.3700024087592,5.027959445099301,-176100.40801474283,10.5,10499823899.591986,47.655,-122.3035,60.0,1.3
2026-02-06T21:24:26+00:00,SAT-55432,130.44908357906402,38.15616530017319,875.3844825884445,5.056266839656737,-177091.8527123045,10.5,10499822908.147287,47.655,-122.3035,60.0,1.3166666666666667
2026-02-06T21:24:27+00:00,SAT-55432,130.65365325954247,37.84032429982137,880.4271942744691,5.084085507182128,-178066.18012189068,10.5,10499821933.819878,47.655,-122.3035,60.0,1.3333333333333333
2026-02-06T21:24:28+00:00,SAT-55432,130.85422736158202,37.527385810155955,885.4976500500104,5.11142381799547,-179023.683407514,10.5,10499820976.316593,47.655,-122.3035,60.0,1.35
2026-02-06T21:24:29+00:00,SAT-55432,131.05091927806453,37.21733011417138,890.595370846126,5.138290177324723,-179964.65695581172,10.5,10499820035.343044,47.655,-122.3035,60.0,1.3666666666666667
2026-02-06T21:24:30+00:00,SAT-55432,131.2438383314519,36.91013668229819,895.7198859765696,5.164692800398491,-180889.38849883995,10.5,10499819110.611502,47.655,-122.3035,60.0,1.3833333333333333
2026-02-06T21:24:31+00:00,SAT-55432,131.4330899425941,36.60578424743579,900.8707329482978,5.190639847798027,-181798.1638546734,10.5,10499818201.836145,47.655,-122.3035,60.0,1.4
2026-02-06T21:24:32+00:00,SAT-55432,131.6187757964651,36.30425086766367,906.0474574069722,5.21613936367525,-182691.26476353893,10.5,10499817308.735237,47.655,-122.3035,60.0,1.4166666666666667
2026-02-06T21:24:33+00:00,SAT-55432,131.80099399784322,36.005513988868614,911.2496130208407,5.241199334438147,-183568.97094322683,10.5,10499816431.029057,47.655,-122.3035,60.0,1.4333333333333333
2026-02-06T21:24:34+00:00,SAT-55432,131.97983922179262,35.70955050038563,916.4767614231488,5.265827547680405,-184431.5551482094,10.5,10499815568.44485,47.655,-122.3035,60.0,1.45
2026-02-06T21:24:35+00:00,SAT-55432,132.15540285290018,35.41633679522486,921.7284720138575,5.290031789204994,-185279.29007024062,10.5,10499814720.70993,47.655,-122.3035,60.0,1.4666666666666666
2026-02-06T21:24:36+00:00,SAT-55432,132.32777312381654,35.125848815870754,927.0043219578603,5.313819687898603,-186112.44290520254,10.5,10499813887.557095,47.655,-122.3035,60.0,1.4833333333333334
2026-02-06T21:24:37+00:00,SAT-55432,132.49703524295026,34.8380621058336,932.3038960284829,5.337198745703263,-186931.27640283818,10.5,10499813068.723597,47.655,-122.3035,60.0,1.5
2026-02-06T21:24:38+00:00,SAT-55432,132.6632715171707,34.552951856476426,937.6267864808822,5.360176401042173,-187736.05108819253,10.5,10499812263.948912,47.655,-122.3035,60.0,1.5166666666666666
2026-02-06T21:24:39+00:00,SAT-55432,132.82656147058492,34.27049294769534,942.9725929886976,5.382759936108218,-188527.02201446402,10.5,10499811472.977985,47.655,-122.3035,60.0,1.5333333333333334
2026-02-06T21:24:40+00:00,SAT-55432,132.98698195542096,33.990659990981996,948.3409224882378,5.404956572524141,-189304.4421134286,10.5,10499810695.557886,47.655,-122.3035,60.0,1.55
2026-02-06T21:24:41+00:00,SAT-55432,133.1446072604213,33.71342736495535,953.731389118075,5.426773375489884,-190068.558838274,10.5,10499809931.441162,47.655,-122.3035,60.0,1.5666666666666667
2026-02-06T21:24:42+00:00,SAT-55432,133.2995092116559,33.43876925359549,959.1436140630403,5.448217325260141,-190819.61666704598,10.5,10499809180.383333,47.655,-122.3035,60.0,1.5833333333333333
2026-02-06T21:24:43+00:00,SAT-55432,133.45175727087383,33.16665967854329,964.5772254695053,5.469295263749387,-191557.85523253074,10.5,10499808442.144768,47.655,-122.3035,60.0,1.6
2026-02-06T21:24:44+00:00,SAT-55432,133.60141862779173,32.89707253204182,970.0318583074153,5.490013971839477,-192283.51202989405,10.5,10499807716.48797,47.655,-122.3035,60.0,1.6166666666666667
2026-02-06T21:24:45+00:00,SAT-55432,133.74855829036608,32.62998160407465,975.5071543094182,5.51038005450851,-192996.81839340788,10.5,10499807003.181606,47.655,-122.3035,60.0,1.6333333333333333
2026-02-06T21:24:46+00:00,SAT-55432,133.8932391680559,32.36536061331498,981.002761795433,5.530400061204339,-193698.00371244014,10.5,10499806301.996288,47.655,-122.3035,60.0,1.65
2026-02-06T21:24:47+00:00,SAT-55432,134.03552215442494,32.103183230414174,986.5183356172685,5.550080389175056,-194387.29204567944,10.5,10499805612.707954,47.655,-122.3035,60.0,1.6666666666666667
2026-02-06T21:24:48+00:00,SAT-55432,134.17546620364828,31.843423104333308,992.0535370068312,5.569427362914816,-195064.90490366358,10.5,10499804935.095097,47.655,-122.3035,60.0,1.6833333333333333
2026-02-06T21:24:49+00:00,SAT-55432,134.31312840558942,31.5860538833115,997.6080335035672,5.588447155576274,-195731.05849631105,10.5,10499804268.941504,47.655,-122.3035,60.0,1.7
2026-02-06T21:24:50+00:00,SAT-55432,134.4485640556753,31.331049238057624,1003.1814988035248,5.607145888678102,-196385.96722509968,10.5,10499803614.032774,47.655,-122.3035,60.0,1.7166666666666666
2026-02-06T21:24:51+00:00,SAT-55432,134.58182672396495,31.078382878942744,1008.7736127078617,5.625529513789393,-197029.8395391542,10.5,10499802970.160461,47.655,-122.3035,60.0,1.7333333333333334
2026-02-06T21:24:52+00:00,SAT-55432,134.71296831869302,30.828028577300145,1014.3840609533478,5.643603909381734,-197662.88132741555,10.5,10499802337.118673,47.655,-122.3035,60.0,1.75
2026-02-06T21:24:53+00:00,SAT-55432,134.84203914900812,30.579960181058986,1020.0125351394656,5.661374857725033,-198285.2951094348,10.5,10499801714.704891,47.655,-122.3035,60.0,1.7666666666666666
2026-02-06T21:24:54+00:00,SAT-55432,134.96908798454518,30.334151630317926,1025.6587326324668,5.678848007103278,-198897.27871200957,10.5,10499801102.721289,47.655,-122.3035,60.0,1.7833333333333334
2026-02-06T21:24:55+00:00,SAT-55432,135.094162111714,30.090576973462092,1031.322356431744,5.696028921974818,-199499.02702600876,10.5,10499800500.972975,47.655,-122.3035,60.0,1.8
