DopplerPredictor/satellites_20260211_204923/SAT-48693.csv

timestamp,satellite,azimuth_deg,elevation_deg,distance_km,relative_velocity_kms,doppler_shift_hz,tx_freq_ghz,rx_freq_hz,ue_lat,ue_lon,ue_alt_m,time_minutes
2026-02-06T21:27:13+00:00,SAT-48693,309.0964892623785,30.07785929625839,997.7394730517871,-5.54337735687292,194152.5235006601,10.5,10500194152.5235,47.655,-122.3035,60.0,4.1
2026-02-06T21:27:14+00:00,SAT-48693,309.24273992142366,30.320290471256673,992.2109567246217,-5.525371209254506,193521.87204513434,10.5,10500193521.872046,47.655,-122.3035,60.0,4.116666666666666
2026-02-06T21:27:15+00:00,SAT-48693,309.3913099052334,30.564923115181067,986.700398273078,-5.507055319251611,192880.37210109507,10.5,10500192880.3721,47.655,-122.3035,60.0,4.133333333333334
2026-02-06T21:27:16+00:00,SAT-48693,309.5422545669825,30.81178106097197,981.2081066091636,-5.4884237942687095,192227.81728492133,10.5,10500192227.817286,47.655,-122.3035,60.0,4.15
2026-02-06T21:27:17+00:00,SAT-48693,309.69563096950077,31.060888134184054,975.734396521685,-5.469470644075544,191563.99779341088,10.5,10500191563.997793,47.655,-122.3035,60.0,4.166666666666667
2026-02-06T21:27:18+00:00,SAT-48693,309.8514979491931,31.312268132710457,970.2795887736191,-5.450189713718807,190888.69805406337,10.5,10500190888.698053,47.655,-122.3035,60.0,4.183333333333334
2026-02-06T21:27:19+00:00,SAT-48693,310.00991618067104,31.56594480201517,964.8440102663967,-5.430574796587321,190201.7006851015,10.5,10500190201.700686,47.655,-122.3035,60.0,4.2
2026-02-06T21:27:20+00:00,SAT-48693,310.1709482475658,31.821941814054,959.4279940914194,-5.410619561459754,189502.78394037322,10.5,10500189502.783941,47.655,-122.3035,60.0,4.216666666666667
2026-02-06T21:27:21+00:00,SAT-48693,310.33465871417724,32.08028274132944,954.0318796543386,-5.39031755440067,188791.7217757594,10.5,10500188791.721775,47.655,-122.3035,60.0,4.233333333333333
2026-02-06T21:27:22+00:00,SAT-48693,310.5011142003147,32.34099102933792,948.6560127974375,-5.369662237427912,188068.28520346925,10.5,10500188068.285204,47.655,-122.3035,60.0,4.25
2026-02-06T21:27:23+00:00,SAT-48693,310.6703834605392,32.604089969125766,943.3007458834547,-5.348646916310968,187332.2397632337,10.5,10500187332.239763,47.655,-122.3035,60.0,4.266666666666667
2026-02-06T21:27:24+00:00,SAT-48693,310.8425374645563,32.86960266449477,937.9664379514129,-5.327264836443452,186583.3488801651,10.5,10500186583.34888,47.655,-122.3035,60.0,4.283333333333333
2026-02-06T21:27:25+00:00,SAT-48693,311.01764948423744,33.137552001926686,932.6534547768335,-5.305509089668379,185821.37060138446,10.5,10500185821.370602,47.655,-122.3035,60.0,4.3
2026-02-06T21:27:26+00:00,SAT-48693,311.19579518128467,33.40796061386751,927.3621690248742,-5.283372694004383,185046.06038837048,10.5,10500185046.060389,47.655,-122.3035,60.0,4.316666666666666
2026-02-06T21:27:27+00:00,SAT-48693,311.37705270149155,33.68085084379867,922.0929603239572,-5.260848519708118,184257.16852735245,10.5,10500184257.168528,47.655,-122.3035,60.0,4.333333333333333
2026-02-06T21:27:28+00:00,SAT-48693,311.5615027704944,33.956244705264005,916.8462154131331,-5.2379293578394615,183454.44253075356,10.5,10500183454.442532,47.655,-122.3035,60.0,4.35
2026-02-06T21:27:29+00:00,SAT-48693,311.74922879614564,34.23416384196652,911.622328221068,-5.21460787103345,182637.62541301563,10.5,10500182637.625414,47.655,-122.3035,60.0,4.366666666666666
2026-02-06T21:27:30+00:00,SAT-48693,311.9403169735844,34.51462948276458,906.421699994121,-5.190876626530736,181806.4568474659,10.5,10500181806.456848,47.655,-122.3035,60.0,4.383333333333334
2026-02-06T21:27:31+00:00,SAT-48693,312.13485639614976,34.79766239568427,901.2447393914847,-5.166728041479052,180960.67125054242,10.5,10500180960.671251,47.655,-122.3035,60.0,4.4
2026-02-06T21:27:32+00:00,SAT-48693,312.33293916891415,35.0832828360914,896.0918626348766,-5.1421545027457585,180100.00197813672,10.5,10500180100.001978,47.655,-122.3035,60.0,4.416666666666667
2026-02-06T21:27:33+00:00,SAT-48693,312.53466053204056,35.37151049840535,890.9634935387351,-5.117148213931503,179224.17596736466,10.5,10500179224.175968,47.655,-122.3035,60.0,4.433333333333334
2026-02-06T21:27:34+00:00,SAT-48693,312.740118983268,35.66236445623418,885.8600636929989,-5.091701311184477,178332.91779287191,10.5,10500178332.917793,47.655,-122.3035,60.0,4.45
2026-02-06T21:27:35+00:00,SAT-48693,312.9494164105134,35.955863105504775,880.7820125303747,-5.0658058309210965,177425.94853627545,10.5,10500177425.948536,47.655,-122.3035,60.0,4.466666666666667
2026-02-06T21:27:36+00:00,SAT-48693,313.1626582288559,36.252024102329834,875.7297874258052,-5.039453700979801,176502.98547633213,10.5,10500176502.985476,47.655,-122.3035,60.0,4.483333333333333
2026-02-06T21:27:37+00:00,SAT-48693,313.37995352315187,36.55086429662439,870.703843804753,-5.012636737995589,175563.74199698408,10.5,10500175563.741997,47.655,-122.3035,60.0,4.5
2026-02-06T21:27:38+00:00,SAT-48693,313.60141519661937,36.852399661599634,865.704645254108,-4.985346689289778,174607.929054515,10.5,10500174607.929054,47.655,-122.3035,60.0,4.516666666666667
2026-02-06T21:27:39+00:00,SAT-48693,313.8271601277455,37.1566452216153,860.7326635913143,-4.957575200853433,173635.2540561946,10.5,10500173635.254057,47.655,-122.3035,60.0,4.533333333333333
2026-02-06T21:27:40+00:00,SAT-48693,314.057309332491,37.46361497381924,855.7883789654292,-4.929313800578268,172645.4202729537,10.5,10500172645.420273,47.655,-122.3035,60.0,4.55
2026-02-06T21:27:41+00:00,SAT-48693,314.29198813256306,37.77332180409192,850.8722799749048,-4.900553986286924,171638.12992257695,10.5,10500171638.129923,47.655,-122.3035,60.0,4.566666666666666
2026-02-06T21:27:42+00:00,SAT-48693,314.53132633513854,38.08577740365387,845.9848636975789,-4.871287128488794,170613.0807638007,10.5,10500170613.080763,47.655,-122.3035,60.0,4.583333333333333
2026-02-06T21:27:43+00:00,SAT-48693,314.7754584154122,38.40099217457753,841.1266358176437,-4.8415045345929615,169569.9683453214,10.5,10500169569.968346,47.655,-122.3035,60.0,4.6
2026-02-06T21:27:44+00:00,SAT-48693,315.02452370996724,38.718975133941214,836.2981106885806,-4.811197477309929,168508.4870005444,10.5,10500168508.487001,47.655,-122.3035,60.0,4.616666666666666
2026-02-06T21:27:45+00:00,SAT-48693,315.27866661979675,39.03973381437048,831.4998113677619,-4.780357077784203,167428.3257543928,10.5,10500167428.325754,47.655,-122.3035,60.0,4.633333333333334
2026-02-06T21:27:46+00:00,SAT-48693,315.53803681536834,39.363274150939176,826.7322697676141,-4.748974491509844,166329.17483485644,10.5,10500166329.174835,47.655,-122.3035,60.0,4.65
2026-02-06T21:27:47+00:00,SAT-48693,315.8027894602065,39.68960037424125,821.9960266213574,-4.717040776007068,165210.7210384666,10.5,10500165210.721039,47.655,-122.3035,60.0,4.666666666666667
2026-02-06T21:27:48+00:00,SAT-48693,316.0730854363077,40.018714888258245,817.291631580719,-4.684546925557801,164072.64894688214,10.5,10500164072.648947,47.655,-122.3035,60.0,4.683333333333334
2026-02-06T21:27:49+00:00,SAT-48693,316.34909158022793,40.350618143622015,812.6196432790011,-4.651483925261703,162914.64282016022,10.5,10500162914.64282,47.655,-122.3035,60.0,4.7
2026-02-06T21:27:50+00:00,SAT-48693,316.63098093180884,40.6853085075551,807.9806293402384,-4.617842740078705,161736.3862129794,10.5,10500161736.386213,47.655,-122.3035,60.0,4.716666666666667
2026-02-06T21:27:51+00:00,SAT-48693,316.9189329918789,41.02278212571818,803.3751663992836,-4.583614269653602,160537.56039240595,10.5,10500160537.560392,47.655,-122.3035,60.0,4.733333333333333
2026-02-06T21:27:52+00:00,SAT-48693,317.213133986829,41.36303277292737,798.803840166948,-4.548789436240109,159317.84741736614,10.5,10500159317.847418,47.655,-122.3035,60.0,4.75
2026-02-06T21:27:53+00:00,SAT-48693,317.513777148577,41.706051702056925,794.2672454074535,-4.513359131940023,158076.92829073852,10.5,10500158076.928291,47.655,-122.3035,60.0,4.766666666666667
2026-02-06T21:27:54+00:00,SAT-48693,317.8210630012097,42.051827480535415,789.7659859685026,-4.47731429118807,156814.48549807988,10.5,10500156814.485498,47.655,-122.3035,60.0,4.783333333333333
2026-02-06T21:27:55+00:00,SAT-48693,318.13519966265426,42.40034582337165,785.30067473906,-4.44064584751015,155530.20149311618,10.5,10500155530.201492,47.655,-122.3035,60.0,4.8
2026-02-06T21:27:56+00:00,SAT-48693,318.45640315365875,42.751589413612336,780.8719336502577,-4.40334474625628,154223.7591437038,10.5,10500154223.759144,47.655,-122.3035,60.0,4.816666666666666
2026-02-06T21:27:57+00:00,SAT-48693,318.78489771759007,43.10553771390682,776.4803936636047,-4.3654020063613626,152894.84389495317,10.5,10500152894.843895,47.655,-122.3035,60.0,4.833333333333333
2026-02-06T21:27:58+00:00,SAT-48693,319.1209161549041,43.462166772799264,772.1266946975968,-4.3268087026431274,151543.14314922775,10.5,10500151543.143148,47.655,-122.3035,60.0,4.85
2026-02-06T21:27:59+00:00,SAT-48693,319.464700166379,43.821449019134896,767.8114855719858,-4.287555943431192,150168.3454826189,10.5,10500150168.345482,47.655,-122.3035,60.0,4.866666666666666
2026-02-06T21:28:00+00:00,SAT-48693,319.81650070394784,44.18335304347776,763.5354239743564,-4.2476349780395255,148770.14440908658,10.5,10500148770.14441,47.655,-122.3035,60.0,4.883333333333334
2026-02-06T21:28:01+00:00,SAT-48693,320.17657833958,44.5478433769849,759.299176319519,-4.207037097346984,147348.2348983687,10.5,10500147348.234898,47.655,-122.3035,60.0,4.9
2026-02-06T21:28:02+00:00,SAT-48693,320.54520363443896,44.91488025001668,755.1034177080589,-4.1657537646466105,145902.31795887745,10.5,10500145902.317959,47.655,-122.3035,60.0,4.916666666666667
2026-02-06T21:28:03+00:00,SAT-48693,320.92265752734346,45.2844193494961,750.9488317543813,-4.123776540493915,144432.0980055679,10.5,10500144432.098005,47.655,-122.3035,60.0,4.933333333333334
2026-02-06T21:28:04+00:00,SAT-48693,321.3092317236629,45.65641155701316,746.8361104897114,-4.081097138659323,142937.28481962974,10.5,10500142937.28482,47.655,-122.3035,60.0,4.95
2026-02-06T21:28:05+00:00,SAT-48693,321.7052290950912,46.03080267841899,742.7659542092894,-4.037707475051578,141417.59526199146,10.5,10500141417.595263,47.655,-122.3035,60.0,4.966666666666667
2026-02-06T21:28:06+00:00,SAT-48693,322.11096408889983,46.40753316421941,738.7390712707746,-3.993599621158201,139872.7516426084,10.5,10500139872.751642,47.655,-122.3035,60.0,4.983333333333333
2026-02-06T21:28:07+00:00,SAT-48693,322.5267631355821,46.786537811559974,734.7561779390842,-3.9487658798249896,138302.48437458155,10.5,10500138302.484375,47.655,-122.3035,60.0,5.0
2026-02-06T21:28:08+00:00,SAT-48693,322.95296506496584,47.167745458593956,730.8179981556533,-3.9031987660312217,136706.53130082355,10.5,10500136706.531301,47.655,-122.3035,60.0,5.016666666666667
2026-02-06T21:28:09+00:00,SAT-48693,323.3899215189968,47.55107866207217,726.9252633268724,-3.85689108461906,135084.64041647146,10.5,10500135084.640417,47.655,-122.3035,60.0,5.033333333333333
2026-02-06T21:28:10+00:00,SAT-48693,323.8379973688542,47.93645336713145,723.0787120350002,-3.8098358642280394,133436.56755499303,10.5,10500133436.567554,47.655,-122.3035,60.0,5.05
2026-02-06T21:28:11+00:00,SAT-48693,324.29757111703094,48.32377855490732,719.2790898149668,-3.7620265021407486,131762.081461295,10.5,10500131762.08146,47.655,-122.3035,60.0,5.066666666666666
2026-02-06T21:28:12+00:00,SAT-48693,324.7690353052265,48.71295588864692,715.5271487867186,-3.713456635030853,130060.9592647723,10.5,10500130060.959265,47.655,-122.3035,60.0,5.083333333333333
2026-02-06T21:28:13+00:00,SAT-48693,325.2527968904332,49.10387933055584,711.8236474164692,-3.664120329239308,128332.9931435858,10.5,10500128332.993143,47.655,-122.3035,60.0,5.1
2026-02-06T21:28:14+00:00,SAT-48693,325.74927762403377,49.496434761835374,708.1693500881839,-3.6140119797497947,126577.98678635486,10.5,10500126577.986786,47.655,-122.3035,60.0,5.116666666666666
2026-02-06T21:28:15+00:00,SAT-48693,326.25891439104373,49.890499576004665,704.5650267758182,-3.5631263770202546,124795.75773288023,10.5,10500124795.757732,47.655,-122.3035,60.0,5.133333333333334
2026-02-06T21:28:16+00:00,SAT-48693,326.7821595238292,50.285942262725,701.0114526489031,-3.5114587688074472,122986.13953950167,10.5,10500122986.13954,47.655,-122.3035,60.0,5.15
2026-02-06T21:28:17+00:00,SAT-48693,327.31948108295757,50.68262198229123,697.5094076164736,-3.459004847598927,121148.98133891258,10.5,10500121148.981339,47.655,-122.3035,60.0,5.166666666666667
2026-02-06T21:28:18+00:00,SAT-48693,327.8713630857938,51.080388123050746,694.0596758835284,-3.4057607637971534,119284.14830192328,10.5,10500119284.148302,47.655,-122.3035,60.0,5.183333333333334
2026-02-06T21:28:19+00:00,SAT-48693,328.4383056750752,51.4790798447557,690.6630454943441,-3.3517232048930152,117391.52441045284,10.5,10500117391.52441,47.655,-122.3035,60.0,5.2
2026-02-06T21:28:20+00:00,SAT-48693,329.02082522740994,51.87852561633428,687.3203077968257,-3.2968893925420413,115471.01235512547,10.5,10500115471.012356,47.655,-122.3035,60.0,5.216666666666667
2026-02-06T21:28:21+00:00,SAT-48693,329.6194543754496,52.27854273979024,684.032256909774,-3.2412571014511227,113522.53419676352,10.5,10500113522.534197,47.655,-122.3035,60.0,5.233333333333333
2026-02-06T21:28:22+00:00,SAT-48693,330.23474193204726,52.678936863748596,680.7996891713185,-3.1848247205807465,111546.03350994854,10.5,10500111546.03351,47.655,-122.3035,60.0,5.25
2026-02-06T21:28:23+00:00,SAT-48693,330.8672527077188,53.07950149349978,677.6234025263078,-3.127591225529731,109541.47441581795,10.5,10500109541.474417,47.655,-122.3035,60.0,5.266666666666667
2026-02-06T21:28:24+00:00,SAT-48693,331.5175671860882,53.48001748854224,674.504195941246,-3.069556303541283,107508.8459603059,10.5,10500107508.84596,47.655,-122.3035,60.0,5.283333333333333
2026-02-06T21:28:25+00:00,SAT-48693,332.18628106743483,53.880252569223416,671.4428686945558,-3.0107202722572057,105448.15926857192,10.5,10500105448.15927,47.655,-122.3035,60.0,5.3
2026-02-06T21:28:26+00:00,SAT-48693,332.87400461554586,54.27996080933197,668.4402197478689,-2.9510841896263913,103359.4513944614,10.5,10500103359.451395,47.655,-122.3035,60.0,5.316666666666666
2026-02-06T21:28:27+00:00,SAT-48693,333.5813618223348,54.67888214236893,665.4970470077053,-2.8906498280053143,101242.78441339509,10.5,10500101242.784414,47.655,-122.3035,60.0,5.333333333333333
2026-02-06T21:28:28+00:00,SAT-48693,334.30898933392103,55.07674186811337,662.6141466129793,-2.829419731571483,99098.24743323121,10.5,10500099098.247433,47.655,-122.3035,60.0,5.35
2026-02-06T21:28:29+00:00,SAT-48693,335.0575351264003,55.47325017513452,659.7923121652483,-2.7673972426493574,96925.95751631034,10.5,10500096925.957516,47.655,-122.3035,60.0,5.366666666666666
2026-02-06T21:28:30+00:00,SAT-48693,335.8276568933126,55.86810168091744,657.0323339327056,-2.7045865170427,94726.06021645931,10.5,10500094726.060217,47.655,-122.3035,60.0,5.383333333333334
2026-02-06T21:28:31+00:00,SAT-48693,336.6200201068072,56.26097499446404,654.3349980388822,-2.640992546432332,92498.73036345525,10.5,10500092498.730364,47.655,-122.3035,60.0,5.4
2026-02-06T21:28:32+00:00,SAT-48693,337.4352957172843,56.651532309678046,651.7010856290096,-2.5766211894873123,90244.17315267076,10.5,10500090244.173153,47.655,-122.3035,60.0,5.416666666666667
2026-02-06T21:28:33+00:00,SAT-48693,338.27415745625365,57.03941903932554,649.1313720053579,-2.5114791932410436,87962.62489375552,10.5,10500087962.624893,47.655,-122.3035,60.0,5.433333333333334
2026-02-06T21:28:34+00:00,SAT-48693,339.13727870000935,57.42426349783302,646.6266257412497,-2.44557420563566,85654.35344999384,10.5,10500085654.35345,47.655,-122.3035,60.0,5.45
2026-02-06T21:28:35+00:00,SAT-48693,340.02532885097224,57.805676642402545,644.1876077825698,-2.3789148049047557,83319.65926741205,10.5,10500083319.659267,47.655,-122.3035,60.0,5.466666666666667
2026-02-06T21:28:36+00:00,SAT-48693,340.9389692020293,58.18325188710715,641.8150705199668,-2.3115105188925917,80958.87605141893,10.5,10500080958.87605,47.655,-122.3035,60.0,5.483333333333333
2026-02-06T21:28:37+00:00,SAT-48693,341.8788482434007,58.55656500202639,639.509756841787,-2.243371817744632,78572.37051079728,10.5,10500078572.37051,47.655,-122.3035,60.0,5.5
2026-02-06T21:28:38+00:00,SAT-48693,342.84559636383716,58.925174107894094,637.2723991943005,-2.174510165184242,76160.54415363091,10.5,10500076160.544153,47.655,-122.3035,60.0,5.516666666666667
2026-02-06T21:28:39+00:00,SAT-48693,343.8398199401382,59.2886197918684,635.1037185907868,-2.1049379912885064,73723.83233379846,10.5,10500073723.832335,47.655,-122.3035,60.0,5.533333333333333
2026-02-06T21:28:40+00:00,SAT-48693,344.86209475624855,59.646425349209814,633.0044236477713,-2.0346687130199226,71262.70497008029,10.5,10500071262.70497,47.655,-122.3035,60.0,5.55
2026-02-06T21:28:41+00:00,SAT-48693,345.91295875565237,59.99809717709409,630.9752096007866,-1.9637167648294909,68777.6676180081,10.5,10500068777.667618,47.655,-122.3035,60.0,5.566666666666666
2026-02-06T21:28:42+00:00,SAT-48693,346.99290412997976,60.343125342234146,629.0167572896108,-1.8920975634593173,66269.2602371032,10.5,10500066269.260237,47.655,-122.3035,60.0,5.583333333333333
2026-02-06T21:28:43+00:00,SAT-48693,348.102368720595,60.68098433133849,627.1297321786095,-1.8198275249696294,63738.057787234626,10.5,10500063738.057787,47.655,-122.3035,60.0,5.6
2026-02-06T21:28:44+00:00,SAT-48693,349.2417267859262,61.01113401396247,625.3147833600982,-1.7469240827505934,61184.67085946915,10.5,10500061184.67086,47.655,-122.3035,60.0,5.616666666666666
2026-02-06T21:28:45+00:00,SAT-48693,350.4112791898473,61.333020838890064,623.5725425397379,-1.6734056367290493,58609.74389707635,10.5,10500058609.743896,47.655,-122.3035,60.0,5.633333333333334
2026-02-06T21:28:46+00:00,SAT-48693,351.61124304077657,61.646079271474896,621.9036230725908,-1.599291581914456,56013.95619532826,10.5,10500056013.956196,47.655,-122.3035,60.0,5.65
2026-02-06T21:28:47+00:00,SAT-48693,352.84174093456556,61.94973350474642,620.3086189707055,-1.5246022855863004,53398.021102506034,10.5,10500053398.021103,47.655,-122.3035,60.0,5.666666666666667
2026-02-06T21:28:48+00:00,SAT-48693,354.10278990519856,62.24339945138246,618.7881039334517,-1.4493590612029867,50762.685106078825,10.5,10500050762.685106,47.655,-122.3035,60.0,5.683333333333334
2026-02-06T21:28:49+00:00,SAT-48693,355.3942902450316,62.526487028773424,617.3426304038802,-1.3735841620870775,48108.72761153422,10.5,10500048108.727612,47.655,-122.3035,60.0,5.7
2026-02-06T21:28:50+00:00,SAT-48693,356.7160144161072,62.79840274973227,615.9727286313771,-1.297300758560612,45436.96014156042,10.5,10500045436.960142,47.655,-122.3035,60.0,5.716666666666667
2026-02-06T21:28:51+00:00,SAT-48693,358.06759627938925,63.058552619153964,614.6789057571225,-1.220532894989358,42748.22483155416,10.5,10500042748.22483,47.655,-122.3035,60.0,5.733333333333333
2026-02-06T21:28:52+00:00,SAT-48693,359.4485208940295,63.30634532931707,613.4616449423912,-1.1433054936358769,40043.39456457143,10.5,10500040043.394564,47.655,-122.3035,60.0,5.75
2026-02-06T21:28:53+00:00,SAT-48693,0.8581152407074301,63.541195752255994,612.3214044930074,-1.0656442796789416,37323.370345190226,10.5,10500037323.370346,47.655,-122.3035,60.0,5.766666666666667
2026-02-06T21:28:54+00:00,SAT-48693,2.2955401099532344,63.76252869358968,611.2586170585835,-0.9875757869789062,34589.08150143829,10.5,10500034589.081501,47.655,-122.3035,60.0,5.783333333333333
2026-02-06T21:28:55+00:00,SAT-48693,3.7597835929803263,63.96978289473003,610.273688826004,-0.9091272845048922,31841.483107961874,10.5,10500031841.483109,47.655,-122.3035,60.0,5.8
2026-02-06T21:28:56+00:00,SAT-48693,5.249656423781681,64.16241522755328,609.3669987862893,-0.8303267622910233,29081.55549415371,10.5,10500029081.555494,47.655,-122.3035,60.0,5.816666666666666
2026-02-06T21:28:57+00:00,SAT-48693,6.763789592482553,64.33990504357517,608.5388980154627,-0.7512028612158271,26310.30178473064,10.5,10500026310.301785,47.655,-122.3035,60.0,5.833333333333333
2026-02-06T21:28:58+00:00,SAT-48693,8.300634454981543,64.50175860535089,607.7897090254518,-0.6717848472842827,23528.746998982104,10.5,10500023528.747,47.655,-122.3035,60.0,5.85
2026-02-06T21:28:59+00:00,SAT-48693,9.858465684575542,64.64751353935253,607.1197251406367,-0.5921025432369399,20737.93565543223,10.5,10500020737.935656,47.655,-122.3035,60.0,5.866666666666666
2026-02-06T21:29:00+00:00,SAT-48693,11.435387194942463,64.77674322287365,606.5292099426081,-0.5121862855441086,17938.93026559441,10.5,10500017938.930265,47.655,-122.3035,60.0,5.883333333333334
2026-02-06T21:29:01+00:00,SAT-48693,13.029341212271897,64.88906102569723,606.0183967578138,-0.43206686688097135,15132.80931920642,10.5,10500015132.809319,47.655,-122.3035,60.0,5.9
2026-02-06T21:29:02+00:00,SAT-48693,14.638120509116511,64.9841243148894,605.5874882025777,-0.35177547514680163,12320.665148425505,10.5,10500012320.665148,47.655,-122.3035,60.0,5.916666666666667
2026-02-06T21:29:03+00:00,SAT-48693,16.259383715586836,65.06163813259272,605.2366557889349,-0.27134363871254225,9503.60201016696,10.5,10500009503.60201,47.655,-122.3035,60.0,5.933333333333334
2026-02-06T21:29:04+00:00,SAT-48693,17.890673551111718,65.12135846135035,604.966039585072,-0.1908031620913637,6682.733833014968,10.5,10500006682.733833,47.655,-122.3035,60.0,5.95
2026-02-06T21:29:05+00:00,SAT-48693,19.52943765378753,65.16309499407446,604.7757479399276,-0.11018606656563534,3859.1821377279985,10.5,10500003859.182138,47.655,-122.3035,60.0,5.966666666666667
2026-02-06T21:29:06+00:00,SAT-48693,21.173051630234387,65.18671333855185,604.6658572670007,-0.029524524745244907,1034.073745194322,10.5,10500001034.073746,47.655,-122.3035,60.0,5.983333333333333
2026-02-06T21:29:07+00:00,SAT-48693,22.818843821362837,65.19213659679501,604.6364118934318,0.051149202479223915,-1791.4614317343871,10.5,10499998208.538568,47.655,-122.3035,60.0,6.0
2026-02-06T21:29:08+00:00,SAT-48693,24.46412118206118,65.17934627704503,604.6874239719576,0.13180282987091943,-4616.292627497167,10.5,10499995383.707373,47.655,-122.3035,60.0,6.016666666666667
2026-02-06T21:29:09+00:00,SAT-48693,26.106195724198134,65.14838251322342,604.8188734566306,0.2124041125217532,-7439.290489016934,10.5,10499992560.70951,47.655,-122.3035,60.0,6.033333333333333
2026-02-06T21:29:10+00:00,SAT-48693,27.74241080733536,65.09934358564533,605.0307081430384,0.29292091020763406,-10259.329329693002,10.5,10499989740.67067,47.655,-122.3035,60.0,6.05
2026-02-06T21:29:11+00:00,SAT-48693,29.370166676708877,65.0323847563332,605.3228437727089,0.3733212507649979,-13075.28934911524,10.5,10499986924.710651,47.655,-122.3035,60.0,6.066666666666666
2026-02-06T21:29:12+00:00,SAT-48693,30.986944631317,64.94771645099765,605.6951642007191,0.45357339350202347,-15886.058853993072,10.5,10499984113.941147,47.655,-122.3035,60.0,6.083333333333333
2026-02-06T21:29:13+00:00,SAT-48693,32.59032928007929,64.84560183655711,606.1475216265461,0.5336458898480547,-18690.536382354803,10.5,10499981309.463617,47.655,-122.3035,60.0,6.1
2026-02-06T21:29:14+00:00,SAT-48693,34.17802842201652,64.72635385837226,606.6797368854066,0.6135076484533769,-21487.632983617143,10.5,10499978512.367016,47.655,-122.3035,60.0,6.116666666666666
2026-02-06T21:29:15+00:00,SAT-48693,35.74789020032638,64.59033181138406,607.2915998045183,0.6931279824846563,-24276.273875071576,10.5,10499975723.726126,47.655,-122.3035,60.0,6.133333333333334
2026-02-06T21:29:16+00:00,SAT-48693,37.29791723943016,64.43793753255946,607.9828696065339,0.772476683473085,-27055.40102835873,10.5,10499972944.598972,47.655,-122.3035,60.0,6.15
2026-02-06T21:29:17+00:00,SAT-48693,38.82627769265753,64.26961129694564,608.7532753866202,0.8515240634474491,-29823.974645146733,10.5,10499970176.025354,47.655,-122.3035,60.0,6.166666666666667
2026-02-06T21:29:18+00:00,SAT-48693,40.331313095597395,64.085827513746,609.6025166315637,0.9302410093335954,-32580.97506243053,10.5,10499967419.024937,47.655,-122.3035,60.0,6.183333333333334
2026-02-06T21:29:19+00:00,SAT-48693,41.81154313513893,63.88709030704409,610.5302637931247,1.0085990388411954,-35325.404709922856,10.5,10499964674.59529,47.655,-122.3035,60.0,6.2
2026-02-06T21:29:20+00:00,SAT-48693,43.26566749167623,63.67392906344543,611.5361589171293,1.086570345848535,-38056.28969962152,10.5,10499961943.7103,47.655,-122.3035,60.0,6.216666666666667
2026-02-06T21:29:21+00:00,SAT-48693,44.69256496864225,63.44689402437047,612.6198163178275,1.1641278346224764,-40772.68102433719,10.5,10499959227.318975,47.655,-122.3035,60.0,6.233333333333333
2026-02-06T21:29:22+00:00,SAT-48693,46.09129018583273,63.206551991911816,613.7808232863748,1.2412451802403246,-43473.65667392276,10.5,10499956526.343327,47.655,-122.3035,60.0,6.25
2026-02-06T21:29:23+00:00,SAT-48693,47.46106819239301,62.95348219949631,615.0187408595789,1.3178968486380802,-46158.322337448,10.5,10499953841.677662,47.655,-122.3035,60.0,6.266666666666667
2026-02-06T21:29:24+00:00,SAT-48693,48.801287291231844,62.688272402052824,616.3331046086354,1.394058140985269,-48825.81295739376,10.5,10499951174.187042,47.655,-122.3035,60.0,6.283333333333333
2026-02-06T21:29:25+00:00,SAT-48693,50.111490453660124,62.41151521636937,617.7234254721247,1.4697052331180929,-51475.2941107677,10.5,10499948524.705889,47.655,-122.3035,60.0,6.3
2026-02-06T21:29:26+00:00,SAT-48693,51.39136565237036,62.12380473849389,619.1891906283321,1.5448151782302013,-54105.96210334655,10.5,10499945894.037897,47.655,-122.3035,60.0,6.316666666666666
2026-02-06T21:29:27+00:00,SAT-48693,52.640735401543985,61.825733461747504,620.729864370254,1.6193659625939059,-56717.04592126868,10.5,10499943282.954079,47.655,-122.3035,60.0,6.333333333333333
2026-02-06T21:29:28+00:00,SAT-48693,53.85954584299501,61.51788949278075,622.3448890361747,1.6933365078040967,-59307.80730962557,10.5,10499940692.19269,47.655,-122.3035,60.0,6.35
2026-02-06T21:29:29+00:00,SAT-48693,55.047855592473695,61.20085407688129,624.0336859424818,1.7667066894027208,-61877.54142476982,10.5,10499938122.458574,47.655,-122.3035,60.0,6.366666666666666
2026-02-06T21:29:30+00:00,SAT-48693,56.20582458821979,60.8751994236551,625.7956563350556,1.8394573651133086,-64425.57782320776,10.5,10499935574.422176,47.655,-122.3035,60.0,6.383333333333334
2026-02-06T21:29:31+00:00,SAT-48693,57.3337031368907,60.54148682087669,627.6301823688184,1.9115703721099324,-66951.28036594666,10.5,10499933048.719633,47.655,-122.3035,60.0,6.4
2026-02-06T21:29:32+00:00,SAT-48693,58.431821291019894,60.2002650279538,629.5366280845574,1.9830285434480748,-69454.04779397347,10.5,10499930545.952206,47.655,-122.3035,60.0,6.416666666666667
2026-02-06T21:29:33+00:00,SAT-48693,59.500578693897836,59.8520689281867,631.5143404021384,2.0538157033723645,-71933.3135639117,10.5,10499928066.686436,47.655,-122.3035,60.0,6.433333333333334
2026-02-06T21:29:34+00:00,SAT-48693,60.54043497064139,59.49741842453723,633.5626501090366,2.12391668710424,-74388.54654106917,10.5,10499925611.453459,47.655,-122.3035,60.0,6.45
2026-02-06T21:29:35+00:00,SAT-48693,61.55190074280417,59.13681755436171,635.6808728686032,2.19331732185308,-76819.25033436745,10.5,10499923180.749666,47.655,-122.3035,60.0,6.466666666666667
2026-02-06T21:29:36+00:00,SAT-48693,62.53552928755765,58.77075380923113,637.8683102093942,2.2620044363319836,-79224.9636296248,10.5,10499920775.036371,47.655,-122.3035,60.0,6.483333333333333
2026-02-06T21:29:37+00:00,SAT-48693,63.491908876434685,58.399697634228495,640.124250523989,2.329965834077372,-81605.25925509576,10.5,10499918394.740746,47.655,-122.3035,60.0,6.5
2026-02-06T21:29:38+00:00,SAT-48693,64.42165578191872,58.02410209271693,642.4479700412004,2.397190312262405,-83959.74484039638,10.5,10499916040.25516,47.655,-122.3035,60.0,6.516666666666667
2026-02-06T21:29:39+00:00,SAT-48693,65.32540796137758,57.644402669798225,644.8387338170479,2.46366764143412,-86288.06210681345,10.5,10499913711.937893,47.655,-122.3035,60.0,6.533333333333333
2026-02-06T21:29:40+00:00,SAT-48693,66.20381938131929,57.26101720284402,647.2957967055215,2.5293885324815686,-88589.8857103886,10.5,10499911410.11429,47.655,-122.3035,60.0,6.55
2026-02-06T21:29:41+00:00,SAT-48693,67.05755495146391,56.87434592392919,649.8184042964031,2.5943446389066676,-90864.9233214533,10.5,10499909135.07668,47.655,-122.3035,60.0,6.566666666666666
2026-02-06T21:29:42+00:00,SAT-48693,67.88728604822977,56.484771592906256,652.4057938553524,2.658528538338339,-93112.91497717584,10.5,10499906887.085022,47.655,-122.3035,60.0,6.583333333333333
2026-02-06T21:29:43+00:00,SAT-48693,68.6936865819811,56.09265971019223,655.0571952455564,2.7219337141543947,-95333.6324378819,10.5,10499904666.367561,47.655,-122.3035,60.0,6.6
2026-02-06T21:29:44+00:00,SAT-48693,69.47742956936143,55.69835879633349,657.77183183105,2.7845545324595635,-97526.8783807277,10.5,10499902473.12162,47.655,-122.3035,60.0,6.616666666666666
2026-02-06T21:29:45+00:00,SAT-48693,70.23918416850927,55.30220072736358,660.5489213570766,2.84638618926011,-99692.4845495318,10.5,10499900307.51545,47.655,-122.3035,60.0,6.633333333333334
2026-02-06T21:29:46+00:00,SAT-48693,70.97961313090528,54.90450111970343,663.3876767777646,2.9074247573805247,-101830.31339799585,10.5,10499898169.686602,47.655,-122.3035,60.0,6.65
2026-02-06T21:29:47+00:00,SAT-48693,71.69937065556418,54.5055597413238,666.2873071305951,2.9676671056786867,-103940.25526027814,10.5,10499896059.74474,47.655,-122.3035,60.0,6.666666666666667
2026-02-06T21:29:48+00:00,SAT-48693,72.39910057416482,54.10566095938058,669.2470183303014,3.027110860337689,-106022.2269952693,10.5,10499893977.773005,47.655,-122.3035,60.0,6.683333333333334
2026-02-06T21:29:49+00:00,SAT-48693,73.07943484482095,53.70507421078998,672.266013924164,3.0857544331665636,-108076.1729778036,10.5,10499891923.827023,47.655,-122.3035,60.0,6.7
2026-02-06T21:29:50+00:00,SAT-48693,73.74099233483328,53.30405448077153,675.3434958755292,3.1435969749281703,-110102.06346400412,10.5,10499889897.936537,47.655,-122.3035,60.0,6.716666666666667
2026-02-06T21:29:51+00:00,SAT-48693,74.3843778430871,52.902842794485586,678.478665300784,3.200638294627168,-112099.89176440611,10.5,10499887900.108236,47.655,-122.3035,60.0,6.733333333333333
2026-02-06T21:29:52+00:00,SAT-48693,75.01018132835637,52.501666721128494,681.6707231258314,3.25687892438325,-114069.67651609208,10.5,10499885930.323484,47.655,-122.3035,60.0,6.75
2026-02-06T21:29:53+00:00,SAT-48693,75.61897734568085,52.1007408680486,684.9188708072678,3.3123200063455083,-116011.45772195455,10.5,10499883988.542278,47.655,-122.3035,60.0,6.766666666666667
2026-02-06T21:29:54+00:00,SAT-48693,76.21132463127059,51.70026738441134,688.2223109407763,3.3669633237516563,-117925.2978385213,10.5,10499882074.702162,47.655,-122.3035,60.0,6.783333333333333
2026-02-06T21:29:55+00:00,SAT-48693,76.78776584237708,51.3004364534275,691.580247900498,3.420811225845794,-119811.27914625804,10.5,10499880188.720854,47.655,-122.3035,60.0,6.8
2026-02-06T21:29:56+00:00,SAT-48693,77.34882741232423,50.9014267840701,694.9918884035192,3.473866650153428,-121669.50452973368,10.5,10499878330.49547,47.655,-122.3035,60.0,6.816666666666666
2026-02-06T21:29:57+00:00,SAT-48693,77.89501952031647,50.50340608868549,698.4564420965771,3.5261330139456795,-123500.09367623796,10.5,10499876499.906324,47.655,-122.3035,60.0,6.833333333333333
2026-02-06T21:29:58+00:00,SAT-48693,78.42683613894944,50.106531560350575,701.973122034519,3.5776143132845797,-125303.18654476653,10.5,10499874696.813456,47.655,-122.3035,60.0,6.85
2026-02-06T21:29:59+00:00,SAT-48693,78.94475517726075,49.71095032490611,705.5411452575402,3.628314942500613,-127078.93704336097,10.5,10499872921.062956,47.655,-122.3035,60.0,6.866666666666666
2026-02-06T21:30:00+00:00,SAT-48693,79.44923866510781,49.31679989862887,709.1597331883877,3.678239789048129,-128827.51635134651,10.5,10499871172.483648,47.655,-122.3035,60.0,6.883333333333334
2026-02-06T21:30:01+00:00,SAT-48693,79.94073300851687,48.924208619637376,712.8281121241582,3.7273941548188145,-130549.11016339695,10.5,10499869450.889837,47.655,-122.3035,60.0,6.9
2026-02-06T21:30:02+00:00,SAT-48693,80.41966928073283,48.533296072231344,716.5455136496283,3.7757837161214223,-132243.91728785564,10.5,10499867756.082712,47.655,-122.3035,60.0,6.916666666666667
2026-02-06T21:30:03+00:00,SAT-48693,80.88646354692668,48.14417349920989,720.3111750106652,3.8234145463455764,-133912.1504405176,10.5,10499866087.84956,47.655,-122.3035,60.0,6.933333333333334
2026-02-06T21:30:04+00:00,SAT-48693,81.34151722262294,47.756944195526486,724.1243395102432,3.870293028478474,-135554.03318059447,10.5,10499864445.96682,47.655,-122.3035,60.0,6.95
2026-02-06T21:30:05+00:00,SAT-48693,81.78521744603465,47.371703894700296,727.9842568172126,3.9164258786728148,-137169.80073616313,10.5,10499862830.199265,47.655,-122.3035,60.0,6.966666666666667
2026-02-06T21:30:06+00:00,SAT-48693,82.21793747221527,46.98854113650129,731.8901832985715,3.9618201292072066,-138759.69940736692,10.5,10499861240.300592,47.655,-122.3035,60.0,6.983333333333333
2026-02-06T21:30:07+00:00,SAT-48693,82.64003707846474,46.60753762047965,735.8413823347436,4.0064830332826284,-140323.98323198513,10.5,10499859676.016768,47.655,-122.3035,60.0,7.0
2026-02-06T21:30:08+00:00,SAT-48693,83.05186296975211,46.22876855293794,739.8371245399085,4.050422142001848,-141862.91668157774,10.5,10499858137.083319,47.655,-122.3035,60.0,7.016666666666667
2026-02-06T21:30:09+00:00,SAT-48693,83.45374919781403,45.8523029709146,743.8766880591057,4.09364521154688,-143376.77141044766,10.5,10499856623.22859,47.655,-122.3035,60.0,7.033333333333333
2026-02-06T21:30:10+00:00,SAT-48693,83.84601757383946,45.478204059977784,747.959358772764,4.1361601822193785,-144865.82552154624,10.5,10499855134.174479,47.655,-122.3035,60.0,7.05
2026-02-06T21:30:11+00:00,SAT-48693,84.22897807974506,45.106529458967756,752.0844304803247,4.177975229805141,-146330.36536547553,10.5,10499853669.634634,47.655,-122.3035,60.0,7.066666666666666
2026-02-06T21:30:12+00:00,SAT-48693,84.60292928209654,44.73733154574024,756.2512051350993,4.219098642495846,-147770.68122976721,10.5,10499852229.31877,47.655,-122.3035,60.0,7.083333333333333
2026-02-06T21:30:13+00:00,SAT-48693,84.96815873121791,44.37065772005905,760.4589929563704,4.259538899304705,-149187.0700853302,10.5,10499850812.929914,47.655,-122.3035,60.0,7.1
2026-02-06T21:30:14+00:00,SAT-48693,85.32494336198931,44.00655066589997,764.7071126197021,4.2993045684265745,-150579.83202659164,10.5,10499849420.167973,47.655,-122.3035,60.0,7.116666666666666
2026-02-06T21:30:15+00:00,SAT-48693,85.67354987954782,43.645048609578495,768.9948913458849,4.338404391765696,-151949.27323201645,10.5,10499848050.726768,47.655,-122.3035,60.0,7.133333333333334
2026-02-06T21:30:16+00:00,SAT-48693,86.01423514404779,43.28618555801014,773.3216650741759,4.3768471276701515,-153295.7004560021,10.5,10499846704.299543,47.655,-122.3035,60.0,7.15
2026-02-06T21:30:17+00:00,SAT-48693,86.34724653510284,42.929991538025384,777.6867784787021,4.414641697090766,-154619.42614798216,10.5,10499845380.573853,47.655,-122.3035,60.0,7.166666666666667
2026-02-06T21:30:18+00:00,SAT-48693,86.67282231806301,42.57649281173725,782.0895851306234,4.451797013550613,-155920.7624972388,10.5,10499844079.237503,47.655,-122.3035,60.0,7.183333333333334
2026-02-06T21:30:19+00:00,SAT-48693,86.99119198856066,42.22571209458356,786.5294474907287,4.488322090989624,-157200.02521007732,10.5,10499842799.97479,47.655,-122.3035,60.0,7.2
2026-02-06T21:30:20+00:00,SAT-48693,87.3025766148404,41.87766875369539,791.0057370095808,4.524225982568696,-158457.53136648724,10.5,10499841542.468634,47.655,-122.3035,60.0,7.216666666666667
2026-02-06T21:30:21+00:00,SAT-48693,87.60718916573713,41.532379000868346,795.5178341666335,4.559517754508964,-159693.59850388273,10.5,10499840306.401497,47.655,-122.3035,60.0,7.233333333333333
2026-02-06T21:30:22+00:00,SAT-48693,87.90523482666318,41.18985607751438,800.065128483256,4.594206487172266,-160908.54465494523,10.5,10499839091.455345,47.655,-122.3035,60.0,7.25
2026-02-06T21:30:23+00:00,SAT-48693,88.19691130570575,40.85011042988328,804.6470185368368,4.628301263412876,-162102.68793965192,10.5,10499837897.31206,47.655,-122.3035,60.0,7.266666666666667
2026-02-06T21:30:24+00:00,SAT-48693,88.48240912854969,40.51314987596461,809.2629119632678,4.661811179004273,-163276.34693046502,10.5,10499836723.65307,47.655,-122.3035,60.0,7.283333333333333
2026-02-06T21:30:25+00:00,SAT-48693,88.7619119240239,40.17897976288045,813.9122254698314,4.694745299623156,-164429.83914573042,10.5,10499835570.160854,47.655,-122.3035,60.0,7.3
2026-02-06T21:30:26+00:00,SAT-48693,89.0355966968558,39.84760311904287,818.594384805181,4.727112678296383,-165563.48166074287,10.5,10499834436.51834,47.655,-122.3035,60.0,7.316666666666666
2026-02-06T21:30:27+00:00,SAT-48693,89.3036340916648,39.51902079699514,823.3088247467283,4.758922298393576,-166677.58911110615,10.5,10499833322.410889,47.655,-122.3035,60.0,7.333333333333333
2026-02-06T21:30:28+00:00,SAT-48693,89.56618864413332,39.19323161256145,828.0549890311715,4.790183168435769,-167772.47701333294,10.5,10499832227.522987,47.655,-122.3035,60.0,7.35
2026-02-06T21:30:29+00:00,SAT-48693,89.82341902771807,38.87023247011129,832.8323303795779,4.820904195377804,-168848.45732665813,10.5,10499831151.542673,47.655,-122.3035,60.0,7.366666666666666
2026-02-06T21:30:30+00:00,SAT-48693,90.0754782843499,38.5500184896166,837.6403103960923,4.851094238996733,-169905.8403579509,10.5,10499830094.159641,47.655,-122.3035,60.0,7.383333333333334
2026-02-06T21:30:31+00:00,SAT-48693,90.32251404911797,38.23258312319718,842.4783995208855,4.880762123313679,-170944.93516175656,10.5,10499829055.064838,47.655,-122.3035,60.0,7.4
2026-02-06T21:30:32+00:00,SAT-48693,90.56466876660689,37.91791826464728,847.3460769944917,4.909916567370748,-171966.0471158112,10.5,10499828033.952885,47.655,-122.3035,60.0,7.416666666666667
2026-02-06T21:30:33+00:00,SAT-48693,90.80207989542163,37.60601435742967,852.2428307531138,4.938566272640378,-172969.4809824868,10.5,10499827030.519018,47.655,-122.3035,60.0,7.433333333333334
2026-02-06T21:30:34+00:00,SAT-48693,91.0348801086127,37.296860491266735,857.1681574110995,4.9667197873125,-173955.53615555348,10.5,10499826044.463844,47.655,-122.3035,60.0,7.45
2026-02-06T21:30:35+00:00,SAT-48693,91.2631974798728,36.99044450186296,862.1215621080695,4.994385648958419,-174924.5116568723,10.5,10499825075.488342,47.655,-122.3035,60.0,7.466666666666667
2026-02-06T21:30:36+00:00,SAT-48693,91.48715566863949,36.68675305638913,867.1025584983282,5.021572271950369,-175876.70219335164,10.5,10499824123.297806,47.655,-122.3035,60.0,7.483333333333333
2026-02-06T21:30:37+00:00,SAT-48693,91.70687409258468,36.38577174107624,872.1106686279945,5.048287997724184,-176812.39991735862,10.5,10499823187.600082,47.655,-122.3035,60.0,7.5
2026-02-06T21:30:38+00:00,SAT-48693,91.92246809529982,36.08748514094553,877.1454228622608,5.074541035448453,-177731.89234870198,10.5,10499822268.10765,47.655,-122.3035,60.0,7.516666666666667
2026-02-06T21:30:39+00:00,SAT-48693,92.13404910466261,35.7918769185605,882.2063597534794,5.100339572632582,-178635.46624859428,10.5,10499821364.53375,47.655,-122.3035,60.0,7.533333333333333
2026-02-06T21:30:40+00:00,SAT-48693,92.34172478902383,35.49892988201325,887.2930260195651,5.125691623984651,-179523.40232601462,10.5,10499820476.597673,47.655,-122.3035,60.0,7.55
2026-02-06T21:30:41+00:00,SAT-48693,92.54559920100337,35.20862605771314,892.4049763716512,5.150605137257579,-180395.9789448892,10.5,10499819604.021055,47.655,-122.3035,60.0,7.566666666666666
2026-02-06T21:30:42+00:00,SAT-48693,92.745772919485,34.920946753096096,897.5417734473193,5.17508796721417,-181253.47121223705,10.5,10499818746.528788,47.655,-122.3035,60.0,7.583333333333333
2026-02-06T21:30:43+00:00,SAT-48693,92.942343184548,34.635872617264525,902.7029877178553,5.199147826913359,-182096.14927200828,10.5,10499817903.850727,47.655,-122.3035,60.0,7.6
2026-02-06T21:30:44+00:00,SAT-48693,93.13540402515642,34.35338370082693,907.8881973469271,5.222792382343151,-182924.28161952988,10.5,10499817075.71838,47.655,-122.3035,60.0,7.616666666666666
2026-02-06T21:30:45+00:00,SAT-48693,93.32504638472405,34.07345950723661,913.0969881436387,5.246029114043804,-183738.13025496437,10.5,10499816261.869745,47.655,-122.3035,60.0,7.633333333333334
2026-02-06T21:30:46+00:00,SAT-48693,93.51135823678705,33.79607904853564,918.3289533775798,5.2688654531467085,-184537.95544796673,10.5,10499815462.044552,47.655,-122.3035,60.0,7.65
2026-02-06T21:30:47+00:00,SAT-48693,93.69442470034951,33.52122089074725,923.5836937295502,5.291308702574143,-185324.01297776643,10.5,10499814675.987022,47.655,-122.3035,60.0,7.666666666666667
2026-02-06T21:30:48+00:00,SAT-48693,93.87432814782373,33.248863200739166,928.860817163693,5.313366073531109,-186096.55541126602,10.5,10499813903.44459,47.655,-122.3035,60.0,7.683333333333334
2026-02-06T21:30:49+00:00,SAT-48693,94.051148309582,32.978983788504586,934.1599388360258,5.335044606540175,-186855.82933734724,10.5,10499813144.170662,47.655,-122.3035,60.0,7.7
2026-02-06T21:30:50+00:00,SAT-48693,94.22496237172827,32.71156015091963,939.4806809242119,5.356351309048207,-187602.08018644075,10.5,10499812397.919813,47.655,-122.3035,60.0,7.716666666666667
2026-02-06T21:30:51+00:00,SAT-48693,94.39584507399574,32.44656950611605,944.822672594577,5.377293022274816,-188335.5475669957,10.5,10499811664.452433,47.655,-122.3035,60.0,7.733333333333333
2026-02-06T21:30:52+00:00,SAT-48693,94.56386879949198,32.18398883234842,950.1855498363258,5.397876493988288,-189056.46781440053,10.5,10499810943.532187,47.655,-122.3035,60.0,7.75
2026-02-06T21:30:53+00:00,SAT-48693,94.729103662941,31.9237949010211,955.5689553683405,5.418108380682168,-189765.07406721608,10.5,10499810234.925932,47.655,-122.3035,60.0,7.766666666666667
2026-02-06T21:30:54+00:00,SAT-48693,94.89161759517985,31.66596430765202,960.972538548153,5.437995170416058,-190461.5935647341,10.5,10499809538.406435,47.655,-122.3035,60.0,7.783333333333333
2026-02-06T21:30:55+00:00,SAT-48693,95.0514764221316,31.410473504589707,966.3959552039605,5.4575433315625235,-191146.25285672295,10.5,10499808853.747143,47.655,-122.3035,60.0,7.8
2026-02-06T21:30:56+00:00,SAT-48693,95.20874394443001,31.15729882484923,971.8388676149922,5.476759122464304,-191819.27113681822,10.5,10499808180.728863,47.655,-122.3035,60.0,7.816666666666666
2026-02-06T21:30:57+00:00,SAT-48693,95.36348200873643,30.906416513216303,977.3009443020416,5.495648759256618,-192480.86612036946,10.5,10499807519.133879,47.655,-122.3035,60.0,7.833333333333333
2026-02-06T21:30:58+00:00,SAT-48693,95.51575058047779,30.657802747835227,982.7818599853746,5.514218339592134,-193131.2513729662,10.5,10499806868.748627,47.655,-122.3035,60.0,7.85
2026-02-06T21:30:59+00:00,SAT-48693,95.66560781162583,30.411433663882054,988.2812954665603,5.5324738345727384,-193770.63602785414,10.5,10499806229.363972,47.655,-122.3035,60.0,7.866666666666666
2026-02-06T21:31:00+00:00,SAT-48693,95.81311010546699,30.16728537610091,993.7989375022638,5.550421103621305,-194399.22530680778,10.5,10499805600.774693,47.655,-122.3035,60.0,7.883333333333334
