DopplerPredictor/satellites_20260211_204923/SAT-63437.csv

timestamp,satellite,azimuth_deg,elevation_deg,distance_km,relative_velocity_kms,doppler_shift_hz,tx_freq_ghz,rx_freq_hz,ue_lat,ue_lon,ue_alt_m,time_minutes
2026-02-06T21:24:42+00:00,SAT-63437,230.16005871750545,30.11980303576473,848.5402901663922,-5.857293430328441,205147.1922567466,10.5,10500205147.192257,47.655,-122.3035,60.0,1.5833333333333333
2026-02-06T21:24:43+00:00,SAT-63437,230.07514978876523,30.41222379808984,842.698699331444,-5.838218137771126,204479.09482298192,10.5,10500204479.094824,47.655,-122.3035,60.0,1.6
2026-02-06T21:24:44+00:00,SAT-63437,229.98847866959494,30.708225354371223,836.8761326508263,-5.818735324228266,203796.72428049138,10.5,10500203796.724281,47.655,-122.3035,60.0,1.6166666666666667
2026-02-06T21:24:45+00:00,SAT-63437,229.89999197900696,31.00786820458669,831.0729965530169,-5.798834920607137,203099.72796705557,10.5,10500203099.727966,47.655,-122.3035,60.0,1.6333333333333333
2026-02-06T21:24:46+00:00,SAT-63437,229.80963417884735,31.311213738861365,825.2897075085925,-5.7785066210743,202387.74492879387,10.5,10500202387.744928,47.655,-122.3035,60.0,1.65
2026-02-06T21:24:47+00:00,SAT-63437,229.71734746451736,31.618324230289105,819.5266922663354,-5.757739914462829,201660.40702017827,10.5,10500201660.40702,47.655,-122.3035,60.0,1.6666666666666667
2026-02-06T21:24:48+00:00,SAT-63437,229.6230716480894,31.929262827633774,813.7843880580152,-5.73652395514001,200917.33438127424,10.5,10500200917.334381,47.655,-122.3035,60.0,1.6833333333333333
2026-02-06T21:24:49+00:00,SAT-63437,229.52674403686947,32.244093539063115,808.0632429319588,-5.714847672754237,200158.13928154085,10.5,10500200158.139282,47.655,-122.3035,60.0,1.7
2026-02-06T21:24:50+00:00,SAT-63437,229.4282993019961,32.56288121938245,802.3637159771662,-5.692699697327975,199382.42349627,10.5,10500199382.423496,47.655,-122.3035,60.0,1.7166666666666666
2026-02-06T21:24:51+00:00,SAT-63437,229.32766934043076,32.88569155070341,796.6862776221343,-5.670068404547653,198589.77989282957,10.5,10500198589.779892,47.655,-122.3035,60.0,1.7333333333333334
2026-02-06T21:24:52+00:00,SAT-63437,229.22478312708554,33.21259102283934,791.0314098885098,-5.646941853278673,197779.790242175,10.5,10500197779.790241,47.655,-122.3035,60.0,1.75
2026-02-06T21:24:53+00:00,SAT-63437,229.11956655881735,33.54364690713676,785.3996067070616,-5.623307853111879,196952.0275846123,10.5,10500196952.027584,47.655,-122.3035,60.0,1.7666666666666666
2026-02-06T21:24:54+00:00,SAT-63437,229.01194228684494,33.87892723088771,779.7913741662876,-5.599153874919682,196106.0530970951,10.5,10500196106.053097,47.655,-122.3035,60.0,1.7833333333333334
2026-02-06T21:24:55+00:00,SAT-63437,228.90182954017837,34.21850074291828,774.2072308502234,-5.574467156781372,195241.41980317733,10.5,10500195241.419804,47.655,-122.3035,60.0,1.8
2026-02-06T21:24:56+00:00,SAT-63437,228.78914393490638,34.562436881584276,768.6477080706128,-5.549234604662505,194357.66909438497,10.5,10500194357.669094,47.655,-122.3035,60.0,1.8166666666666667
2026-02-06T21:24:57+00:00,SAT-63437,228.67379727316626,34.910805732642395,763.1133501981311,-5.523442777435876,193454.3302055874,10.5,10500193454.330206,47.655,-122.3035,60.0,1.8333333333333333
2026-02-06T21:24:58+00:00,SAT-63437,228.55569732892536,35.26367798135433,757.6047150085462,-5.497078038272441,192530.92551734785,10.5,10500192530.925518,47.655,-122.3035,60.0,1.85
2026-02-06T21:24:59+00:00,SAT-63437,228.43474761541614,35.62112486922104,752.1223738778978,-5.47012633189851,191586.96275452786,10.5,10500191586.962755,47.655,-122.3035,60.0,1.8666666666666667
2026-02-06T21:25:00+00:00,SAT-63437,228.31084714240038,35.98321813119189,746.6669121998177,-5.44257339810089,190621.94246414083,10.5,10500190621.942465,47.655,-122.3035,60.0,1.8833333333333333
2026-02-06T21:25:01+00:00,SAT-63437,228.1838901509523,36.350029940755505,741.238929589922,-5.414404557970939,189635.3505287143,10.5,10500189635.350529,47.655,-122.3035,60.0,1.9
2026-02-06T21:25:02+00:00,SAT-63437,228.05376583546817,36.72163283464412,735.8390403033831,-5.385604947490229,188626.6663474483,10.5,10500188626.666348,47.655,-122.3035,60.0,1.9166666666666667
2026-02-06T21:25:03+00:00,SAT-63437,227.92035803964313,37.09809964635571,730.4678734195438,-5.356159279281714,187595.35449173304,10.5,10500187595.354492,47.655,-122.3035,60.0,1.9333333333333333
2026-02-06T21:25:04+00:00,SAT-63437,227.78354493756336,37.479503416109,725.1260732641397,-5.326052018882558,186540.87087896944,10.5,10500186540.870878,47.655,-122.3035,60.0,1.95
2026-02-06T21:25:05+00:00,SAT-63437,227.6431986866378,37.86591730482727,719.8142996557247,-5.295267350860126,185462.66158580722,10.5,10500185462.661585,47.655,-122.3035,60.0,1.9666666666666666
2026-02-06T21:25:06+00:00,SAT-63437,227.49918505648773,38.25741449745301,714.5332281858854,-5.263789067888308,184360.15896312922,10.5,10500184360.158962,47.655,-122.3035,60.0,1.9833333333333334
2026-02-06T21:25:07+00:00,SAT-63437,227.35136303384243,38.65406808875374,709.283550610085,-5.231600769340241,183232.788591608,10.5,10500183232.788591,47.655,-122.3035,60.0,2.0
2026-02-06T21:25:08+00:00,SAT-63437,227.19958439201824,39.055950973728294,704.0659750404467,-5.1986856487560065,182079.9618379261,10.5,10500182079.961838,47.655,-122.3035,60.0,2.0166666666666666
2026-02-06T21:25:09+00:00,SAT-63437,227.04369323501902,39.463135711349494,698.8812263504963,-5.165026719999038,180901.08377572964,10.5,10500180901.083776,47.655,-122.3035,60.0,2.033333333333333
2026-02-06T21:25:10+00:00,SAT-63437,226.88352549963508,39.875694393884196,693.73004635436,-5.130606635049802,179695.5468039924,10.5,10500179695.546804,47.655,-122.3035,60.0,2.05
2026-02-06T21:25:11+00:00,SAT-63437,226.71890842572256,40.29369848971108,688.613194167675,-5.095407806601488,178462.73494083568,10.5,10500178462.734941,47.655,-122.3035,60.0,2.066666666666667
2026-02-06T21:25:12+00:00,SAT-63437,226.54965998129285,40.717218682158205,683.531446446237,-5.059412356199107,177202.02200714007,10.5,10500177202.022007,47.655,-122.3035,60.0,2.0833333333333335
2026-02-06T21:25:13+00:00,SAT-63437,226.37558824474382,41.14632468970198,678.485597676366,-5.022602182193177,175912.77400657078,10.5,10500175912.774006,47.655,-122.3035,60.0,2.1
2026-02-06T21:25:14+00:00,SAT-63437,226.19649073569914,41.581085076180734,673.4764603975038,-4.98495894507466,174594.34861194517,10.5,10500174594.348612,47.655,-122.3035,60.0,2.1166666666666667
2026-02-06T21:25:15+00:00,SAT-63437,226.0121536931682,42.0215670431743,668.5048654394369,-4.946464037067788,173246.0941002451,10.5,10500173246.0941,47.655,-122.3035,60.0,2.1333333333333333
2026-02-06T21:25:16+00:00,SAT-63437,225.82235129685435,42.46783620153253,663.5716621898403,-4.907098669431045,171867.35241026632,10.5,10500171867.35241,47.655,-122.3035,60.0,2.15
2026-02-06T21:25:17+00:00,SAT-63437,225.62684482157806,42.91995633105743,658.6777187747624,-4.866843861927481,170457.45877382465,10.5,10500170457.458775,47.655,-122.3035,60.0,2.1666666666666665
2026-02-06T21:25:18+00:00,SAT-63437,225.4253817224045,43.377989118542104,653.8239222496043,-4.825680465979084,169015.74252671955,10.5,10500169015.742527,47.655,-122.3035,60.0,2.183333333333333
2026-02-06T21:25:19+00:00,SAT-63437,225.21769464288212,43.84199387547885,649.0111787670106,-4.783589160259624,167541.5269543774,10.5,10500167541.526955,47.655,-122.3035,60.0,2.2
2026-02-06T21:25:20+00:00,SAT-63437,225.0035003400423,44.312027231101666,644.2404137491546,-4.740550519763748,166034.13171094304,10.5,10500166034.13171,47.655,-122.3035,60.0,2.216666666666667
2026-02-06T21:25:21+00:00,SAT-63437,224.78249851489767,44.788142805980826,639.5125719911382,-4.696545038835059,164492.87362582056,10.5,10500164492.873627,47.655,-122.3035,60.0,2.2333333333333334
2026-02-06T21:25:22+00:00,SAT-63437,224.55437054112377,45.27039086013157,634.8286177414291,-4.651553093524814,162917.06538531586,10.5,10500162917.065386,47.655,-122.3035,60.0,2.25
2026-02-06T21:25:23+00:00,SAT-63437,224.31877808566406,45.75881790704611,630.1895348198336,-4.605555090461571,161306.02074668102,10.5,10500161306.020746,47.655,-122.3035,60.0,2.2666666666666666
2026-02-06T21:25:24+00:00,SAT-63437,224.07536159982945,46.25346631050644,625.5963265870032,-4.558531370944263,159659.05117904855,10.5,10500159659.05118,47.655,-122.3035,60.0,2.283333333333333
2026-02-06T21:25:25+00:00,SAT-63437,223.82373868243386,46.75437383648076,621.0500160095869,-4.510462391507354,157975.4721875866,10.5,10500157975.472187,47.655,-122.3035,60.0,2.3
2026-02-06T21:25:26+00:00,SAT-63437,223.56350228498368,47.2615731865749,616.5516455453076,-4.461328618007971,156254.59960398235,10.5,10500156254.599604,47.655,-122.3035,60.0,2.316666666666667
2026-02-06T21:25:27+00:00,SAT-63437,223.29421876102117,47.77509147933257,612.1022771336612,-4.4111107014119915,154495.75574321457,10.5,10500154495.755743,47.655,-122.3035,60.0,2.3333333333333335
2026-02-06T21:25:28+00:00,SAT-63437,223.0154257252856,48.29494970705277,607.7029920113063,-4.35978943854132,152698.26802875695,10.5,10500152698.268028,47.655,-122.3035,60.0,2.35
2026-02-06T21:25:29+00:00,SAT-63437,222.7266297171412,48.821162140883054,603.3548905665988,-4.3073458575953305,150861.47198790096,10.5,10500150861.471989,47.655,-122.3035,60.0,2.3666666666666667
2026-02-06T21:25:30+00:00,SAT-63437,222.42730363960294,49.35373569427127,599.059092108834,-4.253761288913735,148984.71373017065,10.5,10500148984.71373,47.655,-122.3035,60.0,2.3833333333333333
2026-02-06T21:25:31+00:00,SAT-63437,222.11688395049543,49.89266923936666,594.8167345669168,-4.199017353921017,147067.34956011028,10.5,10500147067.34956,47.655,-122.3035,60.0,2.4
2026-02-06T21:25:32+00:00,SAT-63437,221.79476758687224,50.437952861328476,590.6289741990573,-4.14309617169809,145108.7532122971,10.5,10500145108.753212,47.655,-122.3035,60.0,2.4166666666666665
2026-02-06T21:25:33+00:00,SAT-63437,221.46030857516152,50.98956707318835,586.4969850964483,-4.085980221786067,143108.31104614947,10.5,10500143108.311047,47.655,-122.3035,60.0,2.433333333333333
2026-02-06T21:25:34+00:00,SAT-63437,221.11281432351265,51.547481941394786,582.4219588237715,-4.027652609581683,141065.43134119696,10.5,10500141065.431341,47.655,-122.3035,60.0,2.45
2026-02-06T21:25:35+00:00,SAT-63437,220.75154152566867,52.11165616797281,578.40510379502,-3.968096994984508,138979.54179800392,10.5,10500138979.541798,47.655,-122.3035,60.0,2.466666666666667
2026-02-06T21:25:36+00:00,SAT-63437,220.3756916659017,52.682036077982715,574.4476447204818,-3.9072977940224662,136850.09659994816,10.5,10500136850.0966,47.655,-122.3035,60.0,2.4833333333333334
2026-02-06T21:25:37+00:00,SAT-63437,219.98440605403283,53.258554541491556,570.5508218526379,-3.8452401361954918,134676.57491921517,10.5,10500134676.574919,47.655,-122.3035,60.0,2.5
2026-02-06T21:25:38+00:00,SAT-63437,219.57676036563143,53.84112978696781,566.7158902746046,-3.7819100089634854,132458.4859773777,10.5,10500132458.485977,47.655,-122.3035,60.0,2.5166666666666666
2026-02-06T21:25:39+00:00,SAT-63437,219.1517586133119,54.4296641221799,562.9441190444714,-3.7172943966744794,130195.37391124773,10.5,10500130195.37391,47.655,-122.3035,60.0,2.533333333333333
2026-02-06T21:25:40+00:00,SAT-63437,218.70832648711436,55.024042552009554,559.2367902010878,-3.651381259629416,127886.81703963636,10.5,10500127886.81704,47.655,-122.3035,60.0,2.55
2026-02-06T21:25:41+00:00,SAT-63437,218.24530401599114,55.62413125532875,555.5951977907249,-3.5841597251189055,125532.43455426923,10.5,10500125532.434555,47.655,-122.3035,60.0,2.566666666666667
2026-02-06T21:25:42+00:00,SAT-63437,217.76143745171834,56.22977593920793,552.0206467032151,-3.515620091192248,123131.88665179365,10.5,10500123131.886652,47.655,-122.3035,60.0,2.5833333333333335
2026-02-06T21:25:43+00:00,SAT-63437,217.2553703189998,56.84080002400919,548.5144515043318,-3.445754042738506,120684.88210185165,10.5,10500120684.882101,47.655,-122.3035,60.0,2.6
2026-02-06T21:25:44+00:00,SAT-63437,216.72563351501273,57.45700267585422,545.0779350526676,-3.3745546385834344,118191.17779516008,10.5,10500118191.177795,47.655,-122.3035,60.0,2.6166666666666667
2026-02-06T21:25:45+00:00,SAT-63437,216.1706343993639,58.07815662636451,541.7124271293819,-3.302016473819644,115650.58442899941,10.5,10500115650.584429,47.655,-122.3035,60.0,2.6333333333333333
2026-02-06T21:25:46+00:00,SAT-63437,215.58864475027627,58.704005784754905,538.4192629060503,-3.228135755248901,113062.96914952231,10.5,10500113062.969149,47.655,-122.3035,60.0,2.65
2026-02-06T21:25:47+00:00,SAT-63437,214.97778749946488,59.33426259932672,535.1997813372784,-3.1529104267548003,110428.25994283488,10.5,10500110428.259943,47.655,-122.3035,60.0,2.6666666666666665
2026-02-06T21:25:48+00:00,SAT-63437,214.33602213418092,59.96860514564523,532.0553234282762,-3.076340271323054,107746.44920817876,10.5,10500107746.449207,47.655,-122.3035,60.0,2.683333333333333
2026-02-06T21:25:49+00:00,SAT-63437,213.66112867139114,60.60667390118636,528.9872304006857,-2.998426956918108,105017.5953647244,10.5,10500105017.595366,47.655,-122.3035,60.0,2.7
2026-02-06T21:25:50+00:00,SAT-63437,212.95069012762153,61.248068153258764,525.996841812656,-2.919174232894713,102241.82973073488,10.5,10500102241.829731,47.655,-122.3035,60.0,2.716666666666667
2026-02-06T21:25:51+00:00,SAT-63437,212.20207337939493,61.89234202493843,523.0854934830337,-2.8385879282320463,99419.35646171754,10.5,10500099419.356462,47.655,-122.3035,60.0,2.7333333333333334
2026-02-06T21:25:52+00:00,SAT-63437,211.41240841895552,62.539000025800526,520.2545154173122,-2.756676135958664,96550.45900976592,10.5,10500096550.45901,47.655,-122.3035,60.0,2.75
2026-02-06T21:25:53+00:00,SAT-63437,210.57856596729118,63.18749210913138,517.5052295496527,-2.6734491961577596,93635.49952833196,10.5,10500093635.499529,47.655,-122.3035,60.0,2.7666666666666666
2026-02-06T21:25:54+00:00,SAT-63437,209.69713358114316,63.83720812691317,514.8389475018538,-2.5889199060382158,90674.92622980283,10.5,10500090674.92623,47.655,-122.3035,60.0,2.783333333333333
2026-02-06T21:25:55+00:00,SAT-63437,208.7643903723768,64.48747166569763,512.2569681328127,-2.5031034902484697,87669.27234576707,10.5,10500087669.272346,47.655,-122.3035,60.0,2.8
2026-02-06T21:25:56+00:00,SAT-63437,207.77628075296477,65.1375331341166,509.7605751175934,-2.4160177299138343,84619.16064644716,10.5,10500084619.160646,47.655,-122.3035,60.0,2.816666666666667
2026-02-06T21:25:57+00:00,SAT-63437,206.72838770568205,65.78656206409566,507.35103439780295,-2.327683018108365,81525.30538355916,10.5,10500081525.305384,47.655,-122.3035,60.0,2.8333333333333335
2026-02-06T21:25:58+00:00,SAT-63437,205.61590644449453,66.43363853540008,505.0295915766459,-2.238122393569968,78388.51347115831,10.5,10500078388.513472,47.655,-122.3035,60.0,2.85
2026-02-06T21:25:59+00:00,SAT-63437,204.4336197144773,67.07774365155716,502.7974692803524,-2.1473616220191225,75209.6873337647,10.5,10500075209.687334,47.655,-122.3035,60.0,2.8666666666666667
2026-02-06T21:26:00+00:00,SAT-63437,203.1758764737455,67.71774903192029,500.65586443850583,-2.0554291877195117,71989.82461078081,10.5,10500071989.824612,47.655,-122.3035,60.0,2.8833333333333333
2026-02-06T21:26:01+00:00,SAT-63437,201.8365764631587,68.35240527642574,498.6059455727896,-1.9623563608367671,68730.02051567973,10.5,10500068730.020515,47.655,-122.3035,60.0,2.9
2026-02-06T21:26:02+00:00,SAT-63437,200.40916397988482,68.98032945597978,496.6488500185509,-1.8681771569315804,65431.466417282565,10.5,10500065431.466417,47.655,-122.3035,60.0,2.9166666666666665
2026-02-06T21:26:03+00:00,SAT-63437,198.88663541023655,69.59999170304276,494.78568118676856,-1.7729283986227018,62095.45199945746,10.5,10500062095.452,47.655,-122.3035,60.0,2.933333333333333
2026-02-06T21:26:04+00:00,SAT-63437,197.26156632412633,70.20970115367473,493.01750576451855,-1.6766496260614256,58723.36212555744,10.5,10500058723.362125,47.655,-122.3035,60.0,2.95
2026-02-06T21:26:05+00:00,SAT-63437,195.52616575692494,70.80759157112185,491.3453510047269,-1.5793831181660283,55316.67758214017,10.5,10500055316.677582,47.655,-122.3035,60.0,2.966666666666667
2026-02-06T21:26:06+00:00,SAT-63437,193.67236692053638,71.39160728602087,489.77020199474583,-1.4811738379619697,51876.97316455066,10.5,10500051876.973164,47.655,-122.3035,60.0,2.9833333333333334
2026-02-06T21:26:07+00:00,SAT-63437,191.69196557636187,71.95949032144684,488.29299897944134,-1.3820693453732866,48405.91462250697,10.5,10500048405.914623,47.655,-122.3035,60.0,3.0
2026-02-06T21:26:08+00:00,SAT-63437,189.57681887543836,72.50876995778415,486.91463477125757,-1.2821197506736646,44905.25702975983,10.5,10500044905.25703,47.655,-122.3035,60.0,3.0166666666666666
2026-02-06T21:26:09+00:00,SAT-63437,187.31911816548094,73.0367564785365,485.63595220670294,-1.1813775938244557,41376.84055799958,10.5,10500041376.840557,47.655,-122.3035,60.0,3.033333333333333
2026-02-06T21:26:10+00:00,SAT-63437,184.91174865265774,73.54054131679165,484.45774172317743,-1.0798977663592673,37822.587740924115,10.5,10500037822.587742,47.655,-122.3035,60.0,3.05
2026-02-06T21:26:11+00:00,SAT-63437,182.34874522294456,74.01700640561153,483.3807390137039,-0.9777373655396903,34244.49836615552,10.5,10500034244.498365,47.655,-122.3035,60.0,3.066666666666667
2026-02-06T21:26:12+00:00,SAT-63437,179.6258465691848,74.46284595244805,482.40562282711346,-0.8749555500131342,30644.64441976692,10.5,10500030644.64442,47.655,-122.3035,60.0,3.0833333333333335
2026-02-06T21:26:13+00:00,SAT-63437,176.74113710806319,74.87460411825899,481.53301291218605,-0.7716134191413799,27025.16585985792,10.5,10500027025.16586,47.655,-122.3035,60.0,3.1
2026-02-06T21:26:14+00:00,SAT-63437,173.69574749281387,75.24873189107998,480.76346808213873,-0.6677738131387733,23388.26361654875,10.5,10500023388.263617,47.655,-122.3035,60.0,3.1166666666666667
2026-02-06T21:26:15+00:00,SAT-63437,170.49456091918364,75.58166550565453,480.09748447844015,-0.5635011541081945,19736.194024387503,10.5,10500019736.194025,47.655,-122.3035,60.0,3.1333333333333333
2026-02-06T21:26:16+00:00,SAT-63437,167.14684568410885,75.86992701187374,479.535493993163,-0.4588612428333243,16071.261705155723,10.5,10500016071.261705,47.655,-122.3035,60.0,3.15
2026-02-06T21:26:17+00:00,SAT-63437,163.6667119571374,76.11024473839296,479.0778628939988,-0.3539210739252647,12395.813093521116,10.5,10500012395.813093,47.655,-122.3035,60.0,3.1666666666666665
2026-02-06T21:26:18+00:00,SAT-63437,160.07328007510483,76.29968776516482,478.7248906336316,-0.24874861240582494,8712.228612039205,10.5,10500008712.228613,47.655,-122.3035,60.0,3.183333333333333
2026-02-06T21:26:19+00:00,SAT-63437,156.3904598289186,76.43580452884743,478.4768088819284,-0.14341258411680005,5022.915330399674,10.5,10500005022.91533,47.655,-122.3035,60.0,3.2
2026-02-06T21:26:20+00:00,SAT-63437,152.64628031492734,76.516752387787,478.33378076715866,-0.03798225210454323,1330.2991334682072,10.5,10500001330.299133,47.655,-122.3035,60.0,3.216666666666667
2026-02-06T21:26:21+00:00,SAT-63437,148.87177752824243,76.54140340262367,478.29590034023056,0.06747280981563654,-2363.1832094461283,10.5,10499997636.81679,47.655,-122.3035,60.0,3.2333333333333334
2026-02-06T21:26:22+00:00,SAT-63437,145.09952844531742,76.50941273512402,478.3631922647542,0.17288294673516896,-6055.09208880523,10.5,10499993944.907911,47.655,-122.3035,60.0,3.25
2026-02-06T21:26:23+00:00,SAT-63437,141.36199429925648,76.42124017340434,478.53561173616714,0.27817864969076395,-9742.993006692055,10.5,10499990257.006994,47.655,-122.3035,60.0,3.2666666666666666
2026-02-06T21:26:24+00:00,SAT-63437,137.68987844522547,76.27812168633557,478.8130446272866,0.3832907871501941,-13424.464684421908,10.5,10499986575.535316,47.655,-122.3035,60.0,3.283333333333333
2026-02-06T21:26:25+00:00,SAT-63437,134.1107007536978,76.08199507880352,479.19530786473064,0.48815082878946325,-17097.10690016546,10.5,10499982902.8931,47.655,-122.3035,60.0,3.3
2026-02-06T21:26:26+00:00,SAT-63437,130.64774256254762,75.8353899759323,479.682150028513,0.5926910668948097,-20758.54824338343,10.5,10499979241.451757,47.655,-122.3035,60.0,3.316666666666667
2026-02-06T21:26:27+00:00,SAT-63437,127.31943957699443,75.54129607473865,480.27325217244874,0.6968448250615659,-24406.453424343454,10.5,10499975593.546576,47.655,-122.3035,60.0,3.3333333333333335
2026-02-06T21:26:28+00:00,SAT-63437,124.13921937575228,75.20302433819874,480.9682288526989,0.8005466819815549,-28038.531112101315,10.5,10499971961.468887,47.655,-122.3035,60.0,3.35
2026-02-06T21:26:29+00:00,SAT-63437,121.11571582656998,74.8240739258284,481.76662937950147,0.9037326459229417,-31652.540045523383,10.5,10499968347.459955,47.655,-122.3035,60.0,3.3666666666666667
2026-02-06T21:26:30+00:00,SAT-63437,118.2532566449882,74.40801420667353,482.66793924291585,1.0063403573061234,-35246.29612835122,10.5,10499964753.70387,47.655,-122.3035,60.0,3.3833333333333333
2026-02-06T21:26:31+00:00,SAT-63437,115.55251170219714,73.95838719354742,483.67158174059887,1.108309264991002,-38817.678603527514,10.5,10499961182.321396,47.655,-122.3035,60.0,3.4
2026-02-06T21:26:32+00:00,SAT-63437,113.01120261202551,73.47863219437801,484.7769197813971,1.2095807738189628,-42364.63522074031,10.5,10499957635.364779,47.655,-122.3035,60.0,3.4166666666666665
2026-02-06T21:26:33+00:00,SAT-63437,110.62479782266716,72.97203179653303,485.9832578360837,1.3100984171051422,-45885.18827783184,10.5,10499954114.811722,47.655,-122.3035,60.0,3.433333333333333
2026-02-06T21:26:34+00:00,SAT-63437,108.38714365583064,72.44167660955524,487.28984406012614,1.409807955124112,-49377.4380701838,10.5,10499950622.56193,47.655,-122.3035,60.0,3.45
2026-02-06T21:26:35+00:00,SAT-63437,106.29100524978384,71.8904454540151,488.6958725146761,1.508657543582193,-52839.56879133039,10.5,10499947160.43121,47.655,-122.3035,60.0,3.466666666666667
2026-02-06T21:26:36+00:00,SAT-63437,104.32850881517895,71.32099749583455,490.2004855555788,1.6065977897846957,-56269.85050017271,10.5,10499943730.1495,47.655,-122.3035,60.0,3.4833333333333334
2026-02-06T21:26:37+00:00,SAT-63437,102.49148871380179,70.73577317678794,491.80277627839945,1.7035818679913899,-59666.643161215194,10.5,10499940333.356838,47.655,-122.3035,60.0,3.5
2026-02-06T21:26:38+00:00,SAT-63437,100.77174931077712,70.13700120222059,493.501791078497,1.7995655909004729,-63028.399148236625,10.5,10499936971.600851,47.655,-122.3035,60.0,3.5166666666666666
2026-02-06T21:26:39+00:00,SAT-63437,99.1612546923079,69.52670942971498,495.29653228238834,1.8945074495151712,-66353.66464058711,10.5,10499933646.33536,47.655,-122.3035,60.0,3.533333333333333
2026-02-06T21:26:40+00:00,SAT-63437,97.65225978929972,68.9067380109326,497.18596081887335,1.9883686851723947,-69641.08214593625,10.5,10499930358.917854,47.655,-122.3035,60.0,3.55
2026-02-06T21:26:41+00:00,SAT-63437,96.23739545425114,68.27875356465917,499.16899896199567,2.081113281246491,-72889.39020970353,10.5,10499927110.60979,47.655,-122.3035,60.0,3.566666666666667
2026-02-06T21:26:42+00:00,SAT-63437,94.90971849056372,67.64426356096237,501.2445330657288,2.172708009225472,-76097.42502884263,10.5,10499923902.57497,47.655,-122.3035,60.0,3.5833333333333335
2026-02-06T21:26:43+00:00,SAT-63437,93.66273566525928,67.00463033408698,503.41141634461513,2.2631223924997115,-79264.11918356856,10.5,10499920735.880816,47.655,-122.3035,60.0,3.6
2026-02-06T21:26:44+00:00,SAT-63437,92.49040903386911,66.36108439680036,505.6684716182915,2.3523287466678466,-82388.50304904065,10.5,10499917611.49695,47.655,-122.3035,60.0,3.6166666666666667
2026-02-06T21:26:45+00:00,SAT-63437,91.38714820415049,65.71473683263015,508.0144940962109,2.440302085320832,-85469.70149552175,10.5,10499914530.298504,47.655,-122.3035,60.0,3.6333333333333333
2026-02-06T21:26:46+00:00,SAT-63437,90.34779392947328,65.06659071080763,510.44825406840266,2.5270201248091717,-88506.93405534672,10.5,10499911493.065945,47.655,-122.3035,60.0,3.65
2026-02-06T21:26:47+00:00,SAT-63437,89.36759619987792,64.4175514722628,512.968499600986,2.612463245557608,-91499.51356799937,10.5,10499908500.486431,47.655,-122.3035,60.0,3.6666666666666665
2026-02-06T21:26:48+00:00,SAT-63437,88.44218921328233,63.768436323969475,515.5739591931022,2.696614393225147,-94446.8427183183,10.5,10499905553.157282,47.655,-122.3035,60.0,3.683333333333333
2026-02-06T21:26:49+00:00,SAT-63437,87.56756493100676,63.11998270833969,518.2633443352718,2.77945905178402,-97348.41309360827,10.5,10499902651.586906,47.655,-122.3035,60.0,3.7
2026-02-06T21:26:50+00:00,SAT-63437,86.74004636716279,62.472855896241036,521.0353520409034,2.8609851499268197,-100203.80190562236,10.5,10499899796.198095,47.655,-122.3035,60.0,3.716666666666667
2026-02-06T21:26:51+00:00,SAT-63437,85.95626143265685,61.82765579479438,523.8886672844592,2.9411829930179727,-103012.66960721446,10.5,10499896987.330393,47.655,-122.3035,60.0,3.7333333333333334
2026-02-06T21:26:52+00:00,SAT-63437,85.21311784221437,61.184923038776645,526.821965371756,3.02004514156651,-105774.75563594184,10.5,10499894225.244364,47.655,-122.3035,60.0,3.75
2026-02-06T21:26:53+00:00,SAT-63437,84.50777941227162,60.54514445045305,529.8339141890642,3.097566391035196,-108489.87770689535,10.5,10499891510.122293,47.655,-122.3035,60.0,3.7666666666666666
2026-02-06T21:26:54+00:00,SAT-63437,83.83764389602942,59.908757914427106,532.9231764320693,3.1737435985195463,-111157.92574226545,10.5,10499888842.074257,47.655,-122.3035,60.0,3.783333333333333
2026-02-06T21:26:55+00:00,SAT-63437,83.20032246091358,59.27615676391864,536.0884116619778,3.2485756363620344,-113778.86024671562,10.5,10499886221.139753,47.655,-122.3035,60.0,3.8
2026-02-06T21:26:56+00:00,SAT-63437,82.59362077883581,58.64769370821899,539.3282783153621,3.322063273531443,-116352.70815278533,10.5,10499883647.291847,47.655,-122.3035,60.0,3.816666666666667
2026-02-06T21:26:57+00:00,SAT-63437,82.01552170006194,58.023684368267105,542.6414355957021,3.394209068918244,-118879.559083643,10.5,10499881120.440916,47.655,-122.3035,60.0,3.8333333333333335
2026-02-06T21:26:58+00:00,SAT-63437,81.46416943310275,57.40441046324069,546.0265452585072,3.465017311983044,-121359.56327434348,10.5,10499878640.436726,47.655,-122.3035,60.0,3.85
2026-02-06T21:26:59+00:00,SAT-63437,80.93785513212434,56.790122680163876,549.4822733372494,3.5344938219393884,-123792.9245383604,10.5,10499876207.075462,47.655,-122.3035,60.0,3.8666666666666667
2026-02-06T21:27:00+00:00,SAT-63437,80.43500381360201,56.18104328779136,553.0072916690121,3.6026459929555243,-126179.90185074304,10.5,10499873820.098148,47.655,-122.3035,60.0,3.8833333333333333
2026-02-06T21:27:01+00:00,SAT-63437,79.95416246360062,55.577368482082534,556.6002794652256,3.669482513372763,-128520.79951395578,10.5,10499871479.200485,47.655,-122.3035,60.0,3.9
2026-02-06T21:27:02+00:00,SAT-63437,79.49398928037907,54.9792705480826,560.2599246023688,3.735013465307978,-130815.97064637886,10.5,10499869184.029354,47.655,-122.3035,60.0,3.9166666666666665
2026-02-06T21:27:03+00:00,SAT-63437,79.0532439046196,54.38689979702791,563.984925012008,3.799250050494196,-133065.80758008617,10.5,10499866934.19242,47.655,-122.3035,60.0,3.933333333333333
2026-02-06T21:27:04+00:00,SAT-63437,78.63077859250996,53.80038636288994,567.7739897974133,3.862204585948726,-135270.74170912473,10.5,10499864729.258291,47.655,-122.3035,60.0,3.95
2026-02-06T21:27:05+00:00,SAT-63437,78.22553021241681,53.21984183154051,571.6258403458513,3.923890434628662,-137431.2410607773,10.5,10499862568.75894,47.655,-122.3035,60.0,3.966666666666667
2026-02-06T21:27:06+00:00,SAT-63437,77.83651299509582,52.645360730895156,575.5392113717216,3.984321818309071,-139547.80374176474,10.5,10499860452.196259,47.655,-122.3035,60.0,3.9833333333333334
2026-02-06T21:27:07+00:00,SAT-63437,77.46281197584928,52.07702191342578,579.5128517730723,4.043513843178463,-141620.95883470777,10.5,10499858379.041164,47.655,-122.3035,60.0,4.0
2026-02-06T21:27:08+00:00,SAT-63437,77.10357704143601,51.51488981188601,583.545525513642,4.101482320031842,-143651.26010052706,10.5,10499856348.739899,47.655,-122.3035,60.0,4.016666666666667
2026-02-06T21:27:09+00:00,SAT-63437,76.75801754106726,50.95901560968048,587.6360123255783,4.158243769205968,-145639.2861512969,10.5,10499854360.713848,47.655,-122.3035,60.0,4.033333333333333
2026-02-06T21:27:10+00:00,SAT-63437,76.42539739038443,50.40943830919327,591.7831084170768,4.213815266152585,-147585.63504156645,10.5,10499852414.364958,47.655,-122.3035,60.0,4.05
2026-02-06T21:27:11+00:00,SAT-63437,76.10503063291331,49.866185729056255,595.9856270260074,4.268214437416374,-149490.92412749064,10.5,10499850509.075872,47.655,-122.3035,60.0,4.066666666666666
2026-02-06T21:27:12+00:00,SAT-63437,75.79627740235736,49.32927541763326,600.2423989695305,4.321459329070696,-151355.7854588934,10.5,10499848644.21454,47.655,-122.3035,60.0,4.083333333333333
2026-02-06T21:27:13+00:00,SAT-63437,75.49854025592843,48.79871550657554,604.5522730625012,4.373568409632243,-153180.86588135097,10.5,10499846819.134119,47.655,-122.3035,60.0,4.1
2026-02-06T21:27:14+00:00,SAT-63437,75.21126083321653,48.27450549337258,608.9141165387798,4.424560450743222,-154966.8228571775,10.5,10499845033.177143,47.655,-122.3035,60.0,4.116666666666666
2026-02-06T21:27:15+00:00,SAT-63437,74.93391681693737,47.75663697397374,613.3268153535439,4.474454479583954,-156714.32279871267,10.5,10499843285.677202,47.655,-122.3035,60.0,4.133333333333334
2026-02-06T21:27:16+00:00,SAT-63437,74.6660191616647,47.24509432117584,617.7892744381426,4.523269773645441,-158424.04088523512,10.5,10499841575.959114,47.655,-122.3035,60.0,4.15
2026-02-06T21:27:17+00:00,SAT-63437,74.40710956264394,46.73985530886085,622.3004179497362,4.571025726782216,-160096.65637156647,10.5,10499839903.343628,47.655,-122.3035,60.0,4.166666666666667
2026-02-06T21:27:18+00:00,SAT-63437,74.15675814873956,46.24089170091351,626.8591893873466,4.617741893315514,-161732.85413275106,10.5,10499838267.145866,47.655,-122.3035,60.0,4.183333333333334
2026-02-06T21:27:19+00:00,SAT-63437,73.91456136883107,45.7481697882721,631.4645517518944,4.66343785561992,-163333.32002638024,10.5,10499836666.679974,47.655,-122.3035,60.0,4.2
2026-02-06T21:27:20+00:00,SAT-63437,73.68014006244961,45.26165089727987,636.1154875741778,4.708133255870588,-164898.74200451424,10.5,10499835101.257996,47.655,-122.3035,60.0,4.216666666666667
2026-02-06T21:27:21+00:00,SAT-63437,73.45313768928162,44.78129185438672,640.8109989745118,4.751847713542784,-166429.80722416716,10.5,10499833570.192776,47.655,-122.3035,60.0,4.233333333333333
2026-02-06T21:27:22+00:00,SAT-63437,73.23321870854133,44.30704542247624,645.5501076400895,4.794600803219701,-167927.20127004286,10.5,10499832072.79873,47.655,-122.3035,60.0,4.25
2026-02-06T21:27:23+00:00,SAT-63437,73.02006709119553,43.83886070489789,650.3318547802106,4.836412041609234,-169391.60769980733,10.5,10499830608.3923,47.655,-122.3035,60.0,4.266666666666667
2026-02-06T21:27:24+00:00,SAT-63437,72.81338495313332,43.376683518914234,655.1553010685612,4.8773007995285615,-170823.70496141666,10.5,10499829176.295038,47.655,-122.3035,60.0,4.283333333333333
2026-02-06T21:27:25+00:00,SAT-63437,72.6128913009397,42.920456747991366,660.0195264977136,4.917286394288469,-172224.16962880676,10.5,10499827775.830372,47.655,-122.3035,60.0,4.3
2026-02-06T21:27:26+00:00,SAT-63437,72.41832087346258,42.470120657799015,664.9236303257646,4.956387897142859,-173593.6696579606,10.5,10499826406.330341,47.655,-122.3035,60.0,4.316666666666666
2026-02-06T21:27:27+00:00,SAT-63437,72.22942308130453,42.02561320471585,669.8667308309367,4.994624242607829,-174932.86821572477,10.5,10499825067.131784,47.655,-122.3035,60.0,4.333333333333333
2026-02-06T21:27:28+00:00,SAT-63437,72.04596102450718,41.58687031011059,674.8479651752083,5.032014197496613,-176242.42259528235,10.5,10499823757.577404,47.655,-122.3035,60.0,4.35
2026-02-06T21:27:29+00:00,SAT-63437,71.86771058688596,41.15382611569867,679.8664892370592,5.06857626260446,-177522.98077274123,10.5,10499822477.019228,47.655,-122.3035,60.0,4.366666666666666
2026-02-06T21:27:30+00:00,SAT-63437,71.69445960241845,40.72641322692704,684.9214773461673,5.104328738331123,-178775.18370551136,10.5,10499821224.816294,47.655,-122.3035,60.0,4.383333333333334
2026-02-06T21:27:31+00:00,SAT-63437,71.52600708230922,40.304562931414075,690.0121220835483,5.139289648016531,-179999.66264719568,10.5,10499820000.337353,47.655,-122.3035,60.0,4.4
2026-02-06T21:27:32+00:00,SAT-63437,71.36216250182781,39.88820540613687,695.1376340052406,5.1734768163538964,-181197.0418939489,10.5,10499818802.958107,47.655,-122.3035,60.0,4.416666666666667
2026-02-06T21:27:33+00:00,SAT-63437,71.20274513775128,39.477269901671406,700.2972414441894,5.206907741734314,-182367.93431344526,10.5,10499817632.065687,47.655,-122.3035,60.0,4.433333333333334
2026-02-06T21:27:34+00:00,SAT-63437,71.04758345760425,39.07168492152107,705.4901901848215,5.23959966875663,-183512.94388448095,10.5,10499816487.056116,47.655,-122.3035,60.0,4.45
2026-02-06T21:27:35+00:00,SAT-63437,70.8965145512612,38.671378381179686,710.7157432099308,5.2715695601010335,-184632.6647118683,10.5,10499815367.335289,47.655,-122.3035,60.0,4.466666666666667
2026-02-06T21:27:36+00:00,SAT-63437,70.74938360386255,38.27627775627192,715.9731804195179,5.302834092599257,-185727.6808887974,10.5,10499814272.31911,47.655,-122.3035,60.0,4.483333333333333
2026-02-06T21:27:37+00:00,SAT-63437,70.60604340640576,37.88631021871639,721.2617983457059,5.333409623576315,-186798.56531798176,10.5,10499813201.434683,47.655,-122.3035,60.0,4.5
2026-02-06T21:27:38+00:00,SAT-63437,70.46635390146469,37.50140276392182,726.5809098340922,5.36331221799173,-187845.88066225857,10.5,10499812154.119337,47.655,-122.3035,60.0,4.516666666666667
2026-02-06T21:27:39+00:00,SAT-63437,70.33018175987407,37.12148232529795,731.9298437521643,5.392557663712553,-188870.17987951456,10.5,10499811129.82012,47.655,-122.3035,60.0,4.533333333333333
2026-02-06T21:27:40+00:00,SAT-63437,70.19739998629052,36.746475877952804,737.3079447129535,5.42116139228508,-189872.0034477763,10.5,10499810127.996552,47.655,-122.3035,60.0,4.55
2026-02-06T21:27:41+00:00,SAT-63437,70.06788755348568,36.37631053883247,742.7145727196659,5.449138590799227,-190851.88328317413,10.5,10499809148.116716,47.655,-122.3035,60.0,4.566666666666666
2026-02-06T21:27:42+00:00,SAT-63437,69.94152905890842,36.01091365059249,748.1491029218843,5.476504045565727,-191810.33726485583,10.5,10499808189.662735,47.655,-122.3035,60.0,4.583333333333333
2026-02-06T21:27:43+00:00,SAT-63437,69.81821440759057,35.65021286830194,753.6109252158615,5.503272340761695,-192747.87619239505,10.5,10499807252.123808,47.655,-122.3035,60.0,4.6
2026-02-06T21:27:44+00:00,SAT-63437,69.69783851205128,35.29413622548996,759.0994440429293,5.52945768656405,-193664.99776629647,10.5,10499806335.002234,47.655,-122.3035,60.0,4.616666666666666
2026-02-06T21:27:45+00:00,SAT-63437,69.5803010153475,34.94261220504427,764.6140780165008,5.555073997045504,-194562.1893162429,10.5,10499805437.810684,47.655,-122.3035,60.0,4.633333333333334
2026-02-06T21:27:46+00:00,SAT-63437,69.46550603076074,34.59556979861124,770.1542596267603,5.580134865002937,-195439.92691947852,10.5,10499804560.07308,47.655,-122.3035,60.0,4.65
2026-02-06T21:27:47+00:00,SAT-63437,69.35336189860476,34.25293856185774,775.7194349202487,5.6046536386975685,-196298.67808857444,10.5,10499803701.32191,47.655,-122.3035,60.0,4.666666666666667
2026-02-06T21:27:48+00:00,SAT-63437,69.24378095741346,33.9146486597261,781.3090632559832,5.628643303250575,-197138.89761740115,10.5,10499802861.102383,47.655,-122.3035,60.0,4.683333333333334
2026-02-06T21:27:49+00:00,SAT-63437,69.13667933160427,33.58063091412722,786.9226169432902,5.652116571587987,-197961.03076640397,10.5,10499802038.969234,47.655,-122.3035,60.0,4.7
2026-02-06T21:27:50+00:00,SAT-63437,69.03197673103486,33.25081684146597,792.5595809703422,5.675085871070709,-198765.51279432935,10.5,10499801234.487206,47.655,-122.3035,60.0,4.716666666666667
2026-02-06T21:27:51+00:00,SAT-63437,68.92959626318232,32.92513868690736,798.2194527193544,5.697563315867686,-199552.76799061673,10.5,10499800447.23201,47.655,-122.3035,60.0,4.733333333333333
2026-02-06T21:27:52+00:00,SAT-63437,68.82946425747497,32.60352945640204,803.9017416542359,5.719560776785305,-200323.21212111914,10.5,10499799676.787878,47.655,-122.3035,60.0,4.75
2026-02-06T21:27:53+00:00,SAT-63437,68.73151009922445,32.28592294120523,809.605969077878,5.7410897752697725,-201077.2487156185,10.5,10499798922.751284,47.655,-122.3035,60.0,4.766666666666667
2026-02-06T21:27:54+00:00,SAT-63437,68.63566607531345,31.972253745129013,815.3316677837306,5.762161627413856,-201815.27411155048,10.5,10499798184.72589,47.655,-122.3035,60.0,4.783333333333333
2026-02-06T21:27:55+00:00,SAT-63437,68.5418672269731,31.662457300781618,821.0783818509997,5.782787318120141,-202537.67304666978,10.5,10499797462.326954,47.655,-122.3035,60.0,4.8
2026-02-06T21:27:56+00:00,SAT-63437,68.45005121323948,31.35646989005944,826.8456663143446,5.8029776029367195,-203244.82222576646,10.5,10499796755.177774,47.655,-122.3035,60.0,4.816666666666666
2026-02-06T21:27:57+00:00,SAT-63437,68.36015818101656,31.054228656581678,832.6330869351386,5.822742953936094,-203937.08842511638,10.5,10499796062.911575,47.655,-122.3035,60.0,4.833333333333333
2026-02-06T21:27:58+00:00,SAT-63437,68.27213064351972,30.7556716187935,838.4402199187537,5.8420935742054185,-204614.8289999907,10.5,10499795385.171,47.655,-122.3035,60.0,4.85
2026-02-06T21:27:59+00:00,SAT-63437,68.18591336558215,30.460737680157226,844.2666516462956,5.861039467923908,-205278.39433906318,10.5,10499794721.605661,47.655,-122.3035,60.0,4.866666666666666
2026-02-06T21:28:00+00:00,SAT-63437,68.10145325470715,30.169366633946083,850.1119784762298,5.8795903213729535,-205928.12369688103,10.5,10499794071.876303,47.655,-122.3035,60.0,4.883333333333334
