DopplerPredictor/satellites_20260211_204923/SAT-45580.csv

timestamp,satellite,azimuth_deg,elevation_deg,distance_km,relative_velocity_kms,doppler_shift_hz,tx_freq_ghz,rx_freq_hz,ue_lat,ue_lon,ue_alt_m,time_minutes
2026-02-06T21:23:07+00:00,SAT-45580,338.82373582389005,44.63992928060665,758.3373901153201,-2.9336654637017547,102749.373931443,10.5,10500102749.373932,47.655,-122.3035,60.0,0.0
2026-02-06T21:23:08+00:00,SAT-45580,339.4370496503418,44.89624942884979,755.4115894038807,-2.88059522839547,100890.62980414416,10.5,10500100890.629805,47.655,-122.3035,60.0,0.016666666666666666
2026-02-06T21:23:09+00:00,SAT-45580,340.0605502775708,45.150852612216134,752.5387166537704,-2.826911436786153,99010.39633977252,10.5,10500099010.39634,47.655,-122.3035,60.0,0.03333333333333333
2026-02-06T21:23:10+00:00,SAT-45580,340.694347432138,45.40358599737927,749.7193837764324,-2.7726163732104876,97108.7535454615,10.5,10500097108.753546,47.655,-122.3035,60.0,0.05
2026-02-06T21:23:11+00:00,SAT-45580,341.33854458842967,45.65429252640191,746.9542004050976,-2.7177127846705216,95185.79763284264,10.5,10500095185.797632,47.655,-122.3035,60.0,0.06666666666666667
2026-02-06T21:23:12+00:00,SAT-45580,341.9932382970929,45.90281098951517,744.2437734333583,-2.6622039094811254,93241.64202140074,10.5,10500093241.642021,47.655,-122.3035,60.0,0.08333333333333333
2026-02-06T21:23:13+00:00,SAT-45580,342.65851748680024,46.14897611726303,741.5887065251743,-2.606093521996886,91276.41890499895,10.5,10500091276.418905,47.655,-122.3035,60.0,0.1
2026-02-06T21:23:14+00:00,SAT-45580,343.3344627461177,46.39261869476673,738.989599580269,-2.549385886787331,89290.27764690123,10.5,10500089290.277647,47.655,-122.3035,60.0,0.11666666666666667
2026-02-06T21:23:15+00:00,SAT-45580,344.0211455636309,46.63356569085861,736.447048245229,-2.492085824952874,87283.3871024373,10.5,10500087283.387102,47.655,-122.3035,60.0,0.13333333333333333
2026-02-06T21:23:16+00:00,SAT-45580,344.7186275574978,46.871640413552285,733.9616433584649,-2.4341987006849397,85255.93514828138,10.5,10500085255.935148,47.655,-122.3035,60.0,0.15
2026-02-06T21:23:17+00:00,SAT-45580,345.4269596765455,47.10666268555672,731.5339704085771,-2.3757304115394065,83208.12834178693,10.5,10500083208.128342,47.655,-122.3035,60.0,0.16666666666666666
2026-02-06T21:23:18+00:00,SAT-45580,346.14618137580106,47.33844904105645,729.1646090024201,-2.316687446175319,81140.19394324072,10.5,10500081140.193943,47.655,-122.3035,60.0,0.18333333333333332
2026-02-06T21:23:19+00:00,SAT-45580,346.876319790168,47.56681295124249,726.854132275585,-2.2570768436543687,79052.37849035839,10.5,10500079052.37849,47.655,-122.3035,60.0,0.2
2026-02-06T21:23:20+00:00,SAT-45580,347.6173888816616,47.79156506996042,724.6031063434718,-2.1969062228297154,76944.9488276053,10.5,10500076944.948828,47.655,-122.3035,60.0,0.21666666666666667
2026-02-06T21:23:21+00:00,SAT-45580,348.3693885851023,48.01251350699178,722.4120897230525,-2.1361837974872526,74818.19263650774,10.5,10500074818.192636,47.655,-122.3035,60.0,0.23333333333333334
2026-02-06T21:23:22+00:00,SAT-45580,349.1323039549056,48.229464128296605,720.2816327395329,-2.0749183546601238,72672.41767613548,10.5,10500072672.417677,47.655,-122.3035,60.0,0.25
2026-02-06T21:23:23+00:00,SAT-45580,349.9061043055178,48.44222088001675,718.212276954643,-2.013119284679249,70507.9528355984,10.5,10500070507.952835,47.655,-122.3035,60.0,0.26666666666666666
2026-02-06T21:23:24+00:00,SAT-45580,350.6907423706142,48.650586141761615,716.2045545649554,-1.9507965715506912,68325.14779702116,10.5,10500068325.147797,47.655,-122.3035,60.0,0.2833333333333333
2026-02-06T21:23:25+00:00,SAT-45580,351.486153474217,48.85436110537183,714.2589878098032,-1.8879607881559042,66124.37286743548,10.5,10500066124.372868,47.655,-122.3035,60.0,0.3
2026-02-06T21:23:26+00:00,SAT-45580,352.29225472277597,49.053346179534316,712.3760883839817,-1.8246231033732856,63906.0192282072,10.5,10500063906.019228,47.655,-122.3035,60.0,0.31666666666666665
2026-02-06T21:23:27+00:00,SAT-45580,353.1089442313089,49.24734142123333,710.5563568433506,-1.7607952862471068,61670.49908104967,10.5,10500061670.49908,47.655,-122.3035,60.0,0.3333333333333333
2026-02-06T21:23:28+00:00,SAT-45580,353.9361003920403,49.4361469932518,708.800282006276,-1.6964896976157335,59418.24535480877,10.5,10500059418.245356,47.655,-122.3035,60.0,0.35
2026-02-06T21:23:29+00:00,SAT-45580,354.7735811898284,49.61956364562956,707.1083403634242,-1.6317192718554838,57149.711066055504,10.5,10500057149.711065,47.655,-122.3035,60.0,0.36666666666666664
2026-02-06T21:23:30+00:00,SAT-45580,355.62122356786244,49.79739321892203,705.480995505759,-1.5664975384066566,54865.37007301863,10.5,10500054865.370073,47.655,-122.3035,60.0,0.38333333333333336
2026-02-06T21:23:31+00:00,SAT-45580,356.47884287399523,49.96943917220705,703.9186975310762,-1.5008385937832014,52565.71609524484,10.5,10500052565.716095,47.655,-122.3035,60.0,0.4
2026-02-06T21:23:32+00:00,SAT-45580,357.3462323737434,50.135507128885926,702.4218824784472,-1.4347570951180724,50251.26248752982,10.5,10500050251.262487,47.655,-122.3035,60.0,0.4166666666666667
2026-02-06T21:23:33+00:00,SAT-45580,358.22316284967275,50.29540544059075,700.9909717691046,-1.3682682605869578,47922.542254758984,10.5,10500047922.542255,47.655,-122.3035,60.0,0.43333333333333335
2026-02-06T21:23:34+00:00,SAT-45580,359.10938230278254,50.44894576773165,699.6263716469032,-1.301387845816464,45580.10722562231,10.5,10500045580.107225,47.655,-122.3035,60.0,0.45
2026-02-06T21:23:35+00:00,SAT-45580,0.004615751655440456,50.59594367144154,698.32847264231,-1.2341321302042358,43224.52757348711,10.5,10500043224.527573,47.655,-122.3035,60.0,0.4666666666666667
2026-02-06T21:23:36+00:00,SAT-45580,0.9085651433144932,50.73621921509764,697.0976490500364,-1.1665179171053466,40856.39182292618,10.5,10500040856.391823,47.655,-122.3035,60.0,0.48333333333333334
2026-02-06T21:23:37+00:00,SAT-45580,1.8209093969814376,50.86959757383812,695.9342584064875,-1.098562490423343,38476.30532935255,10.5,10500038476.30533,47.655,-122.3035,60.0,0.5
2026-02-06T21:23:38+00:00,SAT-45580,2.741304554867499,50.9959096436603,694.8386410104993,-1.0302836268362323,36084.89070722533,10.5,10500036084.890707,47.655,-122.3035,60.0,0.5166666666666667
2026-02-06T21:23:39+00:00,SAT-45580,3.669384092148757,51.11499265273379,693.8111194318874,-0.9616995469636792,33682.7861197183,10.5,10500033682.78612,47.655,-122.3035,60.0,0.5333333333333333
2026-02-06T21:23:40+00:00,SAT-45580,4.604759340797321,51.22669076401798,692.8519980686946,-0.8928289174348234,31270.64535114371,10.5,10500031270.645351,47.655,-122.3035,60.0,0.55
2026-02-06T21:23:41+00:00,SAT-45580,5.547020077376429,51.330855670927626,691.961562702377,-0.8236908141845228,28849.136521431403,10.5,10500028849.136522,47.655,-122.3035,60.0,0.5666666666666667
2026-02-06T21:23:42+00:00,SAT-45580,6.495735242730369,51.42734717733665,691.1400800895958,-0.754304704179421,26418.94144609842,10.5,10500026418.941446,47.655,-122.3035,60.0,0.5833333333333334
2026-02-06T21:23:43+00:00,SAT-45580,7.4504538129989255,51.51603375971963,690.3877975722344,-0.6846904168364293,23980.754635203357,10.5,10500023980.754635,47.655,-122.3035,60.0,0.6
2026-02-06T21:23:44+00:00,SAT-45580,8.41070581085301,51.59679310586315,689.7049427159183,-0.6148681208490508,21535.28248170617,10.5,10500021535.282482,47.655,-122.3035,60.0,0.6166666666666667
2026-02-06T21:23:45+00:00,SAT-45580,9.376003462360101,51.66951262644365,689.0917229716492,-0.5448582956684993,19083.242262616368,10.5,10500019083.242262,47.655,-122.3035,60.0,0.6333333333333333
2026-02-06T21:23:46+00:00,SAT-45580,10.345842490747373,51.73408993458506,688.5483253658808,-0.47468170047307134,16625.361052169126,10.5,10500016625.361052,47.655,-122.3035,60.0,0.65
2026-02-06T21:23:47+00:00,SAT-45580,11.319703535925289,51.79043328899316,688.0749162215407,-0.4043593465068879,14162.37475301104,10.5,10500014162.374754,47.655,-122.3035,60.0,0.6666666666666666
2026-02-06T21:23:48+00:00,SAT-45580,12.297053699134834,51.838461997144606,687.67164090664,-0.333912465939363,11695.027005526976,10.5,10500011695.027006,47.655,-122.3035,60.0,0.6833333333333333
2026-02-06T21:23:49+00:00,SAT-45580,13.277348198026255,51.878106774509945,687.3386236139421,-0.26336248039089993,9224.068085476818,10.5,10500009224.068085,47.655,-122.3035,60.0,0.7
2026-02-06T21:23:50+00:00,SAT-45580,14.260032121385779,51.90931005645084,687.0759671720172,-0.19273096918783195,6750.253792149219,10.5,10500006750.253792,47.655,-122.3035,60.0,0.7166666666666667
2026-02-06T21:23:51+00:00,SAT-45580,15.24454227047324,51.932026259850275,686.8837528879608,-0.12203963594163694,4274.344277824321,10.5,10500004274.344278,47.655,-122.3035,60.0,0.7333333333333333
2026-02-06T21:23:52+00:00,SAT-45580,16.230309068572684,51.94622199179157,686.7620404234417,-0.05131027666983561,1797.1029312327594,10.5,10500001797.102932,47.655,-122.3035,60.0,0.75
2026-02-06T21:23:53+00:00,SAT-45580,17.216758528996827,51.95187620347239,686.7108677025427,0.019435254675157637,-680.7048297697842,10.5,10499999319.29517,47.655,-122.3035,60.0,0.7666666666666667
2026-02-06T21:23:54+00:00,SAT-45580,18.2033142669348,51.94898028754286,686.730250853982,0.09017507907222598,-3158.3127093156318,10.5,10499996841.68729,47.655,-122.3035,60.0,0.7833333333333333
2026-02-06T21:23:55+00:00,SAT-45580,19.189399515141833,51.93753811813569,686.8201841861115,0.16088732703623426,-5634.95474552752,10.5,10499994365.045254,47.655,-122.3035,60.0,0.8
2026-02-06T21:23:56+00:00,SAT-45580,20.174439164453585,51.91756603295672,686.9806401964265,0.23155017095833974,-8109.866443213083,10.5,10499991890.133556,47.655,-122.3035,60.0,0.8166666666666667
2026-02-06T21:23:57+00:00,SAT-45580,21.157861772590394,51.88909275792216,687.2115696133304,0.30214185901339874,-10582.285961445657,10.5,10499989417.714039,47.655,-122.3035,60.0,0.8333333333333334
2026-02-06T21:23:58+00:00,SAT-45580,22.13910154937867,51.85215927485362,687.5129014717154,0.37264075182713335,-13051.45539780357,10.5,10499986948.544601,47.655,-122.3035,60.0,0.85
2026-02-06T21:23:59+00:00,SAT-45580,23.117600297941138,51.806818633212224,687.8845432251113,0.4430253463009661,-15516.621622816623,10.5,10499984483.378378,47.655,-122.3035,60.0,0.8666666666666667
2026-02-06T21:24:00+00:00,SAT-45580,24.092809269074127,51.75313570921886,688.3263808815962,0.5132743198533132,-17977.037829483317,10.5,10499982022.96217,47.655,-122.3035,60.0,0.8833333333333333
2026-02-06T21:24:01+00:00,SAT-45580,25.064190963834783,51.69118691219943,688.8382791838299,0.58336655257047,-20431.964309088573,10.5,10499979568.03569,47.655,-122.3035,60.0,0.9
2026-02-06T21:24:02+00:00,SAT-45580,26.03122081863042,51.62105984358554,689.4200818111773,0.6532811658489739,-22880.66980462272,10.5,10499977119.330194,47.655,-122.3035,60.0,0.9166666666666666
2026-02-06T21:24:03+00:00,SAT-45580,26.993388798097122,51.54285290973453,690.0716116203736,0.7229975399929685,-25322.432127115648,10.5,10499974677.567873,47.655,-122.3035,60.0,0.9333333333333333
2026-02-06T21:24:04+00:00,SAT-45580,27.950200851679718,51.45667489461566,690.7926709037355,0.7924953613250321,-27756.539805657274,10.5,10499972243.460194,47.655,-122.3035,60.0,0.95
2026-02-06T21:24:05+00:00,SAT-45580,28.901180267442637,51.36264449262357,691.5830416943612,0.8617546396186239,-30182.292697955567,10.5,10499969817.707302,47.655,-122.3035,60.0,0.9666666666666667
2026-02-06T21:24:06+00:00,SAT-45580,29.845868875750654,51.26088980912706,692.442486088713,0.9307557284250969,-32599.00270227451,10.5,10499967400.997297,47.655,-122.3035,60.0,0.9833333333333333
2026-02-06T21:24:07+00:00,SAT-45580,30.783828107216213,51.15154783257998,693.3707465894745,0.999479367671026,-35005.99524937273,10.5,10499964994.004751,47.655,-122.3035,60.0,1.0
2026-02-06T21:24:08+00:00,SAT-45580,31.71463992541142,51.03476387988804,694.3675464908889,1.0679066971885431,-37402.60977639305,10.5,10499962597.390224,47.655,-122.3035,60.0,1.0166666666666666
2026-02-06T21:24:09+00:00,SAT-45580,32.63790760139231,50.910691022834406,695.4325902775934,1.136019285704829,-39788.200742197136,10.5,10499960211.799257,47.655,-122.3035,60.0,1.0333333333333334
2026-02-06T21:24:10+00:00,SAT-45580,33.55325634836333,50.7794894980858,696.565564052364,1.2037991417046743,-42162.13800781832,10.5,10499957837.861992,47.655,-122.3035,60.0,1.05
2026-02-06T21:24:11+00:00,SAT-45580,34.46033380398519,50.641326107167764,697.766135974694,1.2712287476438349,-44523.808034758054,10.5,10499955476.191965,47.655,-122.3035,60.0,1.0666666666666667
2026-02-06T21:24:12+00:00,SAT-45580,35.358810383196776,50.496373607850174,699.033956733495,1.338291073199465,-46872.61434907206,10.5,10499953127.38565,47.655,-122.3035,60.0,1.0833333333333333
2026-02-06T21:24:13+00:00,SAT-45580,36.24837948999441,50.34481010340053,700.3686600330112,1.404969598869937,-49207.97836793592,10.5,10499950792.021631,47.655,-122.3035,60.0,1.1
2026-02-06T21:24:14+00:00,SAT-45580,37.12875760212828,50.18681843228572,701.7698631022726,1.4712483039262212,-51529.338977651416,10.5,10499948470.661022,47.655,-122.3035,60.0,1.1166666666666667
2026-02-06T21:24:15+00:00,SAT-45580,37.999684216121445,50.022585565904826,703.2371671925282,1.5371117305146624,-53836.15477879685,10.5,10499946163.84522,47.655,-122.3035,60.0,1.1333333333333333
2026-02-06T21:24:16+00:00,SAT-45580,38.860921706124344,49.85230200905497,704.7701581386146,1.6025449539416232,-56127.903045469684,10.5,10499943872.096954,47.655,-122.3035,60.0,1.15
2026-02-06T21:24:17+00:00,SAT-45580,39.71225504930909,49.676161216720764,706.3684068906862,1.667533607255312,-58404.080586246026,10.5,10499941595.919415,47.655,-122.3035,60.0,1.1666666666666667
2026-02-06T21:24:18+00:00,SAT-45580,40.55349146126626,49.494359023729096,708.0314700704598,1.7320639003185097,-60664.20441218822,10.5,10499939335.795588,47.655,-122.3035,60.0,1.1833333333333333
2026-02-06T21:24:19+00:00,SAT-45580,41.384459946680686,49.30709309034309,709.7588905464866,1.7961226153483043,-62907.81158062754,10.5,10499937092.18842,47.655,-122.3035,60.0,1.2
2026-02-06T21:24:20+00:00,SAT-45580,42.205010763062596,49.11456236844577,711.550198004968,1.859697120929617,-65134.459685977075,10.5,10499934865.540314,47.655,-122.3035,60.0,1.2166666666666666
2026-02-06T21:24:21+00:00,SAT-45580,43.01501481799337,48.91696658805038,713.4049095345543,1.922775369897831,-67343.72678557251,10.5,10499932656.273214,47.655,-122.3035,60.0,1.2333333333333334
2026-02-06T21:24:22+00:00,SAT-45580,43.81436300191568,48.71450576733452,715.3225302090287,1.9853459105529143,-69535.21179243809,10.5,10499930464.788208,47.655,-122.3035,60.0,1.25
2026-02-06T21:24:23+00:00,SAT-45580,44.602965472441525,48.507379745934124,717.3025536811732,2.0473978918679125,-71708.53465771004,10.5,10499928291.465342,47.655,-122.3035,60.0,1.2666666666666666
2026-02-06T21:24:24+00:00,SAT-45580,45.38075089629744,48.29578774304932,719.3444627818338,2.108921045651193,-73863.335745883,10.5,10499926136.664253,47.655,-122.3035,60.0,1.2833333333333334
2026-02-06T21:24:25+00:00,SAT-45580,46.14766564999532,48.07992794333847,721.4477301011927,2.169905713259497,-75999.27677041401,10.5,10499924000.72323,47.655,-122.3035,60.0,1.3
2026-02-06T21:24:26+00:00,SAT-45580,46.903673004195596,47.85999710634874,723.6118185966818,2.2303428149450415,-78116.03972012844,10.5,10499921883.96028,47.655,-122.3035,60.0,1.3166666666666667
2026-02-06T21:24:27+00:00,SAT-45580,47.64875227879324,47.63619020552652,725.8361821703274,2.2902238734094755,-80213.32768417908,10.5,10499919786.672316,47.655,-122.3035,60.0,1.3333333333333333
2026-02-06T21:24:28+00:00,SAT-45580,48.38289799578465,47.40870009117437,728.1202662695832,2.349540994901533,-82290.86419000606,10.5,10499917709.13581,47.655,-122.3035,60.0,1.35
2026-02-06T21:24:29+00:00,SAT-45580,49.10611902125476,47.17771718142225,730.4635084693139,2.40828685000798,-84348.39253055456,10.5,10499915651.60747,47.655,-122.3035,60.0,1.3666666666666667
2026-02-06T21:24:30+00:00,SAT-45580,49.81843770469727,46.94342918069844,732.8653390346209,2.466454709513979,-86385.67702025638,10.5,10499913614.322979,47.655,-122.3035,60.0,1.3833333333333333
2026-02-06T21:24:31+00:00,SAT-45580,50.51988903631304,46.70602081975376,735.3251815194293,2.524038395009848,-88402.50126506988,10.5,10499911597.498735,47.655,-122.3035,60.0,1.4
2026-02-06T21:24:32+00:00,SAT-45580,51.21051980275401,46.465673624883365,737.8424533158193,2.5810322869946236,-90398.66844630077,10.5,10499909601.331554,47.655,-122.3035,60.0,1.4166666666666667
2026-02-06T21:24:33+00:00,SAT-45580,51.89038776242244,46.22256570985076,740.416566211435,2.637431306452461,-92374.00067533,10.5,10499907625.999325,47.655,-122.3035,60.0,1.4333333333333333
2026-02-06T21:24:34+00:00,SAT-45580,52.55956083717359,45.976871592170525,743.0469269285204,2.6932309436573805,-94328.34000247763,10.5,10499905671.659998,47.655,-122.3035,60.0,1.45
2026-02-06T21:24:35+00:00,SAT-45580,53.21811633476821,45.72876202837123,745.7329376916837,2.7484271767478305,-96261.54556513966,10.5,10499903738.454435,47.655,-122.3035,60.0,1.4666666666666666
2026-02-06T21:24:36+00:00,SAT-45580,53.86614017807345,45.47840387745994,748.4739967144537,2.8030165330423777,-98173.4957353229,10.5,10499901826.504265,47.655,-122.3035,60.0,1.4833333333333334
2026-02-06T21:24:37+00:00,SAT-45580,54.5037261781626,45.22595997821479,751.2694987469873,2.856996012285568,-100064.08543139022,10.5,10499899935.914568,47.655,-122.3035,60.0,1.5
2026-02-06T21:24:38+00:00,SAT-45580,55.13097532017426,44.9715890519387,754.1188355472293,2.9103631348410066,-101933.22780598627,10.5,10499898066.772194,47.655,-122.3035,60.0,1.5166666666666666
2026-02-06T21:24:39+00:00,SAT-45580,55.74799509206671,44.71544561814988,757.0213964001359,2.96311589254511,-103780.85252472782,10.5,10499896219.147476,47.655,-122.3035,60.0,1.5333333333333334
2026-02-06T21:24:40+00:00,SAT-45580,56.354898835137945,44.45767993092814,759.976568587883,3.0152527252094363,-105606.90494321602,10.5,10499894393.095057,47.655,-122.3035,60.0,1.55
2026-02-06T21:24:41+00:00,SAT-45580,56.951805123804405,44.19843793234282,762.983737836641,3.0667725288762107,-107411.3463961799,10.5,10499892588.653605,47.655,-122.3035,60.0,1.5666666666666667
2026-02-06T21:24:42+00:00,SAT-45580,57.53883718086361,43.937861219092454,766.042288771582,3.11767465327951,-109194.15410855618,10.5,10499890805.845892,47.655,-122.3035,60.0,1.5833333333333333
2026-02-06T21:24:43+00:00,SAT-45580,58.11612232591874,43.67608702232427,769.151605369355,3.1679588582309863,-110955.31966793293,10.5,10499889044.680332,47.655,-122.3035,60.0,1.6
2026-02-06T21:24:44+00:00,SAT-45580,58.68379144885997,43.4132482030284,772.3110713670656,3.217625294611052,-112694.84835878042,10.5,10499887305.151642,47.655,-122.3035,60.0,1.6166666666666667
2026-02-06T21:24:45+00:00,SAT-45580,59.24197851387951,43.1494732597697,775.520070652294,3.2666745290706456,-114412.76002761144,10.5,10499885587.239973,47.655,-122.3035,60.0,1.6333333333333333
2026-02-06T21:24:46+00:00,SAT-45580,59.790820100034004,42.884886344202144,778.7779876777532,3.315107498519263,-116109.08748895965,10.5,10499883890.912512,47.655,-122.3035,60.0,1.65
2026-02-06T21:24:47+00:00,SAT-45580,60.33045496594087,42.619607289266455,782.084207830554,3.3629254973464064,-117783.87607782069,10.5,10499882216.123922,47.655,-122.3035,60.0,1.6666666666666667
2026-02-06T21:24:48+00:00,SAT-45580,60.861023643325076,42.353751646369346,785.4381177887257,3.410130171629529,-119437.18344678989,10.5,10499880562.816553,47.655,-122.3035,60.0,1.6833333333333333
2026-02-06T21:24:49+00:00,SAT-45580,61.38266805990928,42.08743073013314,788.839105871963,3.4567234917544627,-121069.07860711378,10.5,10499878930.921392,47.655,-122.3035,60.0,1.7
2026-02-06T21:24:50+00:00,SAT-45580,61.89553118689561,41.82075167161859,792.2865623650638,3.5027077500119117,-122679.64184450921,10.5,10499877320.358156,47.655,-122.3035,60.0,1.7166666666666666
2026-02-06T21:24:51+00:00,SAT-45580,62.399756714224026,41.55381747723862,795.7798798389717,3.5480855541325234,-124268.96449273414,10.5,10499875731.035507,47.655,-122.3035,60.0,1.7333333333333334
2026-02-06T21:24:52+00:00,SAT-45580,62.89548875126898,41.28672709303179,799.3184534653694,3.5928597684514245,-125837.14687292084,10.5,10499874162.853127,47.655,-122.3035,60.0,1.75
2026-02-06T21:24:53+00:00,SAT-45580,63.3828715450739,41.01957547750409,802.9016812725962,3.637033558121563,-127384.29984211415,10.5,10499872615.700157,47.655,-122.3035,60.0,1.7666666666666666
2026-02-06T21:24:54+00:00,SAT-45580,63.86204922906967,40.752453674592864,806.5289644456592,3.6806103444788025,-128910.54322996821,10.5,10499871089.45677,47.655,-122.3035,60.0,1.7833333333333334
2026-02-06T21:24:55+00:00,SAT-45580,64.33316558870548,40.485448892928765,810.1997075817287,3.7235937781528987,-130416.00489697923,10.5,10499869583.995104,47.655,-122.3035,60.0,1.8
2026-02-06T21:24:56+00:00,SAT-45580,64.79636384576413,40.21864458936245,813.9133189188183,3.765987752866938,-131900.8212178001,10.5,10499868099.178782,47.655,-122.3035,60.0,1.8166666666666667
2026-02-06T21:24:57+00:00,SAT-45580,65.25178646529675,39.9521205533118,817.6692105782262,3.807796373861771,-133365.13597533063,10.5,10499866634.864025,47.655,-122.3035,60.0,1.8333333333333333
2026-02-06T21:24:58+00:00,SAT-45580,65.69957497818567,39.68595299474745,821.4667987754854,3.849023961179114,-134809.1004757054,10.5,10499865190.899525,47.655,-122.3035,60.0,1.85
2026-02-06T21:24:59+00:00,SAT-45580,66.13986982251808,39.4202146328944,825.3055040345897,3.88967502211705,-136232.8725835692,10.5,10499863767.127417,47.655,-122.3035,60.0,1.8666666666666667
2026-02-06T21:25:00+00:00,SAT-45580,66.57281019920319,39.1549747874114,829.1847513747477,3.9297542157508283,-137636.6154794451,10.5,10499862363.384521,47.655,-122.3035,60.0,1.8833333333333333
2026-02-06T21:25:01+00:00,SAT-45580,66.99853394007916,38.890299472129655,833.1039704617523,3.9692664226303798,-139020.50010083636,10.5,10499860979.499899,47.655,-122.3035,60.0,1.9
2026-02-06T21:25:02+00:00,SAT-45580,67.41717739862801,38.62625148392571,837.0625958288621,4.008216640518006,-140384.70149051936,10.5,10499859615.29851,47.655,-122.3035,60.0,1.9166666666666667
2026-02-06T21:25:03+00:00,SAT-45580,67.82887534375575,38.3628904982552,841.0600669937011,4.046609991435494,-141729.39904336314,10.5,10499858270.600956,47.655,-122.3035,60.0,1.9333333333333333
2026-02-06T21:25:04+00:00,SAT-45580,68.23376086808865,38.100273163355304,845.0958285821815,4.08445177618872,-143054.7784160119,10.5,10499856945.221584,47.655,-122.3035,60.0,1.95
2026-02-06T21:25:05+00:00,SAT-45580,68.63196531375608,37.838453189959075,849.1693305068129,4.121747397516817,-144361.02883524366,10.5,10499855638.971165,47.655,-122.3035,60.0,1.9666666666666666
2026-02-06T21:25:06+00:00,SAT-45580,69.02361820213775,37.57748144492904,853.2800280683581,4.158502355474489,-145648.34293623938,10.5,10499854351.657064,47.655,-122.3035,60.0,1.9833333333333334
2026-02-06T21:25:07+00:00,SAT-45580,69.40884717388518,37.31740604374962,857.4273820528907,4.1947222602580885,-146916.91721180634,10.5,10499853083.082788,47.655,-122.3035,60.0,2.0
2026-02-06T21:25:08+00:00,SAT-45580,69.78777794015605,37.05827244067806,861.6108588416407,4.2304128205316704,-148166.95160350745,10.5,10499851833.048397,47.655,-122.3035,60.0,2.0166666666666666
2026-02-06T21:25:09+00:00,SAT-45580,70.16053424172289,36.80012351799801,865.8299305091975,4.265579822238934,-149398.64875956555,10.5,10499850601.35124,47.655,-122.3035,60.0,2.033333333333333
2026-02-06T21:25:10+00:00,SAT-45580,70.52723781467175,36.5429996748104,870.0840749005831,4.30022910100727,-150612.21306833654,10.5,10499849387.786932,47.655,-122.3035,60.0,2.05
2026-02-06T21:25:11+00:00,SAT-45580,70.88800836161226,36.286938915553506,874.3727756808022,4.3343665896733,-151807.8523228548,10.5,10499848192.147676,47.655,-122.3035,60.0,2.066666666666667
2026-02-06T21:25:12+00:00,SAT-45580,71.2429635339325,36.03197693367684,878.695522431791,4.367998249434973,-152985.77530948832,10.5,10499847014.224691,47.655,-122.3035,60.0,2.0833333333333335
2026-02-06T21:25:13+00:00,SAT-45580,71.59221891495798,35.77814719738896,883.0518106807033,4.401130131318211,-154146.19396076075,10.5,10499845853.80604,47.655,-122.3035,60.0,2.1
2026-02-06T21:25:14+00:00,SAT-45580,71.93588801386336,35.52548102966639,887.4411419894952,4.433768244663353,-155289.3187491902,10.5,10499844710.681252,47.655,-122.3035,60.0,2.1166666666666667
2026-02-06T21:25:15+00:00,SAT-45580,72.27408225508866,35.27400769369709,891.8630239133548,4.465918724051082,-156415.3645337414,10.5,10499843584.635466,47.655,-122.3035,60.0,2.1333333333333333
2026-02-06T21:25:16+00:00,SAT-45580,72.60691098531184,35.023754466485336,896.3169701256033,4.497587667102811,-157524.54487890928,10.5,10499842475.455122,47.655,-122.3035,60.0,2.15
2026-02-06T21:25:17+00:00,SAT-45580,72.93448147281944,34.774746719540325,900.8025003808381,4.528781214346797,-158617.07485196763,10.5,10499841382.925148,47.655,-122.3035,60.0,2.1666666666666665
2026-02-06T21:25:18+00:00,SAT-45580,73.25689891690367,34.52700799271822,905.3191405577209,4.559505513906883,-159693.16978622013,10.5,10499840306.830214,47.655,-122.3035,60.0,2.183333333333333
2026-02-06T21:25:19+00:00,SAT-45580,73.57426645848477,34.280560067807826,909.8664226665566,4.589766713406833,-160753.04499745538,10.5,10499839246.955002,47.655,-122.3035,60.0,2.2
2026-02-06T21:25:20+00:00,SAT-45580,73.88668519349152,34.03542304026809,914.4438848487927,4.619570997059565,-161796.9170829689,10.5,10499838203.082916,47.655,-122.3035,60.0,2.216666666666667
2026-02-06T21:25:21+00:00,SAT-45580,74.19425419171897,33.79161538674548,919.0510714135098,4.648924480700709,-162825.00024519445,10.5,10499837174.999754,47.655,-122.3035,60.0,2.2333333333333334
2026-02-06T21:25:22+00:00,SAT-45580,74.49707051153055,33.549154035927664,923.6875327692295,4.677833326519986,-163837.5103100821,10.5,10499836162.48969,47.655,-122.3035,60.0,2.25
2026-02-06T21:25:23+00:00,SAT-45580,74.79522922447703,33.30805443106391,928.352825470142,4.706303659786095,-164834.66181045154,10.5,10499835165.33819,47.655,-122.3035,60.0,2.2666666666666666
2026-02-06T21:25:24+00:00,SAT-45580,75.08882343656418,33.06833059471323,933.0465121792863,4.734341581109673,-165816.66841549284,10.5,10499834183.331585,47.655,-122.3035,60.0,2.283333333333333
2026-02-06T21:25:25+00:00,SAT-45580,75.37794431244345,32.82999519062448,937.7681616439562,4.761953215246116,-166783.7446400477,10.5,10499833216.25536,47.655,-122.3035,60.0,2.3
2026-02-06T21:25:26+00:00,SAT-45580,75.6626811039226,32.59305958104771,942.5173487197816,4.789144555557208,-167736.1003969976,10.5,10499832263.899603,47.655,-122.3035,60.0,2.316666666666667
2026-02-06T21:25:27+00:00,SAT-45580,75.94312117103807,32.357533889711206,947.2936542396876,4.815921685702168,-168673.9487618223,10.5,10499831326.051239,47.655,-122.3035,60.0,2.3333333333333335
2026-02-06T21:25:28+00:00,SAT-45580,76.21935001713068,32.12342705166229,952.0966651039474,4.842290589299571,-169597.499306155,10.5,10499830402.500694,47.655,-122.3035,60.0,2.35
2026-02-06T21:25:29+00:00,SAT-45580,76.49145131401112,31.890746870587876,956.925974180413,4.8682572199210234,-170506.96054925688,10.5,10499829493.039452,47.655,-122.3035,60.0,2.3666666666666667
2026-02-06T21:25:30+00:00,SAT-45580,76.7595069322034,31.659500070625068,961.781180274547,4.893827483918032,-171402.53935654156,10.5,10499828597.460644,47.655,-122.3035,60.0,2.3833333333333333
2026-02-06T21:25:31+00:00,SAT-45580,77.02359697089874,31.429692347062666,966.661888082329,4.919007281287325,-172284.4423708515,10.5,10499827715.557629,47.655,-122.3035,60.0,2.4
2026-02-06T21:25:32+00:00,SAT-45580,77.28379979077972,31.20132841324269,971.5677081839182,4.94380242949468,-173152.87334444598,10.5,10499826847.126656,47.655,-122.3035,60.0,2.4166666666666665
2026-02-06T21:25:33+00:00,SAT-45580,77.54019204323325,30.974412049208603,976.4982569613439,4.968218696213043,-174008.03428562885,10.5,10499825991.965714,47.655,-122.3035,60.0,2.433333333333333
2026-02-06T21:25:34+00:00,SAT-45580,77.79284870187709,30.748946146963956,981.4531565488466,4.992261839894217,-174850.12687974054,10.5,10499825149.87312,47.655,-122.3035,60.0,2.45
2026-02-06T21:25:35+00:00,SAT-45580,78.04184309614284,30.524932752167665,986.4320348236804,5.015937521225553,-175679.34938799663,10.5,10499824320.650612,47.655,-122.3035,60.0,2.466666666666667
2026-02-06T21:25:36+00:00,SAT-45580,78.28724694089345,30.302373108157898,991.4345253086108,5.039251375032108,-176495.899165806,10.5,10499823504.100834,47.655,-122.3035,60.0,2.4833333333333334
2026-02-06T21:25:37+00:00,SAT-45580,78.52913036947707,30.081267695051476,996.460267146123,5.062208951975336,-177299.97062081206,10.5,10499822700.029379,47.655,-122.3035,60.0,2.5
