DopplerPredictor/satellites_20260211_204923/SAT-45540.csv

timestamp,satellite,azimuth_deg,elevation_deg,distance_km,relative_velocity_kms,doppler_shift_hz,tx_freq_ghz,rx_freq_hz,ue_lat,ue_lon,ue_alt_m,time_minutes
2026-02-06T21:32:58+00:00,SAT-45540,322.7406816283852,30.114979280111992,997.06820175129,-3.6842861939413916,129039.28702697587,10.5,10500129039.287027,47.655,-122.3035,60.0,9.85
2026-02-06T21:32:59+00:00,SAT-45540,323.11598348268063,30.276312481387375,993.393792620203,-3.649381852502598,127816.78934457141,10.5,10500127816.789345,47.655,-122.3035,60.0,9.866666666666667
2026-02-06T21:33:00+00:00,SAT-45540,323.4952666225448,30.43742278853059,989.7541942568323,-3.6140869996166947,126580.61429942743,10.5,10500126580.6143,47.655,-122.3035,60.0,9.883333333333333
2026-02-06T21:33:01+00:00,SAT-45540,323.8785632779824,30.598274429248086,986.1497961257174,-3.5783997497183373,125330.69585106954,10.5,10500125330.69585,47.655,-122.3035,60.0,9.9
2026-02-06T21:33:02+00:00,SAT-45540,324.2659049796287,30.75883064364485,982.580989571909,-3.542318285462293,124066.9703483804,10.5,10500124066.970348,47.655,-122.3035,60.0,9.916666666666666
2026-02-06T21:33:03+00:00,SAT-45540,324.65732249638086,30.91905367654781,979.0481677529303,-3.505840917742429,122789.37863171828,10.5,10500122789.378632,47.655,-122.3035,60.0,9.933333333333334
2026-02-06T21:33:04+00:00,SAT-45540,325.0528457766892,31.078904773412955,975.551725510882,-3.4689660702007816,121497.86549035937,10.5,10500121497.86549,47.655,-122.3035,60.0,9.95
2026-02-06T21:33:05+00:00,SAT-45540,325.4525038856585,31.23834417653693,972.0920592599982,-3.4316922853303966,120192.3798762448,10.5,10500120192.379877,47.655,-122.3035,60.0,9.966666666666667
2026-02-06T21:33:06+00:00,SAT-45540,325.85632494015715,31.397331122609955,968.6695668681114,-3.3940182389307423,118872.87541027064,10.5,10500118872.87541,47.655,-122.3035,60.0,9.983333333333333
