DopplerPredictor/satellites_20260211_204923/SAT-61721.csv

timestamp,satellite,azimuth_deg,elevation_deg,distance_km,relative_velocity_kms,doppler_shift_hz,tx_freq_ghz,rx_freq_hz,ue_lat,ue_lon,ue_alt_m,time_minutes
2026-02-06T21:33:03+00:00,SAT-61721,334.5271525946984,30.0691242256734,876.9600155890838,-2.801480991192353,98119.71456439944,10.5,10500098119.714565,47.655,-122.3035,60.0,9.933333333333334
2026-02-06T21:33:04+00:00,SAT-61721,335.0156412594024,30.204289780073566,874.1660449818241,-2.7539246291415767,96454.08960216923,10.5,10500096454.089602,47.655,-122.3035,60.0,9.95
2026-02-06T21:33:05+00:00,SAT-61721,335.50855013420033,30.338097181303763,871.419503244572,-2.7059140327840008,94772.55543310569,10.5,10500094772.555433,47.655,-122.3035,60.0,9.966666666666667
2026-02-06T21:33:06+00:00,SAT-61721,336.00586859599167,30.470487358154905,868.7208433938936,-2.657451533930771,93075.1937270987,10.5,10500093075.193727,47.655,-122.3035,60.0,9.983333333333333
