DopplerPredictor/satellites_20260211_204923/SAT-59726.csv

timestamp,satellite,azimuth_deg,elevation_deg,distance_km,relative_velocity_kms,doppler_shift_hz,tx_freq_ghz,rx_freq_hz,ue_lat,ue_lon,ue_alt_m,time_minutes
2026-02-06T21:29:37+00:00,SAT-59726,240.00687170025992,30.059997252102267,871.7587575344658,-5.907873537650746,206918.72156881556,10.5,10500206918.72157,47.655,-122.3035,60.0,6.5
2026-02-06T21:29:38+00:00,SAT-59726,240.0020407222191,30.348115272656788,865.8667221904828,-5.890333358788755,206304.3903101856,10.5,10500206304.39031,47.655,-122.3035,60.0,6.516666666666667
2026-02-06T21:29:39+00:00,SAT-59726,239.99705663280395,30.639754850157814,859.9921800025633,-5.872424692943235,205677.15307869407,10.5,10500205677.153078,47.655,-122.3035,60.0,6.533333333333333
2026-02-06T21:29:40+00:00,SAT-59726,239.99191481175964,30.93497782282285,854.1354984698272,-5.854138517513046,205036.69386468348,10.5,10500205036.693865,47.655,-122.3035,60.0,6.55
2026-02-06T21:29:41+00:00,SAT-59726,239.98661045245228,31.233847128991147,848.2970540898085,-5.835465647528585,204382.69097166593,10.5,10500204382.690971,47.655,-122.3035,60.0,6.566666666666666
2026-02-06T21:29:42+00:00,SAT-59726,239.9811385521533,31.536426819713682,842.4772325203866,-5.8163966173616,203714.81287330049,10.5,10500203714.812874,47.655,-122.3035,60.0,6.583333333333333
2026-02-06T21:29:43+00:00,SAT-59726,239.97549390202974,31.842782064727245,836.6764288596935,-5.796921698647559,203032.7188411103,10.5,10500203032.718842,47.655,-122.3035,60.0,6.6
2026-02-06T21:29:44+00:00,SAT-59726,239.96967107661413,32.152979158419,830.895047908145,-5.777030957979011,202336.06096514815,10.5,10500202336.060965,47.655,-122.3035,60.0,6.616666666666666
2026-02-06T21:29:45+00:00,SAT-59726,239.96366442212545,32.467085527972834,825.1335043729339,-5.756714213606029,201624.48263746282,10.5,10500201624.482637,47.655,-122.3035,60.0,6.633333333333334
2026-02-06T21:29:46+00:00,SAT-59726,239.9574680444454,32.7851697383382,819.3922231157079,-5.735960959998604,200897.61590995506,10.5,10500200897.61591,47.655,-122.3035,60.0,6.65
2026-02-06T21:29:47+00:00,SAT-59726,239.9510757964189,33.107301491858735,813.6716394754807,-5.714760538344721,200155.0874659414,10.5,10500200155.087465,47.655,-122.3035,60.0,6.666666666666667
2026-02-06T21:29:48+00:00,SAT-59726,239.94448126368266,33.433551636108966,807.9721994215023,-5.6931019118071955,199396.51074869788,10.5,10500199396.510748,47.655,-122.3035,60.0,6.683333333333334
2026-02-06T21:29:49+00:00,SAT-59726,239.93767775049417,33.76399215782764,802.2943599302727,-5.670973866466906,198621.49299934198,10.5,10500198621.493,47.655,-122.3035,60.0,6.7
2026-02-06T21:29:50+00:00,SAT-59726,239.93065826369914,34.09869618665281,796.6385891621472,-5.6483648557081905,197829.62980655103,10.5,10500197829.629807,47.655,-122.3035,60.0,6.716666666666667
2026-02-06T21:29:51+00:00,SAT-59726,239.9234154963054,34.43773798831791,791.0053667931429,-5.625263078729521,197020.50785633828,10.5,10500197020.507856,47.655,-122.3035,60.0,6.733333333333333
2026-02-06T21:29:52+00:00,SAT-59726,239.9159418095745,34.78119296049695,785.395184268441,-5.601656442535276,196193.70360084376,10.5,10500196193.7036,47.655,-122.3035,60.0,6.75
2026-02-06T21:29:53+00:00,SAT-59726,239.90822921404003,35.12913762440374,779.8085450937996,-5.577532588146286,195348.7841763384,10.5,10500195348.784176,47.655,-122.3035,60.0,6.766666666666667
2026-02-06T21:29:54+00:00,SAT-59726,239.90026934897665,35.48164961578668,774.2459651008227,-5.552878841721918,194485.30569131306,10.5,10500194485.30569,47.655,-122.3035,60.0,6.783333333333333
2026-02-06T21:29:55+00:00,SAT-59726,239.89205346082704,35.838807670474175,768.7079727609784,-5.527682233926943,193602.81390478776,10.5,10500193602.813906,47.655,-122.3035,60.0,6.8
2026-02-06T21:29:56+00:00,SAT-59726,239.88357237974347,36.20069160839467,763.1951094803003,-5.501929536696528,192700.84551397737,10.5,10500192700.845514,47.655,-122.3035,60.0,6.816666666666666
2026-02-06T21:29:57+00:00,SAT-59726,239.87481649445422,36.56738231717081,757.7079298574254,-5.475607205643123,191778.92613713714,10.5,10500191778.926138,47.655,-122.3035,60.0,6.833333333333333
2026-02-06T21:29:58+00:00,SAT-59726,239.8657757254311,36.93896172891678,752.2470019990668,-5.448701354741396,190836.56942692221,10.5,10500190836.569427,47.655,-122.3035,60.0,6.85
2026-02-06T21:29:59+00:00,SAT-59726,239.8564394962693,37.31551279175641,746.8129078607367,-5.4211978626072845,189873.28079272923,10.5,10500189873.280792,47.655,-122.3035,60.0,6.866666666666666
2026-02-06T21:30:00+00:00,SAT-59726,239.8467967023017,37.69711944489647,741.4062434814739,-5.3930822865032635,188888.5543887974,10.5,10500188888.554388,47.655,-122.3035,60.0,6.883333333333334
2026-02-06T21:30:01+00:00,SAT-59726,239.83683567734545,38.08386658402062,736.0276193043354,-5.364339840284917,187881.87234180397,10.5,10500187881.872341,47.655,-122.3035,60.0,6.9
2026-02-06T21:30:02+00:00,SAT-59726,239.8265441579852,38.47584002062557,730.6776605188832,-5.334955504812064,186852.70861792885,10.5,10500186852.708618,47.655,-122.3035,60.0,6.916666666666667
2026-02-06T21:30:03+00:00,SAT-59726,239.81590924444612,38.87312644469577,725.3570072935559,-5.304913896013379,185800.52440191965,10.5,10500185800.524403,47.655,-122.3035,60.0,6.933333333333334
2026-02-06T21:30:04+00:00,SAT-59726,239.80491735916607,39.27581337287491,720.0663151396196,-5.274199363157668,184724.77153896753,10.5,10500184724.77154,47.655,-122.3035,60.0,6.95
2026-02-06T21:30:05+00:00,SAT-59726,239.7935542014734,39.68398909841468,714.806255177115,-5.242795958267821,183624.89146345409,10.5,10500183624.891464,47.655,-122.3035,60.0,6.966666666666667
2026-02-06T21:30:06+00:00,SAT-59726,239.7818046988961,40.097742633218076,709.5775144313055,-5.210687459613379,182500.3160217609,10.5,10500182500.316021,47.655,-122.3035,60.0,6.983333333333333
2026-02-06T21:30:07+00:00,SAT-59726,239.76965295413186,40.5171636456337,704.3807961056965,-5.177857280841868,181350.4642896641,10.5,10500181350.464289,47.655,-122.3035,60.0,7.0
2026-02-06T21:30:08+00:00,SAT-59726,239.7570821884967,40.94234238429213,699.2168199456801,-5.144288652359509,180174.74892505415,10.5,10500180174.748924,47.655,-122.3035,60.0,7.016666666666667
2026-02-06T21:30:09+00:00,SAT-59726,239.74407467919193,41.37336960948383,694.0863224212859,-5.109964479497496,178972.5712003192,10.5,10500178972.5712,47.655,-122.3035,60.0,7.033333333333333
2026-02-06T21:30:10+00:00,SAT-59726,239.73061169240174,41.810336505728245,688.990057051383,-5.074867384002042,177743.32245550165,10.5,10500177743.322456,47.655,-122.3035,60.0,7.05
2026-02-06T21:30:11+00:00,SAT-59726,239.7166734102339,42.25333458946437,683.9287946865057,-5.038979769320934,176486.3863849097,10.5,10500176486.386385,47.655,-122.3035,60.0,7.066666666666666
2026-02-06T21:30:12+00:00,SAT-59726,239.7022388509165,42.70245561384998,678.9033237265671,-5.002283767159134,175201.1371652682,10.5,10500175201.137165,47.655,-122.3035,60.0,7.083333333333333
2026-02-06T21:30:13+00:00,SAT-59726,239.68728578223852,43.15779145996686,673.9144503918727,-4.9647612968511705,173886.9415351913,10.5,10500173886.941536,47.655,-122.3035,60.0,7.1
2026-02-06T21:30:14+00:00,SAT-59726,239.6717906268829,43.61943402361782,668.9629989349211,-4.926394033165931,172543.15766756973,10.5,10500172543.157667,47.655,-122.3035,60.0,7.116666666666666
2026-02-06T21:30:15+00:00,SAT-59726,239.655728359366,44.08747508900676,664.0498118843157,-4.887163470265987,171169.13740969717,10.5,10500171169.13741,47.655,-122.3035,60.0,7.133333333333334
2026-02-06T21:30:16+00:00,SAT-59726,239.6390723928597,44.56200619748672,659.1757502248851,-4.847050887482938,169764.22508457786,10.5,10500169764.225084,47.655,-122.3035,60.0,7.15
2026-02-06T21:30:17+00:00,SAT-59726,239.6217944559242,45.0431185016229,654.3416936119385,-4.806037467249551,168327.76162140904,10.5,10500168327.761621,47.655,-122.3035,60.0,7.166666666666667
2026-02-06T21:30:18+00:00,SAT-59726,239.6038644562031,45.530902618780814,649.5485404679055,-4.764104150232853,166859.0794817292,10.5,10500166859.079481,47.655,-122.3035,60.0,7.183333333333334
2026-02-06T21:30:19+00:00,SAT-59726,239.58525033251422,46.025448457571606,644.7972082234528,-4.721231847505351,165357.5100905513,10.5,10500165357.51009,47.655,-122.3035,60.0,7.2
2026-02-06T21:30:20+00:00,SAT-59726,239.5659178902162,46.52684505215834,640.088633347001,-4.677401342246804,163822.3803935436,10.5,10500163822.380394,47.655,-122.3035,60.0,7.216666666666667
2026-02-06T21:30:21+00:00,SAT-59726,239.545830621271,47.03518037276979,635.4237714722714,-4.632593354652665,162253.01513039728,10.5,10500162253.015131,47.655,-122.3035,60.0,7.233333333333333
2026-02-06T21:30:22+00:00,SAT-59726,239.52494950518775,47.5505411280244,630.8035974611046,-4.586788580266805,160648.73817740087,10.5,10500160648.738178,47.655,-122.3035,60.0,7.25
2026-02-06T21:30:23+00:00,SAT-59726,239.50323278928852,48.07301255594887,626.2291054280446,-4.53996775439328,159008.874803413,10.5,10500159008.874804,47.655,-122.3035,60.0,7.266666666666667
2026-02-06T21:30:24+00:00,SAT-59726,239.4806357448187,48.60267820625485,621.7013087006852,-4.492111594536143,157332.74965386058,10.5,10500157332.749655,47.655,-122.3035,60.0,7.283333333333333
2026-02-06T21:30:25+00:00,SAT-59726,239.45711039791772,49.139619699081734,617.2212398374229,-4.443200952680232,155619.6920842566,10.5,10500155619.692083,47.655,-122.3035,60.0,7.3
2026-02-06T21:30:26+00:00,SAT-59726,239.43260522928352,49.683916483671204,612.7899504933349,-4.39321681825334,153869.0362639479,10.5,10500153869.036264,47.655,-122.3035,60.0,7.316666666666666
2026-02-06T21:30:27+00:00,SAT-59726,239.4070648405438,50.23564557968778,608.4085112831075,-4.342140310766689,152080.1209183529,10.5,10500152080.120918,47.655,-122.3035,60.0,7.333333333333333
2026-02-06T21:30:28+00:00,SAT-59726,239.38042958282705,50.79488129844088,604.0780116512987,-4.289952845958952,150252.29514802867,10.5,10500150252.295149,47.655,-122.3035,60.0,7.35
2026-02-06T21:30:29+00:00,SAT-59726,239.35263514040167,51.36169496541046,599.7995595769062,-4.23663604251188,148384.91516145726,10.5,10500148384.915161,47.655,-122.3035,60.0,7.366666666666666
2026-02-06T21:30:30+00:00,SAT-59726,239.3236120663594,51.936154610668574,595.5742813709685,-4.182171930285862,146477.3515683358,10.5,10500146477.351568,47.655,-122.3035,60.0,7.383333333333334
2026-02-06T21:30:31+00:00,SAT-59726,239.29328525967765,52.518324665656785,591.4033212664879,-4.126542915991451,144528.9881772484,10.5,10500144528.988176,47.655,-122.3035,60.0,7.4
2026-02-06T21:30:32+00:00,SAT-59726,239.26157337837495,53.10826563459928,587.2878410425914,-4.069731884466136,142539.2255428068,10.5,10500142539.225542,47.655,-122.3035,60.0,7.416666666666667
2026-02-06T21:30:33+00:00,SAT-59726,239.2283881774801,53.7060337579336,583.2290195476845,-4.011722201135643,140507.48105185575,10.5,10500140507.481052,47.655,-122.3035,60.0,7.433333333333334
2026-02-06T21:30:34+00:00,SAT-59726,239.1936337621225,54.31168065338928,579.2280522201524,-3.9524979400900158,138433.196911662,10.5,10500138433.19691,47.655,-122.3035,60.0,7.45
2026-02-06T21:30:35+00:00,SAT-59726,239.1572057386104,54.925252968063184,575.2861503815951,-3.8920437748458303,136315.8363239452,10.5,10500136315.836325,47.655,-122.3035,60.0,7.466666666666667
2026-02-06T21:30:36+00:00,SAT-59726,239.11899025363556,55.54679199153451,571.4045406390076,-3.830345166502636,134154.89007491202,10.5,10500134154.890076,47.655,-122.3035,60.0,7.483333333333333
2026-02-06T21:30:37+00:00,SAT-59726,239.07886289770258,56.176333273900354,567.5844640993088,-3.7673884329667335,131949.8789597659,10.5,10500131949.87896,47.655,-122.3035,60.0,7.5
2026-02-06T21:30:38+00:00,SAT-59726,239.03668745298145,56.81390623186071,563.8271755148313,-3.703160811730106,129700.35598149073,10.5,10500129700.355982,47.655,-122.3035,60.0,7.516666666666667
2026-02-06T21:30:39+00:00,SAT-59726,238.99231445900173,57.459533741595685,560.1339423662013,-3.6376505513962214,127405.90955647166,10.5,10500127405.909557,47.655,-122.3035,60.0,7.533333333333333
2026-02-06T21:30:40+00:00,SAT-59726,238.94557956424435,58.113231723249775,556.5060438539375,-3.5708470133235477,125066.16707448073,10.5,10500125066.167074,47.655,-122.3035,60.0,7.55
2026-02-06T21:30:41+00:00,SAT-59726,238.89630162485804,58.77500871945147,552.9447697886799,-3.502740784088739,122680.79883761371,10.5,10500122680.798838,47.655,-122.3035,60.0,7.566666666666666
2026-02-06T21:30:42+00:00,SAT-59726,238.84428050438933,59.44486547100785,549.4514193692551,-3.43332369422241,120249.51871649588,10.5,10500120249.518717,47.655,-122.3035,60.0,7.583333333333333
2026-02-06T21:30:43+00:00,SAT-59726,238.7892945201661,60.122794472534636,546.0272999420581,-3.3625890369034126,117772.0918098808,10.5,10500117772.09181,47.655,-122.3035,60.0,7.6
2026-02-06T21:30:44+00:00,SAT-59726,238.73109746331377,60.808779546843624,542.6737255423254,-3.290531528883087,115248.33307605228,10.5,10500115248.333076,47.655,-122.3035,60.0,7.616666666666666
2026-02-06T21:30:45+00:00,SAT-59726,238.6694151143684,61.50279538936243,539.3920154743779,-3.217147547785899,112678.11564409648,10.5,10500112678.115644,47.655,-122.3035,60.0,7.633333333333334
2026-02-06T21:30:46+00:00,SAT-59726,238.6039411435813,62.20480713817726,536.1834926552013,-3.1424351020245522,110061.3697602019,10.5,10500110061.36976,47.655,-122.3035,60.0,7.65
2026-02-06T21:30:47+00:00,SAT-59726,238.53433227422622,62.914769916281614,533.0494819880294,-3.0663940306565185,107398.08978748039,10.5,10500107398.089787,47.655,-122.3035,60.0,7.666666666666667
2026-02-06T21:30:48+00:00,SAT-59726,238.46020254158105,63.63262839472129,529.9913085366065,-2.98902605911237,104688.33615780917,10.5,10500104688.336159,47.655,-122.3035,60.0,7.683333333333334
2026-02-06T21:30:49+00:00,SAT-59726,238.38111644940207,64.3583163474778,527.0102956438732,-2.910334876845342,101932.23809144688,10.5,10500101932.23809,47.655,-122.3035,60.0,7.7
2026-02-06T21:30:50+00:00,SAT-59726,238.29658076816293,65.09175620181105,524.1077629732064,-2.8303262800262314,99129.99859481264,10.5,10500099129.998594,47.655,-122.3035,60.0,7.716666666666667
2026-02-06T21:30:51+00:00,SAT-59726,238.20603464697808,65.83285860013204,521.2850244073519,-2.7490082246527425,96281.89632059989,10.5,10500096281.89632,47.655,-122.3035,60.0,7.733333333333333
2026-02-06T21:30:52+00:00,SAT-59726,238.10883762472463,66.5815219513447,518.5433858943862,-2.6663909286089766,93388.28914233144,10.5,10500093388.289143,47.655,-122.3035,60.0,7.75
2026-02-06T21:30:53+00:00,SAT-59726,238.0042549986578,67.33763198152349,515.8841431918949,-2.5824869520494684,90449.61696974853,10.5,10500090449.61697,47.655,-122.3035,60.0,7.766666666666667
2026-02-06T21:30:54+00:00,SAT-59726,237.8914398461838,68.10106127550902,513.3085795309806,-2.4973112772008754,87466.40454380341,10.5,10500087466.404543,47.655,-122.3035,60.0,7.783333333333333
2026-02-06T21:30:55+00:00,SAT-59726,237.76941077266494,68.87166880404197,510.8179632006851,-2.4108813580186657,84439.26317584676,10.5,10500084439.263176,47.655,-122.3035,60.0,7.8
2026-02-06T21:30:56+00:00,SAT-59726,237.63702415335692,69.64929941873199,508.41354508288566,-2.3232172219411678,81368.89431148485,10.5,10500081368.894312,47.655,-122.3035,60.0,7.816666666666666
2026-02-06T21:30:57+00:00,SAT-59726,237.49293920971925,70.433783318421,506.09655608571245,-2.2343414893555935,78256.09021236196,10.5,10500078256.090212,47.655,-122.3035,60.0,7.833333333333333
2026-02-06T21:30:58+00:00,SAT-59726,237.3355736742285,71.22493544280614,503.86820455755065,-2.1442794336523368,75101.736059516,10.5,10500075101.73606,47.655,-122.3035,60.0,7.85
2026-02-06T21:30:59+00:00,SAT-59726,237.1630469460426,72.0225547775111,501.7296736411495,-2.0530589848945073,71906.81008190116,10.5,10500071906.810081,47.655,-122.3035,60.0,7.866666666666666
2026-02-06T21:31:00+00:00,SAT-59726,236.97310642913538,72.82642350922383,499.68211862407134,-1.9607108155833253,68672.38656025467,10.5,10500068672.38656,47.655,-122.3035,60.0,7.883333333333334
2026-02-06T21:31:01+00:00,SAT-59726,236.76303094609935,73.63630600117618,497.72666420360656,-1.867268290089549,65399.6340559717,10.5,10500065399.634056,47.655,-122.3035,60.0,7.9
2026-02-06T21:31:02+00:00,SAT-59726,236.5295024868826,74.45194744821012,495.8644018021197,-1.7727674854210567,62089.81613847368,10.5,10500062089.81614,47.655,-122.3035,60.0,7.916666666666667
2026-02-06T21:31:03+00:00,SAT-59726,236.2684334975979,75.27307210183452,494.0963868616852,-1.677247178240431,58744.29093050941,10.5,10500058744.29093,47.655,-122.3035,60.0,7.933333333333334
2026-02-06T21:31:04+00:00,SAT-59726,235.97473068083806,76.0993808486203,492.4236361516693,-1.5807488152166902,55364.51006974714,10.5,10500055364.510069,47.655,-122.3035,60.0,7.95
2026-02-06T21:31:05+00:00,SAT-59726,235.64196639316376,76.930547820112,490.847125105883,-1.4833164546956992,51952.016665825664,10.5,10500051952.016666,47.655,-122.3035,60.0,7.966666666666667
2026-02-06T21:31:06+00:00,SAT-59726,235.2619126911298,77.7662155247211,489.3677852179047,-1.3849967293833685,48508.44399336213,10.5,10500048508.443993,47.655,-122.3035,60.0,7.983333333333333
2026-02-06T21:31:07+00:00,SAT-59726,234.82386631609882,78.6059877168399,487.9865014736234,-1.2858387470399586,45035.51201384648,10.5,10500045035.512014,47.655,-122.3035,60.0,8.0
2026-02-06T21:31:08+00:00,SAT-59726,234.31364694156932,79.44941865406112,486.70410988281833,-1.1858940209172424,41535.024939256626,10.5,10500041535.024939,47.655,-122.3035,60.0,8.016666666666667
2026-02-06T21:31:09+00:00,SAT-59726,233.71206912644982,80.29599651247769,485.5213950801179,-1.085216362345879,38008.867470013975,10.5,10500038008.86747,47.655,-122.3035,60.0,8.033333333333333
2026-02-06T21:31:10+00:00,SAT-59726,232.9925369692703,81.1451169621811,484.43908803307943,-0.983861747872534,34459.000141563294,10.5,10500034459.000141,47.655,-122.3035,60.0,8.05
2026-02-06T21:31:11+00:00,SAT-59726,232.11711741988177,81.9960395290047,483.45786388278003,-0.881888200515093,30887.455165428066,10.5,10500030887.455166,47.655,-122.3035,60.0,8.066666666666666
2026-02-06T21:31:12+00:00,SAT-59726,231.02985152512275,82.84781245229937,482.57833990282995,-0.7793556318345132,27296.330897898664,10.5,10500027296.330898,47.655,-122.3035,60.0,8.083333333333334
2026-02-06T21:31:13+00:00,SAT-59726,229.64477423167253,83.69913649580148,481.80107361589324,-0.6763256934479988,23687.78663939567,10.5,10500023687.78664,47.655,-122.3035,60.0,8.1
2026-02-06T21:31:14+00:00,SAT-59726,227.82313274744743,84.54810232499257,481.1265610582965,-0.5728615844021472,20064.035887862614,10.5,10500020064.035889,47.655,-122.3035,60.0,8.116666666666667
2026-02-06T21:31:15+00:00,SAT-59726,225.32683296538025,85.39164351621817,480.55523523674725,-0.4690278908321525,16427.340722953082,10.5,10500016427.340723,47.655,-122.3035,60.0,8.133333333333333
2026-02-06T21:31:16+00:00,SAT-59726,221.7147413790343,86.22428212247027,480.0874647449646,-0.3648903715250186,12780.004295547338,10.5,10500012780.004295,47.655,-122.3035,60.0,8.15
2026-02-06T21:31:17+00:00,SAT-59726,216.08764706452914,87.0348810400841,479.7235525941707,-0.2605157652573826,9124.364079907966,10.5,10500009124.36408,47.655,-122.3035,60.0,8.166666666666666
2026-02-06T21:31:18+00:00,SAT-59726,206.40304098772836,87.7969167324596,479.46373523572885,-0.1559715789496958,5462.7844539431535,10.5,10500005462.784454,47.655,-122.3035,60.0,8.183333333333334
2026-02-06T21:31:19+00:00,SAT-59726,187.79659333882228,88.43557463978404,479.30818179505815,-0.05132587057856064,1797.6490958784784,10.5,10500001797.649096,47.655,-122.3035,60.0,8.2
2026-02-06T21:31:20+00:00,SAT-59726,153.74913124274462,88.74406629479908,479.25699352205567,0.0533529705251499,-1868.6467106323068,10.5,10499998131.353289,47.655,-122.3035,60.0,8.216666666666667
2026-02-06T21:31:21+00:00,SAT-59726,117.97383783376911,88.50176329412697,479.31020346062957,0.15799644681863112,-5533.7038918958615,10.5,10499994466.296108,47.655,-122.3035,60.0,8.233333333333333
2026-02-06T21:31:22+00:00,SAT-59726,97.60868813106299,87.89092836886532,479.4677763407778,0.26253617450437994,-9195.127358060452,10.5,10499990804.872643,47.655,-122.3035,60.0,8.25
2026-02-06T21:31:23+00:00,SAT-59726,87.11515180935629,87.13924363950017,479.72960869202825,0.3669041093117185,-12850.533910939963,10.5,10499987149.46609,47.655,-122.3035,60.0,8.266666666666667
2026-02-06T21:31:24+00:00,SAT-59726,81.10863145190844,86.33318473618414,480.09552918205577,0.4710327627092387,-16497.559816688274,10.5,10499983502.440184,47.655,-122.3035,60.0,8.283333333333333
2026-02-06T21:31:25+00:00,SAT-59726,77.29732141235719,85.50288226658361,480.56529917093064,0.5748554212814863,-20133.868489298704,10.5,10499979866.13151,47.655,-122.3035,60.0,8.3
2026-02-06T21:31:26+00:00,SAT-59726,74.68554273184469,84.66070146281935,481.1386134841576,0.6783063515312987,-23757.157663648217,10.5,10499976242.842337,47.655,-122.3035,60.0,8.316666666666666
2026-02-06T21:31:27+00:00,SAT-59726,72.79160125024868,83.81260868728168,481.8151013899667,0.7813210149735955,-27365.166928991766,10.5,10499972634.83307,47.655,-122.3035,60.0,8.333333333333334
2026-02-06T21:31:28+00:00,SAT-59726,71.35847573123108,82.96189158750086,482.5943277911215,0.883836241622866,-30955.683805227996,10.5,10499969044.316195,47.655,-122.3035,60.0,8.35
2026-02-06T21:31:29+00:00,SAT-59726,70.23774545004633,82.11057045602455,483.47579458974985,0.9857904348742181,-34526.5509187002,10.5,10499965473.449081,47.655,-122.3035,60.0,8.366666666666667
2026-02-06T21:31:30+00:00,SAT-59726,69.3381261876176,81.26000478511936,484.45894225650744,1.087123732095172,-38075.67162680026,10.5,10499961924.328373,47.655,-122.3035,60.0,8.383333333333333
2026-02-06T21:31:31+00:00,SAT-59726,68.60054902829084,80.41118119457684,485.5431515598999,1.187778164149873,-41601.015605181325,10.5,10499958398.984394,47.655,-122.3035,60.0,8.4
2026-02-06T21:31:32+00:00,SAT-59726,67.98516899236395,79.56486137083742,486.7277454547049,1.2876978169527546,-45100.62450605053,10.5,10499954899.375494,47.655,-122.3035,60.0,8.416666666666666
2026-02-06T21:31:33+00:00,SAT-59726,67.46416439349895,78.72166308569965,488.01199113151273,1.386828941862448,-48572.61582463059,10.5,10499951427.384176,47.655,-122.3035,60.0,8.433333333333334
2026-02-06T21:31:34+00:00,SAT-59726,67.01753550950755,77.88210696585371,489.3951021763645,1.4851200938147715,-52015.18773716149,10.5,10499947984.812263,47.655,-122.3035,60.0,8.45
2026-02-06T21:31:35+00:00,SAT-59726,66.63054440944488,77.04664466906705,490.8762408681543,1.582522229297465,-55426.62253239,10.5,10499944573.377468,47.655,-122.3035,60.0,8.466666666666667
2026-02-06T21:31:36+00:00,SAT-59726,66.29209584160772,76.21567649934273,492.45452057374297,1.6789888015295242,-58805.28994515267,10.5,10499941194.710054,47.655,-122.3035,60.0,8.483333333333333
2026-02-06T21:31:37+00:00,SAT-59726,65.99367990523996,75.3895627643428,494.1290082379963,1.7744758019254543,-62149.64860862934,10.5,10499937850.35139,47.655,-122.3035,60.0,8.5
2026-02-06T21:31:38+00:00,SAT-59726,65.72866202569894,74.56863131853419,495.8987269151743,1.8689418858731819,-65458.250459617666,10.5,10499934541.74954,47.655,-122.3035,60.0,8.516666666666667
2026-02-06T21:31:39+00:00,SAT-59726,65.49179429594206,73.75318266108683,497.76265842576544,1.9623483386772973,-68729.7395457214,10.5,10499931270.260454,47.655,-122.3035,60.0,8.533333333333333
2026-02-06T21:31:40+00:00,SAT-59726,65.27887179440934,72.94349351529752,499.71974597935065,2.0546591569932025,-71962.85487751872,10.5,10499928037.145123,47.655,-122.3035,60.0,8.55
2026-02-06T21:31:41+00:00,SAT-59726,65.08648613221082,72.13981935960096,501.76889687868686,2.145841064128402,-75156.43096447818,10.5,10499924843.569035,47.655,-122.3035,60.0,8.566666666666666
2026-02-06T21:31:42+00:00,SAT-59726,64.9118456318899,71.3423962775972,503.9089852390485,2.235863472389264,-78309.39649618293,10.5,10499921690.603504,47.655,-122.3035,60.0,8.583333333333334
2026-02-06T21:31:43+00:00,SAT-59726,64.75264205700242,70.55144236189736,506.1388546700173,2.3246985166401655,-81420.77551771412,10.5,10499918579.224482,47.655,-122.3035,60.0,8.6
2026-02-06T21:31:44+00:00,SAT-59726,64.60695042625282,69.76715878680544,508.4573209907428,2.4123209875711287,-84489.68509240099,10.5,10499915510.314907,47.655,-122.3035,60.0,8.616666666666667
2026-02-06T21:31:45+00:00,SAT-59726,64.47315272598831,68.9897306824621,510.8631748786465,2.4987083753897883,-87515.33683209862,10.5,10499912484.663168,47.655,-122.3035,60.0,8.633333333333333
2026-02-06T21:31:46+00:00,SAT-59726,64.34987912614841,68.21932783723162,513.3551845617036,2.5838407011602142,-90497.0309899599,10.5,10499909502.96901,47.655,-122.3035,60.0,8.65
2026-02-06T21:31:47+00:00,SAT-59726,64.23596219793454,67.45610534110999,515.932098342514,2.66770059954344,-93434.15935835891,10.5,10499906565.840641,47.655,-122.3035,60.0,8.666666666666666
2026-02-06T21:31:48+00:00,SAT-59726,64.13040089287914,66.70020411924547,518.5926472048927,2.7502731488266643,-96326.19931579458,10.5,10499903673.800684,47.655,-122.3035,60.0,8.683333333333334
2026-02-06T21:31:49+00:00,SAT-59726,64.03233194678378,65.95175145508391,521.3355472509451,2.8315458585003905,-99172.71339178954,10.5,10499900827.286608,47.655,-122.3035,60.0,8.7
2026-02-06T21:31:50+00:00,SAT-59726,63.94100697977593,65.21086146778538,524.1595021257522,2.9115085928144873,-101973.34658949998,10.5,10499898026.65341,47.655,-122.3035,60.0,8.716666666666667
2026-02-06T21:31:51+00:00,SAT-59726,63.8557740134865,64.4776355733819,527.0632053658175,2.9901534446823197,-104727.82196930505,10.5,10499895272.17803,47.655,-122.3035,60.0,8.733333333333333
2026-02-06T21:31:52+00:00,SAT-59726,63.77606244368461,63.75216294718933,530.0453426217558,3.0674746956998638,-107435.93924850694,10.5,10499892564.060751,47.655,-122.3035,60.0,8.75
2026-02-06T21:31:53+00:00,SAT-59726,63.70137073629859,63.0345209686135,533.1045938411078,3.1434686995687304,-110097.57071831229,10.5,10499889902.429281,47.655,-122.3035,60.0,8.766666666666667
2026-02-06T21:31:54+00:00,SAT-59726,63.63125628976394,62.32477567029384,536.2396353348918,3.218133801456044,-112712.65841947387,10.5,10499887287.341581,47.655,-122.3035,60.0,8.783333333333333
2026-02-06T21:31:55+00:00,SAT-59726,63.56532703046208,61.62298218329084,539.4491417637286,3.2914702266895532,-115281.21024392251,10.5,10499884718.789757,47.655,-122.3035,60.0,8.8
2026-02-06T21:31:56+00:00,SAT-59726,63.50323440629953,60.92918518559539,542.7317880129632,3.3634800005361516,-117803.29712507175,10.5,10499882196.702875,47.655,-122.3035,60.0,8.816666666666666
2026-02-06T21:31:57+00:00,SAT-59726,63.44466751376124,60.24341934662989,546.0862509877782,3.434166800762688,-120279.04787387355,10.5,10499879720.952126,47.655,-122.3035,60.0,8.833333333333334
2026-02-06T21:31:58+00:00,SAT-59726,63.38934815104389,59.56570978102929,549.511211261263,3.503535960799699,-122708.64928962571,10.5,10499877291.35071,47.655,-122.3035,60.0,8.85
2026-02-06T21:31:59+00:00,SAT-59726,63.337026629969415,58.896072480391226,553.0053547256398,3.571594244523689,-125092.33827189454,10.5,10499874907.661728,47.655,-122.3035,60.0,8.866666666666667
2026-02-06T21:32:00+00:00,SAT-59726,63.28747821622635,58.234514768103345,556.5673740188737,3.6383498332618243,-127430.40136536442,10.5,10499872569.598635,47.655,-122.3035,60.0,8.883333333333333
2026-02-06T21:32:01+00:00,SAT-59726,63.24050008900119,57.581035733521595,560.1959699383249,3.7038122133546003,-129723.17082180668,10.5,10499870276.829178,47.655,-122.3035,60.0,8.9
2026-02-06T21:32:02+00:00,SAT-59726,63.1959087346296,56.935626665130464,563.8898527422617,3.7679920421671294,-131971.01990722815,10.5,10499868028.980093,47.655,-122.3035,60.0,8.916666666666666
2026-02-06T21:32:03+00:00,SAT-59726,63.153537703521344,56.298271484744525,567.6477433177465,3.8309010984651013,-134174.36116382742,10.5,10499865825.638836,47.655,-122.3035,60.0,8.933333333333334
2026-02-06T21:32:04+00:00,SAT-59726,63.11323567248467,55.66894716698854,571.4683742990312,3.892552189674902,-136333.64316185188,10.5,10499863666.356838,47.655,-122.3035,60.0,8.95
2026-02-06T21:32:05+00:00,SAT-59726,63.074864765137995,55.04762415170988,575.3504910934575,3.952959040584247,-138449.34660142317,10.5,10499861550.653399,47.655,-122.3035,60.0,8.966666666666667
2026-02-06T21:32:06+00:00,SAT-59726,63.03829909117554,54.43426675148096,579.2928527963624,4.012136187796377,-140521.98061587644,10.5,10499859478.019384,47.655,-122.3035,60.0,8.983333333333333
2026-02-06T21:32:07+00:00,SAT-59726,63.00342347214443,53.8288335521643,583.2942330007141,4.070098977709172,-142552.08270098077,10.5,10499857447.9173,47.655,-122.3035,60.0,9.0
2026-02-06T21:32:08+00:00,SAT-59726,62.97013232599389,53.23127779069464,587.3534206047376,4.126863408088643,-144540.21316617227,10.5,10499855459.786835,47.655,-122.3035,60.0,9.016666666666667
2026-02-06T21:32:09+00:00,SAT-59726,62.938328688428406,52.64154773417748,591.4692204615362,4.182446095913732,-146486.95400834325,10.5,10499853513.045992,47.655,-122.3035,60.0,9.033333333333333
2026-02-06T21:32:10+00:00,SAT-59726,62.90792335139901,52.05958704061983,595.6404539966442,4.2368641606276825,-148392.90482281134,10.5,10499851607.095177,47.655,-122.3035,60.0,9.05
2026-02-06T21:32:11+00:00,SAT-59726,62.87883410310681,51.485335113783954,599.8659597091446,4.29013524749774,-150258.6836214748,10.5,10499849741.316378,47.655,-122.3035,60.0,9.066666666666666
2026-02-06T21:32:12+00:00,SAT-59726,62.850985055307305,50.91872743285872,604.1445936960824,4.342277342507015,-152084.9203495428,10.5,10499847915.07965,47.655,-122.3035,60.0,9.083333333333334
2026-02-06T21:32:13+00:00,SAT-59726,62.82430604710615,50.359695885805706,608.4752299922685,4.393308799448822,-153872.25783449374,10.5,10499846127.742165,47.655,-122.3035,60.0,9.1
2026-02-06T21:32:14+00:00,SAT-59726,62.79873211467895,49.80816907750715,612.8567609371026,4.4432482663209685,-155621.34920809173,10.5,10499844378.650791,47.655,-122.3035,60.0,9.116666666666667
2026-02-06T21:32:15+00:00,SAT-59726,62.77420301895427,49.26407262722297,617.2880974679898,4.492114577147478,-157332.85411752595,10.5,10499842667.145882,47.655,-122.3035,60.0,9.133333333333333
2026-02-06T21:32:16+00:00,SAT-59726,62.750662823831654,48.727329459427615,621.7681693058677,4.539926793070838,-159007.4401646348,10.5,10499840992.559835,47.655,-122.3035,60.0,9.15
2026-02-06T21:32:17+00:00,SAT-59726,62.72805951883778,48.19786007014302,626.2959251817163,4.586704085104548,-160645.77879940448,10.5,10499839354.2212,47.655,-122.3035,60.0,9.166666666666666
2026-02-06T21:32:18+00:00,SAT-59726,62.70634468063533,47.675582788894594,630.8703329461335,4.6324656675990274,-162248.54298966317,10.5,10499837751.45701,47.655,-122.3035,60.0,9.183333333333334
2026-02-06T21:32:19+00:00,SAT-59726,62.685473169212074,47.1604140298314,635.4903796125582,4.677230893053308,-163816.410541788,10.5,10499836183.589458,47.655,-122.3035,60.0,9.2
2026-02-06T21:32:20+00:00,SAT-59726,62.66540285419742,46.65226851486742,640.155071495045,4.721019017709474,-165350.05589083058,10.5,10499834649.944109,47.655,-122.3035,60.0,9.216666666666667
2026-02-06T21:32:21+00:00,SAT-59726,62.6460943682246,46.15105950634002,644.8634341122687,4.763849352793145,-166850.15539759852,10.5,10499833149.844603,47.655,-122.3035,60.0,9.233333333333333
2026-02-06T21:32:22+00:00,SAT-59726,62.627510884109356,45.656699006798696,649.614512242358,4.805741084136746,-168317.38103109927,10.5,10499831682.618969,47.655,-122.3035,60.0,9.25
2026-02-06T21:32:23+00:00,SAT-59726,62.60961791326557,45.169097962914435,654.4073697978405,4.846713359514794,-169752.40342739157,10.5,10499830247.596573,47.655,-122.3035,60.0,9.266666666666667
2026-02-06T21:32:24+00:00,SAT-59726,62.592383122992736,44.68816644542396,659.241089787685,4.886785151294963,-171155.88707904422,10.5,10499828844.11292,47.655,-122.3035,60.0,9.283333333333333
2026-02-06T21:32:25+00:00,SAT-59726,62.57577617063372,44.21381382912605,664.1147741423656,4.925975359780632,-172528.49395462987,10.5,10499827471.506046,47.655,-122.3035,60.0,9.3
2026-02-06T21:32:26+00:00,SAT-59726,62.55976855282286,43.74594894923504,669.0275436419911,4.964302662543804,-173870.87822172613,10.5,10499826129.121778,47.655,-122.3035,60.0,9.316666666666666
2026-02-06T21:32:27+00:00,SAT-59726,62.544333468230526,43.28448025992635,673.9785376941703,5.001785576600072,-175183.68842454586,10.5,10499824816.311575,47.655,-122.3035,60.0,9.333333333333334
2026-02-06T21:32:28+00:00,SAT-59726,62.52944569237827,42.829315974666635,678.9669141738862,5.038442420488817,-176467.56615582563,10.5,10499823532.433844,47.655,-122.3035,60.0,9.35
2026-02-06T21:32:29+00:00,SAT-59726,62.51508146339468,42.38036419888876,683.9918492255508,5.074291258856171,-177723.14411588633,10.5,10499822276.855885,47.655,-122.3035,60.0,9.366666666666667
2026-02-06T21:32:30+00:00,SAT-59726,62.50121837751752,41.9375330568148,689.0525370097937,5.109349973671586,-178951.04860693877,10.5,10499821048.951393,47.655,-122.3035,60.0,9.383333333333333
2026-02-06T21:32:31+00:00,SAT-59726,62.48783529343593,41.5007308017733,694.1481895212765,5.143636175942065,-180151.89644094277,10.5,10499819848.10356,47.655,-122.3035,60.0,9.4
2026-02-06T21:32:32+00:00,SAT-59726,62.47491224467087,41.06986592485416,699.2780363184526,5.177167195496688,-181326.29458181772,10.5,10499818673.705418,47.655,-122.3035,60.0,9.416666666666666
2026-02-06T21:32:33+00:00,SAT-59726,62.46243035900026,40.64484725513516,704.441324243147,5.209960131370758,-182474.8419101089,10.5,10499817525.15809,47.655,-122.3035,60.0,9.433333333333334
2026-02-06T21:32:34+00:00,SAT-59726,62.450371784621176,40.22558404721778,709.63731719038,5.242031801178979,-183598.12744982154,10.5,10499816401.872551,47.655,-122.3035,60.0,9.45
2026-02-06T21:32:35+00:00,SAT-59726,62.43871962201512,39.81198606512034,714.8652958277006,5.273398712040073,-184696.7293500785,10.5,10499815303.27065,47.655,-122.3035,60.0,9.466666666666667
2026-02-06T21:32:36+00:00,SAT-59726,62.427457861369035,39.40396366087444,720.1245572855228,5.3040771329263245,-185771.2174191067,10.5,10499814228.782581,47.655,-122.3035,60.0,9.483333333333333
2026-02-06T21:32:37+00:00,SAT-59726,62.416571324755886,39.00142784044205,725.4144149196181,5.334082988411072,-186822.14940282537,10.5,10499813177.850597,47.655,-122.3035,60.0,9.5
2026-02-06T21:32:38+00:00,SAT-59726,62.40604561279123,38.60429033136026,730.7341979676409,5.363431924131745,-187850.07327763832,10.5,10499812149.926722,47.655,-122.3035,60.0,9.516666666666667
2026-02-06T21:32:39+00:00,SAT-59726,62.39586705537685,38.2124636390833,736.0832512709375,5.392139299980986,-188855.5270119582,10.5,10499811144.472988,47.655,-122.3035,60.0,9.533333333333333
2026-02-06T21:32:40+00:00,SAT-59726,62.38602266609826,37.8258610982526,741.4609349895705,5.420220179586758,-189839.03819775535,10.5,10499810160.961802,47.655,-122.3035,60.0,9.55
2026-02-06T21:32:41+00:00,SAT-59726,62.37650010001267,37.4443969194822,746.8666243068462,5.4476892836457,-190801.12241609444,10.5,10499809198.877584,47.655,-122.3035,60.0,9.566666666666666
2026-02-06T21:32:42+00:00,SAT-59726,62.36728761453751,37.06798623441302,752.2997090873034,5.474561076431653,-191742.28626702927,10.5,10499808257.713734,47.655,-122.3035,60.0,9.583333333333334
2026-02-06T21:32:43+00:00,SAT-59726,62.35837403317056,36.69654513003304,757.7595936209788,5.500849705667679,-192663.02526366632,10.5,10499807336.974737,47.655,-122.3035,60.0,9.6
2026-02-06T21:32:44+00:00,SAT-59726,62.3497487117391,36.32999068303482,763.2456963077026,5.526568986634665,-193563.8232755808,10.5,10499806436.176723,47.655,-122.3035,60.0,9.616666666666667
2026-02-06T21:32:45+00:00,SAT-59726,62.341401507141015,35.96824099112825,768.7574493255507,5.551732489438748,-194445.15558529113,10.5,10499805554.844414,47.655,-122.3035,60.0,9.633333333333333
2026-02-06T21:32:46+00:00,SAT-59726,62.33332274815002,35.61121519490483,774.2942983863244,5.576353455397228,-195307.48595973983,10.5,10499804692.51404,47.655,-122.3035,60.0,9.65
2026-02-06T21:32:47+00:00,SAT-59726,62.325503208352934,35.25883350192289,779.8557024076445,5.600444824624859,-196151.26761648225,10.5,10499803848.732384,47.655,-122.3035,60.0,9.666666666666666
2026-02-06T21:32:48+00:00,SAT-59726,62.317934080815355,34.911017205751584,785.441133212556,5.6240192544707925,-196976.94386942624,10.5,10499803023.056131,47.655,-122.3035,60.0,9.683333333333334
2026-02-06T21:32:49+00:00,SAT-59726,62.310606954539196,34.567688700982025,791.0500752475198,5.6470891223122655,-197784.9482266788,10.5,10499802215.051773,47.655,-122.3035,60.0,9.7
2026-02-06T21:32:50+00:00,SAT-59726,62.30351379245526,34.228771495489376,796.6820253031935,5.669666505491346,-198575.7036878464,10.5,10499801424.296312,47.655,-122.3035,60.0,9.716666666666667
2026-02-06T21:32:51+00:00,SAT-59726,62.296646910876625,33.894190221491556,802.3364922151975,5.691763217974742,-199349.62402801606,10.5,10499800650.375973,47.655,-122.3035,60.0,9.733333333333333
2026-02-06T21:32:52+00:00,SAT-59726,62.28999896028611,33.56387064218785,808.0129966014483,5.713390737677224,-200107.1112523146,10.5,10499799892.888748,47.655,-122.3035,60.0,9.75
2026-02-06T21:32:53+00:00,SAT-59726,62.28356290734492,33.23773966058783,813.7110705270056,5.734560355333804,-200848.56081004193,10.5,10499799151.43919,47.655,-122.3035,60.0,9.766666666666667
2026-02-06T21:32:54+00:00,SAT-59726,62.277332018122124,32.91572531786904,819.4302573173961,5.755283043404455,-201574.35700315973,10.5,10499798425.642998,47.655,-122.3035,60.0,9.783333333333333
2026-02-06T21:32:55+00:00,SAT-59726,62.27129984229343,32.59775679771883,825.1701112411904,5.775569489697539,-202284.87416392632,10.5,10499797715.125835,47.655,-122.3035,60.0,9.8
2026-02-06T21:32:56+00:00,SAT-59726,62.26546019837576,32.28376442706237,830.9301972261145,5.7954301642065635,-202980.47899580223,10.5,10499797019.521004,47.655,-122.3035,60.0,9.816666666666666
2026-02-06T21:32:57+00:00,SAT-59726,62.259807159849274,31.973679671765932,836.7100906418203,5.814875257971204,-203661.52843210503,10.5,10499796338.471567,47.655,-122.3035,60.0,9.833333333333334
2026-02-06T21:32:58+00:00,SAT-59726,62.25433504219538,31.667435134509883,842.5093770216776,5.83391471895369,-204328.3708925518,10.5,10499795671.629107,47.655,-122.3035,60.0,9.85
2026-02-06T21:32:59+00:00,SAT-59726,62.24903839060776,31.364964549584922,848.32765182035,5.852558225405038,-204981.34535043206,10.5,10499795018.65465,47.655,-122.3035,60.0,9.866666666666667
2026-02-06T21:33:00+00:00,SAT-59726,62.24391196855104,31.066202778070927,854.1645201448056,5.870815272766302,-205620.78437625733,10.5,10499794379.215624,47.655,-122.3035,60.0,9.883333333333333
2026-02-06T21:33:01+00:00,SAT-59726,62.238950746950195,30.771085797690535,860.019596571998,5.888695025847789,-206247.00896045152,10.5,10499793752.99104,47.655,-122.3035,60.0,9.9
2026-02-06T21:33:02+00:00,SAT-59726,62.2341498939794,30.47955069940399,865.8925048191215,5.906206521763868,-206860.33562098688,10.5,10499793139.66438,47.655,-122.3035,60.0,9.916666666666666
2026-02-06T21:33:03+00:00,SAT-59726,62.229504765520566,30.191535673070042,871.7828776162573,5.923358502487774,-207461.07053874462,10.5,10499792538.92946,47.655,-122.3035,60.0,9.933333333333334
