DopplerPredictor/satellites_20260211_204923/SAT-49740.csv

timestamp,satellite,azimuth_deg,elevation_deg,distance_km,relative_velocity_kms,doppler_shift_hz,tx_freq_ghz,rx_freq_hz,ue_lat,ue_lon,ue_alt_m,time_minutes
2026-02-06T21:24:20+00:00,SAT-49740,221.20561835398703,30.068161816598273,980.7722398949115,-5.617349253366291,196743.3322166699,10.5,10500196743.332216,47.655,-122.3035,60.0,1.2166666666666666
2026-02-06T21:24:21+00:00,SAT-49740,221.07577468200088,30.318031551491476,975.1699499796995,-5.599293782352447,196110.95324719843,10.5,10500196110.953247,47.655,-122.3035,60.0,1.2333333333333334
2026-02-06T21:24:22+00:00,SAT-49740,220.94371072887625,30.570284305900035,969.585667131275,-5.580918382690313,195467.36902316695,10.5,10500195467.369022,47.655,-122.3035,60.0,1.25
2026-02-06T21:24:23+00:00,SAT-49740,220.8093714858563,30.824948379606578,964.019710420602,-5.562216707416069,194812.35724705498,10.5,10500194812.357246,47.655,-122.3035,60.0,1.2666666666666666
2026-02-06T21:24:24+00:00,SAT-49740,220.67270016725493,31.082052165963795,958.4724052485925,-5.543182283119804,194145.69119266485,10.5,10500194145.691193,47.655,-122.3035,60.0,1.2833333333333334
2026-02-06T21:24:25+00:00,SAT-49740,220.53363814074083,31.34162413225472,952.9440834722146,-5.5238085467783575,193467.1409951639,10.5,10500193467.140995,47.655,-122.3035,60.0,1.3
2026-02-06T21:24:26+00:00,SAT-49740,220.39212485332982,31.603692800341143,947.4350834938643,-5.504088793084059,192776.47180631413,10.5,10500192776.471806,47.655,-122.3035,60.0,1.3166666666666667
2026-02-06T21:24:27+00:00,SAT-49740,220.24809775534885,31.868286723357638,941.9457504032704,-5.484016223342077,192073.4455070641,10.5,10500192073.445507,47.655,-122.3035,60.0,1.3333333333333333
2026-02-06T21:24:28+00:00,SAT-49740,220.10149221961322,32.135434463092736,936.476436070629,-5.463583848287364,191357.81730378728,10.5,10500191357.817305,47.655,-122.3035,60.0,1.35
2026-02-06T21:24:29+00:00,SAT-49740,219.95224145950775,32.40516456093611,931.0274993366642,-5.44278460699995,190629.33989319863,10.5,10500190629.339893,47.655,-122.3035,60.0,1.3666666666666667
2026-02-06T21:24:30+00:00,SAT-49740,219.80027643989635,32.6775055127097,925.5993060840916,-5.421611274840426,189887.76023786588,10.5,10500189887.760239,47.655,-122.3035,60.0,1.3833333333333333
2026-02-06T21:24:31+00:00,SAT-49740,219.64552578640962,32.95248573706246,920.192229400897,-5.400056544108613,189132.8223912172,10.5,10500189132.822392,47.655,-122.3035,60.0,1.4
2026-02-06T21:24:32+00:00,SAT-49740,219.48791568815037,33.23013354581079,914.8066496631752,-5.3781129286164004,188364.2641552784,10.5,10500188364.264154,47.655,-122.3035,60.0,1.4166666666666667
2026-02-06T21:24:33+00:00,SAT-49740,219.32736979862267,33.5104771072522,909.4429547131408,-5.355772849384031,187581.82008211935,10.5,10500187581.820082,47.655,-122.3035,60.0,1.4333333333333333
2026-02-06T21:24:34+00:00,SAT-49740,219.16380912935668,33.79354441148622,904.1015399516693,-5.333028584777118,186785.21972744138,10.5,10500186785.219727,47.655,-122.3035,60.0,1.45
2026-02-06T21:24:35+00:00,SAT-49740,218.99715193998296,34.079363230712424,898.78280848057,-5.3098722793621365,185974.18796073392,10.5,10500185974.187962,47.655,-122.3035,60.0,1.4666666666666666
2026-02-06T21:24:36+00:00,SAT-49740,218.82731362283272,34.367961077324836,893.4871712360265,-5.286295944433818,185148.44498374636,10.5,10500185148.444984,47.655,-122.3035,60.0,1.4833333333333334
2026-02-06T21:24:37+00:00,SAT-49740,218.65420658198494,34.659365159215135,888.215047121511,-5.262291476719294,184307.70698558594,10.5,10500184307.706985,47.655,-122.3035,60.0,1.5
2026-02-06T21:24:38+00:00,SAT-49740,218.47774010579505,34.9536023331496,882.9668631220446,-5.237850667306749,183451.68645543733,10.5,10500183451.686455,47.655,-122.3035,60.0,1.5166666666666666
2026-02-06T21:24:39+00:00,SAT-49740,218.2978202329202,35.25069905558492,877.7430544095533,-5.212965108925566,182580.0889351207,10.5,10500182580.088936,47.655,-122.3035,60.0,1.5333333333333334
2026-02-06T21:24:40+00:00,SAT-49740,218.11434961540354,35.55068132489748,872.5440645406953,-5.187626348590877,181692.61836534995,10.5,10500181692.618366,47.655,-122.3035,60.0,1.55
2026-02-06T21:24:41+00:00,SAT-49740,217.92722736936003,35.853574628719436,867.3703455024529,-5.16182575650054,180788.97249395002,10.5,10500180788.972494,47.655,-122.3035,60.0,1.5666666666666667
2026-02-06T21:24:42+00:00,SAT-49740,217.73634892331395,36.15940388012837,862.2223578884735,-5.1355545971312635,179868.84536594403,10.5,10500179868.845366,47.655,-122.3035,60.0,1.5833333333333333
2026-02-06T21:24:43+00:00,SAT-49740,217.5416058566486,36.46819335393345,857.1005710045108,-5.10880402868503,178931.92730416456,10.5,10500178931.927303,47.655,-122.3035,60.0,1.6
2026-02-06T21:24:44+00:00,SAT-49740,217.34288572987242,36.77996661884746,852.0054629744118,-5.081565068158393,177977.90368583298,10.5,10500177977.903687,47.655,-122.3035,60.0,1.6166666666666667
2026-02-06T21:24:45+00:00,SAT-49740,217.1400719084052,37.09474646314809,846.937520880945,-5.053828614418316,177006.45575077253,10.5,10500177006.455751,47.655,-122.3035,60.0,1.6333333333333333
2026-02-06T21:24:46+00:00,SAT-49740,216.933043376526,37.41255481701237,841.8972408836138,-5.025585496050818,176017.26227727046,10.5,10500176017.262278,47.655,-122.3035,60.0,1.65
2026-02-06T21:24:47+00:00,SAT-49740,216.72167454035548,37.733412672980435,836.8851282887472,-4.996826373522048,175009.99615534526,10.5,10500175009.996155,47.655,-122.3035,60.0,1.6666666666666667
2026-02-06T21:24:48+00:00,SAT-49740,216.50583502544586,38.057339995069185,831.9016977171704,-4.96754184058784,173984.3279385378,10.5,10500173984.327938,47.655,-122.3035,60.0,1.6833333333333333
2026-02-06T21:24:49+00:00,SAT-49740,216.28538946006452,38.38435562875879,826.9474731707364,-4.93772240814819,172939.92527842708,10.5,10500172939.925278,47.655,-122.3035,60.0,1.7
2026-02-06T21:24:50+00:00,SAT-49740,216.06019724832237,38.71447720430392,822.0229881149588,-4.9073584317183325,171876.4503843605,10.5,10500171876.450384,47.655,-122.3035,60.0,1.7166666666666666
2026-02-06T21:24:51+00:00,SAT-49740,215.8301123361414,39.04772102906379,817.1287856339807,-4.87644021541584,170793.563665522,10.5,10500170793.563665,47.655,-122.3035,60.0,1.7333333333333334
2026-02-06T21:24:52+00:00,SAT-49740,215.59498296055224,39.384101980201415,812.2654184818338,-4.844957999628798,169690.92329901902,10.5,10500169690.9233,47.655,-122.3035,60.0,1.75
2026-02-06T21:24:53+00:00,SAT-49740,215.35465138735722,39.723633389921595,807.4334491459973,-4.81290188469974,168568.1825569717,10.5,10500168568.182556,47.655,-122.3035,60.0,1.7666666666666666
2026-02-06T21:24:54+00:00,SAT-49740,215.1089536403175,40.06632691816231,802.6334499870702,-4.780261982686812,167424.99512183035,10.5,10500167424.995121,47.655,-122.3035,60.0,1.7833333333333334
2026-02-06T21:24:55+00:00,SAT-49740,214.85771920894993,40.412192428323934,797.866003227083,-4.747028256680307,166261.0094585609,10.5,10500166261.009459,47.655,-122.3035,60.0,1.8
2026-02-06T21:24:56+00:00,SAT-49740,214.60077075129283,40.76123784364111,793.131701098069,-4.713190680008091,165075.87439069248,10.5,10500165075.874392,47.655,-122.3035,60.0,1.8166666666666667
2026-02-06T21:24:57+00:00,SAT-49740,214.337923773525,41.11346900649083,788.4311458318535,-4.678739143838976,163869.23586419658,10.5,10500163869.235865,47.655,-122.3035,60.0,1.8333333333333333
2026-02-06T21:24:58+00:00,SAT-49740,214.06898629966292,41.4688895221809,783.7649497419931,-4.643663511722821,162640.73885771207,10.5,10500162640.738857,47.655,-122.3035,60.0,1.85
2026-02-06T21:24:59+00:00,SAT-49740,213.79375852251613,41.82750059734577,779.1337352513196,-4.607953644406778,161390.0282517153,10.5,10500161390.028252,47.655,-122.3035,60.0,1.8666666666666667
2026-02-06T21:25:00+00:00,SAT-49740,213.5120324368438,42.18930087047781,774.5381348947361,-4.571599352544814,160116.7471722072,10.5,10500160116.747171,47.655,-122.3035,60.0,1.8833333333333333
2026-02-06T21:25:01+00:00,SAT-49740,213.22359145852744,42.55428622844924,769.9787913691749,-4.534590471611837,158820.53961452324,10.5,10500158820.539614,47.655,-122.3035,60.0,1.9
2026-02-06T21:25:02+00:00,SAT-49740,212.92821002145573,42.92244961793574,765.4563575088437,-4.496916812122816,157501.04869979605,10.5,10500157501.0487,47.655,-122.3035,60.0,1.9166666666666667
2026-02-06T21:25:03+00:00,SAT-49740,212.62565315974146,43.29378084141738,760.9714963101198,-4.458568257866698,156157.9201155232,10.5,10500156157.920116,47.655,-122.3035,60.0,1.9333333333333333
2026-02-06T21:25:04+00:00,SAT-49740,212.3156760644539,43.66826634910776,756.5248808584699,-4.419534677554315,154790.7990211025,10.5,10500154790.79902,47.655,-122.3035,60.0,1.95
2026-02-06T21:25:05+00:00,SAT-49740,211.99802362730972,44.0458890109828,752.1171943434906,-4.379806056283143,153399.3346522847,10.5,10500153399.334652,47.655,-122.3035,60.0,1.9666666666666666
2026-02-06T21:25:06+00:00,SAT-49740,211.67242995526234,44.426627886523136,747.7491299428311,-4.339372377584584,151983.17618996985,10.5,10500151983.17619,47.655,-122.3035,60.0,1.9833333333333334
2026-02-06T21:25:07+00:00,SAT-49740,211.33861787374607,44.81045797048602,743.4213908237573,-4.2982237526083376,150541.9772847906,10.5,10500150541.977285,47.655,-122.3035,60.0,2.0
2026-02-06T21:25:08+00:00,SAT-49740,210.99629839983226,45.19734993504475,739.134690015875,-4.256350400452145,149075.39536817672,10.5,10500149075.395369,47.655,-122.3035,60.0,2.0166666666666666
2026-02-06T21:25:09+00:00,SAT-49740,210.6451701958908,45.58726985508148,734.88975030347,-4.213742634341893,147583.09116832376,10.5,10500147583.091167,47.655,-122.3035,60.0,2.033333333333333
2026-02-06T21:25:10+00:00,SAT-49740,210.2849190040762,45.98017891604986,730.6873041316344,-4.170390954304474,146064.73195598862,10.5,10500146064.731956,47.655,-122.3035,60.0,2.05
2026-02-06T21:25:11+00:00,SAT-49740,209.91521705194245,46.37603311351409,726.5280934199644,-4.126285974695387,144519.9890061996,10.5,10500144519.989006,47.655,-122.3035,60.0,2.066666666666667
2026-02-06T21:25:12+00:00,SAT-49740,209.53572244436302,46.77478292835902,722.4128694485399,-4.08141854224778,142948.54173283334,10.5,10500142948.541733,47.655,-122.3035,60.0,2.0833333333333335
2026-02-06T21:25:13+00:00,SAT-49740,209.1460785247633,47.17637299470297,718.3423926261681,-4.0357796677896856,141350.07529706333,10.5,10500141350.075296,47.655,-122.3035,60.0,2.1
2026-02-06T21:25:14+00:00,SAT-49740,208.74591322389094,47.58074174208534,714.3174323267302,-3.9893606404037816,139724.2846057178,10.5,10500139724.284605,47.655,-122.3035,60.0,2.1166666666666667
2026-02-06T21:25:15+00:00,SAT-49740,208.33483837947784,47.987821028772785,710.3387666116716,-3.9421529832051534,138070.8727624299,10.5,10500138070.872763,47.655,-122.3035,60.0,2.1333333333333333
2026-02-06T21:25:16+00:00,SAT-49740,207.91244904391456,48.39753574995229,706.4071819965972,-3.8941484968987785,136389.5525932049,10.5,10500136389.552593,47.655,-122.3035,60.0,2.15
2026-02-06T21:25:17+00:00,SAT-49740,207.47832277359586,48.8098034284906,702.5234731744263,-3.8453393137071057,134680.04853519233,10.5,10500134680.048534,47.655,-122.3035,60.0,2.1666666666666665
2026-02-06T21:25:18+00:00,SAT-49740,207.03201890035098,49.22453378884466,698.6884426847623,-3.7957178973921644,132942.0966374602,10.5,10500132942.096638,47.655,-122.3035,60.0,2.183333333333333
2026-02-06T21:25:19+00:00,SAT-49740,206.57307779474132,49.641628307747155,694.9029005832439,-3.745277057449379,131175.44505812245,10.5,10500131175.445059,47.655,-122.3035,60.0,2.2
2026-02-06T21:25:20+00:00,SAT-49740,206.10102012374068,50.06097974216698,691.1676640967377,-3.6940100391004598,129379.85721627068,10.5,10500129379.857216,47.655,-122.3035,60.0,2.216666666666667
2026-02-06T21:25:21+00:00,SAT-49740,205.61534609794467,50.482471642343626,687.4835571887785,-3.641910489657129,127555.1106138896,10.5,10500127555.110615,47.655,-122.3035,60.0,2.2333333333333334
2026-02-06T21:25:22+00:00,SAT-49740,205.11553472990943,50.90597783566808,683.8514101585604,-3.588972527765046,125700.99926107208,10.5,10500125700.999262,47.655,-122.3035,60.0,2.25
2026-02-06T21:25:23+00:00,SAT-49740,204.60104309771424,51.33136189219365,680.2720591708643,-3.5351907451340487,123817.3337366196,10.5,10500123817.333736,47.655,-122.3035,60.0,2.2666666666666666
2026-02-06T21:25:24+00:00,SAT-49740,204.0713056312847,51.75847656368488,676.7463457842615,-3.480560272083506,121903.9434837177,10.5,10500121903.943483,47.655,-122.3035,60.0,2.283333333333333
2026-02-06T21:25:25+00:00,SAT-49740,203.52573342295256,52.187163203328105,673.2751164139503,-3.4250767929179955,119960.67734845735,10.5,10500119960.67735,47.655,-122.3035,60.0,2.3
2026-02-06T21:25:26+00:00,SAT-49740,202.9637135808549,52.61725116013888,669.8592217792535,-3.3687365934715263,117987.40524503464,10.5,10500117987.405245,47.655,-122.3035,60.0,2.316666666666667
2026-02-06T21:25:27+00:00,SAT-49740,202.38460863494436,53.04855715197678,666.4995163037036,-3.311536569162939,115984.01843788498,10.5,10500115984.018438,47.655,-122.3035,60.0,2.3333333333333335
2026-02-06T21:25:28+00:00,SAT-49740,201.78775601877115,53.480884612520846,663.1968575070904,-3.253474255398637,113950.43060651542,10.5,10500113950.430607,47.655,-122.3035,60.0,2.35
2026-02-06T21:25:29+00:00,SAT-49740,201.17246764357037,53.91402301535975,659.9521053671909,-3.1945479333883844,111886.58155162142,10.5,10500111886.581553,47.655,-122.3035,60.0,2.3666666666666667
2026-02-06T21:25:30+00:00,SAT-49740,200.53802957162287,54.34774718643132,656.7661215759645,-3.1347565546516756,109792.43455098057,10.5,10500109792.434551,47.655,-122.3035,60.0,2.3833333333333333
2026-02-06T21:25:31+00:00,SAT-49740,199.8837018501431,54.78181658223772,653.6397688710396,-3.0740998863322493,107667.98144898168,10.5,10500107667.98145,47.655,-122.3035,60.0,2.4
2026-02-06T21:25:32+00:00,SAT-49740,199.20871849212395,55.215974565225736,650.5739102222766,-3.0125784469030807,105513.24040474145,10.5,10500105513.240404,47.655,-122.3035,60.0,2.4166666666666665
2026-02-06T21:25:33+00:00,SAT-49740,198.51228768107075,55.64994765058003,647.569408082454,-2.9501936085438234,103328.25947779561,10.5,10500103328.259478,47.655,-122.3035,60.0,2.433333333333333
2026-02-06T21:25:34+00:00,SAT-49740,197.79359220368622,56.083444750614646,644.6271235358479,-2.886947601822272,101113.11679206372,10.5,10500101113.116793,47.655,-122.3035,60.0,2.45
2026-02-06T21:25:35+00:00,SAT-49740,197.0517901747075,56.51615640757883,641.7479154421474,-2.822843552511842,98867.9218253527,10.5,10500098867.921825,47.655,-122.3035,60.0,2.466666666666667
2026-02-06T21:25:36+00:00,SAT-49740,196.2860160976614,56.94775402457813,638.9326395436474,-2.7578855140976795,96592.81654785869,10.5,10500096592.816547,47.655,-122.3035,60.0,2.4833333333333334
2026-02-06T21:25:37+00:00,SAT-49740,195.4953823165055,57.377889100493285,636.182147540025,-2.6920784950121637,94287.9763760692,10.5,10500094287.976376,47.655,-122.3035,60.0,2.5
2026-02-06T21:25:38+00:00,SAT-49740,194.6789809224185,57.80619247598305,633.497286135951,-2.6254285040789025,91953.61176440427,10.5,10500091953.611765,47.655,-122.3035,60.0,2.5166666666666666
2026-02-06T21:25:39+00:00,SAT-49740,193.83588617620288,58.23227360291992,630.8788960433824,-2.557942532997569,89589.96759176133,10.5,10500089589.967592,47.655,-122.3035,60.0,2.533333333333333
2026-02-06T21:25:40+00:00,SAT-49740,192.96515754168456,58.65571983841305,628.3278110013198,-2.4896286493548567,87197.32641915226,10.5,10500087197.32642,47.655,-122.3035,60.0,2.55
2026-02-06T21:25:41+00:00,SAT-49740,192.06584337227534,59.07609579450792,625.8448567028049,-2.4204959625303024,84776.00729558103,10.5,10500084776.007296,47.655,-122.3035,60.0,2.566666666666667
2026-02-06T21:25:42+00:00,SAT-49740,191.13698537820414,59.49294273859853,623.4308497559219,-2.3505546801804633,82326.36773635869,10.5,10500082326.367737,47.655,-122.3035,60.0,2.5833333333333335
2026-02-06T21:25:43+00:00,SAT-49740,190.1776239319583,59.90577807732089,621.0865965884625,-2.279816103027509,79848.80354057756,10.5,10500079848.803541,47.655,-122.3035,60.0,2.6
2026-02-06T21:25:44+00:00,SAT-49740,189.18680432573183,60.31409493438322,618.8128923577925,-2.208292663525594,77343.75014537136,10.5,10500077343.750145,47.655,-122.3035,60.0,2.6166666666666667
2026-02-06T21:25:45+00:00,SAT-49740,188.16358405572606,60.71736185352069,616.6105198221535,-2.135997919107888,74811.68238939763,10.5,10500074811.68239,47.655,-122.3035,60.0,2.6333333333333333
2026-02-06T21:25:46+00:00,SAT-49740,187.1070412405119,61.11502264532077,614.4802482186991,-2.062946594000234,72253.11597732877,10.5,10500072253.115978,47.655,-122.3035,60.0,2.65
2026-02-06T21:25:47+00:00,SAT-49740,186.01628423309927,61.50649641660886,612.4228320998308,-1.989154542467071,69668.60619256888,10.5,10500069668.606192,47.655,-122.3035,60.0,2.6666666666666665
2026-02-06T21:25:48+00:00,SAT-49740,184.8904625367974,61.89117780083164,610.4390102061888,-1.9146387990353653,67058.74965630836,10.5,10500067058.749657,47.655,-122.3035,60.0,2.683333333333333
2026-02-06T21:25:49+00:00,SAT-49740,183.72877903376425,62.26843744159573,608.5295042895535,-1.8394175422539683,64424.18305822313,10.5,10500064424.183058,47.655,-122.3035,60.0,2.7
2026-02-06T21:25:50+00:00,SAT-49740,182.53050360103933,62.63762275161692,606.6950179718907,-1.7635101285227557,61765.58434131433,10.5,10500061765.584341,47.655,-122.3035,60.0,2.716666666666667
2026-02-06T21:25:51+00:00,SAT-49740,181.29498807014014,62.99805900133905,604.936235570658,-1.6869370383162405,59083.67081843174,10.5,10500059083.670818,47.655,-122.3035,60.0,2.7333333333333334
2026-02-06T21:25:52+00:00,SAT-49740,180.02168254128395,63.34905076181066,603.2538209777443,-1.6097199168896934,56379.20059797429,10.5,10500056379.200598,47.655,-122.3035,60.0,2.75
2026-02-06T21:25:53+00:00,SAT-49740,178.71015289066892,63.68988376307226,601.6484164978103,-1.5318815300102764,53652.97103340706,10.5,10500053652.971033,47.655,-122.3035,60.0,2.7666666666666666
2026-02-06T21:25:54+00:00,SAT-49740,177.36009936963953,64.01982719198432,600.1206417307825,-1.453445735877137,50905.8177397843,10.5,10500050905.81774,47.655,-122.3035,60.0,2.783333333333333
2026-02-06T21:25:55+00:00,SAT-49740,175.9713760609825,64.33813647038781,598.6710924823477,-1.3744374967986501,48138.61500273574,10.5,10500048138.615004,47.655,-122.3035,60.0,2.8
2026-02-06T21:25:56+00:00,SAT-49740,174.5440108401991,64.64405655515287,597.3003396628056,-1.2948828262657721,45352.27392475166,10.5,10500045352.273924,47.655,-122.3035,60.0,2.816666666666667
2026-02-06T21:25:57+00:00,SAT-49740,173.0782255007079,64.93682577152329,596.0089282387032,-1.2148087574414026,42547.74132154694,10.5,10500042547.741322,47.655,-122.3035,60.0,2.8333333333333335
2026-02-06T21:25:58+00:00,SAT-49740,171.5744555385697,65.21568019869679,594.7973762158969,-1.1342433160063266,39725.998771011204,10.5,10500039725.998772,47.655,-122.3035,60.0,2.85
2026-02-06T21:25:59+00:00,SAT-49740,170.03336900937452,65.47985860994015,593.6661736496955,-1.0532154883968778,36888.06150075736,10.5,10500036888.0615,47.655,-122.3035,60.0,2.8666666666666667
2026-02-06T21:26:00+00:00,SAT-49740,168.45588379569207,65.72860795095443,592.6157816866789,-0.9717551558311516,34034.97607744052,10.5,10500034034.976078,47.655,-122.3035,60.0,2.8833333333333333
2026-02-06T21:26:01+00:00,SAT-49740,166.84318260326842,65.96118931368156,591.6466316723184,-0.8898930625681389,31167.819295058645,10.5,10500031167.819296,47.655,-122.3035,60.0,2.9
2026-02-06T21:26:02+00:00,SAT-49740,165.1967248676421,66.17688435680822,590.7591242902458,-0.8076607579058751,28287.696143482335,10.5,10500028287.696144,47.655,-122.3035,60.0,2.9166666666666665
2026-02-06T21:26:03+00:00,SAT-49740,163.51825481710617,66.37500208664832,589.9536287593747,-0.7250905477608013,25395.738112559236,10.5,10500025395.738113,47.655,-122.3035,60.0,2.933333333333333
2026-02-06T21:26:04+00:00,SAT-49740,161.8098049149624,66.55488589625371,589.23048207931,-0.6422154283190383,22493.100868301037,10.5,10500022493.100868,47.655,-122.3035,60.0,2.95
2026-02-06T21:26:05+00:00,SAT-49740,160.07369402301407,66.71592073029746,588.5899883419285,-0.5590690229315007,19580.9620426834,10.5,10500019580.962042,47.655,-122.3035,60.0,2.966666666666667
2026-02-06T21:26:06+00:00,SAT-49740,158.31251972359485,66.85754022704462,588.0324181058961,-0.47568552482660165,16660.519227202563,10.5,10500016660.519228,47.655,-122.3035,60.0,2.9833333333333334
2026-02-06T21:26:07+00:00,SAT-49740,156.52914438290884,66.97923367200951,587.5580078283168,-0.39209962157799605,13732.987327416216,10.5,10500013732.987328,47.655,-122.3035,60.0,3.0
2026-02-06T21:26:08+00:00,SAT-49740,154.7266748367389,67.08055258015585,587.1669593717147,-0.30834643225456637,10799.596361670136,10.5,10500010799.596361,47.655,-122.3035,60.0,3.0166666666666666
2026-02-06T21:26:09+00:00,SAT-49740,152.90843573517185,67.16111672670138,586.8594395736933,-0.22446142692705107,7861.588641879831,10.5,10500007861.588642,47.655,-122.3035,60.0,3.033333333333333
2026-02-06T21:26:10+00:00,SAT-49740,151.07793698936692,67.22061944282764,586.6355798968759,-0.14048035738549272,4920.216346962516,10.5,10500004920.216347,47.655,-122.3035,60.0,3.05
2026-02-06T21:26:11+00:00,SAT-49740,149.2388359297648,67.25883201303428,586.4954761479426,-0.056439182180634054,1976.7388974697208,10.5,10500001976.738897,47.655,-122.3035,60.0,3.066666666666667
2026-02-06T21:26:12+00:00,SAT-49740,147.3948951005998,67.27560702880709,586.4391882714204,0.027626012939919724,-967.5798310748602,10.5,10499999032.42017,47.655,-122.3035,60.0,3.0833333333333335
2026-02-06T21:26:13+00:00,SAT-49740,145.54993690109015,67.27088058394551,586.4667402228321,0.11167908915898468,-3911.4741044264,10.5,10499996088.525896,47.655,-122.3035,60.0,3.1
2026-02-06T21:26:14+00:00,SAT-49740,143.70779639793173,67.24467323706783,586.5781199157649,0.19568393478382826,-6853.679138353095,10.5,10499993146.320862,47.655,-122.3035,60.0,3.1166666666666667
2026-02-06T21:26:15+00:00,SAT-49740,141.87227370241072,67.19708970603591,586.773279248924,0.2796045409604962,-9792.933750472168,10.5,10499990207.06625,47.655,-122.3035,60.0,3.1333333333333333
2026-02-06T21:26:16+00:00,SAT-49740,140.0470874707658,67.12831730593594,587.0521342086955,0.3634050781146398,-12727.983037530976,10.5,10499987272.016962,47.655,-122.3035,60.0,3.15
2026-02-06T21:26:17+00:00,SAT-49740,138.2358308698335,67.03862318477591,587.4145650479458,0.4470499719776355,-15657.581038163318,10.5,10499984342.418962,47.655,-122.3035,60.0,3.1666666666666665
2026-02-06T21:26:18+00:00,SAT-49740,136.44193129603704,66.92835045143252,587.8604165406413,0.5305039803145566,-18580.493420227547,10.5,10499981419.50658,47.655,-122.3035,60.0,3.183333333333333
2026-02-06T21:26:19+00:00,SAT-49740,134.66861489798154,66.79791332464328,588.3894983129943,0.6137322619942885,-21495.49989993421,10.5,10499978504.5001,47.655,-122.3035,60.0,3.2
2026-02-06T21:26:20+00:00,SAT-49740,132.91887673512755,66.64779146055984,589.0015852434891,0.6967004557594008,-24401.397000700086,10.5,10499975598.602999,47.655,-122.3035,60.0,3.216666666666667
2026-02-06T21:26:21+00:00,SAT-49740,131.19545705912023,66.4785236300536,589.6964179414714,0.7793747333793271,-27296.999914797503,10.5,10499972703.000086,47.655,-122.3035,60.0,3.2333333333333334
2026-02-06T21:26:22+00:00,SAT-49740,129.50082402136871,66.2907009343004,590.4737032787441,0.8617218867898546,-30181.145555347735,10.5,10499969818.854445,47.655,-122.3035,60.0,3.25
2026-02-06T21:26:23+00:00,SAT-49740,127.83716268305456,66.08495973237615,591.3331150080733,0.9437093744754196,-33052.694180825274,10.5,10499966947.305819,47.655,-122.3035,60.0,3.2666666666666666
2026-02-06T21:26:24+00:00,SAT-49740,126.2063701459822,65.86197446475744,592.2742944279474,1.0253053823894112,-35910.53152874452,10.5,10499964089.468472,47.655,-122.3035,60.0,3.283333333333333
2026-02-06T21:26:25+00:00,SAT-49740,124.61005628008594,65.62245052833775,593.2968511080987,1.1064788981966935,-38753.571415946964,10.5,10499961246.428583,47.655,-122.3035,60.0,3.3
2026-02-06T21:26:26+00:00,SAT-49740,123.04954940826644,65.36711733966932,594.4003636890636,1.187199744073348,-41580.756887386924,10.5,10499958419.243113,47.655,-122.3035,60.0,3.316666666666667
2026-02-06T21:26:27+00:00,SAT-49740,121.52590628275763,65.0967217132959,595.5843807144568,1.2674386284871524,-44391.062029702895,10.5,10499955608.937971,47.655,-122.3035,60.0,3.3333333333333335
2026-02-06T21:26:28+00:00,SAT-49740,120.03992553893583,64.81202164351953,596.8484215148874,1.3471672069636385,-47183.49409950201,10.5,10499952816.505901,47.655,-122.3035,60.0,3.35
2026-02-06T21:26:29+00:00,SAT-49740,118.5921638366536,64.5137805565969,598.1919771524781,1.4263581011226087,-49957.09419009931,10.5,10499950042.90581,47.655,-122.3035,60.0,3.3666666666666667
2026-02-06T21:26:30+00:00,SAT-49740,117.18295398082341,64.20276208880662,599.6145113843692,1.5049849608113064,-52710.93940768422,10.5,10499947289.060593,47.655,-122.3035,60.0,3.3833333333333333
2026-02-06T21:26:31+00:00,SAT-49740,115.81242427420935,63.87972540595014,601.1154616881882,1.5830224722269093,-55444.14315580463,10.5,10499944555.856844,47.655,-122.3035,60.0,3.4
2026-02-06T21:26:32+00:00,SAT-49740,114.48051853310736,63.54542108339337,602.6942402956242,1.660446396658505,-58155.85649227473,10.5,10499941844.143507,47.655,-122.3035,60.0,3.4166666666666665
2026-02-06T21:26:33+00:00,SAT-49740,113.18701619604066,63.20058753178753,604.350235264635,1.7372336104815724,-60845.26952995099,10.5,10499939154.73047,47.655,-122.3035,60.0,3.433333333333333
2026-02-06T21:26:34+00:00,SAT-49740,111.93155208346974,62.84594794847352,606.0828115915452,1.8133620881526953,-63511.61084113497,10.5,10499936488.389158,47.655,-122.3035,60.0,3.45
2026-02-06T21:26:35+00:00,SAT-49740,110.71363549270846,62.48220777713158,607.8913123061835,1.8888109651347906,-66154.14966148115,10.5,10499933845.850338,47.655,-122.3035,60.0,3.466666666666667
2026-02-06T21:26:36+00:00,SAT-49740,109.53266829805622,62.11005262354836,609.7750596297767,1.9635605030984122,-68772.19467119926,10.5,10499931227.805328,47.655,-122.3035,60.0,3.4833333333333334
2026-02-06T21:26:37+00:00,SAT-49740,108.38796192837559,61.73014660770662,611.7333560981375,2.037592130391929,-71365.09541249118,10.5,10499928634.904587,47.655,-122.3035,60.0,3.5
2026-02-06T21:26:38+00:00,SAT-49740,107.2787530428427,61.34313109505509,613.7654857252157,2.110888439813358,-73932.24221151107,10.5,10499926067.757788,47.655,-122.3035,60.0,3.5166666666666666
2026-02-06T21:26:39+00:00,SAT-49740,106.20421786351693,60.94962377338202,615.8707151644243,2.183433171282361,-76473.06557146541,10.5,10499923526.93443,47.655,-122.3035,60.0,3.533333333333333
2026-02-06T21:26:40+00:00,SAT-49740,105.16348514501163,60.550218036357755,618.0482948526884,2.255211232810661,-78987.03690708571,10.5,10499921012.963093,47.655,-122.3035,60.0,3.55
2026-02-06T21:26:41+00:00,SAT-49740,104.15564777574119,60.1454826267438,620.2974601754029,2.326208682827176,-81473.66792557987,10.5,10499918526.332075,47.655,-122.3035,60.0,3.566666666666667
2026-02-06T21:26:42+00:00,SAT-49740,103.17977307217582,59.73596150922504,622.6174326137683,2.396412716238437,-83932.51013840912,10.5,10499916067.489862,47.655,-122.3035,60.0,3.5833333333333335
2026-02-06T21:26:43+00:00,SAT-49740,102.23491182565019,59.32217393740248,625.0074208782194,2.4658116374745225,-86363.15391724258,10.5,10499913636.846083,47.655,-122.3035,60.0,3.6
2026-02-06T21:26:44+00:00,SAT-49740,101.32010618276105,58.90461468555332,627.466622014976,2.5343948955569804,-88765.22972218432,10.5,10499911234.770277,47.655,-122.3035,60.0,3.6166666666666667
2026-02-06T21:26:45+00:00,SAT-49740,100.43439642352267,58.483754406293635,629.9942225475644,2.602153018484229,-91138.40580367237,10.5,10499908861.594196,47.655,-122.3035,60.0,3.6333333333333333
2026-02-06T21:26:46+00:00,SAT-49740,99.57682676625168,58.06004010629306,632.589399552903,2.6690775892664504,-93482.38736311949,10.5,10499906517.612637,47.655,-122.3035,60.0,3.65
2026-02-06T21:26:47+00:00,SAT-49740,98.74645027219626,57.63389571015118,635.2513217134856,2.7351612643949346,-95796.91719978765,10.5,10499904203.0828,47.655,-122.3035,60.0,3.6666666666666665
2026-02-06T21:26:48+00:00,SAT-49740,97.94233292912952,57.20572268636582,637.9791503879828,2.8003976998342264,-98081.77311871995,10.5,10499901918.226881,47.655,-122.3035,60.0,3.683333333333333
2026-02-06T21:26:49+00:00,SAT-49740,97.16355702951348,56.775900733562594,640.7720406080388,2.8647815771838814,-100336.76884703602,10.5,10499899663.231153,47.655,-122.3035,60.0,3.7
2026-02-06T21:26:50+00:00,SAT-49740,96.40922389616807,56.3447884965721,643.6291421011538,2.9283085159461395,-102561.75096117482,10.5,10499897438.249039,47.655,-122.3035,60.0,3.716666666666667
2026-02-06T21:26:51+00:00,SAT-49740,95.67845606380958,55.912724317837736,646.5496002260753,2.990975079934322,-104756.59911134382,10.5,10499895243.400888,47.655,-122.3035,60.0,3.7333333333333334
2026-02-06T21:26:52+00:00,SAT-49740,94.97039896152371,55.48002699910585,649.5325569145751,3.052778757876879,-106921.22534219065,10.5,10499893078.774658,47.655,-122.3035,60.0,3.75
2026-02-06T21:26:53+00:00,SAT-49740,94.28422216956827,55.04699656909825,652.5771515938856,3.113717897418062,-109055.57178122757,10.5,10499890944.428219,47.655,-122.3035,60.0,3.7666666666666666
2026-02-06T21:26:54+00:00,SAT-49740,93.6191203191129,54.613915056638824,655.6825220433136,3.17379168703623,-111159.61000553395,10.5,10499888840.389994,47.655,-122.3035,60.0,3.783333333333333
2026-02-06T21:26:55+00:00,SAT-49740,92.97431367595604,54.18104725623291,658.8478052328202,3.2330001173356706,-113233.3396860322,10.5,10499886766.660315,47.655,-122.3035,60.0,3.8
2026-02-06T21:26:56+00:00,SAT-49740,92.3490484601239,53.748641484354245,662.0721381229953,3.2913439716619393,-115276.78825879723,10.5,10499884723.21174,47.655,-122.3035,60.0,3.816666666666667
2026-02-06T21:26:57+00:00,SAT-49740,91.74259693739971,53.31693031875095,665.3546584556748,3.348824768252095,-117290.00889891299,10.5,10499882709.9911,47.655,-122.3035,60.0,3.8333333333333335
2026-02-06T21:26:58+00:00,SAT-49740,91.15425732906786,52.886131324401525,668.6945054868607,3.405444709048202,-119273.07872770476,10.5,10499880726.921272,47.655,-122.3035,60.0,3.85
2026-02-06T21:26:59+00:00,SAT-49740,90.58335356922312,52.45644776257777,672.0908206685955,3.461206683827758,-121226.09895740426,10.5,10499878773.901043,47.655,-122.3035,60.0,3.8666666666666667
2026-02-06T21:27:00+00:00,SAT-49740,90.02923492893835,52.028069274272525,675.5427483349503,3.516114227591756,-123149.1933986993,10.5,10499876850.8066,47.655,-122.3035,60.0,3.8833333333333333
2026-02-06T21:27:01+00:00,SAT-49740,89.49127554001468,51.60117254305216,679.0494363455216,3.570171446402456,-125042.50586325888,10.5,10499874957.494137,47.655,-122.3035,60.0,3.9
2026-02-06T21:27:02+00:00,SAT-49740,88.96887384319469,51.17592194012835,682.61003665496,3.6233830452983766,-126906.20114143417,10.5,10499873093.798859,47.655,-122.3035,60.0,3.9166666666666665
2026-02-06T21:27:03+00:00,SAT-49740,88.46145196397,50.75247013872062,686.2237059103408,3.675754244409953,-128740.46206427416,10.5,10499871259.537935,47.655,-122.3035,60.0,3.933333333333333
2026-02-06T21:27:04+00:00,SAT-49740,87.96845504772115,50.33095871123251,689.8896059648756,3.7272907829889554,-130545.48964465287,10.5,10499869454.510355,47.655,-122.3035,60.0,3.95
2026-02-06T21:27:05+00:00,SAT-49740,87.4893505552704,49.911518698683544,693.6069043956414,3.7779988495749035,-132321.50063140175,10.5,10499867678.499369,47.655,-122.3035,60.0,3.966666666666667
2026-02-06T21:27:06+00:00,SAT-49740,87.0236275392665,49.49427116129225,697.3747749516644,3.8278850874468615,-134068.7277002547,10.5,10499865931.272299,47.655,-122.3035,60.0,3.9833333333333334
2026-02-06T21:27:07+00:00,SAT-49740,86.5707959016706,49.07932770193486,701.19239800744,3.87695652702704,-135787.41708633618,10.5,10499864212.582914,47.655,-122.3035,60.0,4.0
2026-02-06T21:27:08+00:00,SAT-49740,86.13038564891558,48.66679097123137,705.058960949038,3.92522061031117,-137477.82943981627,10.5,10499862522.17056,47.655,-122.3035,60.0,4.016666666666667
2026-02-06T21:27:09+00:00,SAT-49740,85.70194614092979,48.256755144794916,708.9736585845732,3.972685089964767,-139140.2362918351,10.5,10499860859.763708,47.655,-122.3035,60.0,4.033333333333333
2026-02-06T21:27:10+00:00,SAT-49740,85.28504535307574,47.84930638677727,712.9356934540424,4.019358070682196,-140774.92150307214,10.5,10499859225.078497,47.655,-122.3035,60.0,4.05
2026-02-06T21:27:11+00:00,SAT-49740,84.87926914029399,47.444523285268204,716.9442761804087,4.065247925063956,-142382.178317413,10.5,10499857617.821682,47.655,-122.3035,60.0,4.066666666666666
2026-02-06T21:27:12+00:00,SAT-49740,84.4842205198974,47.042477273496765,720.9986257367897,4.110363314190455,-143962.31008252976,10.5,10499856037.689917,47.655,-122.3035,60.0,4.083333333333333
2026-02-06T21:27:13+00:00,SAT-49740,84.09951896563358,46.643233026789325,725.0979697341648,4.154713100955021,-145515.62721443688,10.5,10499854484.372786,47.655,-122.3035,60.0,4.1
2026-02-06T21:27:14+00:00,SAT-49740,83.72479972514111,46.24684884679272,729.2415446226466,4.198306441194574,-147042.45038927242,10.5,10499852957.54961,47.655,-122.3035,60.0,4.116666666666666
2026-02-06T21:27:15+00:00,SAT-49740,83.35971314685284,45.85337701649419,733.4285959836386,4.241152594526293,-148543.1039179981,10.5,10499851456.896082,47.655,-122.3035,60.0,4.133333333333334
2026-02-06T21:27:16+00:00,SAT-49740,83.00392404194234,45.46286415374205,737.6583786333381,4.283261068450782,-150017.9207935018,10.5,10499849982.079206,47.655,-122.3035,60.0,4.15
2026-02-06T21:27:17+00:00,SAT-49740,82.65711105362807,45.07535153225706,741.9301568699542,4.324641465877129,-151467.23735028,10.5,10499848532.76265,47.655,-122.3035,60.0,4.166666666666667
2026-02-06T21:27:18+00:00,SAT-49740,82.31896605936615,44.6908753989065,746.2432045688619,4.365303541316625,-152891.39523257973,10.5,10499847108.604767,47.655,-122.3035,60.0,4.183333333333334
2026-02-06T21:27:19+00:00,SAT-49740,81.9891935890351,44.30946726846728,750.5968053337963,4.405257179668418,-154290.7406513822,10.5,10499845709.259348,47.655,-122.3035,60.0,4.2
2026-02-06T21:27:20+00:00,SAT-49740,81.66751026597305,43.931154204029006,754.9902526268913,4.4445123229957,-155665.62181979525,10.5,10499844334.37818,47.655,-122.3035,60.0,4.216666666666667
2026-02-06T21:27:21+00:00,SAT-49740,81.35364427395527,43.55595908807518,759.422849825692,4.483079008605099,-157016.3902867548,10.5,10499842983.609713,47.655,-122.3035,60.0,4.233333333333333
2026-02-06T21:27:22+00:00,SAT-49740,81.04733484228059,43.18390087520133,763.8939103181398,4.520967330792343,-158343.399597196,10.5,10499841656.600403,47.655,-122.3035,60.0,4.25
2026-02-06T21:27:23+00:00,SAT-49740,80.74833175376693,42.814994833898716,768.4027575594117,4.558187412013482,-159647.0042823478,10.5,10499840352.995718,47.655,-122.3035,60.0,4.266666666666667
2026-02-06T21:27:24+00:00,SAT-49740,80.45639487477044,42.44925277705367,772.9487251000035,4.59474943030565,-160927.56082012353,10.5,10499839072.43918,47.655,-122.3035,60.0,4.283333333333333
2026-02-06T21:27:25+00:00,SAT-49740,80.17129370303026,42.08668327728856,777.5311566411618,4.6306635454521174,-162185.42504910927,10.5,10499837814.574951,47.655,-122.3035,60.0,4.3
2026-02-06T21:27:26+00:00,SAT-49740,79.89280693903932,41.72729187590775,782.14940601668,4.665939947297993,-163420.9538607837,10.5,10499836579.046139,47.655,-122.3035,60.0,4.316666666666666
2026-02-06T21:27:27+00:00,SAT-49740,79.62072207314647,41.371081276245384,786.802837222879,4.7005888069712825,-164634.50349107338,10.5,10499835365.49651,47.655,-122.3035,60.0,4.333333333333333
2026-02-06T21:27:28+00:00,SAT-49740,79.35483499343167,41.01805152974174,791.4908243999404,4.734620244217327,-165826.42837626667,10.5,10499834173.571623,47.655,-122.3035,60.0,4.35
2026-02-06T21:27:29+00:00,SAT-49740,79.09494961250552,40.66820021378002,796.2127517806603,4.76804439094367,-166997.08337862365,10.5,10499833002.916622,47.655,-122.3035,60.0,4.366666666666666
2026-02-06T21:27:30+00:00,SAT-49740,78.84087750766847,40.32152259468521,800.968013702582,4.800871321115087,-168146.82133100365,10.5,10499831853.178669,47.655,-122.3035,60.0,4.383333333333334
2026-02-06T21:27:31+00:00,SAT-49740,78.59243758099377,39.97801178647251,805.7560145502054,4.833111046836985,-169275.99289968907,10.5,10499830724.007101,47.655,-122.3035,60.0,4.4
2026-02-06T21:27:32+00:00,SAT-49740,78.34945573474653,39.6376589006873,810.576168693295,4.8647735003892,-170384.94595513341,10.5,10499829615.054045,47.655,-122.3035,60.0,4.416666666666667
2026-02-06T21:27:33+00:00,SAT-49740,78.11176456260011,39.3004531888168,815.4279004072686,4.895868611477057,-171474.02827761963,10.5,10499828525.971722,47.655,-122.3035,60.0,4.433333333333334
2026-02-06T21:27:34+00:00,SAT-49740,77.87920305128523,38.9663821711676,820.3106438706279,4.926406155802453,-172543.58225357943,10.5,10499827456.417746,47.655,-122.3035,60.0,4.45
2026-02-06T21:27:35+00:00,SAT-49740,77.65161630304233,38.635431768518174,825.2238430113707,4.956395901962633,-173593.9500206094,10.5,10499826406.04998,47.655,-122.3035,60.0,4.466666666666667
2026-02-06T21:27:36+00:00,SAT-49740,77.42885526417972,38.30758641627618,830.1669514999029,4.98584744986958,-174625.46780823483,10.5,10499825374.532192,47.655,-122.3035,60.0,4.483333333333333
2026-02-06T21:27:37+00:00,SAT-49740,77.2107764732958,37.982829182573624,835.1394325808064,5.014770382933895,-175638.47126803268,10.5,10499824361.528732,47.655,-122.3035,60.0,4.5
2026-02-06T21:27:38+00:00,SAT-49740,76.9972418147464,37.66114186958333,840.140759056382,5.0431741339488925,-176633.2907763256,10.5,10499823366.709223,47.655,-122.3035,60.0,4.516666666666667
2026-02-06T21:27:39+00:00,SAT-49740,76.7881182891049,37.342505117440595,845.1704131364355,5.071068049280926,-177610.25368239827,10.5,10499822389.746317,47.655,-122.3035,60.0,4.533333333333333
2026-02-06T21:27:40+00:00,SAT-49740,76.58327779167784,37.026898497964964,850.2278863520838,5.098461377327713,-178569.6839042595,10.5,10499821430.316095,47.655,-122.3035,60.0,4.55
2026-02-06T21:27:41+00:00,SAT-49740,76.38259690189086,36.714300603567445,855.3126794580463,5.125363246014746,-179511.90114047108,10.5,10499820488.09886,47.655,-122.3035,60.0,4.566666666666666
2026-02-06T21:27:42+00:00,SAT-49740,76.18595668326938,36.40468913223354,860.4243023124989,5.151782664935275,-180437.22094509922,10.5,10499819562.779055,47.655,-122.3035,60.0,4.583333333333333
2026-02-06T21:27:43+00:00,SAT-49740,75.99324249269579,36.098040967298175,865.5622737590554,5.177728517451309,-181345.9544510581,10.5,10499818654.04555,47.655,-122.3035,60.0,4.6
2026-02-06T21:27:44+00:00,SAT-49740,75.8043437987933,35.79433225289192,870.7261215008781,5.203209606573532,-182238.40997701845,10.5,10499817761.590023,47.655,-122.3035,60.0,4.616666666666666
2026-02-06T21:27:45+00:00,SAT-49740,75.61915400717145,35.49353846220266,875.9153820205391,5.228234556627638,-183114.88958334705,10.5,10499816885.110416,47.655,-122.3035,60.0,4.633333333333334
2026-02-06T21:27:46+00:00,SAT-49740,75.43757029722181,35.19563446723414,881.1296004018167,5.252811947969039,-183975.69379038518,10.5,10499816024.30621,47.655,-122.3035,60.0,4.65
2026-02-06T21:27:47+00:00,SAT-49740,75.25949346192934,34.90059459673683,886.3683302858416,5.276950132766787,-184821.11512642275,10.5,10499815178.884874,47.655,-122.3035,60.0,4.666666666666667
2026-02-06T21:27:48+00:00,SAT-49740,75.08482776114433,34.60839270084601,891.6311336435213,5.300657417112446,-185651.4445059211,10.5,10499814348.555494,47.655,-122.3035,60.0,4.683333333333334
2026-02-06T21:27:49+00:00,SAT-49740,74.91348077576777,34.31900220175228,896.9175807295893,5.323941949188487,-186466.9673126971,10.5,10499813533.032688,47.655,-122.3035,60.0,4.7
2026-02-06T21:27:50+00:00,SAT-49740,74.7453632722974,34.03239614732517,902.2272499251159,5.34681175214706,-187267.9645514769,10.5,10499812732.035448,47.655,-122.3035,60.0,4.716666666666667
2026-02-06T21:27:51+00:00,SAT-49740,74.5803890724625,33.74854725965477,907.5597276128155,5.369274721362432,-188054.7127516648,10.5,10499811945.287249,47.655,-122.3035,60.0,4.733333333333333
2026-02-06T21:27:52+00:00,SAT-49740,74.41847492904519,33.46742798070845,912.9146080496098,5.391338622496569,-188827.48389959155,10.5,10499811172.5161,47.655,-122.3035,60.0,4.75
2026-02-06T21:27:53+00:00,SAT-49740,74.25954040737064,33.18901051523066,918.2914932372644,5.413011097312164,-189586.54564211125,10.5,10499810413.454357,47.655,-122.3035,60.0,4.766666666666667
2026-02-06T21:27:54+00:00,SAT-49740,74.10350777211832,32.91326687064252,923.68999279882,5.434299634423563,-190332.16026217514,10.5,10499809667.839737,47.655,-122.3035,60.0,4.783333333333333
2026-02-06T21:27:55+00:00,SAT-49740,73.95030188000807,32.640168895870545,929.1097238258569,5.455211645870881,-191064.58736078095,10.5,10499808935.41264,47.655,-122.3035,60.0,4.8
2026-02-06T21:27:56+00:00,SAT-49740,73.79985007540853,32.36968831390528,934.5503108021246,5.475754335012206,-191784.07922999904,10.5,10499808215.92077,47.655,-122.3035,60.0,4.816666666666666
2026-02-06T21:27:57+00:00,SAT-49740,73.65208209404813,32.101796758716304,940.0113853954184,5.495934890873954,-192490.88765994413,10.5,10499807509.11234,47.655,-122.3035,60.0,4.833333333333333
2026-02-06T21:27:58+00:00,SAT-49740,73.50692996616804,31.83646580039679,945.492586443289,5.515760251767187,-193185.25565961856,10.5,10499806814.74434,47.655,-122.3035,60.0,4.85
2026-02-06T21:27:59+00:00,SAT-49740,73.36432792988857,31.57366697991972,950.9935597029962,5.535237296225902,-193867.42414437915,10.5,10499806132.575855,47.655,-122.3035,60.0,4.866666666666666
2026-02-06T21:28:00+00:00,SAT-49740,73.22421234377767,31.313371832606155,956.5139577918937,5.554372792384153,-194537.63016290957,10.5,10499805462.369837,47.655,-122.3035,60.0,4.883333333333334
2026-02-06T21:28:01+00:00,SAT-49740,73.08652160461514,31.055551912394034,962.0534400773246,5.5731733400017625,-195196.10486671585,10.5,10499804803.895134,47.655,-122.3035,60.0,4.9
2026-02-06T21:28:02+00:00,SAT-49740,72.95119607008421,30.800178817117303,967.6116725087,5.59164544052078,-195843.07596379955,10.5,10499804156.924036,47.655,-122.3035,60.0,4.916666666666667
2026-02-06T21:28:03+00:00,SAT-49740,72.8181779833481,30.547224208896054,973.1883275194418,5.609795467469411,-196478.76668207848,10.5,10499803521.233318,47.655,-122.3035,60.0,4.933333333333334
2026-02-06T21:28:04+00:00,SAT-49740,72.68741140155056,30.296659834439176,978.7830838994147,5.627629674480728,-197103.39605023566,10.5,10499802896.60395,47.655,-122.3035,60.0,4.95
2026-02-06T21:28:05+00:00,SAT-49740,72.55884212735702,30.048457543578365,984.3956266753511,5.645154204919481,-197717.17923489108,10.5,10499802282.820765,47.655,-122.3035,60.0,4.966666666666667
