DopplerPredictor/satellites_20260211_204923/SAT-53419.csv

timestamp,satellite,azimuth_deg,elevation_deg,distance_km,relative_velocity_kms,doppler_shift_hz,tx_freq_ghz,rx_freq_hz,ue_lat,ue_lon,ue_alt_m,time_minutes
2026-02-06T21:31:52+00:00,SAT-53419,318.6018625640172,30.07900444135185,986.2152105205791,-3.49666851395807,122468.1222519605,10.5,10500122468.122252,47.655,-122.3035,60.0,8.75
2026-02-06T21:31:53+00:00,SAT-53419,318.9942973303415,30.233293390546113,982.7279160923666,-3.4598957284094403,121180.18375331885,10.5,10500121180.183754,47.655,-122.3035,60.0,8.766666666666667
2026-02-06T21:31:54+00:00,SAT-53419,319.3907185306145,30.38715632155246,979.2772958669395,-3.4227291204625403,119878.45192842267,10.5,10500119878.45193,47.655,-122.3035,60.0,8.783333333333333
2026-02-06T21:31:55+00:00,SAT-53419,319.79115105878554,30.540554199844042,975.8637426109123,-3.3851674474389735,118562.883253418,10.5,10500118562.883253,47.655,-122.3035,60.0,8.8
2026-02-06T21:31:56+00:00,SAT-53419,320.19561879762625,30.693447060748234,972.4876503302467,-3.3472095751014854,117233.4380025184,10.5,10500117233.438002,47.655,-122.3035,60.0,8.816666666666666
2026-02-06T21:31:57+00:00,SAT-53419,320.6041445527215,30.84579401017817,969.149414162101,-3.3088545307893513,115890.08210903087,10.5,10500115890.08211,47.655,-122.3035,60.0,8.833333333333334
2026-02-06T21:31:58+00:00,SAT-53419,321.01674999040154,30.99755322898474,965.8494302136868,-3.270101446016229,114532.78515489008,10.5,10500114532.785154,47.655,-122.3035,60.0,8.85
2026-02-06T21:31:59+00:00,SAT-53419,321.4334555665748,31.14868197599303,962.5880954583733,-3.230949618417824,113161.52254032738,10.5,10500113161.522541,47.655,-122.3035,60.0,8.866666666666667
2026-02-06T21:32:00+00:00,SAT-53419,321.8542804607376,31.29913659521989,959.3658075700114,-3.1913985005126113,111776.275090224,10.5,10500111776.275091,47.655,-122.3035,60.0,8.883333333333333
2026-02-06T21:32:01+00:00,SAT-53419,322.2792425066738,31.44887252404043,956.1829647684656,-3.1514476806418172,110377.02838654828,10.5,10500110377.028387,47.655,-122.3035,60.0,8.9
2026-02-06T21:32:02+00:00,SAT-53419,322.70835811849537,31.59784430196631,953.0399656841561,-3.11109693178329,108963.77447802422,10.5,10500108963.774479,47.655,-122.3035,60.0,8.916666666666666
2026-02-06T21:32:03+00:00,SAT-53419,323.1416422210678,31.746005583295023,949.9372091739153,-3.070346159557823,107536.51005909276,10.5,10500107536.51006,47.655,-122.3035,60.0,8.933333333333334
2026-02-06T21:32:04+00:00,SAT-53419,323.5791081714875,31.893309148955655,946.8750941887038,-3.0291954752059578,106095.2390258682,10.5,10500106095.239025,47.655,-122.3035,60.0,8.95
2026-02-06T21:32:05+00:00,SAT-53419,324.0207676886369,32.039706923544884,943.8540195685374,-2.9876451479272568,104639.97080685798,10.5,10500104639.970806,47.655,-122.3035,60.0,8.966666666666667
2026-02-06T21:32:06+00:00,SAT-53419,324.46663077457765,32.18514999189931,940.8743838849567,-2.945695612294601,103170.72062264258,10.5,10500103170.720623,47.655,-122.3035,60.0,8.983333333333333
2026-02-06T21:32:07+00:00,SAT-53419,324.91670563499764,32.32958861785335,937.9365852760927,-2.903347516251094,101687.51116693032,10.5,10500101687.511168,47.655,-122.3035,60.0,9.0
2026-02-06T21:32:08+00:00,SAT-53419,325.3709986053019,32.472972267265654,935.0410212338708,-2.8606016918256816,100190.37158089432,10.5,10500100190.37158,47.655,-122.3035,60.0,9.016666666666667
2026-02-06T21:32:09+00:00,SAT-53419,325.8295140712097,32.61524963163314,932.1880884204178,-2.8174591377192506,98679.33684326417,10.5,10500098679.336843,47.655,-122.3035,60.0,9.033333333333333
2026-02-06T21:32:10+00:00,SAT-53419,326.2922543851522,32.756368652862626,929.3781825018373,-2.7739210849694222,97154.45007018467,10.5,10500097154.45007,47.655,-122.3035,60.0,9.05
2026-02-06T21:32:11+00:00,SAT-53419,326.75921979191537,32.896276553412584,926.6116979164957,-2.729988945311356,95615.76070659269,10.5,10500095615.760706,47.655,-122.3035,60.0,9.066666666666666
2026-02-06T21:32:12+00:00,SAT-53419,327.2304083453459,33.03491986603214,923.8890276948081,-2.685664374627718,94063.32674850358,10.5,10500094063.326748,47.655,-122.3035,60.0,9.083333333333334
2026-02-06T21:32:13+00:00,SAT-53419,327.70581583494817,33.17224446891266,921.2105632157469,-2.6409491789619457,92497.21145119812,10.5,10500092497.21145,47.655,-122.3035,60.0,9.1
2026-02-06T21:32:14+00:00,SAT-53419,328.185435695989,33.30819561831619,918.5766940570829,-2.5958454333848837,90917.48749243477,10.5,10500090917.487492,47.655,-122.3035,60.0,9.116666666666667
2026-02-06T21:32:15+00:00,SAT-53419,328.6692589397373,33.442717989543034,915.9878077270781,-2.5503554268811395,89324.23504213693,10.5,10500089324.235043,47.655,-122.3035,60.0,9.133333333333333
2026-02-06T21:32:16+00:00,SAT-53419,329.1572740747117,33.57575571745186,913.4442894511476,-2.504481639670165,87717.5409680811,10.5,10500087717.540968,47.655,-122.3035,60.0,9.15
2026-02-06T21:32:17+00:00,SAT-53419,329.6494670235469,33.707252438123184,910.9465219811349,-2.4582268185841354,86097.50147594915,10.5,10500086097.501476,47.655,-122.3035,60.0,9.166666666666666
2026-02-06T21:32:18+00:00,SAT-53419,330.14582105471084,33.83715133682288,908.494885329416,-2.41159391557031,84464.2199554208,10.5,10500084464.219955,47.655,-122.3035,60.0,9.183333333333334
2026-02-06T21:32:19+00:00,SAT-53419,330.6463167034875,33.965395195154855,906.0897565643335,-2.3645861252353875,82817.80829513587,10.5,10500082817.808294,47.655,-122.3035,60.0,9.2
2026-02-06T21:32:20+00:00,SAT-53419,331.1509317013627,34.09192644256079,903.731509568187,-2.317206884768256,81158.38687998847,10.5,10500081158.38688,47.655,-122.3035,60.0,9.216666666666667
2026-02-06T21:32:21+00:00,SAT-53419,331.65964090721,34.21668721022483,901.420514795302,-2.26945985479777,79486.0839206855,10.5,10500079486.083921,47.655,-122.3035,60.0,9.233333333333333
2026-02-06T21:32:22+00:00,SAT-53419,332.17241623620913,34.339619386321075,899.1571390491893,-2.221348961625045,77801.03693290033,10.5,10500077801.036932,47.655,-122.3035,60.0,9.25
2026-02-06T21:32:23+00:00,SAT-53419,332.68922660022747,34.46066467589271,896.9417452175846,-2.172878351505157,76103.39113602434,10.5,10500076103.391136,47.655,-122.3035,60.0,9.266666666666667
2026-02-06T21:32:24+00:00,SAT-53419,333.21003784080006,34.57976466058257,894.7746920530823,-2.12405242090769,74393.30051301938,10.5,10500074393.300512,47.655,-122.3035,60.0,9.283333333333333
2026-02-06T21:32:25+00:00,SAT-53419,333.73481267159684,34.69686086226949,892.6563339235958,-2.074875839363751,72670.92861061696,10.5,10500072670.92861,47.655,-122.3035,60.0,9.3
2026-02-06T21:32:26+00:00,SAT-53419,334.2635106302537,34.81189481021084,890.5870205400244,-2.0253534768000794,70936.44599425125,10.5,10500070936.445993,47.655,-122.3035,60.0,9.316666666666666
2026-02-06T21:32:27+00:00,SAT-53419,334.7960880161367,34.924808106331305,888.5670967563968,-1.9754905047695583,69190.03379357983,10.5,10500069190.033794,47.655,-122.3035,60.0,9.333333333333334
2026-02-06T21:32:28+00:00,SAT-53419,335.33249785751605,35.035542498201245,886.5969022690529,-1.9252923066303602,67431.88055657751,10.5,10500067431.880556,47.655,-122.3035,60.0,9.35
2026-02-06T21:32:29+00:00,SAT-53419,335.87268986081773,35.144039949034386,884.6767714054064,-1.874764524914443,65662.18390858136,10.5,10500065662.183908,47.655,-122.3035,60.0,9.366666666666667
2026-02-06T21:32:30+00:00,SAT-53419,336.41661037676204,35.250242712210145,882.8070328654653,-1.8239130629397524,63881.150608756805,10.5,10500063881.150608,47.655,-122.3035,60.0,9.383333333333333
2026-02-06T21:32:31+00:00,SAT-53419,336.964202373016,35.35409340769803,880.9880094617473,-1.7727440629787492,62088.99578546725,10.5,10500062088.995785,47.655,-122.3035,60.0,9.4
2026-02-06T21:32:32+00:00,SAT-53419,337.5154054066808,35.45553509891499,879.2200178809629,-1.7212639130942209,60285.94317569297,10.5,10500060285.943176,47.655,-122.3035,60.0,9.416666666666666
2026-02-06T21:32:33+00:00,SAT-53419,338.070155604942,35.55451137150162,877.5033684388852,-1.6694792532431297,58472.22533881376,10.5,10500058472.225338,47.655,-122.3035,60.0,9.433333333333334
2026-02-06T21:32:34+00:00,SAT-53419,338.62838565435743,35.650966413830844,875.8383648291317,-1.617396962723453,56648.08321694423,10.5,10500056648.083218,47.655,-122.3035,60.0,9.45
2026-02-06T21:32:35+00:00,SAT-53419,339.1900247936758,35.74484509803808,874.2253038844644,-1.565024176416002,54813.76670379087,10.5,10500054813.766705,47.655,-122.3035,60.0,9.466666666666667
2026-02-06T21:32:36+00:00,SAT-53419,339.75499881977345,35.83609306304813,872.6644753218924,-1.5123682459748526,52969.53328537689,10.5,10500052969.533285,47.655,-122.3035,60.0,9.483333333333333
2026-02-06T21:32:37+00:00,SAT-53419,340.3232300884773,35.924656796238075,871.1561615264781,-1.4594367768427694,51115.6493364789,10.5,10500051115.649336,47.655,-122.3035,60.0,9.5
2026-02-06T21:32:38+00:00,SAT-53419,340.894637536552,36.01048371794031,869.7006372982316,-1.406237610652699,49252.38950425277,10.5,10500049252.389503,47.655,-122.3035,60.0,9.516666666666667
2026-02-06T21:32:39+00:00,SAT-53419,341.46913670716594,36.093522265428966,868.2981696165521,-1.352778798045891,47380.03575620923,10.5,10500047380.035757,47.655,-122.3035,60.0,9.533333333333333
2026-02-06T21:32:40+00:00,SAT-53419,342.0466397737389,36.17372197558632,866.9490174317802,-1.2990686357803247,45498.87867990798,10.5,10500045498.87868,47.655,-122.3035,60.0,9.55
2026-02-06T21:32:41+00:00,SAT-53419,342.6270555882111,36.25103356982789,865.653431419741,-1.2451156295997932,43609.2161824759,10.5,10500043609.216183,47.655,-122.3035,60.0,9.566666666666666
2026-02-06T21:32:42+00:00,SAT-53419,343.21028972472436,36.32540903668547,864.4116537733182,-1.1909285046249645,41711.353854546025,10.5,10500041711.353855,47.655,-122.3035,60.0,9.583333333333334
2026-02-06T21:32:43+00:00,SAT-53419,343.79624453801244,36.39680171461913,863.2239179836661,-1.1365161866731277,39805.60431599597,10.5,10500039805.604317,47.655,-122.3035,60.0,9.6
2026-02-06T21:32:44+00:00,SAT-53419,344.38481922402906,36.465166373097645,862.0904486400501,-1.0818878187893128,37892.28779493774,10.5,10500037892.287794,47.655,-122.3035,60.0,9.616666666666667
2026-02-06T21:32:45+00:00,SAT-53419,344.9759098998757,36.530459293809756,861.0114612132024,-1.027052728921861,35971.73099557942,10.5,10500035971.730995,47.655,-122.3035,60.0,9.633333333333333
2026-02-06T21:32:46+00:00,SAT-53419,345.56940967964414,36.59263834884126,859.9871618709135,-0.9720204397366564,34044.26744196111,10.5,10500034044.267443,47.655,-122.3035,60.0,9.65
2026-02-06T21:32:47+00:00,SAT-53419,346.1652087665609,36.65166307809097,859.0177472838369,-0.9168006586707576,32110.237129591016,10.5,10500032110.23713,47.655,-122.3035,60.0,9.666666666666666
2026-02-06T21:32:48+00:00,SAT-53419,346.7631945526624,36.70749476450197,858.1034044412136,-0.8614032632631423,30169.986011666093,10.5,10500030169.986012,47.655,-122.3035,60.0,9.683333333333334
2026-02-06T21:32:49+00:00,SAT-53419,347.3632517221518,36.760096506569944,857.2443104812254,-0.8058383015945705,28223.86601447789,10.5,10500028223.866014,47.655,-122.3035,60.0,9.7
2026-02-06T21:32:50+00:00,SAT-53419,347.96526236781006,36.8094332888033,856.4406325209119,-0.750115979063072,26272.234574234204,10.5,10500026272.234573,47.655,-122.3035,60.0,9.716666666666667
2026-02-06T21:32:51+00:00,SAT-53419,348.5691061121445,36.85547204906808,855.6925274992726,-0.6942466536973976,24315.45447291631,10.5,10500024315.454473,47.655,-122.3035,60.0,9.733333333333333
2026-02-06T21:32:52+00:00,SAT-53419,349.1746602391354,36.89818174310244,855.0001420250476,-0.6382408201426323,22353.893277387382,10.5,10500022353.893278,47.655,-122.3035,60.0,9.75
2026-02-06T21:32:53+00:00,SAT-53419,349.78179982755125,36.93753340528466,854.3636122404666,-0.5821091092298608,20387.92332432038,10.5,10500020387.923325,47.655,-122.3035,60.0,9.766666666666667
2026-02-06T21:32:54+00:00,SAT-53419,350.3903978984391,36.97350020638541,853.7830636854275,-0.5258622717884788,18417.921153236708,10.5,10500018417.921154,47.655,-122.3035,60.0,9.783333333333333
2026-02-06T21:32:55+00:00,SAT-53419,351.0003255639156,37.00605750713745,853.2586111778207,-0.4695111702107605,16444.267211061677,10.5,10500016444.267212,47.655,-122.3035,60.0,9.8
2026-02-06T21:32:56+00:00,SAT-53419,351.61145218268103,37.03518290789127,852.7903587022646,-0.413066770309543,14467.345566946187,10.5,10500014467.345568,47.655,-122.3035,60.0,9.816666666666666
2026-02-06T21:32:57+00:00,SAT-53419,352.22364552366906,37.060856294202026,852.3783993069628,-0.35654012934939694,12487.543493067686,10.5,10500012487.543493,47.655,-122.3035,60.0,9.833333333333334
2026-02-06T21:32:58+00:00,SAT-53419,352.83677193309984,37.083059877930204,852.0228150124979,-0.29994238544096896,10505.25109317518,10.5,10500010505.251093,47.655,-122.3035,60.0,9.85
2026-02-06T21:32:59+00:00,SAT-53419,353.45069650639493,37.1017782337908,851.7236767312002,-0.24328474709935238,8520.860936879206,10.5,10500008520.860937,47.655,-122.3035,60.0,9.866666666666667
2026-02-06T21:33:00+00:00,SAT-53419,354.0652832640788,37.116998331218326,851.4810441969344,-0.186578482937899,6534.767698685533,10.5,10500006534.767698,47.655,-122.3035,60.0,9.883333333333333
2026-02-06T21:33:01+00:00,SAT-53419,354.68039533364305,37.12870956143494,851.2949659051612,-0.1298349086880313,4547.367703374074,10.5,10500004547.367702,47.655,-122.3035,60.0,9.9
2026-02-06T21:33:02+00:00,SAT-53419,355.295895129301,37.13690375944711,851.1654790659462,-0.07306537802968827,2559.05860484231,10.5,10500002559.058605,47.655,-122.3035,60.0,9.916666666666666
2026-02-06T21:33:03+00:00,SAT-53419,355.91164453874586,37.14157522112753,851.0926095661123,-0.016281270674968568,570.2389687440701,10.5,10500000570.238968,47.655,-122.3035,60.0,9.933333333333334
2026-02-06T21:33:04+00:00,SAT-53419,356.5275051114232,37.142720715141245,851.0763719432766,0.04050601958735784,-1418.6921462422424,10.5,10499998581.307854,47.655,-122.3035,60.0,9.95
2026-02-06T21:33:05+00:00,SAT-53419,357.14333824555945,37.14033948966548,851.1167693718156,0.09728509554782082,-3407.335561630835,10.5,10499996592.664438,47.655,-122.3035,60.0,9.966666666666667
2026-02-06T21:33:06+00:00,SAT-53419,357.7590053758419,37.13443327395971,851.2137936594474,0.15404456791450602,-5395.292376242211,10.5,10499994604.707624,47.655,-122.3035,60.0,9.983333333333333
