DopplerPredictor/satellites_20260211_204923/SAT-55435.csv

timestamp,satellite,azimuth_deg,elevation_deg,distance_km,relative_velocity_kms,doppler_shift_hz,tx_freq_ghz,rx_freq_hz,ue_lat,ue_lon,ue_alt_m,time_minutes
2026-02-06T21:23:36+00:00,SAT-55435,341.22374290711235,30.223970637301985,1034.1055163271142,-5.751776111422476,201451.52941084327,10.5,10500201451.529411,47.655,-122.3035,60.0,0.48333333333333334
2026-02-06T21:23:37+00:00,SAT-55435,341.324973667669,30.4693738152159,1028.369159933701,-5.735255085949206,200872.89321490092,10.5,10500200872.893215,47.655,-122.3035,60.0,0.5
2026-02-06T21:23:38+00:00,SAT-55435,341.4278020284289,30.71710331033952,1022.6492802751724,-5.7184481856583655,200284.2444735979,10.5,10500200284.244474,47.655,-122.3035,60.0,0.5166666666666667
2026-02-06T21:23:39+00:00,SAT-55435,341.53226712269657,30.967188749255495,1016.9461624599536,-5.70134985415019,199685.38857831107,10.5,10500199685.388578,47.655,-122.3035,60.0,0.5333333333333333
2026-02-06T21:23:40+00:00,SAT-55435,341.63840935023063,31.219660012667592,1011.2600971379762,-5.683954436140981,199076.12745708332,10.5,10500199076.127457,47.655,-122.3035,60.0,0.55
2026-02-06T21:23:41+00:00,SAT-55435,341.7462704282824,31.474547226962894,1005.591380599293,-5.666256141641226,198456.2583199904,10.5,10500198456.25832,47.655,-122.3035,60.0,0.5666666666666667
2026-02-06T21:23:42+00:00,SAT-55435,341.85589344419583,31.731880753339034,999.9403149084239,-5.64824906442355,197825.57430596626,10.5,10500197825.574306,47.655,-122.3035,60.0,0.5833333333333334
2026-02-06T21:23:43+00:00,SAT-55435,341.96732291099073,31.991691176807738,994.307208020284,-5.6299271950941225,197183.86494061933,10.5,10500197183.86494,47.655,-122.3035,60.0,0.6
2026-02-06T21:23:44+00:00,SAT-55435,342.0806048259293,32.254009294841765,988.6923738830698,-5.61128442419776,196530.91624498597,10.5,10500196530.916245,47.655,-122.3035,60.0,0.6166666666666667
2026-02-06T21:23:45+00:00,SAT-55435,342.19578673202807,32.51886610518219,983.0961325380562,-5.59231449386284,195866.50904193133,10.5,10500195866.509043,47.655,-122.3035,60.0,0.6333333333333333
2026-02-06T21:23:46+00:00,SAT-55435,342.31291778151024,32.786292790285984,977.5188102676121,-5.573011072176474,195190.421561082,10.5,10500195190.42156,47.655,-122.3035,60.0,0.65
2026-02-06T21:23:47+00:00,SAT-55435,342.4320488041088,33.056320704118924,971.9607396690446,-5.553367657935223,194502.42610279357,10.5,10500194502.426104,47.655,-122.3035,60.0,0.6666666666666666
2026-02-06T21:23:48+00:00,SAT-55435,342.55323237652107,33.32898135316516,966.4222598234353,-5.5333776785564455,193802.29246741981,10.5,10500193802.292467,47.655,-122.3035,60.0,0.6833333333333333
2026-02-06T21:23:49+00:00,SAT-55435,342.6765228977244,33.60430638082707,960.9037163668291,-5.513034418728667,193089.7854563473,10.5,10500193089.785456,47.655,-122.3035,60.0,0.7
2026-02-06T21:23:50+00:00,SAT-55435,342.8019766663613,33.88232754698683,955.4054616325782,-5.492331042712796,192364.66565307777,10.5,10500192364.665653,47.655,-122.3035,60.0,0.7166666666666667
2026-02-06T21:23:51+00:00,SAT-55435,342.92965196250105,34.163076707128596,949.9278547714493,-5.471260612957558,191626.69007521984,10.5,10500191626.690075,47.655,-122.3035,60.0,0.7333333333333333
2026-02-06T21:23:52+00:00,SAT-55435,343.0596091342363,34.446585790848026,944.4712618531612,-5.449816047158366,190875.61067050873,10.5,10500190875.61067,47.655,-122.3035,60.0,0.75
2026-02-06T21:23:53+00:00,SAT-55435,343.1919106874515,34.732886776477265,939.0360560107506,-5.427990141540391,190111.175132278,10.5,10500190111.175133,47.655,-122.3035,60.0,0.7666666666666667
2026-02-06T21:23:54+00:00,SAT-55435,343.3266213809213,35.02201166506939,933.6226175617169,-5.405775593293416,189333.12768522304,10.5,10500189333.127686,47.655,-122.3035,60.0,0.7833333333333333
2026-02-06T21:23:55+00:00,SAT-55435,343.4638083269358,35.31399245369005,928.2313341067921,-5.383164954627627,188541.20747624038,10.5,10500188541.207476,47.655,-122.3035,60.0,0.8
2026-02-06T21:23:56+00:00,SAT-55435,343.60354109596216,35.608861104255396,922.8626006745311,-5.3601506829874985,187735.1503331306,10.5,10500187735.150333,47.655,-122.3035,60.0,0.8166666666666667
2026-02-06T21:23:57+00:00,SAT-55435,343.7458918282275,35.90664951291867,917.5168198158241,-5.336725068556664,186914.68622551198,10.5,10500186914.686226,47.655,-122.3035,60.0,0.8333333333333334
2026-02-06T21:23:58+00:00,SAT-55435,343.89093534901696,36.20738947318573,912.194401770708,-5.312880325727307,186079.54246846572,10.5,10500186079.542469,47.655,-122.3035,60.0,0.85
2026-02-06T21:23:59+00:00,SAT-55435,344.03874929297973,36.51111264165224,906.8957645439567,-5.288608520798278,185229.44119021806,10.5,10500185229.44119,47.655,-122.3035,60.0,0.8666666666666667
2026-02-06T21:24:00+00:00,SAT-55435,344.18941423276146,36.81785049715976,901.6213340527745,-5.263901631628402,184364.10142145143,10.5,10500184364.101421,47.655,-122.3035,60.0,0.8833333333333333
2026-02-06T21:24:01+00:00,SAT-55435,344.343013816569,37.12763430061947,896.3715442150022,-5.238751454919408,183483.23584796046,10.5,10500183483.235847,47.655,-122.3035,60.0,0.9
2026-02-06T21:24:02+00:00,SAT-55435,344.49963491009925,37.440495046522614,891.1468371297855,-5.213149745507787,182586.5556892421,10.5,10500182586.555689,47.655,-122.3035,60.0,0.9166666666666666
2026-02-06T21:24:03+00:00,SAT-55435,344.65936775083935,37.756463419545504,885.9476631193309,-5.187088084597131,181673.76608343457,10.5,10500181673.766083,47.655,-122.3035,60.0,0.9333333333333333
2026-02-06T21:24:04+00:00,SAT-55435,344.82230610633184,38.075569740133375,880.7744809020706,-5.160557975236609,180744.56943137772,10.5,10500180744.569431,47.655,-122.3035,60.0,0.95
2026-02-06T21:24:05+00:00,SAT-55435,344.98854744469486,38.39784391231674,875.6277576706087,-5.133550794873448,179798.66373480018,10.5,10500179798.663734,47.655,-122.3035,60.0,0.9666666666666667
2026-02-06T21:24:06+00:00,SAT-55435,345.15819311258855,38.723315365029336,870.5079692169862,-5.106057803717857,178835.74288929408,10.5,10500178835.74289,47.655,-122.3035,60.0,0.9833333333333333
2026-02-06T21:24:07+00:00,SAT-55435,345.33134852373587,39.05201299000617,865.4156000496042,-5.078070164095511,177855.49736212133,10.5,10500177855.497362,47.655,-122.3035,60.0,1.0
2026-02-06T21:24:08+00:00,SAT-55435,345.5081233584907,39.383965076788684,860.3511434908447,-5.049578948163993,176857.61446247567,10.5,10500176857.614462,47.655,-122.3035,60.0,1.0166666666666666
2026-02-06T21:24:09+00:00,SAT-55435,345.68863177516675,39.71919924393276,855.3151017669989,-5.020575094471307,175841.77681997832,10.5,10500175841.77682,47.655,-122.3035,60.0,1.0333333333333334
2026-02-06T21:24:10+00:00,SAT-55435,345.8729926315058,40.057742362723474,850.3079861415167,-4.991049497223277,174807.6655111998,10.5,10500174807.665512,47.655,-122.3035,60.0,1.05
2026-02-06T21:24:11+00:00,SAT-55435,346.0613297225196,40.399620481940524,845.3303169592306,-4.96099290458637,173754.95649779448,10.5,10500173754.956497,47.655,-122.3035,60.0,1.0666666666666667
2026-02-06T21:24:12+00:00,SAT-55435,346.25377202770835,40.74485874063582,840.3826237920043,-4.930396016709426,172683.3240596365,10.5,10500172683.32406,47.655,-122.3035,60.0,1.0833333333333333
2026-02-06T21:24:13+00:00,SAT-55435,346.4504539766063,41.09348128203836,835.4654454866211,-4.899249420036772,171592.43849418688,10.5,10500171592.438494,47.655,-122.3035,60.0,1.1
2026-02-06T21:24:14+00:00,SAT-55435,346.65151572704406,41.445511157144985,830.579330278183,-4.867543680060104,170481.96936505684,10.5,10500170481.969364,47.655,-122.3035,60.0,1.1166666666666667
2026-02-06T21:24:15+00:00,SAT-55435,346.8571034636622,41.80097022874235,825.7248358110081,-4.835269248272593,169351.5822431471,10.5,10500169351.582243,47.655,-122.3035,60.0,1.1333333333333333
2026-02-06T21:24:16+00:00,SAT-55435,347.0673697097059,42.1598790623305,820.9025292523231,-4.802416511212991,168200.94042437986,10.5,10500168200.940424,47.655,-122.3035,60.0,1.15
2026-02-06T21:24:17+00:00,SAT-55435,347.28247365932447,42.52225681354313,816.112987357043,-4.768975830597444,167029.7063352847,10.5,10500167029.706335,47.655,-122.3035,60.0,1.1666666666666667
2026-02-06T21:24:18+00:00,SAT-55435,347.5025815317058,42.888121111320984,811.3567964925287,-4.734937521859551,165837.54078138043,10.5,10500165837.540781,47.655,-122.3035,60.0,1.1833333333333333
2026-02-06T21:24:19+00:00,SAT-55435,347.72786694493396,43.25748793187668,806.634552684744,-4.700291828055545,164624.10203322466,10.5,10500164624.102034,47.655,-122.3035,60.0,1.2
2026-02-06T21:24:20+00:00,SAT-55435,347.9585113110043,43.630371462361026,801.9468616904393,-4.665029000886356,163389.04866414866,10.5,10500163389.048664,47.655,-122.3035,60.0,1.2166666666666666
2026-02-06T21:24:21+00:00,SAT-55435,348.19470425855616,44.00678396215505,797.2943389885302,-4.629139274591118,162132.0386358977,10.5,10500162132.038635,47.655,-122.3035,60.0,1.2333333333333334
2026-02-06T21:24:22+00:00,SAT-55435,348.4366440798355,44.386735613086024,792.677609797513,-4.592612837955183,160852.7283182335,10.5,10500160852.72832,47.655,-122.3035,60.0,1.25
2026-02-06T21:24:23+00:00,SAT-55435,348.68453820275846,44.770234357546016,788.0973091207959,-4.555439939763443,159550.7761823553,10.5,10500159550.776182,47.655,-122.3035,60.0,1.2666666666666666
2026-02-06T21:24:24+00:00,SAT-55435,348.93860369790735,45.15728573497731,783.5540816868602,-4.517610807254048,158225.83994480444,10.5,10500158225.839945,47.655,-122.3035,60.0,1.2833333333333334
2026-02-06T21:24:25+00:00,SAT-55435,349.1990678112277,45.547892700789724,779.04858197075,-4.479115698785352,156877.57841208336,10.5,10500156877.578413,47.655,-122.3035,60.0,1.3
2026-02-06T21:24:26+00:00,SAT-55435,349.46616853228545,45.94205543800605,774.5814741630352,-4.4399449551329475,155505.65327729474,10.5,10500155505.653276,47.655,-122.3035,60.0,1.3166666666666667
2026-02-06T21:24:27+00:00,SAT-55435,349.74015520076836,46.339771161251754,770.1534320876145,-4.4000889232597435,154109.7264502475,10.5,10500154109.72645,47.655,-122.3035,60.0,1.3333333333333333
2026-02-06T21:24:28+00:00,SAT-55435,350.0212891444258,46.741033901061705,765.7651391955459,-4.359538062965768,152689.4637927835,10.5,10500152689.463793,47.655,-122.3035,60.0,1.35
2026-02-06T21:24:29+00:00,SAT-55435,350.30984436368817,47.14583428384143,761.4172884525108,-4.318282924417222,151244.53433175036,10.5,10500151244.534332,47.655,-122.3035,60.0,1.3666666666666667
2026-02-06T21:24:30+00:00,SAT-55435,350.60610825618335,47.55415929539932,757.1105822486908,-4.276314137423425,149774.60988343463,10.5,10500149774.609884,47.655,-122.3035,60.0,1.3833333333333333
2026-02-06T21:24:31+00:00,SAT-55435,350.91038238493405,47.96599202788081,752.8457323193385,-4.233622483839206,148279.36758939966,10.5,10500148279.36759,47.655,-122.3035,60.0,1.4
2026-02-06T21:24:32+00:00,SAT-55435,351.2229832984047,48.38131141705275,748.6234595931384,-4.190198877154535,146758.48920162837,10.5,10500146758.489202,47.655,-122.3035,60.0,1.4166666666666667
2026-02-06T21:24:33+00:00,SAT-55435,351.54424339926607,48.80009196027223,744.4444940609261,-4.146034420999268,145211.66313160656,10.5,10500145211.663132,47.655,-122.3035,60.0,1.4333333333333333
2026-02-06T21:24:34+00:00,SAT-55435,351.87451187027654,49.222303421692644,740.3095745860569,-4.101120377333027,143638.58333619847,10.5,10500143638.583336,47.655,-122.3035,60.0,1.45
2026-02-06T21:24:35+00:00,SAT-55435,352.21415565345353,49.64791051464619,736.2194487465009,-4.055448223752702,142038.9513247974,10.5,10500142038.951324,47.655,-122.3035,60.0,1.4666666666666666
2026-02-06T21:24:36+00:00,SAT-55435,352.5635604927103,50.07687256879533,732.1748726197843,-4.009009672525535,140412.47682594508,10.5,10500140412.476826,47.655,-122.3035,60.0,1.4833333333333334
2026-02-06T21:24:37+00:00,SAT-55435,352.92313204034014,50.509143177094316,728.1766105489473,-3.961796697282979,138758.87872226353,10.5,10500138758.878723,47.655,-122.3035,60.0,1.5
2026-02-06T21:24:38+00:00,SAT-55435,353.29329703135096,50.944669821997394,724.2254348818818,-3.913801540572975,137077.8853149676,10.5,10500137077.885315,47.655,-122.3035,60.0,1.5166666666666666
2026-02-06T21:24:39+00:00,SAT-55435,353.67450452679384,51.38339347733247,720.3221257031346,-3.86501675941283,135369.23591931962,10.5,10500135369.23592,47.655,-122.3035,60.0,1.5333333333333334
2026-02-06T21:24:40+00:00,SAT-55435,354.0672272332269,51.82524818841753,716.4674705202813,-3.8154352156205915,133632.6805259931,10.5,10500133632.680527,47.655,-122.3035,60.0,1.55
2026-02-06T21:24:41+00:00,SAT-55435,354.4719628951461,52.27016062255249,712.6622639599437,-3.765050167928483,131867.98302727507,10.5,10500131867.983027,47.655,-122.3035,60.0,1.5666666666666667
2026-02-06T21:24:42+00:00,SAT-55435,354.8892357752213,52.7180495997599,708.9073073719387,-3.7138552344320708,130074.91990187672,10.5,10500130074.919903,47.655,-122.3035,60.0,1.5833333333333333
2026-02-06T21:24:43+00:00,SAT-55435,355.31959820942114,53.16882558707069,705.2034084708781,-3.6618444602848794,128253.28258588558,10.5,10500128253.282585,47.655,-122.3035,60.0,1.6
2026-02-06T21:24:44+00:00,SAT-55435,355.76363225202016,53.62239016639112,701.5513809102569,-3.609012309407553,126402.87718238497,10.5,10500126402.877182,47.655,-122.3035,60.0,1.6166666666666667
2026-02-06T21:24:45+00:00,SAT-55435,356.221951401463,54.07863546480212,697.952043864807,-3.5553537619475044,124523.52787490336,10.5,10500124523.527874,47.655,-122.3035,60.0,1.6333333333333333
2026-02-06T21:24:46+00:00,SAT-55435,356.6952024229921,54.53744355811979,694.4062215156564,-3.5008642534387895,122615.0747965357,10.5,10500122615.074797,47.655,-122.3035,60.0,1.65
2026-02-06T21:24:47+00:00,SAT-55435,357.18406724468787,54.998685825504666,690.9147425961618,-3.4455397961224143,120677.37827909384,10.5,10500120677.378279,47.655,-122.3035,60.0,1.6666666666666667
2026-02-06T21:24:48+00:00,SAT-55435,357.6892649516263,55.46222227565808,687.4784398167486,-3.3893769500902637,118710.31784244474,10.5,10500118710.317842,47.655,-122.3035,60.0,1.6833333333333333
2026-02-06T21:24:49+00:00,SAT-55435,358.2115538522812,55.92790082285691,684.0981493185275,-3.332372856793544,116713.79336811807,10.5,10500116713.793367,47.655,-122.3035,60.0,1.7
2026-02-06T21:24:50+00:00,SAT-55435,358.75173362040385,56.39555651777031,680.7747100934953,-3.2745253241473695,114687.72808002857,10.5,10500114687.72808,47.655,-122.3035,60.0,1.7166666666666666
2026-02-06T21:24:51+00:00,SAT-55435,359.31064751252575,56.865010737742246,677.5089633198576,-3.2158327937363516,112632.06739587722,10.5,10500112632.067396,47.655,-122.3035,60.0,1.7333333333333334
2026-02-06T21:24:52+00:00,SAT-55435,359.88918462982866,57.33607031733921,674.3017517300564,-3.1562944017568824,110546.78106160785,10.5,10500110546.781061,47.655,-122.3035,60.0,1.75
2026-02-06T21:24:53+00:00,SAT-55435,0.4882822232937913,57.80852662911508,671.1539189180219,-3.095910036773647,108431.86517428432,10.5,10500108431.865173,47.655,-122.3035,60.0,1.7666666666666666
2026-02-06T21:24:54+00:00,SAT-55435,1.1089280222201119,58.28215461185397,668.0663085888211,-3.0346803055541645,106287.34098547178,10.5,10500106287.340986,47.655,-122.3035,60.0,1.7833333333333334
2026-02-06T21:24:55+00:00,SAT-55435,1.7521625395403513,58.7567117297316,665.0397638423805,-2.972606640301003,104113.25865696238,10.5,10500104113.258657,47.655,-122.3035,60.0,1.8
2026-02-06T21:24:56+00:00,SAT-55435,2.4190813488351224,59.23193688114418,662.0751263502622,-2.9096912769128025,101909.69649938434,10.5,10500101909.696499,47.655,-122.3035,60.0,1.8166666666666667
2026-02-06T21:24:57+00:00,SAT-55435,3.1108372619862417,59.7075492356558,659.1732355541255,-2.8459372894081634,99676.76217787212,10.5,10500099676.762178,47.655,-122.3035,60.0,1.8333333333333333
2026-02-06T21:24:58+00:00,SAT-55435,3.8286423646009493,60.18324700559859,656.3349278298509,-2.781348655017159,97414.59499184656,10.5,10500097414.594992,47.655,-122.3035,60.0,1.85
2026-02-06T21:24:59+00:00,SAT-55435,4.573769851520416,60.65870615681379,653.5610355867515,-2.7159302322528016,95123.36510698483,10.5,10500095123.365107,47.655,-122.3035,60.0,1.8666666666666667
2026-02-06T21:25:00+00:00,SAT-55435,5.347555557276407,61.13357904417142,650.8523863886533,-2.649687852350446,92803.27675781518,10.5,10500092803.276758,47.655,-122.3035,60.0,1.8833333333333333
2026-02-06T21:25:01+00:00,SAT-55435,6.151399115367167,61.60749299233369,648.2098019837781,-2.5826282523286443,90454.56590322484,10.5,10500090454.565903,47.655,-122.3035,60.0,1.9
2026-02-06T21:25:02+00:00,SAT-55435,6.986764579062975,62.080048797290395,645.6340974013912,-2.514759199703606,88077.50459448803,10.5,10500088077.504595,47.655,-122.3035,60.0,1.9166666666666667
2026-02-06T21:25:03+00:00,SAT-55435,7.855180421326906,62.550819187433646,643.1260799240653,-2.4460894476133905,85672.39940352534,10.5,10500085672.399403,47.655,-122.3035,60.0,1.9333333333333333
2026-02-06T21:25:04+00:00,SAT-55435,8.758238692082548,63.019347222149385,640.6865481047006,-2.376628773406277,83239.59277443167,10.5,10500083239.592775,47.655,-122.3035,60.0,1.95
2026-02-06T21:25:05+00:00,SAT-55435,9.697593161241947,63.48514465375713,638.3162907450609,-2.306388001221092,80779.46381433473,10.5,10500080779.463814,47.655,-122.3035,60.0,1.9666666666666666
2026-02-06T21:25:06+00:00,SAT-55435,10.674956211049267,63.94769026554889,636.0160858517896,-2.2353790278345054,78292.42919867687,10.5,10500078292.4292,47.655,-122.3035,60.0,1.9833333333333334
2026-02-06T21:25:07+00:00,SAT-55435,11.692094216792807,64.40642820737871,633.7866995666465,-2.1636147985702694,75778.94232745453,10.5,10500075778.942327,47.655,-122.3035,60.0,2.0
2026-02-06T21:25:08+00:00,SAT-55435,12.750821086773117,64.86076634532512,631.6288851207723,-2.091109362871401,73239.49527159121,10.5,10500073239.495272,47.655,-122.3035,60.0,2.0166666666666666
2026-02-06T21:25:09+00:00,SAT-55435,13.852989658709793,65.3100746757124,629.5433817335297,-2.0178778535945407,70674.61804773848,10.5,10500070674.618048,47.655,-122.3035,60.0,2.033333333333333
2026-02-06T21:25:10+00:00,SAT-55435,15.000480538170022,65.75368383095085,627.5309135319936,-1.9439364945177637,68084.87888123096,10.5,10500068084.878881,47.655,-122.3035,60.0,2.05
2026-02-06T21:25:11+00:00,SAT-55435,16.195187980016293,66.19088373562901,625.5921884629543,-1.869302617739478,65470.88481546964,10.5,10500065470.884815,47.655,-122.3035,60.0,2.066666666666667
2026-02-06T21:25:12+00:00,SAT-55435,17.43900238469814,66.62092247975247,623.7278971875692,-1.7939946390675028,62833.28084994312,10.5,10500062833.28085,47.655,-122.3035,60.0,2.0833333333333335
2026-02-06T21:25:13+00:00,SAT-55435,18.733788933133148,67.04300547693853,621.9387120005579,-1.7180320714076085,60172.75040915102,10.5,10500060172.75041,47.655,-122.3035,60.0,2.1
2026-02-06T21:25:14+00:00,SAT-55435,20.08136194321366,67.45629500718692,620.2252857360451,-1.6414354969764784,57490.01436938425,10.5,10500057490.01437,47.655,-122.3035,60.0,2.1166666666666667
2026-02-06T21:25:15+00:00,SAT-55435,21.483454508054614,67.85991024040153,618.5882507011181,-1.5642265895914593,54785.831839406455,10.5,10500054785.831839,47.655,-122.3035,60.0,2.1333333333333333
2026-02-06T21:25:16+00:00,SAT-55435,22.94168312149625,68.25292787307049,617.0282175871498,-1.4864280455153236,52060.99773834503,10.5,10500052060.997738,47.655,-122.3035,60.0,2.15
2026-02-06T21:25:17+00:00,SAT-55435,24.45750698500774,68.6343834898023,615.5457744500976,-1.408063604179182,49316.34352149516,10.5,10500049316.343521,47.655,-122.3035,60.0,2.1666666666666665
2026-02-06T21:25:18+00:00,SAT-55435,26.032182028283927,69.00327381710741,614.1414856701285,-1.329158014472394,46552.73599964992,10.5,10500046552.736,47.655,-122.3035,60.0,2.183333333333333
2026-02-06T21:25:19+00:00,SAT-55435,27.666709788953654,69.35856000939998,612.815890944869,-1.2497369962094722,43771.07598950824,10.5,10500043771.075989,47.655,-122.3035,60.0,2.2
2026-02-06T21:25:20+00:00,SAT-55435,29.361781650678086,69.69917212017967,611.5695043210827,-1.169827225215865,40972.297791315956,10.5,10500040972.29779,47.655,-122.3035,60.0,2.216666666666667
2026-02-06T21:25:21+00:00,SAT-55435,31.117719372347004,70.02401491219584,610.4028132412216,-1.089456271550921,38157.367025172694,10.5,10500038157.367025,47.655,-122.3035,60.0,2.2333333333333334
2026-02-06T21:25:22+00:00,SAT-55435,32.93441321209383,70.33197512325393,609.3162776515898,-1.008652589476013,35327.280279673134,10.5,10500035327.28028,47.655,-122.3035,60.0,2.25
2026-02-06T21:25:23+00:00,SAT-55435,34.811259617374176,70.6219302990608,608.3103291205119,-0.9274454532980169,32483.062864874264,10.5,10500032483.062864,47.655,-122.3035,60.0,2.2666666666666666
2026-02-06T21:25:24+00:00,SAT-55435,36.747100845094856,70.89275922744133,607.3853700204868,-0.8458649216395563,29625.767560888213,10.5,10500029625.767561,47.655,-122.3035,60.0,2.283333333333333
2026-02-06T21:25:25+00:00,SAT-55435,38.740169533621206,71.14335396539177,606.541772745973,-0.7639417781746067,26756.47254219241,10.5,10500026756.472542,47.655,-122.3035,60.0,2.3
2026-02-06T21:25:26+00:00,SAT-55435,40.78804161733649,71.37263335320077,605.7798789902814,-0.6817074858937973,23876.27977580701,10.5,10500023876.279776,47.655,-122.3035,60.0,2.316666666666667
2026-02-06T21:25:27+00:00,SAT-55435,42.88760134257925,71.57955782259653,605.0999990680818,-0.5991941269033667,20986.31291279966,10.5,10500020986.312912,47.655,-122.3035,60.0,2.3333333333333335
2026-02-06T21:25:28+00:00,SAT-55435,45.0350221510921,71.76314518969834,604.5024112979438,-0.5164343416018012,18087.715157994116,10.5,10500018087.715158,47.655,-122.3035,60.0,2.35
2026-02-06T21:25:29+00:00,SAT-55435,47.225766970055446,71.92248701663675,603.987361445544,-0.43346127134972373,15181.647262027183,10.5,10500015181.647263,47.655,-122.3035,60.0,2.3666666666666667
2026-02-06T21:25:30+00:00,SAT-55435,49.45461085967294,72.0567650236847,603.5550622240452,-0.35030848885229654,12269.285083046065,10.5,10500012269.285084,47.655,-122.3035,60.0,2.3833333333333333
2026-02-06T21:25:31+00:00,SAT-55435,51.71568790548777,72.1652669448386,603.2056928639089,-0.26700993502295406,9351.81737540915,10.5,10500009351.817375,47.655,-122.3035,60.0,2.4
2026-02-06T21:25:32+00:00,SAT-55435,54.00256294795364,72.24740117343612,602.9393987456743,-0.1835998494228541,6430.443353381385,10.5,10500006430.443354,47.655,-122.3035,60.0,2.4166666666666665
2026-02-06T21:25:33+00:00,SAT-55435,56.30832708521135,72.30270953104164,602.7562911021109,-0.10011270153685999,3506.3702841284617,10.5,10500003506.370285,47.655,-122.3035,60.0,2.433333333333333
2026-02-06T21:25:34+00:00,SAT-55435,58.625714157133004,72.33087753623201,602.6564467889112,-0.01658311891444146,580.8109709071979,10.5,10500000580.81097,47.655,-122.3035,60.0,2.45
2026-02-06T21:25:35+00:00,SAT-55435,60.94723375541713,72.33174164221096,602.6399081270501,0.06695418259555858,-2345.0186904080324,10.5,10499997654.98131,47.655,-122.3035,60.0,2.466666666666667
2026-02-06T21:25:36+00:00,SAT-55435,63.265314896851805,72.30529305565074,602.7066828147218,0.15046447296865031,-5269.902307451738,10.5,10499994730.097692,47.655,-122.3035,60.0,2.4833333333333334
2026-02-06T21:25:37+00:00,SAT-55435,65.572453610469,72.25167792581091,602.8567439132024,0.23391307708205492,-8192.62541074858,10.5,10499991807.37459,47.655,-122.3035,60.0,2.5
2026-02-06T21:25:38+00:00,SAT-55435,67.86135725607626,72.17119389568082,603.0900299016051,0.3172654496359547,-11111.978077772472,10.5,10499988888.021923,47.655,-122.3035,60.0,2.5166666666666666
2026-02-06T21:25:39+00:00,SAT-55435,70.12507879414399,72.06428320349896,603.4064448063531,0.4004872445267619,-14026.757362691891,10.5,10499985973.242638,47.655,-122.3035,60.0,2.533333333333333
2026-02-06T21:25:40+00:00,SAT-55435,72.35713500139849,71.93152270862677,603.8058583998445,0.48354438195131333,-16935.769646642646,10.5,10499983064.230354,47.655,-122.3035,60.0,2.55
2026-02-06T21:25:41+00:00,SAT-55435,74.55160404025901,71.77361136037517,604.2881064660371,0.5664031250663595,-19837.833322667426,10.5,10499980162.166677,47.655,-122.3035,60.0,2.566666666666667
2026-02-06T21:25:42+00:00,SAT-55435,76.70319947404833,71.59135572321773,604.8529911424888,0.6490301391843512,-22731.78086900267,10.5,10499977268.219131,47.655,-122.3035,60.0,2.5833333333333335
2026-02-06T21:25:43+00:00,SAT-55435,78.80731944204614,71.385654226822,605.5002813214359,0.7313925622542456,-25616.461317614532,10.5,10499974383.538683,47.655,-122.3035,60.0,2.6
2026-02-06T21:25:44+00:00,SAT-55435,80.86007147869687,71.1574807952749,606.2297131211632,0.8134580624693626,-28490.742271869654,10.5,10499971509.257729,47.655,-122.3035,60.0,2.6166666666666667
2026-02-06T21:25:45+00:00,SAT-55435,82.85827475570369,70.90786846927935,607.0409904148243,0.895194908680088,-31353.51237268592,10.5,10499968646.487627,47.655,-122.3035,60.0,2.6333333333333333
2026-02-06T21:25:46+00:00,SAT-55435,84.79944262885739,70.63789354567733,607.9337854294911,0.9765720121568339,-34203.68276124797,10.5,10499965796.317238,47.655,-122.3035,60.0,2.65
2026-02-06T21:25:47+00:00,SAT-55435,86.68174893522503,70.3486606694018,608.9077393868502,1.057559003365783,-37040.189768018514,10.5,10499962959.810232,47.655,-122.3035,60.0,2.6666666666666665
2026-02-06T21:25:48+00:00,SAT-55435,88.50398189656029,70.04128918304824,609.9624632204712,1.1381262604244942,-39861.99590937404,10.5,10499960138.004091,47.655,-122.3035,60.0,2.683333333333333
2026-02-06T21:25:49+00:00,SAT-55435,90.26548928650027,69.71690095575934,611.0975383214527,1.2182449803630804,-42668.09238347266,10.5,10499957331.907616,47.655,-122.3035,60.0,2.7
2026-02-06T21:25:50+00:00,SAT-55435,91.96611840069608,69.37660978688133,612.3125173551413,1.297887192930889,-45457.499553822454,10.5,10499954542.500446,47.655,-122.3035,60.0,2.716666666666667
2026-02-06T21:25:51+00:00,SAT-55435,93.60615377225233,69.02151242476603,613.6069250916163,1.3770258487477287,-48229.27003671037,10.5,10499951770.729963,47.655,-122.3035,60.0,2.7333333333333334
2026-02-06T21:25:52+00:00,SAT-55435,95.18625522163876,68.65268113654396,614.9802593240934,1.4556348050452546,-50982.48820180517,10.5,10499949017.511799,47.655,-122.3035,60.0,2.75
2026-02-06T21:25:53+00:00,SAT-55435,96.70739805882654,68.27115776427658,616.4319917731038,1.5336888953423744,-53716.27261248491,10.5,10499946283.727388,47.655,-122.3035,60.0,2.7666666666666666
2026-02-06T21:25:54+00:00,SAT-55435,98.17081695461219,67.8779491176909,617.9615690601669,1.611163944929181,-56429.77656814969,10.5,10499943570.223433,47.655,-122.3035,60.0,2.783333333333333
2026-02-06T21:25:55+00:00,SAT-55435,99.57795435972307,67.47402357237874,619.5684136969003,1.6880367997699182,-59122.18911652588,10.5,10499940877.810883,47.655,-122.3035,60.0,2.8
2026-02-06T21:25:56+00:00,SAT-55435,100.93041402867192,67.06030871572298,621.2519251029591,1.7642853480269767,-61792.7358075274,10.5,10499938207.264193,47.655,-122.3035,60.0,2.816666666666667
2026-02-06T21:25:57+00:00,SAT-55435,102.22991986020969,66.637689889199,623.0114806454392,1.8398885384404078,-64440.679336984125,10.5,10499935559.320663,47.655,-122.3035,60.0,2.8333333333333335
2026-02-06T21:25:58+00:00,SAT-55435,103.47828002145881,66.20700948157284,624.8464366966126,1.9148263953838092,-67065.32007396262,10.5,10499932934.679926,47.655,-122.3035,60.0,2.85
2026-02-06T21:25:59+00:00,SAT-55435,104.67735614317984,65.76906683877463,626.7561297066767,1.9890800263265134,-69665.9963221236,10.5,10499930334.003677,47.655,-122.3035,60.0,2.8666666666666667
2026-02-06T21:26:00+00:00,SAT-55435,105.82903725236483,65.32461867061436,628.7398772839454,2.0626316414967394,-72242.0850084086,10.5,10499927757.914991,47.655,-122.3035,60.0,2.8833333333333333
2026-02-06T21:26:01+00:00,SAT-55435,106.93521804131852,64.87437984471013,630.7969792946545,2.135464528428165,-74793.00079155338,10.5,10499925206.999208,47.655,-122.3035,60.0,2.9
2026-02-06T21:26:02+00:00,SAT-55435,107.99778101155285,64.41902448520217,632.9267189373761,2.2075630921705334,-77318.19747043337,10.5,10499922681.80253,47.655,-122.3035,60.0,2.9166666666666665
2026-02-06T21:26:03+00:00,SAT-55435,109.01858207353906,63.95918728337872,635.1283638575403,2.2789128130454057,-79817.16650449144,10.5,10499920182.833496,47.655,-122.3035,60.0,2.933333333333333
2026-02-06T21:26:04+00:00,SAT-55435,109.99943912574241,63.49546497262981,637.4011672198237,2.349500272559017,-82289.43792131582,10.5,10499917710.562078,47.655,-122.3035,60.0,2.95
2026-02-06T21:26:05+00:00,SAT-55435,110.94212322858749,63.02841789915224,639.744368806383,2.4193131217711907,-84734.57920878551,10.5,10499915265.420792,47.655,-122.3035,60.0,2.966666666666667
2026-02-06T21:26:06+00:00,SAT-55435,111.84835196784337,62.55857165676527,642.1571960835402,2.4883400791625867,-87152.19524037246,10.5,10499912847.80476,47.655,-122.3035,60.0,2.9833333333333334
2026-02-06T21:26:07+00:00,SAT-55435,112.71978467468925,62.08641874470349,644.6388652663414,2.556570916915696,-89541.92779464388,10.5,10499910458.072205,47.655,-122.3035,60.0,3.0
2026-02-06T21:26:08+00:00,SAT-55435,113.5580191901731,61.61242022342506,647.1885823694357,2.623996431670983,-91903.45453101865,10.5,10499908096.54547,47.655,-122.3035,60.0,3.0166666666666666
2026-02-06T21:26:09+00:00,SAT-55435,114.36458990097246,61.13700735013622,649.8055442287848,2.6906084503219896,-94236.48919273644,10.5,10499905763.510807,47.655,-122.3035,60.0,3.033333333333333
2026-02-06T21:26:10+00:00,SAT-55435,115.14096682242692,60.66058317166306,652.4889395291555,2.7563997749217695,-96540.77967724786,10.5,10499903459.220324,47.655,-122.3035,60.0,3.05
2026-02-06T21:26:11+00:00,SAT-55435,115.88855551007269,60.18352407420473,655.237949776664,2.821364196000156,-98816.10850264164,10.5,10499901183.891497,47.655,-122.3035,60.0,3.066666666666667
2026-02-06T21:26:12+00:00,SAT-55435,116.6086976484061,59.706181269425485,658.0517502846027,2.885496432526484,-101062.29070488518,10.5,10499898937.709295,47.655,-122.3035,60.0,3.0833333333333335
2026-02-06T21:26:13+00:00,SAT-55435,117.30267215232266,59.22888222451005,660.9295110993922,2.94879212920701,-103279.1737431687,10.5,10499896720.826258,47.655,-122.3035,60.0,3.1
2026-02-06T21:26:14+00:00,SAT-55435,117.97169667530126,58.75193202288509,663.870397923834,3.011247824349792,-105466.63637439744,10.5,10499894533.363626,47.655,-122.3035,60.0,3.1166666666666667
2026-02-06T21:26:15+00:00,SAT-55435,118.61692941589503,58.27561465935518,666.873573008319,3.07286092988365,-107624.58795337114,10.5,10499892375.412046,47.655,-122.3035,60.0,3.1333333333333333
2026-02-06T21:26:16+00:00,SAT-55435,119.23947114175829,57.80019426749763,669.9381960221043,3.1336296440057305,-109752.96537333226,10.5,10499890247.034626,47.655,-122.3035,60.0,3.15
2026-02-06T21:26:17+00:00,SAT-55435,119.84036735171253,57.325916290434236,673.0634248374756,3.1935530266080567,-111851.73570772284,10.5,10499888148.264292,47.655,-122.3035,60.0,3.1666666666666665
2026-02-06T21:26:18+00:00,SAT-55435,120.42061054953751,56.8530085713491,676.2484163891295,3.252630875998024,-113920.89189241461,10.5,10499886079.108109,47.655,-122.3035,60.0,3.183333333333333
2026-02-06T21:26:19+00:00,SAT-55435,120.98114254904229,56.381682396750534,679.4923274106121,3.31086372711086,-115960.45266310213,10.5,10499884039.547337,47.655,-122.3035,60.0,3.2
2026-02-06T21:26:20+00:00,SAT-55435,121.52285679719566,55.91213347574843,682.7943151689698,3.3682528448684717,-117970.4623227011,10.5,10499882029.537678,47.655,-122.3035,60.0,3.216666666666667
2026-02-06T21:26:21+00:00,SAT-55435,122.04660068572987,55.44454285938989,686.15353819278,3.4248001383638567,-119950.9877357238,10.5,10499880049.012264,47.655,-122.3035,60.0,3.2333333333333334
2026-02-06T21:26:22+00:00,SAT-55435,122.55317781719049,54.979077813975245,689.5691569145954,3.48050818865362,-121902.11930169043,10.5,10499878097.8807,47.655,-122.3035,60.0,3.25
2026-02-06T21:26:23+00:00,SAT-55435,123.04335022640953,54.51589263515427,693.0403343411053,3.535380174253717,-123823.96834567476,10.5,10499876176.031654,47.655,-122.3035,60.0,3.2666666666666666
2026-02-06T21:26:24+00:00,SAT-55435,123.51784052945052,54.05512942002735,696.5662366489942,3.589419852594888,-125716.66646879529,10.5,10499874283.33353,47.655,-122.3035,60.0,3.283333333333333
2026-02-06T21:26:25+00:00,SAT-55435,123.9773340001286,53.596918792126985,700.1460337623043,3.642631535785791,-127580.36469933744,10.5,10499872419.635302,47.655,-122.3035,60.0,3.3
2026-02-06T21:26:26+00:00,SAT-55435,124.42248056626184,53.14138058296287,703.7788999056258,3.69502006892053,-129415.23273299147,10.5,10499870584.767267,47.655,-122.3035,60.0,3.316666666666667
2026-02-06T21:26:27+00:00,SAT-55435,124.85389672235111,52.68862447255922,707.4640141356543,3.7465907193138075,-131221.4550533989,10.5,10499868778.544947,47.655,-122.3035,60.0,3.3333333333333335
2026-02-06T21:26:28+00:00,SAT-55435,125.27216734733187,52.238750602216946,711.2005607622792,3.797349283733895,-132999.23468790497,10.5,10499867000.765312,47.655,-122.3035,60.0,3.35
2026-02-06T21:26:29+00:00,SAT-55435,125.67784744997033,51.79185013513243,714.9877298766174,3.847301967201878,-134748.7889625953,10.5,10499865251.211037,47.655,-122.3035,60.0,3.3666666666666667
2026-02-06T21:26:30+00:00,SAT-55435,126.07146381766003,51.348005795519896,718.824717758173,3.89645534592922,-136470.3482042127,10.5,10499863529.651796,47.655,-122.3035,60.0,3.3833333333333333
2026-02-06T21:26:31+00:00,SAT-55435,126.45351658000048,50.907292377385,722.7107272450305,3.9448163818505626,-138164.15624915724,10.5,10499861835.84375,47.655,-122.3035,60.0,3.4
2026-02-06T21:26:32+00:00,SAT-55435,126.82448069360683,50.46977721920992,726.644968118546,3.9923923757930475,-139830.4688032779,10.5,10499860169.531197,47.655,-122.3035,60.0,3.4166666666666665
2026-02-06T21:26:33+00:00,SAT-55435,127.18480734460317,50.03552065368788,730.6266574413298,4.039190965042839,-141469.55335664185,10.5,10499858530.446644,47.655,-122.3035,60.0,3.433333333333333
2026-02-06T21:26:34+00:00,SAT-55435,127.53492527561679,49.60457642928044,734.6550198928038,4.085220049434212,-143081.68659486165,10.5,10499856918.313406,47.655,-122.3035,60.0,3.45
2026-02-06T21:26:35+00:00,SAT-55435,127.87524203453751,49.176992113010854,738.7292880310459,4.130487796648126,-144667.15458467376,10.5,10499855332.845415,47.655,-122.3035,60.0,3.466666666666667
2026-02-06T21:26:36+00:00,SAT-55435,128.20614515490908,48.75280946728816,742.8487025599186,4.175002637256696,-146226.252600375,10.5,10499853773.7474,47.655,-122.3035,60.0,3.4833333333333334
2026-02-06T21:26:37+00:00,SAT-55435,128.5280032696672,48.33206480368073,747.012512591255,4.218773194510735,-147759.28266468504,10.5,10499852240.717335,47.655,-122.3035,60.0,3.5
2026-02-06T21:26:38+00:00,SAT-55435,128.84116715734143,47.91478932161999,751.2199758370222,4.261808294693834,-149266.55391139045,10.5,10499850733.446089,47.655,-122.3035,60.0,3.5166666666666666
2026-02-06T21:26:39+00:00,SAT-55435,129.14597072944588,47.50100942494223,755.4703588118073,4.304116960630618,-150748.3823579761,10.5,10499849251.617641,47.655,-122.3035,60.0,3.533333333333333
2026-02-06T21:26:40+00:00,SAT-55435,129.4427319610343,47.09074701946854,759.7629370288346,4.345708336534135,-152205.0882734629,10.5,10499847794.911726,47.655,-122.3035,60.0,3.55
2026-02-06T21:26:41+00:00,SAT-55435,129.73175376307566,46.68401979927116,764.0969951210262,4.386591723262452,-153636.99741324293,10.5,10499846363.002586,47.655,-122.3035,60.0,3.566666666666667
2026-02-06T21:26:42+00:00,SAT-55435,130.01332480692335,46.28084151195458,768.4718269972283,4.426776522936043,-155044.4390793462,10.5,10499844955.56092,47.655,-122.3035,60.0,3.5833333333333335
2026-02-06T21:26:43+00:00,SAT-55435,130.28772029788504,45.881222212678146,772.8867359432015,4.46627224384186,-156427.74629220166,10.5,10499843572.253708,47.655,-122.3035,60.0,3.6
2026-02-06T21:26:44+00:00,SAT-55435,130.5552027043951,45.485168502119166,777.341034727503,4.505088483521167,-157787.25519830207,10.5,10499842212.744802,47.655,-122.3035,60.0,3.6166666666666667
2026-02-06T21:26:45+00:00,SAT-55435,130.8160224441764,45.092683751366124,781.8340456905023,4.54323490212105,-159123.30413686068,10.5,10499840876.695864,47.655,-122.3035,60.0,3.6333333333333333
2026-02-06T21:26:46+00:00,SAT-55435,131.07041852921313,44.703768315365174,786.3651008068168,4.580721182625698,-160436.23224694273,10.5,10499839563.767754,47.655,-122.3035,60.0,3.65
2026-02-06T21:26:47+00:00,SAT-55435,131.3186191717234,44.31841973665759,790.9335417080916,4.6175570959940515,-161726.38174886155,10.5,10499838273.618252,47.655,-122.3035,60.0,3.6666666666666665
2026-02-06T21:26:48+00:00,SAT-55435,131.56084235816314,43.936632931271966,795.538719770734,4.653752388622532,-162994.09400264698,10.5,10499837005.905998,47.655,-122.3035,60.0,3.683333333333333
2026-02-06T21:26:49+00:00,SAT-55435,131.79729638501723,43.55840037255006,800.1799960914207,4.689316857733481,-164239.7121484676,10.5,10499835760.287851,47.655,-122.3035,60.0,3.7
2026-02-06T21:26:50+00:00,SAT-55435,132.02818036710406,43.18371225767271,804.8567415377843,4.724260254475686,-165463.57771280123,10.5,10499834536.422287,47.655,-122.3035,60.0,3.716666666666667
2026-02-06T21:26:51+00:00,SAT-55435,132.2536847127205,42.81255667173828,809.5683367024656,4.758592349765393,-166666.03291446588,10.5,10499833333.967085,47.655,-122.3035,60.0,3.7333333333333334
2026-02-06T21:26:52+00:00,SAT-55435,132.47399157433279,42.44491973670055,814.3141719228271,4.792322904426625,-167847.41961880695,10.5,10499832152.580381,47.655,-122.3035,60.0,3.75
2026-02-06T21:26:53+00:00,SAT-55435,132.68927527228777,42.080785753602335,819.0936472708876,4.825461601210551,-169008.07695672847,10.5,10499830991.923044,47.655,-122.3035,60.0,3.7666666666666666
2026-02-06T21:26:54+00:00,SAT-55435,132.8997026919526,41.720137341242,823.906172475459,4.858018118028699,-170148.3438896296,10.5,10499829851.65611,47.655,-122.3035,60.0,3.783333333333333
2026-02-06T21:26:55+00:00,SAT-55435,133.1054336612208,41.3629555609481,828.7511669173194,4.890002049437178,-171268.55645945022,10.5,10499828731.44354,47.655,-122.3035,60.0,3.8
2026-02-06T21:26:56+00:00,SAT-55435,133.3066213037778,41.0092200394916,833.6280595460823,4.921422994942922,-172369.0508815291,10.5,10499827630.949118,47.655,-122.3035,60.0,3.816666666666667
2026-02-06T21:26:57+00:00,SAT-55435,133.50341237578556,40.65890907819507,838.5362888851324,4.952290404723922,-173450.15814107365,10.5,10499826549.84186,47.655,-122.3035,60.0,3.8333333333333335
2026-02-06T21:26:58+00:00,SAT-55435,133.69594757836114,40.31199976626152,843.4753028826974,4.9826137200652125,-174512.20891182238,10.5,10499825487.791088,47.655,-122.3035,60.0,3.85
2026-02-06T21:26:59+00:00,SAT-55435,133.8843618575876,39.96846807737908,848.4445589029798,5.012402274902855,-175555.5301076986,10.5,10499824444.469893,47.655,-122.3035,60.0,3.8666666666666667
2026-02-06T21:27:00+00:00,SAT-55435,134.06878468454315,39.62828896718538,853.4435236190953,5.041665349685569,-176580.44676927285,10.5,10499823419.55323,47.655,-122.3035,60.0,3.8833333333333333
2026-02-06T21:27:01+00:00,SAT-55435,134.24934032171106,39.29143646112082,858.4716729597278,5.070412070637202,-177587.27853550814,10.5,10499822412.721464,47.655,-122.3035,60.0,3.9
2026-02-06T21:27:02+00:00,SAT-55435,134.42614807180018,38.957883743518195,863.5284919553206,5.09865155816566,-178576.3448416685,10.5,10499821423.655159,47.655,-122.3035,60.0,3.9166666666666665
2026-02-06T21:27:03+00:00,SAT-55435,134.5993225172709,38.62760323153634,868.613474732273,5.126392768728671,-179547.9593807895,10.5,10499820452.040619,47.655,-122.3035,60.0,3.933333333333333
2026-02-06T21:27:04+00:00,SAT-55435,134.76897374252513,38.30056665469434,873.7261243494305,5.153644589185562,-180502.43340827606,10.5,10499819497.566591,47.655,-122.3035,60.0,3.95
2026-02-06T21:27:05+00:00,SAT-55435,134.93520754647466,37.97674512347406,878.8659527286757,5.1804157828630535,-181440.07385289881,10.5,10499818559.926147,47.655,-122.3035,60.0,3.966666666666667
2026-02-06T21:27:06+00:00,SAT-55435,135.09812564258215,37.656109197020015,884.0324805317224,5.206715005411476,-182361.18387214563,10.5,10499817638.816128,47.655,-122.3035,60.0,3.9833333333333334
2026-02-06T21:27:07+00:00,SAT-55435,135.25782584846942,37.33862894561672,889.2252370527308,5.232550855706403,-183266.0646350124,10.5,10499816733.935366,47.655,-122.3035,60.0,4.0
2026-02-06T21:27:08+00:00,SAT-55435,135.41440226681337,37.02427400621299,894.4437601616851,5.25793171660307,-184155.00974454882,10.5,10499815844.990255,47.655,-122.3035,60.0,4.016666666666667
2026-02-06T21:27:09+00:00,SAT-55435,135.56794545269167,36.71301364388214,899.6875960889505,5.282865954506912,-185028.31222766312,10.5,10499814971.687773,47.655,-122.3035,60.0,4.033333333333333
2026-02-06T21:27:10+00:00,SAT-55435,135.71854257717118,36.404816797689975,904.9562994088693,5.30736174751574,-185886.25851593394,10.5,10499814113.741484,47.655,-122.3035,60.0,4.05
2026-02-06T21:27:11+00:00,SAT-55435,135.8662775780475,36.09965213357664,910.2494328519558,5.33142723234214,-186729.13359145436,10.5,10499813270.86641,47.655,-122.3035,60.0,4.066666666666666
2026-02-06T21:27:12+00:00,SAT-55435,136.01123130642134,35.79748808550295,915.5665672636245,5.355070344562468,-187557.21539167577,10.5,10499812442.784609,47.655,-122.3035,60.0,4.083333333333333
2026-02-06T21:27:13+00:00,SAT-55435,136.15348166192172,35.49829290288879,920.907281403593,5.3782989309547595,-188370.77874395682,10.5,10499811629.221256,47.655,-122.3035,60.0,4.1
2026-02-06T21:27:14+00:00,SAT-55435,136.29310372363582,35.2020346887498,926.2711618573193,5.401120740464239,-189170.0950491373,10.5,10499810829.904951,47.655,-122.3035,60.0,4.116666666666666
2026-02-06T21:27:15+00:00,SAT-55435,136.4301698740972,34.908681435856785,931.6578029384331,5.42354339647027,-189955.43131020942,10.5,10499810044.56869,47.655,-122.3035,60.0,4.133333333333334
2026-02-06T21:27:16+00:00,SAT-55435,136.56474991635446,34.61820106201653,937.0668065635062,5.4455743487307515,-190727.04844920713,10.5,10499809272.951551,47.655,-122.3035,60.0,4.15
2026-02-06T21:27:17+00:00,SAT-55435,136.69691118429574,34.33056144552692,942.4977820788974,5.4672209764079165,-191485.20491560572,10.5,10499808514.795084,47.655,-122.3035,60.0,4.166666666666667
2026-02-06T21:27:18+00:00,SAT-55435,136.8267186494444,34.045730452891306,947.950346190344,5.488490546305626,-192230.155223615,10.5,10499807769.844776,47.655,-122.3035,60.0,4.183333333333334
2026-02-06T21:27:19+00:00,SAT-55435,136.95423502162387,33.76367596682957,953.4241228509069,5.509390156651121,-192962.14798317832,10.5,10499807037.852016,47.655,-122.3035,60.0,4.2
2026-02-06T21:27:20+00:00,SAT-55435,137.07952084354295,33.48436591521496,958.9187430928434,5.529926797365814,-193681.42801091095,10.5,10499806318.57199,47.655,-122.3035,60.0,4.216666666666667
2026-02-06T21:27:21+00:00,SAT-55435,137.20263458203394,33.20776829499853,964.4338449195956,5.550107372003106,-194388.23709845502,10.5,10499805611.762901,47.655,-122.3035,60.0,4.233333333333333
2026-02-06T21:27:22+00:00,SAT-55435,137.32363271491835,32.93385119339703,969.9690732196495,5.5699386389014975,-195082.81195141247,10.5,10499804917.18805,47.655,-122.3035,60.0,4.25
2026-02-06T21:27:23+00:00,SAT-55435,137.44256981293853,32.66258281044584,975.5240796217113,5.589427208801153,-195765.38410586736,10.5,10499804234.615894,47.655,-122.3035,60.0,4.266666666666667
2026-02-06T21:27:24+00:00,SAT-55435,137.5594986174417,32.39393148004794,981.0985223475067,5.608579635879163,-196436.18311682547,10.5,10499803563.816883,47.655,-122.3035,60.0,4.283333333333333
2026-02-06T21:27:25+00:00,SAT-55435,137.67447011599097,32.12786568520018,986.692066155366,5.627402293365286,-197095.4322017517,10.5,10499802904.567799,47.655,-122.3035,60.0,4.3
2026-02-06T21:27:26+00:00,SAT-55435,137.7875336123719,31.86435407789511,992.3043821597643,5.6459015108518775,-197743.35304974456,10.5,10499802256.64695,47.655,-122.3035,60.0,4.316666666666666
2026-02-06T21:27:27+00:00,SAT-55435,137.89873679533275,31.603365491225233,997.9351477877999,5.6640834050015725,-198380.15989220288,10.5,10499801619.840107,47.655,-122.3035,60.0,4.333333333333333
2026-02-06T21:27:28+00:00,SAT-55435,138.0081258015202,31.34486895824104,1003.5840465668364,5.681954045427158,-199006.06531264095,10.5,10499800993.934687,47.655,-122.3035,60.0,4.35
2026-02-06T21:27:29+00:00,SAT-55435,138.11574527806894,31.088833721930605,1009.2507680775772,5.699519408379801,-199621.27862465408,10.5,10499800378.721375,47.655,-122.3035,60.0,4.366666666666666
2026-02-06T21:27:30+00:00,SAT-55435,138.22163844148005,30.835229246442303,1014.935007860957,5.716785294951199,-200226.00300701222,10.5,10499799773.996992,47.655,-122.3035,60.0,4.383333333333334
2026-02-06T21:27:31+00:00,SAT-55435,138.32584713251723,30.584025230965175,1020.6364672434487,5.733757418589408,-200820.43856883413,10.5,10499799179.561432,47.655,-122.3035,60.0,4.4
2026-02-06T21:27:32+00:00,SAT-55435,138.42841187010734,30.335191618708887,1026.3548532496573,5.750441399616929,-201404.7821575877,10.5,10499798595.217842,47.655,-122.3035,60.0,4.416666666666667
2026-02-06T21:27:33+00:00,SAT-55435,138.52937190233206,30.088698605344103,1032.0898785094428,5.766842754157489,-201979.22697125902,10.5,10499798020.77303,47.655,-122.3035,60.0,4.433333333333334
