DopplerPredictor/satellites_20260211_204923/SAT-63878.csv

timestamp,satellite,azimuth_deg,elevation_deg,distance_km,relative_velocity_kms,doppler_shift_hz,tx_freq_ghz,rx_freq_hz,ue_lat,ue_lon,ue_alt_m,time_minutes
2026-02-06T21:23:58+00:00,SAT-63878,209.96163182272724,30.192122128987805,1036.483845770849,-5.868174202629488,205528.28292835047,10.5,10500205528.282928,47.655,-122.3035,60.0,0.85
2026-02-06T21:23:59+00:00,SAT-63878,209.98036184958,30.443506608384407,1030.6314033334484,-5.852869650828781,204992.2527860998,10.5,10500204992.252787,47.655,-122.3035,60.0,0.8666666666666667
2026-02-06T21:24:00+00:00,SAT-63878,209.99935777102885,30.697407733138192,1024.7942244184574,-5.83729563026744,204446.78470799996,10.5,10500204446.784708,47.655,-122.3035,60.0,0.8833333333333333
2026-02-06T21:24:01+00:00,SAT-63878,210.0186262774377,30.95386193242489,1018.9725777722283,-5.8214467275111,203891.68909268075,10.5,10500203891.689093,47.655,-122.3035,60.0,0.9
2026-02-06T21:24:02+00:00,SAT-63878,210.038174286975,31.21290615571631,1013.1667375400339,-5.805317384841932,203326.77128535465,10.5,10500203326.771286,47.655,-122.3035,60.0,0.9166666666666666
2026-02-06T21:24:03+00:00,SAT-63878,210.0580089554604,31.474577873810922,1007.3769834099674,-5.788901938394943,202751.83291351146,10.5,10500202751.832914,47.655,-122.3035,60.0,0.9333333333333333
2026-02-06T21:24:04+00:00,SAT-63878,210.07813768668308,31.738915081223443,1001.6036007188004,-5.772194636989938,202166.6725464933,10.5,10500202166.672546,47.655,-122.3035,60.0,0.95
2026-02-06T21:24:05+00:00,SAT-63878,210.09856814305755,32.00595629914996,995.8468805390695,-5.755189573913935,201571.08330622618,10.5,10500201571.083305,47.655,-122.3035,60.0,0.9666666666666667
2026-02-06T21:24:06+00:00,SAT-63878,210.11930825722797,32.275740574967834,990.1071198341871,-5.737880707276263,200964.85358014161,10.5,10500200964.85358,47.655,-122.3035,60.0,0.9833333333333333
2026-02-06T21:24:07+00:00,SAT-63878,210.14036624391332,32.548307482182956,984.3846215932595,-5.720261930192058,200347.76947929963,10.5,10500200347.76948,47.655,-122.3035,60.0,1.0
2026-02-06T21:24:08+00:00,SAT-63878,210.16175061263888,32.82369712329261,978.6796948959064,-5.702326952074449,199719.6106807387,10.5,10500199719.610682,47.655,-122.3035,60.0,1.0166666666666666
2026-02-06T21:24:09+00:00,SAT-63878,210.18347018104916,33.10195012657108,972.9926550954694,-5.684069399375149,199080.15395583792,10.5,10500199080.153955,47.655,-122.3035,60.0,1.0333333333333334
2026-02-06T21:24:10+00:00,SAT-63878,210.2055340889837,33.38310764713481,967.3238239017525,-5.665482731156069,198429.1702132771,10.5,10500198429.170214,47.655,-122.3035,60.0,1.05
2026-02-06T21:24:11+00:00,SAT-63878,210.22795181332066,33.66721136336435,961.6735295479616,-5.646560305804977,197766.426835702,10.5,10500197766.426836,47.655,-122.3035,60.0,1.0666666666666667
2026-02-06T21:24:12+00:00,SAT-63878,210.25073318361038,33.95430347598181,956.0421068911114,-5.627295354233003,197091.6867409871,10.5,10500197091.68674,47.655,-122.3035,60.0,1.0833333333333333
2026-02-06T21:24:13+00:00,SAT-63878,210.27388839871793,34.244426705215375,950.4298975391567,-5.6076809316492815,196404.70669317993,10.5,10500196404.706694,47.655,-122.3035,60.0,1.1
2026-02-06T21:24:14+00:00,SAT-63878,210.2974280442009,34.53762428473915,944.8372500262252,-5.587710006413533,195705.240414494,10.5,10500195705.240414,47.655,-122.3035,60.0,1.1166666666666667
2026-02-06T21:24:15+00:00,SAT-63878,210.32136311089354,34.83393995942304,939.2645198992349,-5.567375387186174,194993.03603379783,10.5,10500194993.036034,47.655,-122.3035,60.0,1.1333333333333333
2026-02-06T21:24:16+00:00,SAT-63878,210.3457050144533,35.13341797853251,933.7120698771638,-5.546669745641051,194267.83688211074,10.5,10500194267.836882,47.655,-122.3035,60.0,1.15
2026-02-06T21:24:17+00:00,SAT-63878,210.37046561610416,35.436103089201396,928.1802699876707,-5.525585639563648,193529.38230159978,10.5,10500193529.382301,47.655,-122.3035,60.0,1.1666666666666667
2026-02-06T21:24:18+00:00,SAT-63878,210.3956572444647,35.742040530254855,922.6694976806758,-5.504115439571251,192777.40507901015,10.5,10500192777.405079,47.655,-122.3035,60.0,1.1833333333333333
2026-02-06T21:24:19+00:00,SAT-63878,210.4212927189689,36.05127602100213,917.1801380150297,-5.482251419975284,192011.6346280482,10.5,10500192011.634628,47.655,-122.3035,60.0,1.2
2026-02-06T21:24:20+00:00,SAT-63878,210.44738537433878,36.363855753938154,911.7125837545609,-5.459985709068132,191231.79524821596,10.5,10500191231.795248,47.655,-122.3035,60.0,1.2166666666666666
2026-02-06T21:24:21+00:00,SAT-63878,210.47394908684612,36.679826383616636,906.2672355137008,-5.437310266358076,190437.60532748225,10.5,10500190437.605328,47.655,-122.3035,60.0,1.2333333333333334
2026-02-06T21:24:22+00:00,SAT-63878,210.50099830201395,36.99923501292726,900.8445019258182,-5.414216947184353,189628.7796053752,10.5,10500189628.779606,47.655,-122.3035,60.0,1.25
2026-02-06T21:24:23+00:00,SAT-63878,210.52854806413248,37.32212918179902,895.4447997471073,-5.390697428467138,188805.0265724328,10.5,10500188805.026573,47.655,-122.3035,60.0,1.2666666666666666
2026-02-06T21:24:24+00:00,SAT-63878,210.55661404752712,37.64855685018362,890.0685540345297,-5.366743287054831,187966.05121425612,10.5,10500187966.051214,47.655,-122.3035,60.0,1.2833333333333334
2026-02-06T21:24:25+00:00,SAT-63878,210.58521258992587,37.97856638420068,884.7161982456167,-5.34234590337448,187111.55163693958,10.5,10500187111.551638,47.655,-122.3035,60.0,1.3
2026-02-06T21:24:26+00:00,SAT-63878,210.61436072791355,38.312206534882584,879.3881744343655,-5.317496577461534,186241.2231309238,10.5,10500186241.223131,47.655,-122.3035,60.0,1.3166666666666667
2026-02-06T21:24:27+00:00,SAT-63878,210.6440762345721,38.649526422330894,874.0849333314137,-5.292186436445293,185354.7549307447,10.5,10500185354.75493,47.655,-122.3035,60.0,1.3333333333333333
2026-02-06T21:24:28+00:00,SAT-63878,210.67437765987287,38.990575512440664,868.8069345164828,-5.266406465139928,184451.83128646034,10.5,10500184451.831287,47.655,-122.3035,60.0,1.35
2026-02-06T21:24:29+00:00,SAT-63878,210.70528437335085,39.335403593558716,863.554646560312,-5.240147514765782,183532.13176910777,10.5,10500183532.13177,47.655,-122.3035,60.0,1.3666666666666667
2026-02-06T21:24:30+00:00,SAT-63878,210.7368166100533,39.68406075169036,858.328547157893,-5.213400328448796,182595.332163801,10.5,10500182595.332163,47.655,-122.3035,60.0,1.3833333333333333
2026-02-06T21:24:31+00:00,SAT-63878,210.76899551919445,40.036597345349215,853.1291232362759,-5.186155478737807,181641.10228132215,10.5,10500181641.102282,47.655,-122.3035,60.0,1.4
2026-02-06T21:24:32+00:00,SAT-63878,210.8018432165328,40.39306397401107,847.9568711246869,-5.158403412413136,180669.10752750805,10.5,10500180669.107527,47.655,-122.3035,60.0,1.4166666666666667
2026-02-06T21:24:33+00:00,SAT-63878,210.83538283997694,40.75351144709855,842.8122966799626,-5.130134469151987,179679.0095569911,10.5,10500179679.009558,47.655,-122.3035,60.0,1.4333333333333333
2026-02-06T21:24:34+00:00,SAT-63878,210.86963860944536,41.11799075183396,837.695915393364,-5.1013388414846546,178670.4648706969,10.5,10500178670.46487,47.655,-122.3035,60.0,1.45
2026-02-06T21:24:35+00:00,SAT-63878,210.9046358907239,41.486553015662494,832.6082525373287,-5.072006630505462,177643.12676707617,10.5,10500177643.126766,47.655,-122.3035,60.0,1.4666666666666666
2026-02-06T21:24:36+00:00,SAT-63878,210.9404012640532,41.859249469863286,827.5498432566627,-5.042127754509194,176596.64214216667,10.5,10500176596.642141,47.655,-122.3035,60.0,1.4833333333333334
2026-02-06T21:24:37+00:00,SAT-63878,210.97696259756398,42.23613140354013,822.5212327508498,-5.0116921055654755,175530.6569734903,10.5,10500175530.656973,47.655,-122.3035,60.0,1.5
2026-02-06T21:24:38+00:00,SAT-63878,211.01434912623102,42.61725012602311,817.522976300206,-4.980689398484632,174444.8110301982,10.5,10500174444.81103,47.655,-122.3035,60.0,1.5166666666666666
2026-02-06T21:24:39+00:00,SAT-63878,211.05259153657985,43.0026569148903,812.5556394426633,-4.949109293043773,173338.7421539458,10.5,10500173338.742153,47.655,-122.3035,60.0,1.5333333333333334
2026-02-06T21:24:40+00:00,SAT-63878,211.09172205785444,43.392402969709394,807.619798028657,-4.916941301520911,172212.08302034592,10.5,10500172212.083021,47.655,-122.3035,60.0,1.55
2026-02-06T21:24:41+00:00,SAT-63878,211.13177456016882,43.78653935508503,802.7160383682278,-4.88417490700941,171064.46528284176,10.5,10500171064.465282,47.655,-122.3035,60.0,1.5666666666666667
2026-02-06T21:24:42+00:00,SAT-63878,211.17278466005635,44.18511694921683,797.8449572601279,-4.850799463550133,169895.51607491204,10.5,10500169895.516075,47.655,-122.3035,60.0,1.5833333333333333
2026-02-06T21:24:43+00:00,SAT-63878,211.21478983456706,44.58818638063328,793.0071621205293,-4.816804273630258,168704.86072440728,10.5,10500168704.860723,47.655,-122.3035,60.0,1.6
2026-02-06T21:24:44+00:00,SAT-63878,211.25782954402263,44.99579796696433,788.2032710344379,-4.782178565918807,167492.12197375385,10.5,10500167492.121973,47.655,-122.3035,60.0,1.6166666666666667
2026-02-06T21:24:45+00:00,SAT-63878,211.30194536508805,45.40800164761088,783.4339128293136,-4.7469115273476294,166256.92110356592,10.5,10500166256.921104,47.655,-122.3035,60.0,1.6333333333333333
2026-02-06T21:24:46+00:00,SAT-63878,211.34718113417165,45.82484691460778,778.6997271166971,-4.710992286999192,164998.8773683276,10.5,10500164998.877369,47.655,-122.3035,60.0,1.65
2026-02-06T21:24:47+00:00,SAT-63878,211.39358310314884,46.24638273740406,774.0013643499025,-4.674409953399107,163717.60930253495,10.5,10500163717.609303,47.655,-122.3035,60.0,1.6666666666666667
2026-02-06T21:24:48+00:00,SAT-63878,211.44120010769325,46.67265748595903,769.3394858445197,-4.637153573339148,162412.73327850382,10.5,10500162412.733278,47.655,-122.3035,60.0,1.6833333333333333
2026-02-06T21:24:49+00:00,SAT-63878,211.49008375014589,47.103718844916386,764.7147638399837,-4.599212269485,161083.8683259754,10.5,10500161083.868326,47.655,-122.3035,60.0,1.7
2026-02-06T21:24:50+00:00,SAT-63878,211.54028859804987,47.53961373509237,760.1278814239018,-4.560575081921717,159730.63058236783,10.5,10500159730.630583,47.655,-122.3035,60.0,1.7166666666666666
2026-02-06T21:24:51+00:00,SAT-63878,211.59187239990212,47.98038821479194,755.5795326144156,-4.521231099673118,158352.637899142,10.5,10500158352.6379,47.655,-122.3035,60.0,1.7333333333333334
2026-02-06T21:24:52+00:00,SAT-63878,211.64489632007377,48.426087387363125,751.0704223113908,-4.481169486367528,156949.51074072398,10.5,10500156949.51074,47.655,-122.3035,60.0,1.75
2026-02-06T21:24:53+00:00,SAT-63878,211.6994251950008,48.87675530556693,746.6012662220148,-4.440379407758011,155520.86964595725,10.5,10500155520.869646,47.655,-122.3035,60.0,1.7666666666666666
2026-02-06T21:24:54+00:00,SAT-63878,211.75552781244602,49.332434862574246,742.1727908586764,-4.398850131028133,154066.33870621052,10.5,10500154066.338707,47.655,-122.3035,60.0,1.7833333333333334
2026-02-06T21:24:55+00:00,SAT-63878,211.81327721688925,49.79316768626379,737.7857334378084,-4.3565709753294675,152585.543832992,10.5,10500152585.543833,47.655,-122.3035,60.0,1.8
2026-02-06T21:24:56+00:00,SAT-63878,211.87275104325613,50.258994021748684,733.4408418280572,-4.313531428869598,151078.11685886636,10.5,10500151078.11686,47.655,-122.3035,60.0,1.8166666666666667
2026-02-06T21:24:57+00:00,SAT-63878,211.93403188318976,50.729952619240876,729.138874381681,-4.269721054175748,149543.6922193865,10.5,10500149543.692219,47.655,-122.3035,60.0,1.8333333333333333
2026-02-06T21:24:58+00:00,SAT-63878,211.99720768609708,51.206080604739704,724.8805998604298,-4.225129603527251,147981.9109960269,10.5,10500147981.910995,47.655,-122.3035,60.0,1.85
2026-02-06T21:24:59+00:00,SAT-63878,212.06237220021956,51.68741335564615,720.6667972463018,-4.17974697867494,146392.41950538618,10.5,10500146392.419506,47.655,-122.3035,60.0,1.8666666666666667
2026-02-06T21:25:00+00:00,SAT-63878,212.12962545787062,52.17398436434219,716.4982555924719,-4.13356329275731,144774.87146775302,10.5,10500144774.871468,47.655,-122.3035,60.0,1.8833333333333333
2026-02-06T21:25:01+00:00,SAT-63878,212.19907431004762,52.66582510072352,712.3757738124708,-4.086568898452709,143128.9289931151,10.5,10500143128.928993,47.655,-122.3035,60.0,1.9
2026-02-06T21:25:02+00:00,SAT-63878,212.27083301658615,53.162964869988976,708.3001604412881,-4.038754361947573,141454.26166941636,10.5,10500141454.26167,47.655,-122.3035,60.0,1.9166666666666667
2026-02-06T21:25:03+00:00,SAT-63878,212.34502389823143,53.66543065874701,704.2722334224371,-3.990110578053653,139750.55059444945,10.5,10500139750.550594,47.655,-122.3035,60.0,1.9333333333333333
2026-02-06T21:25:04+00:00,SAT-63878,212.42177805946807,54.17324698635656,700.2928197802078,-3.940628709340448,138017.48624401586,10.5,10500138017.486244,47.655,-122.3035,60.0,1.95
2026-02-06T21:25:05+00:00,SAT-63878,212.50123618927296,54.686435739856144,696.3627553526303,-3.8903002905182023,136254.77212786028,10.5,10500136254.772127,47.655,-122.3035,60.0,1.9666666666666666
2026-02-06T21:25:06+00:00,SAT-63878,212.5835494522385,55.2050160127147,692.4828844203298,-3.839117186518801,134462.123321486,10.5,10500134462.123322,47.655,-122.3035,60.0,1.9833333333333334
2026-02-06T21:25:07+00:00,SAT-63878,212.66888047940398,55.729003928542454,688.6540593771897,-3.7870717041033726,132639.27037512537,10.5,10500132639.270374,47.655,-122.3035,60.0,2.0
2026-02-06T21:25:08+00:00,SAT-63878,212.757404474774,56.258412469623444,684.8771402897095,-3.7341565683662683,130785.95849080973,10.5,10500130785.95849,47.655,-122.3035,60.0,2.0166666666666666
2026-02-06T21:25:09+00:00,SAT-63878,212.84931045130892,56.793251292246225,681.1529944797892,-3.680364982695468,128901.94962243651,10.5,10500128901.949623,47.655,-122.3035,60.0,2.033333333333333
2026-02-06T21:25:10+00:00,SAT-63878,212.94480261585565,57.333526539626284,677.482496047722,-3.6256906077076323,126987.02173798562,10.5,10500126987.021738,47.655,-122.3035,60.0,2.05
2026-02-06T21:25:11+00:00,SAT-63878,213.04410192281978,57.87924064038389,673.8665254161882,-3.5701277225791674,125040.97447001572,10.5,10500125040.97447,47.655,-122.3035,60.0,2.066666666666667
2026-02-06T21:25:12+00:00,SAT-63878,213.1474478237773,58.430392119211085,670.3059687133558,-3.513671122817687,123063.62553518848,10.5,10500123063.625536,47.655,-122.3035,60.0,2.0833333333333335
2026-02-06T21:25:13+00:00,SAT-63878,213.25510023865337,58.98697538044182,666.8017172579321,-3.4563162424849327,121054.81501503216,10.5,10500121054.815016,47.655,-122.3035,60.0,2.1
2026-02-06T21:25:14+00:00,SAT-63878,213.36734178481888,59.54898049712427,663.3546669223214,-3.3980591516556706,119014.4052669415,10.5,10500119014.405268,47.655,-122.3035,60.0,2.1166666666666667
2026-02-06T21:25:15+00:00,SAT-63878,213.48448030275304,60.11639298628897,659.9657174983192,-3.338896624765631,116942.28331801169,10.5,10500116942.283318,47.655,-122.3035,60.0,2.1333333333333333
2026-02-06T21:25:16+00:00,SAT-63878,213.60685172587765,60.68919358077684,656.6357719946368,-3.278826168682133,114838.36184819032,10.5,10500114838.361849,47.655,-122.3035,60.0,2.15
2026-02-06T21:25:17+00:00,SAT-63878,213.73482335026551,61.26735799048196,653.365735906435,-3.217846017553158,112702.57900987008,10.5,10500112702.57901,47.655,-122.3035,60.0,2.1666666666666665
2026-02-06T21:25:18+00:00,SAT-63878,213.86879756890784,61.85085664543442,650.1565164899921,-3.1559552634040653,110534.90300193838,10.5,10500110534.903002,47.655,-122.3035,60.0,2.183333333333333
2026-02-06T21:25:19+00:00,SAT-63878,214.00921615345794,62.43965444342451,647.0090219071275,-3.0931538079654817,108335.33038258606,10.5,10500108335.330383,47.655,-122.3035,60.0,2.2
2026-02-06T21:25:20+00:00,SAT-63878,214.15656517340477,63.03371046894538,643.9241604176659,-3.0294424477116766,106103.88904771116,10.5,10500106103.889048,47.655,-122.3035,60.0,2.216666666666667
2026-02-06T21:25:21+00:00,SAT-63878,214.31138067037918,63.63297770475092,640.9028394870935,-2.964822880040393,103840.63844736255,10.5,10500103840.638447,47.655,-122.3035,60.0,2.2333333333333334
2026-02-06T21:25:22+00:00,SAT-63878,214.4742552227019,64.23740271876979,637.9459648880488,-2.8992977790952903,101545.67224136289,10.5,10500101545.672241,47.655,-122.3035,60.0,2.25
2026-02-06T21:25:23+00:00,SAT-63878,214.64584556977405,64.84692533642738,635.0544397261964,-2.8328708056007685,99219.11864376545,10.5,10500099219.118645,47.655,-122.3035,60.0,2.2666666666666666
2026-02-06T21:25:24+00:00,SAT-63878,214.82688149731229,65.46147828123617,632.2291634562894,-2.7655466485956977,96861.14188454609,10.5,10500096861.141884,47.655,-122.3035,60.0,2.283333333333333
2026-02-06T21:25:25+00:00,SAT-63878,215.01817623509575,66.08098678418934,629.4710308566132,-2.697331027433647,94471.94227965968,10.5,10500094471.94228,47.655,-122.3035,60.0,2.3
2026-02-06T21:25:26+00:00,SAT-63878,215.22063867097788,66.70536814599807,626.7809310014322,-2.6282308168119366,92051.76061008625,10.5,10500092051.76061,47.655,-122.3035,60.0,2.316666666666667
2026-02-06T21:25:27+00:00,SAT-63878,215.43528776847234,67.33453127146157,624.1597461087445,-2.558253950633479,89600.87475466622,10.5,10500089600.874754,47.655,-122.3035,60.0,2.3333333333333335
2026-02-06T21:25:28+00:00,SAT-63878,215.66326965008372,67.96837611425289,621.6083504839138,-2.4874095439720336,87119.60396183933,10.5,10500087119.603962,47.655,-122.3035,60.0,2.35
2026-02-06T21:25:29+00:00,SAT-63878,215.9058779491662,68.60679306723708,619.1276093416665,-2.4157078871798983,84608.30864327124,10.5,10500084608.308643,47.655,-122.3035,60.0,2.3666666666666667
2026-02-06T21:25:30+00:00,SAT-63878,216.16457817145314,69.24966225087002,616.7183776339645,-2.3431604639672017,82067.3910070667,10.5,10500082067.391006,47.655,-122.3035,60.0,2.3833333333333333
2026-02-06T21:25:31+00:00,SAT-63878,216.44103701221712,69.89685268053752,614.381498859845,-2.2697799833949643,79497.29617830187,10.5,10500079497.296179,47.655,-122.3035,60.0,2.4
2026-02-06T21:25:32+00:00,SAT-63878,216.73715784051865,70.54822128560092,612.1178038433559,-2.195580376676751,76898.51208700483,10.5,10500076898.512087,47.655,-122.3035,60.0,2.4166666666666665
2026-02-06T21:25:33+00:00,SAT-63878,217.05512389946838,71.20361172984705,609.9281095146789,-2.120576847569801,74271.57123306587,10.5,10500074271.571234,47.655,-122.3035,60.0,2.433333333333333
2026-02-06T21:25:34+00:00,SAT-63878,217.39745124325378,71.8628529956306,607.8132176409979,-2.044785851940401,71617.04997053064,10.5,10500071617.04997,47.655,-122.3035,60.0,2.45
2026-02-06T21:25:35+00:00,SAT-63878,217.76705403291427,72.52575764137576,605.773913577746,-1.9682251155837216,68935.56913172605,10.5,10500068935.569132,47.655,-122.3035,60.0,2.466666666666667
2026-02-06T21:25:36+00:00,SAT-63878,218.16732566204644,73.19211964948812,603.8109650020822,-1.8909136265183188,66227.79375738114,10.5,10500066227.793756,47.655,-122.3035,60.0,2.4833333333333334
2026-02-06T21:25:37+00:00,SAT-63878,218.60224031237712,73.86171173102409,601.9251206540505,-1.812871656697153,63494.43385703888,10.5,10500063494.433857,47.655,-122.3035,60.0,2.5
2026-02-06T21:25:38+00:00,SAT-63878,219.07648112764755,74.5342819267682,600.1171090560887,-1.7341207393407316,60736.24361516687,10.5,10500060736.243616,47.655,-122.3035,60.0,2.5166666666666666
2026-02-06T21:25:39+00:00,SAT-63878,219.5956033731188,75.20954925658275,598.3876372551414,-1.654683663518856,57954.02120138722,10.5,10500057954.021202,47.655,-122.3035,60.0,2.533333333333333
2026-02-06T21:25:40+00:00,SAT-63878,220.16624405637123,75.88719809897839,596.7373895701782,-1.5745844435446064,55148.60769852444,10.5,10500055148.607698,47.655,-122.3035,60.0,2.55
2026-02-06T21:25:41+00:00,SAT-63878,220.79639388450192,76.5668708371665,595.1670263702341,-1.4938483403902159,52320.88785267995,10.5,10500052320.887854,47.655,-122.3035,60.0,2.566666666666667
2026-02-06T21:25:42+00:00,SAT-63878,221.49575382022527,77.24815814935386,593.6771828310935,-1.4125017982294803,49471.787850678826,10.5,10500049471.787851,47.655,-122.3035,60.0,2.5833333333333335
2026-02-06T21:25:43+00:00,SAT-63878,222.27620774273885,77.93058598103842,592.2684677552596,-1.3305724195933073,46602.27444991203,10.5,10500046602.27445,47.655,-122.3035,60.0,2.6
2026-02-06T21:25:44+00:00,SAT-63878,223.15245644909635,78.61359785677236,590.9414624167042,-1.2480889619815418,43713.35485966825,10.5,10500043713.35486,47.655,-122.3035,60.0,2.6166666666666667
2026-02-06T21:25:45+00:00,SAT-63878,224.14287869455168,79.29653052995802,589.6967194089937,-1.1650812683213503,40806.07430549229,10.5,10500040806.074305,47.655,-122.3035,60.0,2.6333333333333333
2026-02-06T21:25:46+00:00,SAT-63878,225.27071573686845,79.97857989637812,588.5347615627715,-1.0815802329894246,37881.514839139,10.5,10500037881.51484,47.655,-122.3035,60.0,2.65
2026-02-06T21:25:47+00:00,SAT-63878,226.56572266346043,80.65875251037374,587.4560808971286,-0.997617752817183,34940.793622568126,10.5,10500034940.793623,47.655,-122.3035,60.0,2.6666666666666665
2026-02-06T21:25:48+00:00,SAT-63878,228.06650085069123,81.33579537508697,586.4611376198357,-0.9132266821187847,31985.061352835095,10.5,10500031985.061354,47.655,-122.3035,60.0,2.683333333333333
2026-02-06T21:25:49+00:00,SAT-63878,229.8238330973827,82.00809234313755,585.5503591724262,-0.8284407708952883,29015.500097739376,10.5,10500029015.500097,47.655,-122.3035,60.0,2.7
2026-02-06T21:25:50+00:00,SAT-63878,231.90549975924665,82.67350821457879,584.7241393369128,-0.7432945971710371,26033.320925958345,10.5,10500026033.320927,47.655,-122.3035,60.0,2.716666666666667
2026-02-06T21:25:51+00:00,SAT-63878,234.40326593939398,83.32914950078688,583.9828374099822,-0.6578235058741311,23039.761766382984,10.5,10500023039.761766,47.655,-122.3035,60.0,2.7333333333333334
2026-02-06T21:25:52+00:00,SAT-63878,237.44295360416862,83.97099070341993,583.3267774381475,-0.5720635500459467,20036.08534902649,10.5,10500020036.085348,47.655,-122.3035,60.0,2.75
2026-02-06T21:25:53+00:00,SAT-63878,241.1985229510363,84.5932829283902,582.7562475115346,-0.4860514002599826,17023.576032489174,10.5,10500017023.576033,47.655,-122.3035,60.0,2.7666666666666666
2026-02-06T21:25:54+00:00,SAT-63878,245.91006133484018,85.18761705817401,582.2714991480037,-0.3998242836728433,14003.53766926603,10.5,10500014003.53767,47.655,-122.3035,60.0,2.783333333333333
2026-02-06T21:25:55+00:00,SAT-63878,251.90096753664184,85.74147820665587,581.8727467380595,-0.31341989551967087,10977.290505942428,10.5,10500010977.290506,47.655,-122.3035,60.0,2.8
2026-02-06T21:25:56+00:00,SAT-63878,259.5749022856869,86.23621240852238,581.5601670780278,-0.22687632644951888,7946.168638171505,10.5,10500007946.168638,47.655,-122.3035,60.0,2.816666666666667
2026-02-06T21:25:57+00:00,SAT-63878,269.33802651216644,86.64490100112236,581.3338989757004,-0.1402319750285844,4911.5169461672585,10.5,10500004911.516947,47.655,-122.3035,60.0,2.8333333333333335
2026-02-06T21:25:58+00:00,SAT-63878,281.35083625717203,86.93243066025809,581.1940429432449,-0.053525462586969934,1874.6881122779423,10.5,10500001874.688112,47.655,-122.3035,60.0,2.85
2026-02-06T21:25:59+00:00,SAT-63878,295.1058391000433,87.06266017881535,581.1406609750369,0.0332044481032135,-1162.9602272507527,10.5,10499998837.039772,47.655,-122.3035,60.0,2.8666666666666667
2026-02-06T21:26:00+00:00,SAT-63878,309.2482036554918,87.01480009255846,581.1737764065966,0.11991894337024753,-4200.068653453581,10.5,10499995799.931347,47.655,-122.3035,60.0,2.8833333333333333
2026-02-06T21:26:01+00:00,SAT-63878,322.1936672361656,86.79689139399217,581.2933738638288,0.20657924275597325,-7235.27891064464,10.5,10499992764.721088,47.655,-122.3035,60.0,2.9
2026-02-06T21:26:02+00:00,SAT-63878,333.0184132341449,86.44025652063647,581.4993992961428,0.29314668665714677,-10267.236975988371,10.5,10499989732.763023,47.655,-122.3035,60.0,2.9166666666666665
2026-02-06T21:26:03+00:00,SAT-63878,341.6247637287017,85.98201955794536,581.7917600969872,0.3795828217414274,-13294.596051128769,10.5,10499986705.40395,47.655,-122.3035,60.0,2.933333333333333
2026-02-06T21:26:04+00:00,SAT-63878,348.3486169309658,85.45323986735836,582.1703253095661,0.4658494842237609,-16316.019478880584,10.5,10499983683.98052,47.655,-122.3035,60.0,2.95
2026-02-06T21:26:05+00:00,SAT-63878,353.612414347377,84.87622062659123,582.6349259156096,0.5519088872936472,-19330.18380530205,10.5,10499980669.816195,47.655,-122.3035,60.0,2.966666666666667
2026-02-06T21:26:06+00:00,SAT-63878,357.7801536831444,84.2660641052063,583.1853552113399,0.6377236944811109,-22335.781349281522,10.5,10499977664.21865,47.655,-122.3035,60.0,2.9833333333333334
2026-02-06T21:26:07+00:00,SAT-63878,1.129217370260369,83.63288201471883,583.8213692566021,0.7232571094352483,-25331.52334696194,10.5,10499974668.476652,47.655,-122.3035,60.0,3.0
2026-02-06T21:26:08+00:00,SAT-63878,3.862073911443627,82.98352275883211,584.5426874135366,0.808472943611096,-28316.142322421292,10.5,10499971683.857677,47.655,-122.3035,60.0,3.0166666666666666
2026-02-06T21:26:09+00:00,SAT-63878,6.125024616578227,82.32272578631604,585.348992952755,0.8933356910753874,-31288.39470768663,10.5,10499968711.605291,47.655,-122.3035,60.0,3.033333333333333
2026-02-06T21:26:10+00:00,SAT-63878,8.024271892383345,81.6538556757774,586.2399337341229,0.9778106005084617,-34247.06336454551,10.5,10499965752.936636,47.655,-122.3035,60.0,3.05
2026-02-06T21:26:11+00:00,SAT-63878,9.637771610135783,80.97936480788644,587.2151229593493,1.0618637403791304,-37190.95986724546,10.5,10499962809.040133,47.655,-122.3035,60.0,3.066666666666667
2026-02-06T21:26:12+00:00,SAT-63878,11.023537786233506,80.30108748600219,588.2741399895775,1.1454620680529077,-40118.926922956576,10.5,10499959881.073076,47.655,-122.3035,60.0,3.0833333333333335
2026-02-06T21:26:13+00:00,SAT-63878,12.225372997621717,79.62042994352741,589.4165312318996,1.2285734618869797,-43029.83949587313,10.5,10499956970.160503,47.655,-122.3035,60.0,3.1
2026-02-06T21:26:14+00:00,SAT-63878,13.27682441126381,78.93849546772202,590.6418110578785,1.311166816610602,-45922.60814783847,10.5,10499954077.391851,47.655,-122.3035,60.0,3.1166666666666667
2026-02-06T21:26:15+00:00,SAT-63878,14.203936621253055,78.25616840405591,591.9494628171948,1.3932120552163023,-48796.17945482529,10.5,10499951203.820545,47.655,-122.3035,60.0,3.1333333333333333
2026-02-06T21:26:16+00:00,SAT-63878,15.027189088985331,77.57417168365903,593.3389398631542,1.4746801900790196,-51649.53814758644,10.5,10499948350.461853,47.655,-122.3035,60.0,3.15
2026-02-06T21:26:17+00:00,SAT-63878,15.762877375948502,76.89310692732269,594.8096666391497,1.555543358546866,-54481.7083581939,10.5,10499945518.291641,47.655,-122.3035,60.0,3.1666666666666665
2026-02-06T21:26:18+00:00,SAT-63878,16.424110969542838,76.21348289513234,596.3610398006169,1.6357748727622907,-57291.75536498671,10.5,10499942708.244635,47.655,-122.3035,60.0,3.183333333333333
2026-02-06T21:26:19+00:00,SAT-63878,17.02154364159166,75.53573598728512,597.9924293866825,1.7153492167091944,-60078.78548914844,10.5,10499939921.21451,47.655,-122.3035,60.0,3.2
2026-02-06T21:26:20+00:00,SAT-63878,17.563914825272274,74.86024525624454,599.7031799888597,1.7942421038699568,-62841.948114100145,10.5,10499937158.051886,47.655,-122.3035,60.0,3.216666666666667
2026-02-06T21:26:21+00:00,SAT-63878,18.05845580427752,74.18734353211849,601.4926119772547,1.8724304741831026,-65580.435578945,10.5,10499934419.56442,47.655,-122.3035,60.0,3.2333333333333334
2026-02-06T21:26:22+00:00,SAT-63878,18.511197952421814,73.51732579304569,603.360022723732,1.949892532021678,-68293.48450863171,10.5,10499931706.515491,47.655,-122.3035,60.0,3.25
2026-02-06T21:26:23+00:00,SAT-63878,18.927209183807303,72.85045552690522,605.3046878629605,2.026607742915614,-70980.37569915768,10.5,10499929019.6243,47.655,-122.3035,60.0,3.2666666666666666
2026-02-06T21:26:24+00:00,SAT-63878,19.310777165887412,72.18696963372142,607.3258625501891,2.10255683185262,-73640.43405805928,10.5,10499926359.565943,47.655,-122.3035,60.0,3.283333333333333
2026-02-06T21:26:25+00:00,SAT-63878,19.66555263461832,71.52708224527558,609.4227827173285,2.1777217963452746,-76273.02906207662,10.5,10499923726.970938,47.655,-122.3035,60.0,3.3
2026-02-06T21:26:26+00:00,SAT-63878,19.99466250582829,70.87098772864464,611.5946663420631,2.252085928019697,-78877.57551328,10.5,10499921122.424486,47.655,-122.3035,60.0,3.316666666666667
2026-02-06T21:26:27+00:00,SAT-63878,20.300799896635336,70.21886306973909,613.8407147384977,2.325633743445311,-81453.53111643577,10.5,10499918546.468884,47.655,-122.3035,60.0,3.3333333333333335
2026-02-06T21:26:28+00:00,SAT-63878,20.58629632032265,69.57086980825234,616.1601137788144,2.3983510469421643,-84000.39867878439,10.5,10499915999.60132,47.655,-122.3035,60.0,3.35
2026-02-06T21:26:29+00:00,SAT-63878,20.85318003254423,68.92715559195213,618.5520351775718,2.4702248665056024,-86517.72386585131,10.5,10499913482.276134,47.655,-122.3035,60.0,3.3666666666666667
2026-02-06T21:26:30+00:00,SAT-63878,21.103223495103055,68.28785546819628,621.0156377121016,2.5412434600836677,-89005.09542130814,10.5,10499910994.90458,47.655,-122.3035,60.0,3.3833333333333333
2026-02-06T21:26:31+00:00,SAT-63878,21.33798224941091,67.65309295248346,623.5500684491601,2.611396281115103,-91462.14395996773,10.5,10499908537.856041,47.655,-122.3035,60.0,3.4
2026-02-06T21:26:32+00:00,SAT-63878,21.55882694564613,67.02298093129558,626.1544639372183,2.680673977552165,-93888.54193355903,10.5,10499906111.458067,47.655,-122.3035,60.0,3.4166666666666665
2026-02-06T21:26:33+00:00,SAT-63878,21.766969890114794,66.39762242592636,628.8279513977698,2.749068347464204,-96284.0020757765,10.5,10499903715.997925,47.655,-122.3035,60.0,3.433333333333333
2026-02-06T21:26:34+00:00,SAT-63878,21.96348716546421,65.7771112552952,631.5696498723659,2.816572307883152,-98648.27631111753,10.5,10499901351.723688,47.655,-122.3035,60.0,3.45
2026-02-06T21:26:35+00:00,SAT-63878,22.149337159648663,65.16153261481354,634.3786713385784,2.8831799009813186,-100981.15597125476,10.5,10499899018.844028,47.655,-122.3035,60.0,3.466666666666667
2026-02-06T21:26:36+00:00,SAT-63878,22.325376165943716,64.55096357981895,637.254121832124,2.9488862028860887,-103282.4686013413,10.5,10499896717.531399,47.655,-122.3035,60.0,3.4833333333333334
2026-02-06T21:26:37+00:00,SAT-63878,22.492371571046114,63.945473567617725,640.1951024780464,3.013687350357651,-105552.07889437742,10.5,10499894447.921106,47.655,-122.3035,60.0,3.5
2026-02-06T21:26:38+00:00,SAT-63878,22.651013062054908,63.34512474239993,643.2007105485065,3.0775804651074514,-107789.88604052286,10.5,10499892210.11396,47.655,-122.3035,60.0,3.5166666666666666
2026-02-06T21:26:39+00:00,SAT-63878,22.80192218326638,62.74997239300037,646.2700404450933,3.1405636427426313,-109995.82333988411,10.5,10499890004.17666,47.655,-122.3035,60.0,3.533333333333333
2026-02-06T21:26:40+00:00,SAT-63878,22.945660522344753,62.1600652760358,649.4021846701072,3.202635901146531,-112169.85639458141,10.5,10499887830.143606,47.655,-122.3035,60.0,3.55
2026-02-06T21:26:41+00:00,SAT-63878,23.082736747114094,61.57544593765743,652.5962347463667,3.2637971420533334,-114311.98176293015,10.5,10499885688.018236,47.655,-122.3035,60.0,3.566666666666667
2026-02-06T21:26:42+00:00,SAT-63878,23.213612676778656,60.99615101491189,655.851282098686,3.32404812967501,-116422.22621086621,10.5,10499883577.773788,47.655,-122.3035,60.0,3.5833333333333335
2026-02-06T21:26:43+00:00,SAT-63878,23.338708539470844,60.42221151692814,659.166418914044,3.383390421657506,-118500.64429373942,10.5,10499881499.355707,47.655,-122.3035,60.0,3.6
2026-02-06T21:26:44+00:00,SAT-63878,23.45840753774017,59.85365309685855,662.540738932889,3.441826393166288,-120547.31919989135,10.5,10499879452.6808,47.655,-122.3035,60.0,3.6166666666666667
2026-02-06T21:26:45+00:00,SAT-63878,23.573059829926848,59.29049630053981,665.9733382644671,3.4993590919256823,-122562.3576735198,10.5,10499877437.642326,47.655,-122.3035,60.0,3.6333333333333333
2026-02-06T21:26:46+00:00,SAT-63878,23.682986005334836,58.73275682193607,669.4633160575789,3.5559923303757572,-124545.89324240256,10.5,10499875454.106758,47.655,-122.3035,60.0,3.65
2026-02-06T21:26:47+00:00,SAT-63878,23.78848013634745,58.18044572717211,673.0097752632438,3.6117305241243827,-126498.0805598052,10.5,10499873501.91944,47.655,-122.3035,60.0,3.6666666666666665
2026-02-06T21:26:48+00:00,SAT-63878,23.88981245606603,57.63356968980612,676.6118232362517,3.66657874925993,-128419.09741181436,10.5,10499871580.902588,47.655,-122.3035,60.0,3.683333333333333
2026-02-06T21:26:49+00:00,SAT-63878,23.987231722237187,57.092131202882264,680.2685723938729,3.720542635602767,-130309.14097855342,10.5,10499869690.859022,47.655,-122.3035,60.0,3.7
2026-02-06T21:26:50+00:00,SAT-63878,24.080967303522275,56.55612879430398,683.9791407681043,3.773628394899124,-132168.42882165103,10.5,10499867831.571178,47.655,-122.3035,60.0,3.716666666666667
2026-02-06T21:26:51+00:00,SAT-63878,24.17123102979582,56.025557225563546,687.7426525860375,3.8258427225916165,-133997.19544382926,10.5,10499866002.804556,47.655,-122.3035,60.0,3.7333333333333334
2026-02-06T21:26:52+00:00,SAT-63878,24.258218832955798,55.50040769303399,691.5582387522562,3.8771927966789295,-135795.69224896497,10.5,10499864204.30775,47.655,-122.3035,60.0,3.75
2026-02-06T21:26:53+00:00,SAT-63878,24.342112208352614,54.98066801785031,695.4250373300996,3.9276862373256836,-137564.1861274565,10.5,10499862435.813873,47.655,-122.3035,60.0,3.7666666666666666
2026-02-06T21:26:54+00:00,SAT-63878,24.423079517978945,54.46632283063198,699.3421939826437,3.9773310972785567,-139302.95912055546,10.5,10499860697.04088,47.655,-122.3035,60.0,3.783333333333333
2026-02-06T21:26:55+00:00,SAT-63878,24.50127715590011,53.95735374726427,703.3088624041222,4.02613576258796,-141012.30494322034,10.5,10499858987.695057,47.655,-122.3035,60.0,3.8
2026-02-06T21:26:56+00:00,SAT-63878,24.576850590205492,53.453739547582714,707.3242046523374,4.074108997986483,-142692.53057346115,10.5,10499857307.469427,47.655,-122.3035,60.0,3.816666666666667
2026-02-06T21:26:57+00:00,SAT-63878,24.64993530004348,52.955456338371896,711.3873915263273,4.121259884176217,-144343.95405587647,10.5,10499855656.045944,47.655,-122.3035,60.0,3.8333333333333335
2026-02-06T21:26:58+00:00,SAT-63878,24.72065761732151,52.462477715174685,715.4976028814878,4.167597752667741,-145966.90221943904,10.5,10499854033.09778,47.655,-122.3035,60.0,3.85
2026-02-06T21:26:59+00:00,SAT-63878,24.7891354837789,51.97477492278531,719.6540278797092,4.213132242261004,-147561.7126556951,10.5,10499852438.287344,47.655,-122.3035,60.0,3.8666666666666667
2026-02-06T21:27:00+00:00,SAT-63878,24.85547913637957,51.49231700019042,723.855865295841,4.2578731841272965,-149128.72969384913,10.5,10499850871.270306,47.655,-122.3035,60.0,3.8833333333333333
2026-02-06T21:27:01+00:00,SAT-63878,24.919791724558543,51.01507093066172,728.1023237095478,4.301830628686081,-150668.30534210385,10.5,10499849331.694658,47.655,-122.3035,60.0,3.9
2026-02-06T21:27:02+00:00,SAT-63878,24.98216987031991,50.543001780267026,732.3926217239712,4.345014818586241,-152180.79834134967,10.5,10499847819.201658,47.655,-122.3035,60.0,3.9166666666666665
2026-02-06T21:27:03+00:00,SAT-63878,25.042704176181037,50.07607283162555,736.7259881574407,4.387436131294922,-153666.57215438245,10.5,10499846333.427845,47.655,-122.3035,60.0,3.933333333333333
2026-02-06T21:27:04+00:00,SAT-63878,25.101479685516946,49.61424571618249,741.1016621779338,4.429105090713002,-155125.99537272722,10.5,10499844874.004627,47.655,-122.3035,60.0,3.95
2026-02-06T21:27:05+00:00,SAT-63878,25.158576302411927,49.15748053765436,745.5188934491152,4.470032345446809,-156559.44095562102,10.5,10499843440.559044,47.655,-122.3035,60.0,3.966666666666667
2026-02-06T21:27:06+00:00,SAT-63878,25.214069173679295,48.70573599066968,749.9769422547082,4.510228615229677,-157967.28435346964,10.5,10499842032.715647,47.655,-122.3035,60.0,3.9833333333333334
2026-02-06T21:27:07+00:00,SAT-63878,25.268029036952047,48.258969477898745,754.475079569432,4.54970470536352,-159349.90401365253,10.5,10499840650.095985,47.655,-122.3035,60.0,4.0
2026-02-06T21:27:08+00:00,SAT-63878,25.320522539183905,47.817137218873306,759.0125871443395,4.588471481765243,-160707.68050654247,10.5,10499839292.319494,47.655,-122.3035,60.0,4.016666666666667
2026-02-06T21:27:09+00:00,SAT-63878,25.371612527941846,47.380194354850964,763.5887575672713,4.62653985766155,-162040.9960595015,10.5,10499837959.00394,47.655,-122.3035,60.0,4.033333333333333
2026-02-06T21:27:10+00:00,SAT-63878,25.421358318097695,46.94809504874668,768.2028943100368,4.663920738830799,-163350.23263901923,10.5,10499836649.76736,47.655,-122.3035,60.0,4.05
2026-02-06T21:27:11+00:00,SAT-63878,25.46981593597183,46.520792584125815,772.8543117209879,4.700625058475528,-164635.77317209577,10.5,10499835364.226828,47.655,-122.3035,60.0,4.066666666666666
2026-02-06T21:27:12+00:00,SAT-63878,25.517038344061678,46.09823945500091,777.5423350523679,4.736663768868454,-165898.00125364983,10.5,10499834101.998747,47.655,-122.3035,60.0,4.083333333333333
2026-02-06T21:27:13+00:00,SAT-63878,25.56307564790418,45.68038745100399,782.2663004793317,4.7720477554991705,-167137.29813957258,10.5,10499832862.70186,47.655,-122.3035,60.0,4.1
2026-02-06T21:27:14+00:00,SAT-63878,25.607975285216714,45.267187744828526,787.0255550333408,4.806787896693021,-168354.04483483278,10.5,10499831645.955166,47.655,-122.3035,60.0,4.116666666666666
2026-02-06T21:27:15+00:00,SAT-63878,25.65178220129262,44.85859096905086,791.8194565950193,4.840895049324285,-169548.62159309222,10.5,10499830451.378407,47.655,-122.3035,60.0,4.133333333333334
2026-02-06T21:27:16+00:00,SAT-63878,25.694539010761357,44.45454728944464,796.6473738727599,4.8743799763174795,-170721.40537749464,10.5,10499829278.594622,47.655,-122.3035,60.0,4.15
2026-02-06T21:27:17+00:00,SAT-63878,25.73628614598736,44.05500647965268,801.5086863090253,4.907253419229785,-171872.77240280923,10.5,10499828127.227596,47.655,-122.3035,60.0,4.166666666666667
2026-02-06T21:27:18+00:00,SAT-63878,25.777061995459754,43.65991798517124,806.402784059039,4.939526002057493,-173003.09476632555,10.5,10499826996.905233,47.655,-122.3035,60.0,4.183333333333334
2026-02-06T21:27:19+00:00,SAT-63878,25.816903030592343,43.26923099091418,811.3290678735395,4.97120830207752,-174112.7429290231,10.5,10499825887.25707,47.655,-122.3035,60.0,4.2
2026-02-06T21:27:20+00:00,SAT-63878,25.855843924298153,42.882894478789204,816.2869490521861,5.002310825810271,-175202.084873689,10.5,10499824797.915127,47.655,-122.3035,60.0,4.216666666666667
2026-02-06T21:27:21+00:00,SAT-63878,25.893917660513807,42.500857283421304,821.2758493729913,5.032843926267096,-176271.48320657387,10.5,10499823728.516794,47.655,-122.3035,60.0,4.233333333333333
2026-02-06T21:27:22+00:00,SAT-63878,25.931155635167354,42.12306815038435,826.2952009392244,5.062817892565701,-177321.29829610276,10.5,10499822678.701704,47.655,-122.3035,60.0,4.25
2026-02-06T21:27:23+00:00,SAT-63878,25.967587750815802,41.74947578381599,831.3444461156887,5.092242920680199,-178351.887248418,10.5,10499821648.112751,47.655,-122.3035,60.0,4.266666666666667
2026-02-06T21:27:24+00:00,SAT-63878,26.003242504603236,41.38002889300154,836.4230374358283,5.121129077384053,-179363.60264450868,10.5,10499820636.397356,47.655,-122.3035,60.0,4.283333333333333
2026-02-06T21:27:25+00:00,SAT-63878,26.038147069599518,41.01467623832991,841.5304374728717,5.149486285889062,-180356.79203722713,10.5,10499819643.207962,47.655,-122.3035,60.0,4.3
2026-02-06T21:27:26+00:00,SAT-63878,26.072327370392703,40.65336667501856,846.6661186966573,5.177324396713682,-181331.80043339738,10.5,10499818668.199566,47.655,-122.3035,60.0,4.316666666666666
2026-02-06T21:27:27+00:00,SAT-63878,26.10580815452674,40.29604918884593,851.8295634011341,5.204653122906736,-182288.9680250753,10.5,10499817711.031975,47.655,-122.3035,60.0,4.333333333333333
2026-02-06T21:27:28+00:00,SAT-63878,26.13861305836476,39.942672933776606,857.0202635672604,5.231482018236395,-183228.62942563472,10.5,10499816771.370575,47.655,-122.3035,60.0,4.35
2026-02-06T21:27:29+00:00,SAT-63878,26.17076466836435,39.59318726827001,862.2377207041504,5.25782053205149,-184151.11559124227,10.5,10499815848.884409,47.655,-122.3035,60.0,4.366666666666666
2026-02-06T21:27:30+00:00,SAT-63878,26.202284578966925,39.24754178529317,867.4814457449347,5.283677980900101,-185056.75282682083,10.5,10499814943.247173,47.655,-122.3035,60.0,4.383333333333334
2026-02-06T21:27:31+00:00,SAT-63878,26.23319344651762,38.905686341927186,872.7509589143153,5.309063558841853,-185945.8631472292,10.5,10499814054.136852,47.655,-122.3035,60.0,4.4
2026-02-06T21:27:32+00:00,SAT-63878,26.26351103960078,38.567571086065854,878.045789606407,5.333986264839944,-186818.7617342242,10.5,10499813181.238266,47.655,-122.3035,60.0,4.416666666666667
2026-02-06T21:27:33+00:00,SAT-63878,26.29325628581731,38.23314648555916,883.3654761901607,5.358455030727844,-187675.7614183955,10.5,10499812324.23858,47.655,-122.3035,60.0,4.433333333333334
2026-02-06T21:27:34+00:00,SAT-63878,26.322447316513497,37.902363347157,888.7095659424181,5.382478608818008,-188517.16874274766,10.5,10499811482.831257,47.655,-122.3035,60.0,4.45
2026-02-06T21:27:35+00:00,SAT-63878,26.35110150798183,37.57517284074125,894.0776148688677,5.406065619135453,-189343.28561701928,10.5,10499810656.714382,47.655,-122.3035,60.0,4.466666666666667
2026-02-06T21:27:36+00:00,SAT-63878,26.379235520276502,37.25152651871406,899.4691875721152,5.429224541065151,-190154.40902513993,10.5,10499809845.590975,47.655,-122.3035,60.0,4.483333333333333
2026-02-06T21:27:37+00:00,SAT-63878,26.40686533380744,36.9313763342293,904.8838571114189,5.4519637077846195,-190950.83083023556,10.5,10499809049.16917,47.655,-122.3035,60.0,4.5
2026-02-06T21:27:38+00:00,SAT-63878,26.43400628357077,36.614674658144864,910.3212048568738,5.474291329483968,-191732.8385878929,10.5,10499808267.161411,47.655,-122.3035,60.0,4.516666666666667
2026-02-06T21:27:39+00:00,SAT-63878,26.46067309154221,36.301374293128504,915.7808203667555,5.496215451622131,-192500.71408411607,10.5,10499807499.285915,47.655,-122.3035,60.0,4.533333333333333
2026-02-06T21:27:40+00:00,SAT-63878,26.486879896777168,35.99142848878306,921.2623012232297,5.517743969102506,-193254.7338318175,10.5,10499806745.266169,47.655,-122.3035,60.0,4.55
2026-02-06T21:27:41+00:00,SAT-63878,26.512640283932104,35.684790954538435,926.7652528821994,5.538884697048029,-193995.1715496602,10.5,10499806004.828451,47.655,-122.3035,60.0,4.566666666666666
2026-02-06T21:27:42+00:00,SAT-63878,26.537967310595626,35.381415867412855,932.2892885937409,5.559645245053744,-194722.29375785138,10.5,10499805277.706242,47.655,-122.3035,60.0,4.583333333333333
2026-02-06T21:27:43+00:00,SAT-63878,26.562873532117592,35.08125788563413,937.8340291971238,5.580033078345348,-195436.36192017264,10.5,10499804563.63808,47.655,-122.3035,60.0,4.6
2026-02-06T21:27:44+00:00,SAT-63878,26.58737102548564,34.784272157626646,943.3991029768306,5.600055604129146,-196137.63546832133,10.5,10499803862.364532,47.655,-122.3035,60.0,4.616666666666666
2026-02-06T21:27:45+00:00,SAT-63878,26.61147141240787,34.490414325461714,948.9841456046928,5.619720012492211,-196826.36622956078,10.5,10499803173.63377,47.655,-122.3035,60.0,4.633333333333334
2026-02-06T21:27:46+00:00,SAT-63878,26.635185880088688,34.199640535883866,954.588799923353,5.639033399420152,-197502.80273532297,10.5,10499802497.197266,47.655,-122.3035,60.0,4.65
2026-02-06T21:27:47+00:00,SAT-63878,26.65852520151749,33.911907443860606,960.2127158524156,5.658002678749053,-198167.1871373931,10.5,10499801832.812862,47.655,-122.3035,60.0,4.666666666666667
2026-02-06T21:27:48+00:00,SAT-63878,26.681499754223584,33.62717221988606,965.855550206787,5.6766347120888145,-198819.75975837442,10.5,10499801180.240242,47.655,-122.3035,60.0,4.683333333333334
2026-02-06T21:27:49+00:00,SAT-63878,26.704119538725497,33.345392549911445,971.5169666445885,5.694936142944153,-199460.75328190412,10.5,10499800539.246717,47.655,-122.3035,60.0,4.7
2026-02-06T21:27:50+00:00,SAT-63878,26.726394194994818,33.066526642952695,977.1966354496346,5.712913551427116,-200090.39817133997,10.5,10499799909.60183,47.655,-122.3035,60.0,4.716666666666667
2026-02-06T21:27:51+00:00,SAT-63878,26.748333018914558,32.790533230270455,982.8942334682125,5.7305733260482326,-200708.91817934407,10.5,10499799291.081821,47.655,-122.3035,60.0,4.733333333333333
2026-02-06T21:27:52+00:00,SAT-63878,26.769944977138785,32.51737157025844,988.6094439179924,5.747921786189602,-201316.53463740845,10.5,10499798683.465363,47.655,-122.3035,60.0,4.75
2026-02-06T21:27:53+00:00,SAT-63878,26.791238721868297,32.247001446806955,994.3419563190864,5.764965106645047,-201913.4638129322,10.5,10499798086.536186,47.655,-122.3035,60.0,4.766666666666667
2026-02-06T21:27:54+00:00,SAT-63878,26.812222604428115,31.97938317083261,1000.0914663498456,5.781709323449023,-202499.91711337428,10.5,10499797500.082886,47.655,-122.3035,60.0,4.783333333333333
2026-02-06T21:27:55+00:00,SAT-63878,26.832904688093425,31.714477580987307,1005.8576757084746,5.798160340826521,-203076.10132966877,10.5,10499796923.89867,47.655,-122.3035,60.0,4.8
2026-02-06T21:27:56+00:00,SAT-63878,26.853292760364237,31.45224604355676,1011.6402919815735,5.814324007111441,-203642.22129520727,10.5,10499796357.778706,47.655,-122.3035,60.0,4.816666666666666
2026-02-06T21:27:57+00:00,SAT-63878,26.873394345049526,31.19265044854394,1017.4390285883984,5.830205978180833,-204198.4751027284,10.5,10499795801.524897,47.655,-122.3035,60.0,4.833333333333333
2026-02-06T21:27:58+00:00,SAT-63878,26.893216712864636,30.935653211584864,1023.2536045889202,5.845811817944294,-204745.05762388153,10.5,10499795254.942375,47.655,-122.3035,60.0,4.85
2026-02-06T21:27:59+00:00,SAT-63878,26.912766892117222,30.681217270921543,1029.0837445921027,5.861146995863097,-205282.16042233628,10.5,10499794717.839577,47.655,-122.3035,60.0,4.866666666666666
2026-02-06T21:28:00+00:00,SAT-63878,26.932051678856265,30.429306084252342,1034.9291786617082,5.8762168490760045,-205809.9704272682,10.5,10499794190.029573,47.655,-122.3035,60.0,4.883333333333334
2026-02-06T21:28:01+00:00,SAT-63878,26.95107764629214,30.179883626964628,1040.7896421843293,5.891026608542851,-206328.67084901762,10.5,10499793671.329151,47.655,-122.3035,60.0,4.9
