DopplerPredictor/satellites_20260211_204923/SAT-48315.csv

timestamp,satellite,azimuth_deg,elevation_deg,distance_km,relative_velocity_kms,doppler_shift_hz,tx_freq_ghz,rx_freq_hz,ue_lat,ue_lon,ue_alt_m,time_minutes
2026-02-06T21:26:14+00:00,SAT-48315,319.64439070663013,30.098423716928703,995.1083664502521,-4.679552811353079,163897.73394235063,10.5,10500163897.733942,47.655,-122.3035,60.0,3.1166666666666667
2026-02-06T21:26:15+00:00,SAT-48315,319.9331849430296,30.30354041521275,990.4413588742075,-4.652778514787055,162959.9848214463,10.5,10500162959.984821,47.655,-122.3035,60.0,3.1333333333333333
2026-02-06T21:26:16+00:00,SAT-48315,320.2258849426086,30.509611657071723,985.8010538165353,-4.625619019696268,162008.7444188166,10.5,10500162008.74442,47.655,-122.3035,60.0,3.15
2026-02-06T21:26:17+00:00,SAT-48315,320.52255702713614,30.716623375259818,981.1878354430955,-4.598069365154179,161043.83898182947,10.5,10500161043.838982,47.655,-122.3035,60.0,3.1666666666666665
2026-02-06T21:26:18+00:00,SAT-48315,320.8232685382643,30.924560461411957,976.6020928673755,-4.570124540611546,160065.09301985588,10.5,10500160065.09302,47.655,-122.3035,60.0,3.183333333333333
2026-02-06T21:26:19+00:00,SAT-48315,321.1280878316788,31.13340672501862,972.04422019998,-4.541779554822459,159072.33171835102,10.5,10500159072.331718,47.655,-122.3035,60.0,3.2
2026-02-06T21:26:20+00:00,SAT-48315,321.437084273735,31.34314485442272,967.5146165293785,-4.513029390804375,158065.37936136452,10.5,10500158065.379362,47.655,-122.3035,60.0,3.216666666666667
2026-02-06T21:26:21+00:00,SAT-48315,321.75032823289405,31.553756374715935,963.013685947573,-4.483869077174393,157044.06183003818,10.5,10500157044.06183,47.655,-122.3035,60.0,3.2333333333333334
2026-02-06T21:26:22+00:00,SAT-48315,322.0678910738035,31.76522160790164,958.5418375046205,-4.454293593760889,156008.20329672648,10.5,10500156008.203297,47.655,-122.3035,60.0,3.25
2026-02-06T21:26:23+00:00,SAT-48315,322.3898451422301,31.977519627626528,954.0994852572919,-4.424297970333601,154957.62968294157,10.5,10500154957.629683,47.655,-122.3035,60.0,3.2666666666666666
2026-02-06T21:26:24+00:00,SAT-48315,322.7162637542727,32.19062821751225,949.6870482192637,-4.3938772545575775,153892.16753696508,10.5,10500153892.167538,47.655,-122.3035,60.0,3.283333333333333
2026-02-06T21:26:25+00:00,SAT-48315,323.0472211805282,32.404523827041366,945.3049503432705,-4.36302646128872,152811.6422579635,10.5,10500152811.642258,47.655,-122.3035,60.0,3.3
2026-02-06T21:26:26+00:00,SAT-48315,323.3827926232131,32.61918152397476,940.9536205538269,-4.331740712550848,151715.88299857732,10.5,10500151715.883,47.655,-122.3035,60.0,3.316666666666667
2026-02-06T21:26:27+00:00,SAT-48315,323.72305420066004,32.83457495266511,936.6334926403463,-4.300015077719017,150604.7170674643,10.5,10500150604.717068,47.655,-122.3035,60.0,3.3333333333333335
2026-02-06T21:26:28+00:00,SAT-48315,324.06808291598026,33.05067628365464,932.3450053096483,-4.267844713648907,149477.974837224,10.5,10500149477.974836,47.655,-122.3035,60.0,3.35
2026-02-06T21:26:29+00:00,SAT-48315,324.4179566328159,33.26745616930823,928.0886020987141,-4.235224806295848,148335.48769964857,10.5,10500148335.4877,47.655,-122.3035,60.0,3.3666666666666667
2026-02-06T21:26:30+00:00,SAT-48315,324.77275404258563,33.48488369579457,923.864731345663,-4.202150588081321,147177.0886739715,10.5,10500147177.088675,47.655,-122.3035,60.0,3.3833333333333333
2026-02-06T21:26:31+00:00,SAT-48315,325.1325546288192,33.70292633518529,919.6738461434113,-4.168617318709188,146002.6117349706,10.5,10500146002.611734,47.655,-122.3035,60.0,3.4
2026-02-06T21:26:32+00:00,SAT-48315,325.49743862518073,33.92154989585423,915.5164043124643,-4.134620363741805,144811.8945650359,10.5,10500144811.894566,47.655,-122.3035,60.0,3.4166666666666665
2026-02-06T21:26:33+00:00,SAT-48315,325.86748697551855,34.14071847636598,911.3928682953402,-4.100155114328613,143604.77574272544,10.5,10500143604.775743,47.655,-122.3035,60.0,3.433333333333333
2026-02-06T21:26:34+00:00,SAT-48315,326.2427812817828,34.36039441466344,907.3037051310516,-4.065217055307843,142381.09712797496,10.5,10500142381.097128,47.655,-122.3035,60.0,3.45
2026-02-06T21:26:35+00:00,SAT-48315,326.6234037525115,34.58053824038403,903.2493863616692,-4.02980172952098,141140.70261223943,10.5,10500141140.702612,47.655,-122.3035,60.0,3.466666666666667
2026-02-06T21:26:36+00:00,SAT-48315,327.0094371422837,34.801108624936745,899.2303879744724,-3.9939048047691776,139883.4404635902,10.5,10500139883.440464,47.655,-122.3035,60.0,3.4833333333333334
2026-02-06T21:26:37+00:00,SAT-48315,327.4009646915086,35.02206233499179,895.2471902773259,-3.9575219973183264,138609.16064753846,10.5,10500138609.160648,47.655,-122.3035,60.0,3.5
2026-02-06T21:26:38+00:00,SAT-48315,327.7980700524051,35.24335418168977,891.3002778503444,-3.920649149910646,137317.7175593316,10.5,10500137317.71756,47.655,-122.3035,60.0,3.5166666666666666
2026-02-06T21:26:39+00:00,SAT-48315,328.2008372157667,35.46493697412485,887.3901394197551,-3.883282221115706,136008.96965098073,10.5,10500136008.96965,47.655,-122.3035,60.0,3.533333333333333
2026-02-06T21:26:40+00:00,SAT-48315,328.6093504297589,35.68676147246387,883.517267742381,-3.8454172609726,134682.77857814654,10.5,10500134682.778578,47.655,-122.3035,60.0,3.55
2026-02-06T21:26:41+00:00,SAT-48315,329.02369410862644,35.908776339971794,879.6821595144173,-3.807050485407925,133339.0118065719,10.5,10500133339.011806,47.655,-122.3035,60.0,3.566666666666667
2026-02-06T21:26:42+00:00,SAT-48315,329.4439527415106,36.13092809978323,875.8853152059881,-3.7681782025581523,131977.54003157944,10.5,10500131977.540031,47.655,-122.3035,60.0,3.5833333333333335
2026-02-06T21:26:43+00:00,SAT-48315,329.8702107851128,36.35316108809106,872.1272389691824,-3.728796887890978,130598.23980913914,10.5,10500130598.239809,47.655,-122.3035,60.0,3.6
2026-02-06T21:26:44+00:00,SAT-48315,330.30255255596813,36.57541741252431,868.4084384711737,-3.6889031726584585,129200.99315144817,10.5,10500129200.99315,47.655,-122.3035,60.0,3.6166666666666667
2026-02-06T21:26:45+00:00,SAT-48315,330.7410621126784,36.797636910953955,864.7294247388526,-3.648493847259884,127785.68764471314,10.5,10500127785.687645,47.655,-122.3035,60.0,3.6333333333333333
2026-02-06T21:26:46+00:00,SAT-48315,331.18582312928373,37.01975711178167,861.0907120001051,-3.607565858279886,126352.21634541189,10.5,10500126352.216345,47.655,-122.3035,60.0,3.65
2026-02-06T21:26:47+00:00,SAT-48315,331.63691875843597,37.24171319552954,857.4928175280471,-3.5661163438158043,124900.47901760739,10.5,10500124900.479017,47.655,-122.3035,60.0,3.6666666666666665
2026-02-06T21:26:48+00:00,SAT-48315,332.0944314888303,37.46343796032102,853.9362614500247,-3.5241426664375193,123430.38328734058,10.5,10500123430.383287,47.655,-122.3035,60.0,3.683333333333333
2026-02-06T21:26:49+00:00,SAT-48315,332.558442996823,37.684861791491734,850.4215665237442,-3.481642320406086,121941.84139303434,10.5,10500121941.841393,47.655,-122.3035,60.0,3.7
2026-02-06T21:26:50+00:00,SAT-48315,333.029033975087,37.90591262769308,846.9492580059325,-3.4386130752577677,120434.7752144137,10.5,10500120434.775215,47.655,-122.3035,60.0,3.716666666666667
2026-02-06T21:26:51+00:00,SAT-48315,333.506283969117,38.12651593855618,843.5198633778012,-3.3950528950630283,118909.1134446144,10.5,10500118909.113445,47.655,-122.3035,60.0,3.7333333333333334
2026-02-06T21:26:52+00:00,SAT-48315,333.99027119189964,38.34659470023009,840.1339121510325,-3.350959970752489,117364.7927223744,10.5,10500117364.792723,47.655,-122.3035,60.0,3.75
2026-02-06T21:26:53+00:00,SAT-48315,334.4810723311505,38.56606937614788,836.791935641529,-3.306332753446106,115801.75879936285,10.5,10500115801.758799,47.655,-122.3035,60.0,3.7666666666666666
2026-02-06T21:26:54+00:00,SAT-48315,334.9787623496249,38.78485790352134,833.4944667099211,-3.2611699414217847,114219.96608376566,10.5,10500114219.966084,47.655,-122.3035,60.0,3.783333333333333
2026-02-06T21:26:55+00:00,SAT-48315,335.4834142716304,39.00287568292031,830.2420395150707,-3.2154704723903045,112619.37736972088,10.5,10500112619.377369,47.655,-122.3035,60.0,3.8
2026-02-06T21:26:56+00:00,SAT-48315,335.99509895583304,39.22003557155218,827.0351892752819,-3.169233619174813,110999.96718841919,10.5,10500110999.967188,47.655,-122.3035,60.0,3.816666666666667
2026-02-06T21:26:57+00:00,SAT-48315,336.51388487103605,39.43624788761969,823.8744519340858,-3.1224588657086287,109361.71746502242,10.5,10500109361.717464,47.655,-122.3035,60.0,3.8333333333333335
2026-02-06T21:26:58+00:00,SAT-48315,337.03983783968147,39.65142041134789,820.7603639496965,-3.075146041142369,107704.62221566252,10.5,10500107704.622215,47.655,-122.3035,60.0,3.85
2026-02-06T21:26:59+00:00,SAT-48315,337.57302079059065,39.865458400477955,817.6934619507205,-3.0272952724090016,106028.68588606894,10.5,10500106028.685886,47.655,-122.3035,60.0,3.8666666666666667
2026-02-06T21:27:00+00:00,SAT-48315,338.113493492037,40.078264608419374,814.6742824391702,-2.978906992685708,104333.92364793892,10.5,10500104333.923649,47.655,-122.3035,60.0,3.8833333333333333
2026-02-06T21:27:01+00:00,SAT-48315,338.6613122738069,40.28973930916677,811.7033614850427,-2.9299819625782604,102620.36214090393,10.5,10500102620.36214,47.655,-122.3035,60.0,3.9
2026-02-06T21:27:02+00:00,SAT-48315,339.21652974095116,40.49978033032456,808.7812343997683,-2.88052129045756,100888.04018480139,10.5,10500100888.040184,47.655,-122.3035,60.0,3.9166666666666665
2026-02-06T21:27:03+00:00,SAT-48315,339.779194479845,40.70828309463108,805.9084353893788,-2.8305264334790032,99137.00881537698,10.5,10500099137.008816,47.655,-122.3035,60.0,3.933333333333333
2026-02-06T21:27:04+00:00,SAT-48315,340.3493507533566,40.915140669046046,803.0854972066554,-2.7799991846750927,97367.33083221351,10.5,10500097367.330832,47.655,-122.3035,60.0,3.95
2026-02-06T21:27:05+00:00,SAT-48315,340.92703818254427,41.12024382073714,800.3129508161543,-2.7289417252290225,95579.0826295728,10.5,10500095579.08263,47.655,-122.3035,60.0,3.966666666666667
2026-02-06T21:27:06+00:00,SAT-48315,341.5122914286867,41.32348108513604,797.5913250070967,-2.677356613921996,93772.35382679626,10.5,10500093772.353827,47.655,-122.3035,60.0,3.9833333333333334
2026-02-06T21:27:07+00:00,SAT-48315,342.10513986432346,41.52473884193201,794.9211460167813,-2.6252467643915414,91947.24647179479,10.5,10500091947.246471,47.655,-122.3035,60.0,4.0
2026-02-06T21:27:08+00:00,SAT-48315,342.7056072303095,41.72390139835591,792.3029371766809,-2.572615520323765,90103.87767459957,10.5,10500090103.877674,47.655,-122.3035,60.0,4.016666666666667
2026-02-06T21:27:09+00:00,SAT-48315,343.3137113023026,41.92085108750515,789.7372184835461,-2.5194666078818226,88242.37794120605,10.5,10500088242.377941,47.655,-122.3035,60.0,4.033333333333333
2026-02-06T21:27:10+00:00,SAT-48315,343.9294635403651,42.11546837284209,787.2245062179537,-2.4658041606107237,86362.89204584525,10.5,10500086362.892046,47.655,-122.3035,60.0,4.05
2026-02-06T21:27:11+00:00,SAT-48315,344.55286873908904,42.30763196459251,784.7653125380167,-2.4116327302394094,84465.57940931855,10.5,10500084465.579409,47.655,-122.3035,60.0,4.066666666666666
2026-02-06T21:27:12+00:00,SAT-48315,345.1839246766887,42.49721894729547,782.3601450623217,-2.3569573074495414,82550.6148264083,10.5,10500082550.614826,47.655,-122.3035,60.0,4.083333333333333
2026-02-06T21:27:13+00:00,SAT-48315,345.82262176799446,42.68410491956334,780.0095064321533,-2.3017832770228157,80618.18689494705,10.5,10500080618.186895,47.655,-122.3035,60.0,4.1
2026-02-06T21:27:14+00:00,SAT-48315,346.4689427049242,42.86816414105664,777.7138939184499,-2.2461164941084886,78668.50068702905,10.5,10500078668.500687,47.655,-122.3035,60.0,4.116666666666666
2026-02-06T21:27:15+00:00,SAT-48315,347.1228621194879,43.049269696396564,775.4737989526981,-2.189963232559278,76701.77593951488,10.5,10500076701.77594,47.655,-122.3035,60.0,4.133333333333334
2026-02-06T21:27:16+00:00,SAT-48315,347.7843462365511,43.2272936660069,773.2897067093503,-2.133330200602326,74718.24760289474,10.5,10500074718.247602,47.655,-122.3035,60.0,4.15
2026-02-06T21:27:17+00:00,SAT-48315,348.45335253626985,43.40210730922119,771.1620956726164,-2.076224589213833,72718.16753557304,10.5,10500072718.167536,47.655,-122.3035,60.0,4.166666666666667
2026-02-06T21:27:18+00:00,SAT-48315,349.1298294406228,43.573581262392715,769.0914371550072,-2.018653996146944,70701.80184300338,10.5,10500070701.801844,47.655,-122.3035,60.0,4.183333333333334
2026-02-06T21:27:19+00:00,SAT-48315,349.8137159867697,43.74158574174357,767.0781948916496,-1.960626493536287,68669.43324548549,10.5,10500068669.433245,47.655,-122.3035,60.0,4.2
2026-02-06T21:27:20+00:00,SAT-48315,350.50494153555985,43.905990762529775,765.122824567176,-1.9021505961257164,66621.35996536652,10.5,10500066621.359966,47.655,-122.3035,60.0,4.216666666666667
2026-02-06T21:27:21+00:00,SAT-48315,351.20342548611757,44.06666636614899,763.2257733743016,-1.843235283169418,64557.89649411024,10.5,10500064557.896494,47.655,-122.3035,60.0,4.233333333333333
2026-02-06T21:27:22+00:00,SAT-48315,351.9090770179613,44.2234828593148,761.3874795505599,-1.7838899649954885,62479.37242121224,10.5,10500062479.372421,47.655,-122.3035,60.0,4.25
2026-02-06T21:27:23+00:00,SAT-48315,352.62179484259593,44.37631106022646,759.6083719483836,-1.724124511023332,60386.13341548768,10.5,10500060386.133415,47.655,-122.3035,60.0,4.266666666666667
2026-02-06T21:27:24+00:00,SAT-48315,353.3414669911054,44.52502255643123,757.8888695772453,-1.6639492449221043,58278.54105549945,10.5,10500058278.541056,47.655,-122.3035,60.0,4.283333333333333
2026-02-06T21:27:25+00:00,SAT-48315,354.0679706292305,44.66948997104323,756.2293811506237,-1.6033749151528967,56156.97179782092,10.5,10500056156.971798,47.655,-122.3035,60.0,4.3
2026-02-06T21:27:26+00:00,SAT-48315,354.80117189128475,44.809587234485264,754.6303046623527,-1.5424127182993266,54021.81779417189,10.5,10500054021.817795,47.655,-122.3035,60.0,4.316666666666666
2026-02-06T21:27:27+00:00,SAT-48315,355.5409257589608,44.94518986552942,753.0920269396979,-1.481074286110095,51873.486437594096,10.5,10500051873.486437,47.655,-122.3035,60.0,4.333333333333333
2026-02-06T21:27:28+00:00,SAT-48315,356.2870759731208,45.07617525766555,751.6149232093608,-1.4193716614923344,49712.39952163677,10.5,10500049712.39952,47.655,-122.3035,60.0,4.35
2026-02-06T21:27:29+00:00,SAT-48315,357.0394549744022,45.20242296882325,750.1993566874197,-1.3573173219846295,47538.994062481084,10.5,10500047538.994062,47.655,-122.3035,60.0,4.366666666666666
2026-02-06T21:27:30+00:00,SAT-48315,357.7978839003617,45.323815017605526,748.8456781458655,-1.294924142169209,45353.72098245612,10.5,10500045353.720982,47.655,-122.3035,60.0,4.383333333333334
2026-02-06T21:27:31+00:00,SAT-48315,358.56217261033316,45.440236179499706,747.5542255166217,-1.2322053906130996,43157.04500290513,10.5,10500043157.045002,47.655,-122.3035,60.0,4.4
2026-02-06T21:27:32+00:00,SAT-48315,359.33211975677267,45.551574284890314,746.3253234986167,-1.169174744328374,40949.445150644606,10.5,10500040949.44515,47.655,-122.3035,60.0,4.416666666666667
2026-02-06T21:27:33+00:00,SAT-48315,0.10751292002082245,45.65772051921023,745.1592831504314,-1.105846231952039,38731.41276788361,10.5,10500038731.412767,47.655,-122.3035,60.0,4.433333333333334
2026-02-06T21:27:34+00:00,SAT-48315,0.8881287614897044,45.75856971743652,744.0564015396207,-1.0422342576303305,36503.452348752784,10.5,10500036503.452349,47.655,-122.3035,60.0,4.45
2026-02-06T21:27:35+00:00,SAT-48315,1.6737332493943629,45.8540206588015,743.0169613682067,-0.9783535729666353,34266.080556801964,10.5,10500034266.080557,47.655,-122.3035,60.0,4.466666666666667
2026-02-06T21:27:36+00:00,SAT-48315,2.4640819248842245,45.94397635559456,742.0412306261563,-0.9142192646736548,32019.82579252669,10.5,10500032019.825792,47.655,-122.3035,60.0,4.483333333333333
2026-02-06T21:27:37+00:00,SAT-48315,3.258920220528192,46.02834433596824,741.1294622571689,-0.8498467320333516,29765.227403920187,10.5,10500029765.227404,47.655,-122.3035,60.0,4.5
2026-02-06T21:27:38+00:00,SAT-48315,4.057983822345556,46.10703691831658,740.2818938469453,-0.7852516780513837,27502.83537666424,10.5,10500027502.835377,47.655,-122.3035,60.0,4.516666666666667
2026-02-06T21:27:39+00:00,SAT-48315,4.860999087511331,46.179971476956595,739.4987473202777,-0.7204500939201914,25233.209789960794,10.5,10500025233.20979,47.655,-122.3035,60.0,4.533333333333333
2026-02-06T21:27:40+00:00,SAT-48315,5.667683514247751,46.24707069701132,738.7802286536374,-0.6554582317856592,22956.919862705225,10.5,10500022956.919863,47.655,-122.3035,60.0,4.55
2026-02-06T21:27:41+00:00,SAT-48315,6.477746250234084,46.30826281590015,738.1265276149179,-0.5902925897743264,20674.54342907595,10.5,10500020674.543428,47.655,-122.3035,60.0,4.566666666666666
2026-02-06T21:27:42+00:00,SAT-48315,7.290888649903321,46.363481851135504,737.5378175181165,-0.5249698943004785,18386.666318853906,10.5,10500018386.666319,47.655,-122.3035,60.0,4.583333333333333
2026-02-06T21:27:43+00:00,SAT-48315,8.1068048789111,46.412667812765044,737.0142549956566,-0.4595070747578188,16093.881471017852,10.5,10500016093.881472,47.655,-122.3035,60.0,4.6
2026-02-06T21:27:44+00:00,SAT-48315,8.925182552356185,46.45576689843111,736.5559797959543,-0.3939212485985174,13796.788411149533,10.5,10500013796.788412,47.655,-122.3035,60.0,4.616666666666666
2026-02-06T21:27:45+00:00,SAT-48315,9.745703421282357,46.49273167075834,736.163114595862,-0.32822969328951723,11495.9922692249,10.5,10500011495.99227,47.655,-122.3035,60.0,4.633333333333334
2026-02-06T21:27:46+00:00,SAT-48315,10.568044084744333,46.52352121469993,735.8357648410846,-0.2624498250980432,9192.103036592915,10.5,10500009192.103037,47.655,-122.3035,60.0,4.65
2026-02-06T21:27:47+00:00,SAT-48315,11.391876728376465,46.54810127444017,735.5740186077497,-0.1965991812895534,6885.734942472472,10.5,10500006885.734943,47.655,-122.3035,60.0,4.666666666666667
2026-02-06T21:27:48+00:00,SAT-48315,12.21686990693405,46.566444369260914,735.3779464817342,-0.13069539143009304,4577.505448839466,10.5,10500004577.50545,47.655,-122.3035,60.0,4.683333333333334
2026-02-06T21:27:49+00:00,SAT-48315,13.042689332087013,46.578529886568965,735.2476014666127,-0.0647561561362287,2268.0345061595963,10.5,10500002268.034506,47.655,-122.3035,60.0,4.7
2026-02-06T21:27:50+00:00,SAT-48315,13.86899868287688,46.58434415215011,735.1830189127948,0.00120077585138081,-42.05624959217121,10.5,10499999957.94375,47.655,-122.3035,60.0,4.716666666666667
2026-02-06T21:27:51+00:00,SAT-48315,14.695460429672162,46.583880477016386,735.1842164695317,0.06715763298164895,-2352.144383523197,10.5,10499997647.855616,47.655,-122.3035,60.0,4.733333333333333
2026-02-06T21:27:52+00:00,SAT-48315,15.521736670161134,46.577139180287546,735.2511940621671,0.13309664305131605,-4661.607437898983,10.5,10499995338.392563,47.655,-122.3035,60.0,4.75
2026-02-06T21:27:53+00:00,SAT-48315,16.347489953143178,46.564127588267674,735.3839338914858,0.1990000589551746,-6969.823834024983,10.5,10499993030.176167,47.655,-122.3035,60.0,4.766666666666667
2026-02-06T21:27:54+00:00,SAT-48315,17.172384117545388,46.54486000935702,735.5824004587446,0.2648501802810895,-9276.173628595552,10.5,10499990723.826372,47.655,-122.3035,60.0,4.783333333333333
2026-02-06T21:27:55+00:00,SAT-48315,17.996085109092686,46.51935768539116,735.8465406122419,0.3306293783684089,-11580.039391345505,10.5,10499988419.96061,47.655,-122.3035,60.0,4.8
2026-02-06T21:27:56+00:00,SAT-48315,18.818261792061175,46.48764871940088,736.1762836188738,0.3963201209966453,-13880.807069752154,10.5,10499986119.19293,47.655,-122.3035,60.0,4.816666666666666
2026-02-06T21:27:57+00:00,SAT-48315,19.638586743876477,46.44976798031573,736.5715412603181,0.4619049902369493,-16177.866614269422,10.5,10499983822.133387,47.655,-122.3035,60.0,4.833333333333333
2026-02-06T21:27:58+00:00,SAT-48315,20.456737017330713,46.40575698593132,737.0322079470191,0.527366712248399,-18470.613021919948,10.5,10499981529.386978,47.655,-122.3035,60.0,4.85
2026-02-06T21:27:59+00:00,SAT-48315,21.27239489014719,46.35566376376097,737.5581608618886,0.5926881738668014,-20758.44691730509,10.5,10499979241.553083,47.655,-122.3035,60.0,4.866666666666666
2026-02-06T21:28:00+00:00,SAT-48315,22.085248572311684,46.299542691991675,738.1492601205523,0.6578524506203078,-23040.77553383025,10.5,10499976959.224466,47.655,-122.3035,60.0,4.883333333333334
2026-02-06T21:28:01+00:00,SAT-48315,22.894992887836516,46.23745432046867,738.8053489595358,0.7228428153634313,-25317.013016104727,10.5,10499974682.986984,47.655,-122.3035,60.0,4.9
2026-02-06T21:28:02+00:00,SAT-48315,23.701329903560936,46.16946517473307,739.5262539330637,0.7876427766120652,-27586.58176259619,10.5,10499972413.418238,47.655,-122.3035,60.0,4.916666666666667
2026-02-06T21:28:03+00:00,SAT-48315,24.503969537341074,46.0956475415378,740.3117851480863,0.8522360890436832,-29848.912793392134,10.5,10499970151.087206,47.655,-122.3035,60.0,4.933333333333334
2026-02-06T21:28:04+00:00,SAT-48315,25.302630110303195,46.016079239825785,741.1617365097839,0.9166067596873304,-32103.445966999505,10.5,10499967896.554033,47.655,-122.3035,60.0,4.95
2026-02-06T21:28:05+00:00,SAT-48315,26.09703884329625,45.93084337894898,742.0758859732401,0.980739098851436,-34349.631764052174,10.5,10499965650.368237,47.655,-122.3035,60.0,4.966666666666667
2026-02-06T21:28:06+00:00,SAT-48315,26.886932334519233,45.840028101413026,743.0539958459095,1.0446177083749157,-36586.93087581481,10.5,10499963413.069124,47.655,-122.3035,60.0,4.983333333333333
2026-02-06T21:28:07+00:00,SAT-48315,27.672056961623923,45.74372631749594,744.0958130783656,1.1082275065492544,-38814.81507705965,10.5,10499961185.184923,47.655,-122.3035,60.0,5.0
2026-02-06T21:28:08+00:00,SAT-48315,28.452169243122345,45.64203542980921,745.201069579905,1.1715537466515002,-41032.767875170335,10.5,10499958967.232124,47.655,-122.3035,60.0,5.016666666666667
2026-02-06T21:28:09+00:00,SAT-48315,29.227036151455074,45.535057049926486,746.3694825526362,1.2345820388725501,-43240.285278163254,10.5,10499956759.714722,47.655,-122.3035,60.0,5.033333333333333
2026-02-06T21:28:10+00:00,SAT-48315,29.996435380401856,45.42289670828678,747.6007548474349,1.2972983454025393,-45436.87562255706,10.5,10499954563.124378,47.655,-122.3035,60.0,5.05
2026-02-06T21:28:11+00:00,SAT-48315,30.760155550718313,45.30566356130369,748.8945753150006,1.359689015158386,-47622.06078967822,10.5,10499952377.93921,47.655,-122.3035,60.0,5.066666666666666
2026-02-06T21:28:12+00:00,SAT-48315,31.517996380876813,45.18347009350525,750.2506191915464,1.4217407733137026,-49795.375838954154,10.5,10499950204.62416,47.655,-122.3035,60.0,5.083333333333333
2026-02-06T21:28:13+00:00,SAT-48315,32.269768797228934,45.05643182022881,751.668548474047,1.4834407490594104,-51956.36998020747,10.5,10499948043.63002,47.655,-122.3035,60.0,5.1
2026-02-06T21:28:14+00:00,SAT-48315,33.015295008010135,44.92466698873278,753.1480123231731,1.5447764855760284,-54104.60692292765,10.5,10499945895.393078,47.655,-122.3035,60.0,5.116666666666666
2026-02-06T21:28:15+00:00,SAT-48315,33.75440853225097,44.788296280648105,754.6886474761704,1.605735940628036,-56239.664897088165,10.5,10499943760.335102,47.655,-122.3035,60.0,5.133333333333334
2026-02-06T21:28:16+00:00,SAT-48315,34.48695418204811,44.64744251778955,756.290078660333,1.6663074814459737,-58361.13647389597,10.5,10499941638.863525,47.655,-122.3035,60.0,5.15
2026-02-06T21:28:17+00:00,SAT-48315,35.212788000209116,44.50223037291975,757.9519190013717,1.7264799367830124,-60468.63038903276,10.5,10499939531.369612,47.655,-122.3035,60.0,5.166666666666667
2026-02-06T21:28:18+00:00,SAT-48315,35.93177717930219,44.3527860815281,759.6737704836986,1.7862425463117628,-62561.769770317274,10.5,10499937438.23023,47.655,-122.3035,60.0,5.183333333333334
2026-02-06T21:28:19+00:00,SAT-48315,36.643799921398454,44.19923716454705,761.4552243602452,1.84558500400897,-64640.19365722065,10.5,10499935359.806343,47.655,-122.3035,60.0,5.2
2026-02-06T21:28:20+00:00,SAT-48315,37.34874528170689,44.04171215464777,763.2958616055491,1.9044974530367171,-66703.55682158466,10.5,10499933296.443178,47.655,-122.3035,60.0,5.216666666666667
2026-02-06T21:28:21+00:00,SAT-48315,38.04651297821936,43.880340331131826,765.1952533637348,1.9629704763473526,-68751.52943856647,10.5,10499931248.470562,47.655,-122.3035,60.0,5.233333333333333
2026-02-06T21:28:22+00:00,SAT-48315,38.737013169594505,43.71525146442198,767.152961387125,2.0209951130189414,-70783.79765877528,10.5,10499929216.202341,47.655,-122.3035,60.0,5.25
2026-02-06T21:28:23+00:00,SAT-48315,39.42016621429316,43.5465755685316,769.1685384911433,2.078562851138157,-72800.06335900101,10.5,10499927199.936642,47.655,-122.3035,60.0,5.266666666666667
2026-02-06T21:28:24+00:00,SAT-48315,40.095902404657835,43.37444266400901,771.2415290021191,2.1356656365979454,-74800.0444503458,10.5,10499925199.95555,47.655,-122.3035,60.0,5.283333333333333
2026-02-06T21:28:25+00:00,SAT-48315,40.76416168503559,43.19898255041022,773.371469213867,2.1922958538034703,-76783.47420246457,10.5,10499923216.525797,47.655,-122.3035,60.0,5.3
2026-02-06T21:28:26+00:00,SAT-48315,41.42489334736207,43.02032459094717,775.5578878250234,2.248446353954037,-78750.10223411753,10.5,10499921249.897766,47.655,-122.3035,60.0,5.316666666666666
2026-02-06T21:28:27+00:00,SAT-48315,42.07805572216981,42.83859750561612,777.8003064045882,2.3041104040551765,-80699.6927273579,10.5,10499919300.307272,47.655,-122.3035,60.0,5.333333333333333
2026-02-06T21:28:28+00:00,SAT-48315,42.7236158436872,42.65392917943845,780.0982398066171,2.3592817526841965,-82632.0267309195,10.5,10499917367.973269,47.655,-122.3035,60.0,5.35
2026-02-06T21:28:29+00:00,SAT-48315,43.361549125566064,42.46644647642687,782.4511966505033,2.413954557711922,-84546.89962872642,10.5,10499915453.10037,47.655,-122.3035,60.0,5.366666666666666
2026-02-06T21:28:30+00:00,SAT-48315,43.9918390102301,42.276275070440114,784.8586797291719,2.4681234253226703,-86444.12250653763,10.5,10499913555.877493,47.655,-122.3035,60.0,5.383333333333334
2026-02-06T21:28:31+00:00,SAT-48315,44.614476625442116,42.08353928390908,787.3201864561921,2.52178337898184,-88323.52106506068,10.5,10499911676.478935,47.655,-122.3035,60.0,5.4
2026-02-06T21:28:32+00:00,SAT-48315,45.22946043121876,41.88836193992532,789.835209281941,2.5749298782577044,-90184.93627917049,10.5,10499909815.06372,47.655,-122.3035,60.0,5.416666666666667
2026-02-06T21:28:33+00:00,SAT-48315,45.836795871527855,41.69086422361061,792.4032361285356,2.6275587965118365,-92028.2236165337,10.5,10499907971.776384,47.655,-122.3035,60.0,5.433333333333334
2026-02-06T21:28:34+00:00,SAT-48315,46.436495022491705,41.49116555578156,795.023750802517,2.679666390765358,-93853.25198219715,10.5,10499906146.748018,47.655,-122.3035,60.0,5.45
2026-02-06T21:28:35+00:00,SAT-48315,47.02857623767293,41.289383479188444,797.6962333774825,2.7312493596368834,-95659.90574781997,10.5,10499904340.094252,47.655,-122.3035,60.0,5.466666666666667
2026-02-06T21:28:36+00:00,SAT-48315,47.613063811313886,41.08563355037581,800.4201606344986,2.782304770932258,-97448.08221555963,10.5,10499902551.917784,47.655,-122.3035,60.0,5.483333333333333
2026-02-06T21:28:37+00:00,SAT-48315,48.18998763151315,40.88002924676365,803.1950064302982,2.832830072579285,-99217.69200105258,10.5,10499900782.307999,47.655,-122.3035,60.0,5.5
2026-02-06T21:28:38+00:00,SAT-48315,48.75938284402349,40.67268188221987,806.0202420763836,2.8828231041624117,-100968.65943740761,10.5,10499899031.340563,47.655,-122.3035,60.0,5.516666666666667
2026-02-06T21:28:39+00:00,SAT-48315,49.321289526385456,40.46370053080642,808.8953367296332,2.932282065704183,-102700.92148180032,10.5,10499897299.078518,47.655,-122.3035,60.0,5.533333333333333
2026-02-06T21:28:40+00:00,SAT-48315,49.87575236526832,40.253191961477675,811.819757751774,2.981205502515975,-104414.42718488182,10.5,10499895585.572815,47.655,-122.3035,60.0,5.55
2026-02-06T21:28:41+00:00,SAT-48315,50.42282034101778,40.04126058207724,814.792971053744,3.0295923182231603,-106109.13814697495,10.5,10499893890.861853,47.655,-122.3035,60.0,5.566666666666666
2026-02-06T21:28:42+00:00,SAT-48315,50.962546425560646,39.828008390235404,817.8144414530458,3.0774417547201534,-107785.02781601534,10.5,10499892214.972183,47.655,-122.3035,60.0,5.583333333333333
2026-02-06T21:28:43+00:00,SAT-48315,51.494987287454165,39.61353493315129,820.8836330111086,3.124753383360045,-109442.08117897506,10.5,10499890557.918821,47.655,-122.3035,60.0,5.6
2026-02-06T21:28:44+00:00,SAT-48315,52.02020300704412,39.39793727502498,824.000009361864,3.1715270755628526,-111080.29373243924,10.5,10499888919.706268,47.655,-122.3035,60.0,5.616666666666666
2026-02-06T21:28:45+00:00,SAT-48315,52.5382567986733,39.18130997311548,827.163034011008,3.2177630397999444,-112699.67277795699,10.5,10499887300.327223,47.655,-122.3035,60.0,5.633333333333334
2026-02-06T21:28:46+00:00,SAT-48315,53.04921475088027,38.9637450574684,830.3721706721494,3.2634617232728247,-114300.2339784167,10.5,10499885699.766022,47.655,-122.3035,60.0,5.65
2026-02-06T21:28:47+00:00,SAT-48315,53.553145563410766,38.74533202311945,833.6268835049,3.308623938525039,-115882.00579253033,10.5,10499884117.994207,47.655,-122.3035,60.0,5.666666666666667
2026-02-06T21:28:48+00:00,SAT-48315,54.05012031592533,38.52615781912991,836.9266374792358,3.353250699757796,-117445.02374191435,10.5,10499882554.976257,47.655,-122.3035,60.0,5.683333333333334
2026-02-06T21:28:49+00:00,SAT-48315,54.540212224167135,38.306306853646994,840.2708985766161,3.3973433147026384,-118989.333628859,10.5,10499881010.66637,47.655,-122.3035,60.0,5.7
2026-02-06T21:28:50+00:00,SAT-48315,55.02349642223327,38.08586099736893,843.6591340827255,3.440903364052768,-120514.9908159266,10.5,10499879485.009184,47.655,-122.3035,60.0,5.716666666666667
2026-02-06T21:28:51+00:00,SAT-48315,55.50004975362439,37.86489959270821,847.090812859704,3.4839326399915813,-122022.0580729606,10.5,10499877977.941927,47.655,-122.3035,60.0,5.733333333333333
2026-02-06T21:28:52+00:00,SAT-48315,55.96995056554879,37.64349947081854,850.5654055570702,3.5264331769963753,-123510.60665596176,10.5,10499876489.393345,47.655,-122.3035,60.0,5.75
2026-02-06T21:28:53+00:00,SAT-48315,56.433278519585876,37.42173497013051,854.0823848533669,3.568407223514372,-124980.71531506276,10.5,10499875019.284685,47.655,-122.3035,60.0,5.766666666666667
2026-02-06T21:28:54+00:00,SAT-48315,56.89011440982571,37.19967795989257,857.6412256695553,3.6098572661116695,-126432.47114032645,10.5,10499873567.52886,47.655,-122.3035,60.0,5.783333333333333
2026-02-06T21:28:55+00:00,SAT-48315,57.34053999535869,36.97739786510568,861.2414054064969,3.6507859620254925,-127865.9671994406,10.5,10499872134.0328,47.655,-122.3035,60.0,5.8
2026-02-06T21:28:56+00:00,SAT-48315,57.78463783510021,36.75496169824478,864.8824041151667,3.6911961754908473,-129281.3038100308,10.5,10499870718.69619,47.655,-122.3035,60.0,5.816666666666666
2026-02-06T21:28:57+00:00,SAT-48315,58.222491137849445,36.532434090976516,868.563704703096,3.731090952260421,-130678.58764723968,10.5,10499869321.412354,47.655,-122.3035,60.0,5.833333333333333
2026-02-06T21:28:58+00:00,SAT-48315,58.65418361942543,36.3098773294813,872.2847931154038,3.770473492857098,-132057.93080691688,10.5,10499867942.069193,47.655,-122.3035,60.0,5.85
2026-02-06T21:28:59+00:00,SAT-48315,59.0797993667961,36.08735139310074,876.0451584891521,3.8093471973087367,-133419.45237242003,10.5,10499866580.547628,47.655,-122.3035,60.0,5.866666666666666
2026-02-06T21:29:00+00:00,SAT-48315,59.499422716586295,35.86491399184219,879.8442933523147,3.847715571011385,-134763.2751175466,10.5,10499865236.724882,47.655,-122.3035,60.0,5.883333333333334
2026-02-06T21:29:01+00:00,SAT-48315,59.91313813257748,35.64262061070761,883.681693728865,3.8855823034633166,-136089.52826413274,10.5,10499863910.471735,47.655,-122.3035,60.0,5.9
2026-02-06T21:29:02+00:00,SAT-48315,60.32103010053101,35.42052455043372,887.5568593223829,3.9229511930412735,-137398.34484739898,10.5,10499862601.655153,47.655,-122.3035,60.0,5.916666666666667
2026-02-06T21:29:03+00:00,SAT-48315,60.72318302340731,35.198676973467435,891.4692936246431,3.9598261762938614,-138689.8627419291,10.5,10499861310.137259,47.655,-122.3035,60.0,5.933333333333334
2026-02-06T21:29:04+00:00,SAT-48315,61.11968112794788,34.977126948881036,895.4185040534143,3.9962113058036293,-139964.2238863064,10.5,10499860035.776114,47.655,-122.3035,60.0,5.95
2026-02-06T21:29:05+00:00,SAT-48315,61.51060837652982,34.75592149903291,899.4040020681844,4.032110738577297,-141221.57387649032,10.5,10499858778.426123,47.655,-122.3035,60.0,5.966666666666667
2026-02-06T21:29:06+00:00,SAT-48315,61.89604838548216,34.53510564717896,903.4253032743027,4.06752874861225,-142462.06240594827,10.5,10499857537.937593,47.655,-122.3035,60.0,5.983333333333333
2026-02-06T21:29:07+00:00,SAT-48315,62.2760843514225,34.314722464553284,907.4819275396588,4.102469681680988,-143685.8416820158,10.5,10499856314.158318,47.655,-122.3035,60.0,6.0
2026-02-06T21:29:08+00:00,SAT-48315,62.65079898019624,34.09481311993867,911.573399066264,4.136937984516791,-144893.06744810208,10.5,10499855106.932552,47.655,-122.3035,60.0,6.016666666666667
2026-02-06T21:29:09+00:00,SAT-48315,63.020274424801045,33.875416927519794,915.6992464909417,4.170938182540228,-146083.89820357785,10.5,10499853916.101797,47.655,-122.3035,60.0,6.033333333333333
2026-02-06T21:29:10+00:00,SAT-48315,63.38459222730724,33.65657139572262,919.8590029638043,4.204474851669082,-147258.49421644013,10.5,10499852741.505783,47.655,-122.3035,60.0,6.05
2026-02-06T21:29:11+00:00,SAT-48315,63.74383326407122,33.43831227717874,924.0522061986134,4.237552691337359,-148417.0200807462,10.5,10499851582.97992,47.655,-122.3035,60.0,6.066666666666666
2026-02-06T21:29:12+00:00,SAT-48315,64.09807770243599,33.22067361445516,928.2783985959676,4.270176372159051,-149559.63938115494,10.5,10499850440.360619,47.655,-122.3035,60.0,6.083333333333333
2026-02-06T21:29:13+00:00,SAT-48315,64.44740494983778,33.00368779315382,932.5371272145574,4.302350697252996,-150686.52034320513,10.5,10499849313.479656,47.655,-122.3035,60.0,6.1
2026-02-06T21:29:14+00:00,SAT-48315,64.7918936210669,32.787385586059926,936.8279439033153,4.334080457480785,-151797.83076313496,10.5,10499848202.169237,47.655,-122.3035,60.0,6.116666666666666
2026-02-06T21:29:15+00:00,SAT-48315,65.13162149820933,32.57179620403438,941.1504052891927,4.365370555574488,-152893.74235536013,10.5,10499847106.257645,47.655,-122.3035,60.0,6.133333333333334
2026-02-06T21:29:16+00:00,SAT-48315,65.46666550457691,32.35694733990654,945.504072888729,4.396225826551476,-153974.42446264112,10.5,10499846025.575537,47.655,-122.3035,60.0,6.15
2026-02-06T21:29:17+00:00,SAT-48315,65.7971016689789,32.14286522049278,949.8885130405185,4.426651219050683,-155040.050407246,10.5,10499844959.949593,47.655,-122.3035,60.0,6.166666666666667
2026-02-06T21:29:18+00:00,SAT-48315,66.12300510740018,31.92957464876039,954.3032970185286,4.456651699151734,-156090.79412228978,10.5,10499843909.205877,47.655,-122.3035,60.0,6.183333333333334
2026-02-06T21:29:19+00:00,SAT-48315,66.44445000078515,31.71709904992192,958.7480010494932,4.486232197658091,-157126.82830536703,10.5,10499842873.171694,47.655,-122.3035,60.0,6.2
2026-02-06T21:29:20+00:00,SAT-48315,66.76150957258672,31.505460519052363,963.222206277729,4.515397706855867,-158148.3278074547,10.5,10499841851.672192,47.655,-122.3035,60.0,6.216666666666667
2026-02-06T21:29:21+00:00,SAT-48315,67.0742560762154,31.29467986309412,967.7254988264581,4.544153242184899,-159155.4682904713,10.5,10499840844.53171,47.655,-122.3035,60.0,6.233333333333333
2026-02-06T21:29:22+00:00,SAT-48315,67.38276078242464,31.08477664377109,972.2574698208936,4.572503765187562,-160148.42352861795,10.5,10499839851.576471,47.655,-122.3035,60.0,6.25
2026-02-06T21:29:23+00:00,SAT-48315,67.68709396439007,30.875769223036453,976.8177153344924,4.60045429964714,-161127.36947603588,10.5,10499838872.630524,47.655,-122.3035,60.0,6.266666666666667
2026-02-06T21:29:24+00:00,SAT-48315,67.98732489290852,30.667674802098734,981.405836451025,4.628009823258116,-162092.4804726416,10.5,10499837907.519527,47.655,-122.3035,60.0,6.283333333333333
2026-02-06T21:29:25+00:00,SAT-48315,68.28352182683462,30.460509464400502,986.0214392186123,4.65517535294459,-163043.9322323385,10.5,10499836956.067768,47.655,-122.3035,60.0,6.3
2026-02-06T21:29:26+00:00,SAT-48315,68.57575201106226,30.254288213668783,990.6641346888495,4.681955864273254,-163981.89902051896,10.5,10499836018.100979,47.655,-122.3035,60.0,6.316666666666666
2026-02-06T21:29:27+00:00,SAT-48315,68.86408167143526,30.04902501454464,995.333538875561,4.708356308654488,-164906.55425651878,10.5,10499835093.445744,47.655,-122.3035,60.0,6.333333333333333
