DopplerPredictor/satellites_20260211_204923/SAT-53169.csv

timestamp,satellite,azimuth_deg,elevation_deg,distance_km,relative_velocity_kms,doppler_shift_hz,tx_freq_ghz,rx_freq_hz,ue_lat,ue_lon,ue_alt_m,time_minutes
2026-02-06T21:24:59+00:00,SAT-53169,220.61408788105152,30.022787478713873,982.5575406731838,-5.6066721184970465,196369.37378931325,10.5,10500196369.373789,47.655,-122.3035,60.0,1.8666666666666667
2026-02-06T21:25:00+00:00,SAT-53169,220.48060626170624,30.27144741541836,976.9658992689159,-5.5885297271508465,195733.95050213,10.5,10500195733.950502,47.655,-122.3035,60.0,1.8833333333333333
2026-02-06T21:25:01+00:00,SAT-53169,220.34485427225988,30.52245869151032,971.3923516187465,-5.570067082045374,195087.310573625,10.5,10500195087.310574,47.655,-122.3035,60.0,1.9
2026-02-06T21:25:02+00:00,SAT-53169,220.2067760300557,30.775848685073612,965.8372171178788,-5.551277870456849,194429.2329055086,10.5,10500194429.232906,47.655,-122.3035,60.0,1.9166666666666667
2026-02-06T21:25:03+00:00,SAT-53169,220.06631386286912,31.031644839476915,960.3008214573165,-5.5321556972852886,193759.49351432826,10.5,10500193759.493515,47.655,-122.3035,60.0,1.9333333333333333
2026-02-06T21:25:04+00:00,SAT-53169,219.92340823828422,31.289874644861957,954.7834967060179,-5.512693995335051,193077.86238911335,10.5,10500193077.862389,47.655,-122.3035,60.0,1.95
2026-02-06T21:25:05+00:00,SAT-53169,219.77799769230063,31.550565614027118,949.2855814825327,-5.492886088392523,192384.1057006227,10.5,10500192384.105701,47.655,-122.3035,60.0,1.9666666666666666
2026-02-06T21:25:06+00:00,SAT-53169,219.63001875311699,31.813745259608503,943.8074210637249,-5.472725215830438,191677.98666309207,10.5,10500191677.986664,47.655,-122.3035,60.0,1.9833333333333334
2026-02-06T21:25:07+00:00,SAT-53169,219.47940586040798,32.07944107084575,938.3493674689618,-5.452204445512605,190959.26248378918,10.5,10500190959.262484,47.655,-122.3035,60.0,2.0
2026-02-06T21:25:08+00:00,SAT-53169,219.32609128370748,32.34768048442425,932.9117796311638,-5.431316744558048,190227.6868414732,10.5,10500190227.686842,47.655,-122.3035,60.0,2.0166666666666666
2026-02-06T21:25:09+00:00,SAT-53169,219.1700050347717,32.61849085681144,927.4950234972761,-5.4100549496823165,189483.00884762194,10.5,10500189483.008848,47.655,-122.3035,60.0,2.033333333333333
2026-02-06T21:25:10+00:00,SAT-53169,219.0110747768883,32.8918994331973,922.0994721583262,-5.388411767344615,188724.9730515851,10.5,10500188724.973051,47.655,-122.3035,60.0,2.05
2026-02-06T21:25:11+00:00,SAT-53169,218.84922572993733,33.1679333143158,916.725505979329,-5.366379796331181,187953.32023154965,10.5,10500187953.320232,47.655,-122.3035,60.0,2.066666666666667
2026-02-06T21:25:12+00:00,SAT-53169,218.68438057028,33.44661942219421,911.3735127066716,-5.343951481022954,187167.78575777586,10.5,10500187167.785757,47.655,-122.3035,60.0,2.0833333333333335
2026-02-06T21:25:13+00:00,SAT-53169,218.51645932762173,33.727984461140224,906.0438876221042,-5.321119153651513,186368.10107257898,10.5,10500186368.101072,47.655,-122.3035,60.0,2.1
2026-02-06T21:25:14+00:00,SAT-53169,218.34537927554325,34.012054878369746,900.7370336545889,-5.2978750286726966,185553.99349326963,10.5,10500185553.993494,47.655,-122.3035,60.0,2.1166666666666667
2026-02-06T21:25:15+00:00,SAT-53169,218.1710548171608,34.29885682173543,895.4533614977616,-5.274211185807689,184725.18561818104,10.5,10500184725.185617,47.655,-122.3035,60.0,2.1333333333333333
2026-02-06T21:25:16+00:00,SAT-53169,217.9933973659374,34.58841609373988,890.1932897443016,-5.250119578784283,183881.3956328247,10.5,10500183881.395634,47.655,-122.3035,60.0,2.15
2026-02-06T21:25:17+00:00,SAT-53169,217.81231522068344,34.88075810302079,884.9572450115917,-5.225592006081579,183022.3362852463,10.5,10500183022.336285,47.655,-122.3035,60.0,2.1666666666666665
2026-02-06T21:25:18+00:00,SAT-53169,217.62771343570094,35.175907811017474,879.7456620965468,-5.200620222245747,182147.71878477457,10.5,10500182147.718784,47.655,-122.3035,60.0,2.183333333333333
2026-02-06T21:25:19+00:00,SAT-53169,217.4394936805893,35.47388968157023,874.5589840194313,-5.175195788240777,181257.2475606713,10.5,10500181257.24756,47.655,-122.3035,60.0,2.2
2026-02-06T21:25:20+00:00,SAT-53169,217.24755409914607,35.774727618622364,869.3976622169218,-5.149310166201609,180350.62358078698,10.5,10500180350.62358,47.655,-122.3035,60.0,2.216666666666667
2026-02-06T21:25:21+00:00,SAT-53169,217.0517891579929,36.078444905462575,864.2621566406709,-5.122954682004379,179427.54304061236,10.5,10500179427.543041,47.655,-122.3035,60.0,2.2333333333333334
2026-02-06T21:25:22+00:00,SAT-53169,216.85208948949406,36.38506413787207,859.1529358932011,-5.096120601048724,178487.70001749543,10.5,10500178487.700018,47.655,-122.3035,60.0,2.25
2026-02-06T21:25:23+00:00,SAT-53169,216.64834172404323,36.69460715764734,854.0704772882194,-5.068799009378693,177530.78230699277,10.5,10500177530.782307,47.655,-122.3035,60.0,2.2666666666666666
2026-02-06T21:25:24+00:00,SAT-53169,216.4404283194101,37.00709497462758,849.0152670294907,-5.040980898235025,176556.47438424808,10.5,10500176556.474384,47.655,-122.3035,60.0,2.283333333333333
2026-02-06T21:25:25+00:00,SAT-53169,216.2282273786136,37.32254768904711,843.9878003053884,-5.012657181392931,175564.45801123444,10.5,10500175564.458012,47.655,-122.3035,60.0,2.3
2026-02-06T21:25:26+00:00,SAT-53169,216.01161245805707,37.64098441016286,838.9885813661522,-4.983818649816438,174554.4106485581,10.5,10500174554.410648,47.655,-122.3035,60.0,2.316666666666667
2026-02-06T21:25:27+00:00,SAT-53169,215.7904523688239,37.962423166924616,834.0181236463691,-4.954455947426102,173526.00460674055,10.5,10500173526.004606,47.655,-122.3035,60.0,2.3333333333333335
2026-02-06T21:25:28+00:00,SAT-53169,215.56461096985828,38.2868808114563,829.076949911623,-4.924559715504429,172478.91210390796,10.5,10500172478.912104,47.655,-122.3035,60.0,2.35
2026-02-06T21:25:29+00:00,SAT-53169,215.33394694421,38.614372926151795,824.1655922611266,-4.894120431162049,171412.7996081927,10.5,10500171412.799608,47.655,-122.3035,60.0,2.3666666666666667
2026-02-06T21:25:30+00:00,SAT-53169,215.0983135729449,38.94491371424819,819.2845922914518,-4.863128512103776,170327.3315070843,10.5,10500170327.331507,47.655,-122.3035,60.0,2.3833333333333333
2026-02-06T21:25:31+00:00,SAT-53169,214.85755849298985,39.2785158907588,814.4345011557774,-4.831574262155082,169222.16819953613,10.5,10500169222.1682,47.655,-122.3035,60.0,2.4
2026-02-06T21:25:32+00:00,SAT-53169,214.6115234469029,39.61519056296317,809.6158796774617,-4.799447982947076,168096.97000764543,10.5,10500168096.970007,47.655,-122.3035,60.0,2.4166666666666665
2026-02-06T21:25:33+00:00,SAT-53169,214.36004401458936,39.95494711149407,804.8292983522333,-4.766739863124081,166951.39329623446,10.5,10500166951.393295,47.655,-122.3035,60.0,2.433333333333333
2026-02-06T21:25:34+00:00,SAT-53169,214.1029493389988,40.29779305634295,800.0753374608722,-4.733440009827722,165785.09157555617,10.5,10500165785.091576,47.655,-122.3035,60.0,2.45
2026-02-06T21:25:35+00:00,SAT-53169,213.8400618374128,40.64373391694842,795.354587150496,-4.699538523838369,164597.7181330655,10.5,10500164597.718134,47.655,-122.3035,60.0,2.466666666666667
2026-02-06T21:25:36+00:00,SAT-53169,213.57119689547446,40.99277306938994,790.6676474409038,-4.665025453311118,163388.9244130576,10.5,10500163388.924414,47.655,-122.3035,60.0,2.4833333333333334
2026-02-06T21:25:37+00:00,SAT-53169,213.29616254975414,41.34491159160358,786.0151282770595,-4.62989080593814,162158.36044264486,10.5,10500162158.360443,47.655,-122.3035,60.0,2.5
2026-02-06T21:25:38+00:00,SAT-53169,213.01475915585942,41.70014810021191,781.3976495694473,-4.5941245845873215,160905.6760799729,10.5,10500160905.67608,47.655,-122.3035,60.0,2.5166666666666666
2026-02-06T21:25:39+00:00,SAT-53169,212.7267790393231,42.058478580393604,776.8158411988819,-4.557716731044001,159630.51904381803,10.5,10500159630.519043,47.655,-122.3035,60.0,2.533333333333333
2026-02-06T21:25:40+00:00,SAT-53169,212.43200613541734,42.419896201159105,772.2703430774291,-4.520657278980923,158332.5402712422,10.5,10500158332.540272,47.655,-122.3035,60.0,2.55
2026-02-06T21:25:41+00:00,SAT-53169,212.13021560284201,42.78439113195147,767.7618050567622,-4.482936194482425,157011.38833207558,10.5,10500157011.388332,47.655,-122.3035,60.0,2.566666666666667
2026-02-06T21:25:42+00:00,SAT-53169,211.82117343245847,43.15195033552198,763.2908869955724,-4.444543506745994,155666.7140066377,10.5,10500155666.714006,47.655,-122.3035,60.0,2.5833333333333335
2026-02-06T21:25:43+00:00,SAT-53169,211.50463603070676,43.522557359321446,758.8582586966207,-4.405469295286178,154298.16983756432,10.5,10500154298.169838,47.655,-122.3035,60.0,2.6
2026-02-06T21:25:44+00:00,SAT-53169,211.18034978689101,43.89619211368981,754.4645998565604,-4.3657036699479495,152905.40942979115,10.5,10500152905.40943,47.655,-122.3035,60.0,2.6166666666666667
2026-02-06T21:25:45+00:00,SAT-53169,210.84805062550598,44.27283063539706,750.1106000356847,-4.325236844766038,151488.0900374198,10.5,10500151488.090038,47.655,-122.3035,60.0,2.6333333333333333
2026-02-06T21:25:46+00:00,SAT-53169,210.5074635354898,44.652444843879735,745.7969585540168,-4.2840590979491004,150045.87116219432,10.5,10500150045.871162,47.655,-122.3035,60.0,2.65
2026-02-06T21:25:47+00:00,SAT-53169,210.1583020857619,45.035002279910955,741.5243844273093,-4.242160828138884,148578.41652393495,10.5,10500148578.416525,47.655,-122.3035,60.0,2.6666666666666665
2026-02-06T21:25:48+00:00,SAT-53169,209.80026791904498,45.420465834283036,737.2935962469323,-4.199532567691407,147085.3945257014,10.5,10500147085.394526,47.655,-122.3035,60.0,2.683333333333333
2026-02-06T21:25:49+00:00,SAT-53169,209.4330502279307,45.80879346228275,733.1053220465193,-4.156164989656856,145566.47849825822,10.5,10500145566.478498,47.655,-122.3035,60.0,2.7
2026-02-06T21:25:50+00:00,SAT-53169,209.05632521364114,46.1999378826373,728.960299161649,-4.1120489237813835,144021.3472605256,10.5,10500144021.347261,47.655,-122.3035,60.0,2.716666666666667
2026-02-06T21:25:51+00:00,SAT-53169,208.66975552825724,46.593846260997545,724.8592740735696,-4.067175414735887,142449.68715899723,10.5,10500142449.687159,47.655,-122.3035,60.0,2.7333333333333334
2026-02-06T21:25:52+00:00,SAT-53169,208.27298969622777,46.99045988137049,720.8030021948506,-4.021535694666929,140851.19110635784,10.5,10500140851.191107,47.655,-122.3035,60.0,2.75
2026-02-06T21:25:53+00:00,SAT-53169,207.86566152535374,47.389713796697315,716.792247682409,-3.9751212427024116,139225.56066562328,10.5,10500139225.560665,47.655,-122.3035,60.0,2.7666666666666666
2026-02-06T21:25:54+00:00,SAT-53169,207.4473894998756,47.79153646614583,712.8277831911917,-3.9279238049490073,137572.50675053534,10.5,10500137572.50675,47.655,-122.3035,60.0,2.783333333333333
2026-02-06T21:25:55+00:00,SAT-53169,207.01777616160413,48.19584937480766,708.9103896079102,-3.8799354038273965,135891.74995252103,10.5,10500135891.749952,47.655,-122.3035,60.0,2.8
2026-02-06T21:25:56+00:00,SAT-53169,206.57640748277956,48.60256663394114,705.0408557754695,-3.8311483841353975,134183.02215401854,10.5,10500134183.022154,47.655,-122.3035,60.0,2.816666666666667
2026-02-06T21:25:57+00:00,SAT-53169,206.12285222975464,49.01159456490721,701.2199781714534,-3.781555404798672,132446.06623955182,10.5,10500132446.06624,47.655,-122.3035,60.0,2.8333333333333335
2026-02-06T21:25:58+00:00,SAT-53169,205.65666132776403,49.422831260483896,697.4485605948405,-3.73114953247693,130680.6393742159,10.5,10500130680.639374,47.655,-122.3035,60.0,2.85
2026-02-06T21:25:59+00:00,SAT-53169,205.17736721832372,49.83616613390774,693.7274137593613,-3.6799242077347887,128886.51181883729,10.5,10500128886.511818,47.655,-122.3035,60.0,2.8666666666666667
2026-02-06T21:26:00+00:00,SAT-53169,204.6844832312245,50.25147944156986,690.057354920598,-3.6278732962855718,127063.46872474857,10.5,10500127063.468725,47.655,-122.3035,60.0,2.8833333333333333
2026-02-06T21:26:01+00:00,SAT-53169,204.1775029664704,50.6686417879312,686.4392074519733,-3.574991127596824,125211.31148591686,10.5,10500125211.311485,47.655,-122.3035,60.0,2.9
2026-02-06T21:26:02+00:00,SAT-53169,203.65589969595334,51.08751361116286,682.8738003822408,-3.521272527064057,123329.85886580443,10.5,10500123329.858866,47.655,-122.3035,60.0,2.9166666666666665
2026-02-06T21:26:03+00:00,SAT-53169,203.1191257937256,51.50794464867877,679.361967900886,-3.466712831481212,121418.9475392097,10.5,10500121418.947538,47.655,-122.3035,60.0,2.933333333333333
2026-02-06T21:26:04+00:00,SAT-53169,202.56661220935433,51.92977338049437,675.9045488480998,-3.411307937658866,119478.43379508264,10.5,10500119478.433796,47.655,-122.3035,60.0,2.95
2026-02-06T21:26:05+00:00,SAT-53169,201.99776799077276,52.35282645448964,672.5023861562613,-3.355054320101642,117508.19415566232,10.5,10500117508.194155,47.655,-122.3035,60.0,2.966666666666667
2026-02-06T21:26:06+00:00,SAT-53169,201.4119798767821,52.77691809026124,669.1563262737943,-3.2979490790715706,115508.12705985917,10.5,10500115508.12706,47.655,-122.3035,60.0,2.9833333333333334
2026-02-06T21:26:07+00:00,SAT-53169,200.8086119705373,53.20184946596089,665.8672185410868,-3.2399899711326046,113478.15393305306,10.5,10500113478.153933,47.655,-122.3035,60.0,3.0
2026-02-06T21:26:08+00:00,SAT-53169,200.1870055160129,53.6274080870358,662.6359145359485,-3.181175447299879,111418.22052324188,10.5,10500111418.220524,47.655,-122.3035,60.0,3.0166666666666666
2026-02-06T21:26:09+00:00,SAT-53169,199.54647879840886,54.0533671392824,659.4632673810206,-3.1215046466843015,109328.29667844801,10.5,10500109328.296679,47.655,-122.3035,60.0,3.033333333333333
2026-02-06T21:26:10+00:00,SAT-53169,198.88632720337546,54.47948482203296,656.3501310575264,-3.0609774954107927,107208.37981125369,10.5,10500107208.37981,47.655,-122.3035,60.0,3.05
2026-02-06T21:26:11+00:00,SAT-53169,198.20582344148625,54.90550367796135,653.2973596203659,-2.9995946981649393,105058.49460272901,10.5,10500105058.494602,47.655,-122.3035,60.0,3.066666666666667
2026-02-06T21:26:12+00:00,SAT-53169,197.50421799284658,55.33114990841225,650.3058064216427,-2.9373577745404935,102878.69427547502,10.5,10500102878.694275,47.655,-122.3035,60.0,3.0833333333333335
2026-02-06T21:26:13+00:00,SAT-53169,196.78073979947243,55.75613268387991,647.3763232979405,-2.8742691015050714,100669.06208095218,10.5,10500100669.06208,47.655,-122.3035,60.0,3.1
2026-02-06T21:26:14+00:00,SAT-53169,196.03459724460424,56.18014345529754,644.5097597152475,-2.810331929965322,98429.7118796627,10.5,10500098429.71188,47.655,-122.3035,60.0,3.1166666666666667
2026-02-06T21:26:15+00:00,SAT-53169,195.26497947117645,56.60285526814468,641.7069618973604,-2.7455504397124733,96160.79006557586,10.5,10500096160.790066,47.655,-122.3035,60.0,3.1333333333333333
2026-02-06T21:26:16+00:00,SAT-53169,194.47105807908272,57.023922091874425,638.968771899491,-2.679929746396123,93862.47581037975,10.5,10500093862.475811,47.655,-122.3035,60.0,3.15
2026-02-06T21:26:17+00:00,SAT-53169,193.65198926972167,57.44297816579437,636.2960266749146,-2.6134759288773903,91534.98202150434,10.5,10500091534.982021,47.655,-122.3035,60.0,3.1666666666666665
2026-02-06T21:26:18+00:00,SAT-53169,192.80691649236437,57.859637373881064,633.6895571143427,-2.546196088355201,89178.55741297404,10.5,10500089178.557413,47.655,-122.3035,60.0,3.183333333333333
2026-02-06T21:26:19+00:00,SAT-53169,191.93497364584812,58.273492665061916,631.1501870263254,-2.478098318575465,86793.48546200713,10.5,10500086793.485462,47.655,-122.3035,60.0,3.2
2026-02-06T21:26:20+00:00,SAT-53169,191.0352889330357,58.68411551794664,628.6787321473645,-2.409191785021368,84380.08718259471,10.5,10500084380.087183,47.655,-122.3035,60.0,3.216666666666667
2026-02-06T21:26:21+00:00,SAT-53169,190.10698940270086,59.09105548263213,626.2759990730503,-2.3394866993936274,81938.72023169139,10.5,10500081938.720232,47.655,-122.3035,60.0,3.2333333333333334
2026-02-06T21:26:22+00:00,SAT-53169,189.1492062885604,59.493839799964775,623.9427842146487,-2.2689943843152536,79469.78117544959,10.5,10500079469.781176,47.655,-122.3035,60.0,3.25
2026-02-06T21:26:23+00:00,SAT-53169,188.16108118471476,59.891973132973064,621.6798726911567,-2.197727230680348,76973.70399539421,10.5,10500076973.703995,47.655,-122.3035,60.0,3.2666666666666666
2026-02-06T21:26:24+00:00,SAT-53169,187.14177317295417,60.28493741428622,619.4880372638953,-2.125698767526827,74450.96253566086,10.5,10500074450.962536,47.655,-122.3035,60.0,3.283333333333333
2026-02-06T21:26:25+00:00,SAT-53169,186.09046692057547,60.672191853591116,617.3680372014178,-2.0529236495582266,71902.07006595671,10.5,10500071902.070066,47.655,-122.3035,60.0,3.3
2026-02-06T21:26:26+00:00,SAT-53169,185.00638184038382,61.0531731182176,615.3206171568606,-1.9794176493133102,69327.57900730698,10.5,10500069327.579008,47.655,-122.3035,60.0,3.316666666666667
2026-02-06T21:26:27+00:00,SAT-53169,183.88878236006568,61.42729571680714,613.3465060531054,-1.9051976859570965,66728.08194043864,10.5,10500066728.08194,47.655,-122.3035,60.0,3.3333333333333335
2026-02-06T21:26:28+00:00,SAT-53169,182.73698930711154,61.793952624570814,611.4464159392271,-1.830281808614172,64104.21102204247,10.5,10500064104.211021,47.655,-122.3035,60.0,3.35
2026-02-06T21:26:29+00:00,SAT-53169,181.55039243690837,62.152516175299496,609.6210408635629,-1.7546892018598828,61456.63817709774,10.5,10500061456.638178,47.655,-122.3035,60.0,3.3666666666666667
2026-02-06T21:26:30+00:00,SAT-53169,180.32846406348716,62.50233925892022,607.8710557413063,-1.6784401867112335,58786.07513357775,10.5,10500058786.075134,47.655,-122.3035,60.0,3.3833333333333333
2026-02-06T21:26:31+00:00,SAT-53169,179.0707737265667,62.84275685903475,606.1971152211108,-1.6015561826793887,56093.272093367945,10.5,10500056093.272093,47.655,-122.3035,60.0,3.4
2026-02-06T21:26:32+00:00,SAT-53169,177.77700381274119,63.173087957029324,604.5998525895425,-1.5240597198485302,53379.018155318525,10.5,10500053379.018156,47.655,-122.3035,60.0,3.4166666666666665
2026-02-06T21:26:33+00:00,SAT-53169,176.446965927912,63.492637845267915,603.0798786634826,-1.4459744167332322,50644.14053971611,10.5,10500050644.14054,47.655,-122.3035,60.0,3.433333333333333
2026-02-06T21:26:34+00:00,SAT-53169,175.0806178168532,63.80070087164477,601.6377807046163,-1.3673249423967753,47889.5032615068,10.5,10500047889.503262,47.655,-122.3035,60.0,3.45
2026-02-06T21:26:35+00:00,SAT-53169,173.67808055400567,64.09656363557649,600.2741213716993,-1.2881369965914429,45116.006434725416,10.5,10500045116.006435,47.655,-122.3035,60.0,3.466666666666667
2026-02-06T21:26:36+00:00,SAT-53169,172.23965562858407,64.37950865512323,598.9894376926327,-1.2084372932370582,42324.58569384395,10.5,10500042324.585693,47.655,-122.3035,60.0,3.4833333333333334
2026-02-06T21:26:37+00:00,SAT-53169,170.765841479954,64.64881851242131,597.7842400530145,-1.1282535032791678,39516.2101924234,10.5,10500039516.210192,47.655,-122.3035,60.0,3.5
2026-02-06T21:26:38+00:00,SAT-53169,169.25734902933954,64.90378046255748,596.6590112416787,-1.0476142329831037,36691.88184288007,10.5,10500036691.881844,47.655,-122.3035,60.0,3.5166666666666666
2026-02-06T21:26:39+00:00,SAT-53169,167.71511560534572,65.14369149313545,595.6142055178835,-0.9665489606227569,33852.63309905864,10.5,10500033852.633099,47.655,-122.3035,60.0,3.533333333333333
2026-02-06T21:26:40+00:00,SAT-53169,166.14031671555398,65.36786378814747,594.6502477416403,-0.8850880191341506,30999.526348686803,10.5,10500030999.526348,47.655,-122.3035,60.0,3.55
2026-02-06T21:26:41+00:00,SAT-53169,164.53437496098468,65.57563055132282,593.7675325213434,-0.8032625167881764,28133.651134999043,10.5,10500028133.651134,47.655,-122.3035,60.0,3.566666666666667
2026-02-06T21:26:42+00:00,SAT-53169,162.89896556348043,65.766352100124,592.9664234405126,-0.7211042972581169,25256.122758132315,10.5,10500025256.122759,47.655,-122.3035,60.0,3.5833333333333335
2026-02-06T21:26:43+00:00,SAT-53169,161.2360178491796,65.93942214533995,592.247252324363,-0.6386458821253773,22368.080261433603,10.5,10500022368.080261,47.655,-122.3035,60.0,3.6
2026-02-06T21:26:44+00:00,SAT-53169,159.54771218681122,66.09427413976199,591.6103185637145,-0.5559204070314563,19470.68419523179,10.5,10500019470.684195,47.655,-122.3035,60.0,3.6166666666666667
2026-02-06T21:26:45+00:00,SAT-53169,157.83647197902243,66.2303875655665,591.0558885025772,-0.4729615569522186,16565.114349868985,10.5,10500016565.11435,47.655,-122.3035,60.0,3.6333333333333333
2026-02-06T21:26:46+00:00,SAT-53169,156.10495044049497,66.34729401851143,590.5841948902904,-0.3898035008676417,13652.567467558634,10.5,10500013652.567467,47.655,-122.3035,60.0,3.65
2026-02-06T21:26:47+00:00,SAT-53169,154.35601207747902,66.44458293911038,590.1954363988158,-0.3064808287951656,10734.25503702711,10.5,10500010734.255037,47.655,-122.3035,60.0,3.6666666666666665
2026-02-06T21:26:48+00:00,SAT-53169,152.59270895570174,66.52190683958227,589.8897772028282,-0.2230284719965206,7811.400498819307,10.5,10500007811.4005,47.655,-122.3035,60.0,3.683333333333333
2026-02-06T21:26:49+00:00,SAT-53169,150.81825217139865,66.5789858751823,589.6673466393871,-0.1394816365987625,4885.236920426484,10.5,10500004885.236921,47.655,-122.3035,60.0,3.7
2026-02-06T21:26:50+00:00,SAT-53169,149.03597902306296,66.61561162773988,589.5282389338078,-0.055875729054314406,1957.0043855816455,10.5,10500001957.004385,47.655,-122.3035,60.0,3.716666666666667
2026-02-06T21:26:51+00:00,SAT-53169,147.24931668455267,66.63164998271222,589.472512999872,0.027753719247337338,-972.0526461577698,10.5,10499999027.947353,47.655,-122.3035,60.0,3.7333333333333334
2026-02-06T21:26:52+00:00,SAT-53169,145.4617433149248,66.62704300806593,589.5001923152282,0.11137112721802235,-3900.6879745761803,10.5,10499996099.312025,47.655,-122.3035,60.0,3.75
2026-02-06T21:26:53+00:00,SAT-53169,143.67674771937092,66.60180977401625,589.6112648718236,0.19494093825229522,-6827.656256946596,10.5,10499993172.343742,47.655,-122.3035,60.0,3.7666666666666666
2026-02-06T21:26:54+00:00,SAT-53169,141.89778868747848,66.55604608689318,589.805683200322,0.2784276973598228,-9751.71570953309,10.5,10499990248.28429,47.655,-122.3035,60.0,3.783333333333333
2026-02-06T21:26:55+00:00,SAT-53169,140.12825519487706,66.48992314511719,590.0833644714485,0.3617961246543435,-12671.630681485014,10.5,10499987328.369318,47.655,-122.3035,60.0,3.8
2026-02-06T21:26:56+00:00,SAT-53169,138.37142861964782,66.40368516189953,590.4441906706203,0.4450111896759812,-15586.1742579188,10.5,10499984413.825743,47.655,-122.3035,60.0,3.816666666666667
2026-02-06T21:26:57+00:00,SAT-53169,136.63044797821317,66.29764603086738,590.8880088467084,0.528038183862875,-18494.130798181013,10.5,10499981505.869202,47.655,-122.3035,60.0,3.8333333333333335
2026-02-06T21:26:58+00:00,SAT-53169,134.90827906010153,66.17218513946635,591.4146314330695,0.6108427945658927,-21394.298528156683,10.5,10499978605.701471,47.655,-122.3035,60.0,3.85
2026-02-06T21:26:59+00:00,SAT-53169,133.20768812582057,66.02774245647755,592.0238366423996,0.6933911664790602,-24285.491691822786,10.5,10499975714.508308,47.655,-122.3035,60.0,3.8666666666666667
2026-02-06T21:27:00+00:00,SAT-53169,131.5312206568766,65.86481303875064,592.7153689228492,0.7756499801338501,-27166.543300450296,10.5,10499972833.4567,47.655,-122.3035,60.0,3.8833333333333333
2026-02-06T21:27:01+00:00,SAT-53169,129.88118534107858,65.68394110352621,593.4889394924261,0.8575865035949161,-30036.306943207423,10.5,10499969963.693056,47.655,-122.3035,60.0,3.9
2026-02-06T21:27:02+00:00,SAT-53169,128.2596433743228,65.48571382432128,594.3442269249517,0.9391686701203924,-32893.659507151846,10.5,10499967106.340492,47.655,-122.3035,60.0,3.9166666666666665
2026-02-06T21:27:03+00:00,SAT-53169,126.66840284255352,65.2707549908487,595.2808778134731,1.020365115757961,-35737.502494004,10.5,10499964262.497505,47.655,-122.3035,60.0,3.933333333333333
2026-02-06T21:27:04+00:00,SAT-53169,125.10901791290432,65.03971867829677,596.298507471166,1.101145256129995,-38566.764709487616,10.5,10499961433.23529,47.655,-122.3035,60.0,3.95
2026-02-06T21:27:05+00:00,SAT-53169,123.58279229467166,64.79328303829273,597.3967007088223,1.1814793226783986,-41380.40353277729,10.5,10499958619.596468,47.655,-122.3035,60.0,3.966666666666667
2026-02-06T21:27:06+00:00,SAT-53169,122.09078647171424,64.53214432468698,598.5750126484807,1.261338422176376,-44177.40700085239,10.5,10499955822.592999,47.655,-122.3035,60.0,3.9833333333333334
2026-02-06T21:27:07+00:00,SAT-53169,120.63382805753649,64.25701123360463,599.8329695964119,1.3406945701803479,-46956.79498012472,10.5,10499953043.205019,47.655,-122.3035,60.0,4.0
2026-02-06T21:27:08+00:00,SAT-53169,119.2125246732875,63.96859962879481,601.1700699494655,1.419520736498087,-49717.62075892487,10.5,10499950282.379242,47.655,-122.3035,60.0,4.016666666666667
2026-02-06T21:27:09+00:00,SAT-53169,117.82727871248673,63.667627695953314,602.5857851467629,1.4977908877846497,-52458.97253939198,10.5,10499947541.02746,47.655,-122.3035,60.0,4.033333333333333
2026-02-06T21:27:10+00:00,SAT-53169,116.47830341271937,63.35481155550048,604.0795606638725,1.5754800099205624,-55179.97422125244,10.5,10499944820.025778,47.655,-122.3035,60.0,4.05
2026-02-06T21:27:11+00:00,SAT-53169,115.16563972134492,63.03086135134693,605.6508170293027,1.6525641423731954,-57879.78660530064,10.5,10499942120.213394,47.655,-122.3035,60.0,4.066666666666666
2026-02-06T21:27:12+00:00,SAT-53169,113.88917347229365,62.69647781275999,607.2989508752639,1.729020393148082,-60557.607917057285,10.5,10499939442.392082,47.655,-122.3035,60.0,4.083333333333333
2026-02-06T21:27:13+00:00,SAT-53169,112.6486524918284,62.35234928213248,609.0233360033428,1.8048269808651929,-63212.6752804586,10.5,10499936787.32472,47.655,-122.3035,60.0,4.1
2026-02-06T21:27:14+00:00,SAT-53169,111.44370328427196,61.999149183193644,610.8233244921386,1.8799632205931998,-65844.26422171234,10.5,10499934155.735779,47.655,-122.3035,60.0,4.116666666666666
2026-02-06T21:27:15+00:00,SAT-53169,110.27384707755795,61.63753391451961,612.6982477907721,1.954409560504067,-68451.6899530965,10.5,10499931548.310047,47.655,-122.3035,60.0,4.133333333333334
2026-02-06T21:27:16+00:00,SAT-53169,109.13851499635497,61.268141127198284,614.6474178489531,2.0281475717247885,-71034.30701752436,10.5,10499928965.692982,47.655,-122.3035,60.0,4.15
2026-02-06T21:27:17+00:00,SAT-53169,108.03706225435938,60.89158836221224,616.6701282369224,2.1011599700227452,-73591.51004805739,10.5,10499926408.489952,47.655,-122.3035,60.0,4.166666666666667
2026-02-06T21:27:18+00:00,SAT-53169,106.96878125762493,60.508472006415204,618.7656552870258,2.173430606316862,-76122.73343556578,10.5,10499923877.266565,47.655,-122.3035,60.0,4.183333333333334
2026-02-06T21:27:19+00:00,SAT-53169,105.9329135898704,60.119366538015896,620.9332592258205,2.2449444659344624,-78627.45130270038,10.5,10499921372.548697,47.655,-122.3035,60.0,4.2
2026-02-06T21:27:20+00:00,SAT-53169,104.92866086204694,59.72482402559816,623.172185305444,2.315687648969971,-81105.17681597147,10.5,10499918894.823185,47.655,-122.3035,60.0,4.216666666666667
2026-02-06T21:27:21+00:00,SAT-53169,103.9551944490821,59.325373851253296,625.481664915392,2.3856473947177093,-83555.46304148834,10.5,10499916444.536959,47.655,-122.3035,60.0,4.233333333333333
2026-02-06T21:27:22+00:00,SAT-53169,103.01166413294942,58.92152261941923,627.8609167186638,2.4548120246913068,-85977.90094925844,10.5,10499914022.09905,47.655,-122.3035,60.0,4.25
2026-02-06T21:27:23+00:00,SAT-53169,102.09720573660827,58.513754237157166,630.3091477310809,2.523170986422848,-88372.12094721844,10.5,10499911627.879053,47.655,-122.3035,60.0,4.266666666666667
2026-02-06T21:27:24+00:00,SAT-53169,101.21094777308603,58.102530122657704,632.8255544442868,2.5907147594744844,-90737.78958936347,10.5,10499909262.210411,47.655,-122.3035,60.0,4.283333333333333
2026-02-06T21:27:25+00:00,SAT-53169,100.35201722895025,57.688289541649524,635.4093238550096,2.6574348970845025,-93074.61103436857,10.5,10499906925.388966,47.655,-122.3035,60.0,4.3
2026-02-06T21:27:26+00:00,SAT-53169,99.51954450577036,57.27145002805683,638.059634535861,2.7233239939154466,-95382.32591599147,10.5,10499904617.674084,47.655,-122.3035,60.0,4.316666666666666
2026-02-06T21:27:27+00:00,SAT-53169,98.71266762184247,56.85240788294518,640.7756576739677,2.7883756302238853,-97660.70938766177,10.5,10499902339.290613,47.655,-122.3035,60.0,4.333333333333333
2026-02-06T21:27:28+00:00,SAT-53169,97.93053575096353,56.43153873878708,643.5565580539228,2.8525843781641225,-99909.57134326336,10.5,10499900090.428658,47.655,-122.3035,60.0,4.35
2026-02-06T21:27:29+00:00,SAT-53169,97.17231214990258,56.00919816514275,646.4014950470255,2.915945755430161,-102128.75479348013,10.5,10499897871.245207,47.655,-122.3035,60.0,4.366666666666666
2026-02-06T21:27:30+00:00,SAT-53169,96.43717655684675,55.58572231175309,649.3096235542858,2.9784562302389306,-104318.13604032951,10.5,10499895681.86396,47.655,-122.3035,60.0,4.383333333333334
2026-02-06T21:27:31+00:00,SAT-53169,95.72432710990604,55.16142857094114,652.2800949543987,3.040113111597505,-106477.62083385633,10.5,10499893522.379166,47.655,-122.3035,60.0,4.4
2026-02-06T21:27:32+00:00,SAT-53169,95.03298186995465,54.736616266963665,655.3120579422796,3.100914624463215,-108607.14700455792,10.5,10499891392.852995,47.655,-122.3035,60.0,4.416666666666667
2026-02-06T21:27:33+00:00,SAT-53169,94.3623799581257,54.31156733818599,658.4046594425607,3.1608597944130876,-110706.68042401993,10.5,10499889293.319576,47.655,-122.3035,60.0,4.433333333333334
2026-02-06T21:27:34+00:00,SAT-53169,93.71178239950088,53.88654703316611,661.5570454080635,3.2199484656601007,-112776.2156359219,10.5,10499887223.784365,47.655,-122.3035,60.0,4.45
2026-02-06T21:27:35+00:00,SAT-53169,93.08047268697405,53.46180459649114,664.7683616362401,3.278181215278147,-114815.77285183252,10.5,10499885184.227148,47.655,-122.3035,60.0,4.466666666666667
2026-02-06T21:27:36+00:00,SAT-53169,92.46775712474376,53.0375739543302,668.037754500069,3.335559386312671,-116825.39911088439,10.5,10499883174.60089,47.655,-122.3035,60.0,4.483333333333333
2026-02-06T21:27:37+00:00,SAT-53169,91.8729649639093,52.614074380389546,671.3643717119743,3.3920850149141577,-118805.16572768037,10.5,10499881194.834272,47.655,-122.3035,60.0,4.5
2026-02-06T21:27:38+00:00,SAT-53169,91.29544838104373,52.19151115375925,674.7473630150712,3.4477607747912336,-120755.16634680633,10.5,10499879244.833652,47.655,-122.3035,60.0,4.516666666666667
2026-02-06T21:27:39+00:00,SAT-53169,90.73458232206269,51.77007620371657,678.1858808190161,3.5025899811940917,-122675.51708234755,10.5,10499877324.482918,47.655,-122.3035,60.0,4.533333333333333
2026-02-06T21:27:40+00:00,SAT-53169,90.18976422554846,51.34994873245939,681.6790808398281,3.556576575022844,-124566.35596129595,10.5,10499875433.64404,47.655,-122.3035,60.0,4.55
2026-02-06T21:27:41+00:00,SAT-53169,89.66041365098295,50.931295817483324,685.2261227238606,3.6097250341000997,-126427.83981594042,10.5,10499873572.160185,47.655,-122.3035,60.0,4.566666666666666
2026-02-06T21:27:42+00:00,SAT-53169,89.14597184004552,50.51427300136551,688.8261705832865,3.662040367942397,-128260.14410074042,10.5,10499871739.8559,47.655,-122.3035,60.0,4.583333333333333
2026-02-06T21:27:43+00:00,SAT-53169,88.64590121383175,50.09902485817963,692.4783935263641,3.713528092011125,-130063.46199048414,10.5,10499869936.53801,47.655,-122.3035,60.0,4.6
2026-02-06T21:27:44+00:00,SAT-53169,88.15968482303282,49.685685538958744,696.1819661620274,3.7641942023047092,-131838.0034903995,10.5,10499868161.99651,47.655,-122.3035,60.0,4.616666666666666
2026-02-06T21:27:45+00:00,SAT-53169,87.68682576273788,49.27437929618204,699.9360690791343,3.814045097511035,-133583.99270960267,10.5,10499866416.00729,47.655,-122.3035,60.0,4.633333333333334
2026-02-06T21:27:46+00:00,SAT-53169,87.22684656815632,48.8652209930475,703.7398892480772,3.8630876315012106,-135301.6696996517,10.5,10499864698.330301,47.655,-122.3035,60.0,4.65
2026-02-06T21:27:47+00:00,SAT-53169,86.77928858349946,48.45831658351971,707.5926204747445,3.9113289838743044,-136991.28592047567,10.5,10499863008.714079,47.655,-122.3035,60.0,4.666666666666667
2026-02-06T21:27:48+00:00,SAT-53169,86.34371133320433,48.053763583272094,711.4934637253764,3.958776729430096,-138653.1066736042,10.5,10499861346.893326,47.655,-122.3035,60.0,4.683333333333334
2026-02-06T21:27:49+00:00,SAT-53169,85.9196918780644,47.651651510622465,715.4416275207062,4.005438749390711,-140287.40799277366,10.5,10499859712.592007,47.655,-122.3035,60.0,4.7
2026-02-06T21:27:50+00:00,SAT-53169,85.50682417975385,47.25206231489104,719.4363282415603,4.051323176100077,-141894.4747070682,10.5,10499858105.525293,47.655,-122.3035,60.0,4.716666666666667
2026-02-06T21:27:51+00:00,SAT-53169,85.10471847256836,46.855070788709554,723.4767903793079,4.096438510231225,-143474.60454601518,10.5,10499856525.395454,47.655,-122.3035,60.0,4.733333333333333
2026-02-06T21:27:52+00:00,SAT-53169,84.71300063025247,46.46074494810149,727.5622469032015,4.140793382874637,-145028.0998069127,10.5,10499854971.900192,47.655,-122.3035,60.0,4.75
2026-02-06T21:27:53+00:00,SAT-53169,84.33131156416972,46.069146415965776,731.6919393904464,4.184396734551671,-146555.27362463714,10.5,10499853444.726376,47.655,-122.3035,60.0,4.766666666666667
2026-02-06T21:27:54+00:00,SAT-53169,83.95930661587118,45.6803307687044,735.8651183347991,4.2272576411642815,-148056.44387566598,10.5,10499851943.556124,47.655,-122.3035,60.0,4.783333333333333
2026-02-06T21:27:55+00:00,SAT-53169,83.59665497829181,45.2943478809662,740.081043281589,4.2693853901080505,-149531.9358438781,10.5,10499850468.064156,47.655,-122.3035,60.0,4.8
2026-02-06T21:27:56+00:00,SAT-53169,83.24303912460664,44.91124224521108,744.3389830386415,4.31078942319605,-150982.0802215062,10.5,10499849017.919779,47.655,-122.3035,60.0,4.816666666666666
2026-02-06T21:27:57+00:00,SAT-53169,82.89815425753997,44.53105327949417,748.6382158302828,4.3514792782710074,-152407.2110641475,10.5,10499847592.788937,47.655,-122.3035,60.0,4.833333333333333
2026-02-06T21:27:58+00:00,SAT-53169,82.56170777921928,44.15381562385413,752.978029393113,4.391464660220241,-153807.66827800762,10.5,10499846192.331722,47.655,-122.3035,60.0,4.85
2026-02-06T21:27:59+00:00,SAT-53169,82.23341877242603,43.77955941461984,757.3577211426013,4.430755325228613,-155183.79356594902,10.5,10499844816.206434,47.655,-122.3035,60.0,4.866666666666666
2026-02-06T21:28:00+00:00,SAT-53169,81.91301750763964,43.40831055373295,761.7765982242472,4.46936114714492,-156535.93275192287,10.5,10499843464.067247,47.655,-122.3035,60.0,4.883333333333334
2026-02-06T21:28:01+00:00,SAT-53169,81.6002449624793,43.04009095783969,766.2339776309282,4.507292015341781,-157864.43220359032,10.5,10499842135.567797,47.655,-122.3035,60.0,4.9
2026-02-06T21:28:02+00:00,SAT-53169,81.29485236536507,42.67491880214256,770.7291862183832,4.544557917833842,-159169.64174347356,10.5,10499840830.358257,47.655,-122.3035,60.0,4.916666666666667
2026-02-06T21:28:03+00:00,SAT-53169,80.99660075086291,42.31280874413118,775.2615608035884,4.581168843172177,-160451.9112128827,10.5,10499839548.088787,47.655,-122.3035,60.0,4.933333333333334
2026-02-06T21:28:04+00:00,SAT-53169,80.70526053832641,41.953772142796275,779.8304481652934,4.6171348194660355,-161711.5918386225,10.5,10499838288.408161,47.655,-122.3035,60.0,4.95
2026-02-06T21:28:05+00:00,SAT-53169,80.420611124771,41.597817262623245,784.4352050834729,4.6524658317635845,-162949.0333393165,10.5,10499837050.966661,47.655,-122.3035,60.0,4.966666666666667
2026-02-06T21:28:06+00:00,SAT-53169,80.14244049881779,41.24494947253447,789.0751982963818,4.687171931803624,-164164.5877693763,10.5,10499835835.412231,47.655,-122.3035,60.0,4.983333333333333
2026-02-06T21:28:07+00:00,SAT-53169,79.8705448642618,40.89517142546789,793.7498045670661,4.721263108930048,-165358.6049978799,10.5,10499834641.395002,47.655,-122.3035,60.0,5.0
2026-02-06T21:28:08+00:00,SAT-53169,79.60472828654756,40.548483237518404,798.4584106211355,4.754749321064035,-166531.43379334902,10.5,10499833468.566206,47.655,-122.3035,60.0,5.016666666666667
2026-02-06T21:28:09+00:00,SAT-53169,79.34480235240135,40.204882654674606,803.200413115425,4.787640515157978,-167683.42254013199,10.5,10499832316.57746,47.655,-122.3035,60.0,5.033333333333333
2026-02-06T21:28:10+00:00,SAT-53169,79.09058584280379,39.86436520870497,807.975218627056,4.819946563198048,-168814.91699694295,10.5,10499831185.083004,47.655,-122.3035,60.0,5.05
2026-02-06T21:28:11+00:00,SAT-53169,78.84190442350979,39.52692436874036,812.7822435786709,4.851677297237171,-169926.26152386493,10.5,10499830073.738476,47.655,-122.3035,60.0,5.066666666666666
2026-02-06T21:28:12+00:00,SAT-53169,78.59859034713386,39.192551681794136,817.6209141986056,4.882842477443507,-171017.79796327237,10.5,10499828982.202036,47.655,-122.3035,60.0,5.083333333333333
2026-02-06T21:28:13+00:00,SAT-53169,78.36048216990763,38.861236907468324,822.4906664491994,4.913451809755379,-172089.86625818143,10.5,10499827910.133741,47.655,-122.3035,60.0,5.1
2026-02-06T21:28:14+00:00,SAT-53169,78.12742448010528,38.53296814377566,827.3909459727092,4.9435148964673035,-173142.80272156376,10.5,10499826857.197279,47.655,-122.3035,60.0,5.116666666666666
2026-02-06T21:28:15+00:00,SAT-53169,77.89926764072709,38.20773194901619,832.3212079879439,4.973041269651172,-174176.94120689755,10.5,10499825823.058794,47.655,-122.3035,60.0,5.133333333333334
2026-02-06T21:28:16+00:00,SAT-53169,77.67586754222982,37.885513454433514,837.2809172202308,5.002040383384036,-175192.6128359519,10.5,10499824807.387163,47.655,-122.3035,60.0,5.15
2026-02-06T21:28:17+00:00,SAT-53169,77.45708536658086,37.566296470895836,842.2695478236288,5.030521567966278,-176190.14439531334,10.5,10499823809.855604,47.655,-122.3035,60.0,5.166666666666667
2026-02-06T21:28:18+00:00,SAT-53169,77.24278736392802,37.250063592278494,847.2865832574832,5.058494088325335,-177169.86038193133,10.5,10499822830.139618,47.655,-122.3035,60.0,5.183333333333334
2026-02-06T21:28:19+00:00,SAT-53169,77.03284463685672,36.936796289189765,852.33151622123,5.085967076082981,-178132.08062382712,10.5,10499821867.919376,47.655,-122.3035,60.0,5.2
2026-02-06T21:28:20+00:00,SAT-53169,76.8271329371628,36.62647500141008,857.4038485214453,5.112949567545772,-179077.12161067978,10.5,10499820922.87839,47.655,-122.3035,60.0,5.216666666666667
2026-02-06T21:28:21+00:00,SAT-53169,76.62553247021945,36.319079222598006,862.5030909767875,5.139450507804596,-180005.29663740992,10.5,10499819994.703363,47.655,-122.3035,60.0,5.233333333333333
2026-02-06T21:28:22+00:00,SAT-53169,76.42792770823331,36.014587579800185,867.6287633270249,5.165478673079585,-180916.91308437,10.5,10499819083.086916,47.655,-122.3035,60.0,5.25
2026-02-06T21:28:23+00:00,SAT-53169,76.23420721457072,35.71297791280233,872.7803940646181,5.1910428102128465,-181812.27730296965,10.5,10499818187.722696,47.655,-122.3035,60.0,5.266666666666667
2026-02-06T21:28:24+00:00,SAT-53169,76.04426347129744,35.41422734072355,877.9575204054204,5.216151447125742,-182691.6879770881,10.5,10499817308.312023,47.655,-122.3035,60.0,5.283333333333333
2026-02-06T21:28:25+00:00,SAT-53169,75.8579927209243,35.118312335456224,883.1596880703454,5.240813074062504,-183555.442470992,10.5,10499816444.55753,47.655,-122.3035,60.0,5.3
2026-02-06T21:28:26+00:00,SAT-53169,75.67529480930921,34.82520878050967,888.3864512477886,5.265036026115748,-184403.83271488224,10.5,10499815596.167286,47.655,-122.3035,60.0,5.316666666666666
2026-02-06T21:28:27+00:00,SAT-53169,75.49607303946513,34.534892032867546,893.6373724388934,5.288828489373774,-185237.14542019807,10.5,10499814762.85458,47.655,-122.3035,60.0,5.333333333333333
2026-02-06T21:28:28+00:00,SAT-53169,75.32023403186102,34.247336980739014,898.9120223089451,5.312198578560144,-186055.664798884,10.5,10499813944.335201,47.655,-122.3035,60.0,5.35
2026-02-06T21:28:29+00:00,SAT-53169,75.14768758844747,33.96251809364613,904.2099796161998,5.335154252120982,-186859.66958938746,10.5,10499813140.33041,47.655,-122.3035,60.0,5.366666666666666
2026-02-06T21:28:30+00:00,SAT-53169,74.97834656558274,33.680409473979836,909.5308310560221,5.357703333378838,-187649.43379755673,10.5,10499812350.566202,47.655,-122.3035,60.0,5.383333333333334
2026-02-06T21:28:31+00:00,SAT-53169,74.81212675193896,33.4009849042701,914.8741711261273,5.37985355566871,-188425.22827749542,10.5,10499811574.771723,47.655,-122.3035,60.0,5.4
2026-02-06T21:28:32+00:00,SAT-53169,74.64894675056965,33.12421788922484,920.2396020368329,5.401612470829644,-189187.31752655117,10.5,10499810812.682474,47.655,-122.3035,60.0,5.416666666666667
2026-02-06T21:28:33+00:00,SAT-53169,74.48872786892065,32.85008169981424,925.6267335300506,5.422987559439003,-189935.96354618607,10.5,10499810064.036453,47.655,-122.3035,60.0,5.433333333333334
2026-02-06T21:28:34+00:00,SAT-53169,74.33139401061202,32.578549409072785,931.0351828082152,5.443986163155065,-190671.42347232826,10.5,10499809328.576529,47.655,-122.3035,60.0,5.45
2026-02-06T21:28:35+00:00,SAT-53169,74.17687157401704,32.30959392901933,936.4645743957367,5.464615467401102,-191393.9489688949,10.5,10499808606.051031,47.655,-122.3035,60.0,5.466666666666667
2026-02-06T21:28:36+00:00,SAT-53169,74.02508935564211,32.04318804607064,941.9145399831867,5.484882543407206,-192103.7877002752,10.5,10499807896.2123,47.655,-122.3035,60.0,5.483333333333333
2026-02-06T21:28:37+00:00,SAT-53169,73.87597845682615,31.779304452167842,947.3847183134087,5.504794364020006,-192801.1838850531,10.5,10499807198.816114,47.655,-122.3035,60.0,5.5
2026-02-06T21:28:38+00:00,SAT-53169,73.72947219404395,31.517915773169356,952.8747550834007,5.524357775348569,-193486.37730292726,10.5,10499806513.622698,47.655,-122.3035,60.0,5.516666666666667
2026-02-06T21:28:39+00:00,SAT-53169,73.58550601404099,31.258994596732638,958.3843028179148,5.543579435771679,-194159.60115848755,10.5,10499805840.398842,47.655,-122.3035,60.0,5.533333333333333
2026-02-06T21:28:40+00:00,SAT-53169,73.44401741397546,31.002513501185476,963.9130206822331,5.562465979298857,-194821.08780280923,10.5,10499805178.912197,47.655,-122.3035,60.0,5.55
2026-02-06T21:28:41+00:00,SAT-53169,73.30494586132549,30.74844507504239,969.4605744578616,5.581023859177918,-195471.06325592802,10.5,10499804528.936745,47.655,-122.3035,60.0,5.566666666666666
2026-02-06T21:28:42+00:00,SAT-53169,73.16823272084486,30.49676194227324,975.0266363622544,5.599259380442263,-196109.74834678383,10.5,10499803890.251654,47.655,-122.3035,60.0,5.583333333333333
2026-02-06T21:28:43+00:00,SAT-53169,73.03382118398687,30.247436784404236,980.6108849009956,5.617178810824502,-196737.3625978852,10.5,10499803262.637402,47.655,-122.3035,60.0,5.6
2026-02-06T21:28:44+00:00,SAT-53169,72.90165619886271,30.00044235626362,986.213004830599,5.634788247121717,-197354.11954485538,10.5,10499802645.880455,47.655,-122.3035,60.0,5.616666666666666
