DopplerPredictor/satellites_20260211_204923/SAT-60053.csv

timestamp,satellite,azimuth_deg,elevation_deg,distance_km,relative_velocity_kms,doppler_shift_hz,tx_freq_ghz,rx_freq_hz,ue_lat,ue_lon,ue_alt_m,time_minutes
2026-02-06T21:24:37+00:00,SAT-60053,316.09683176383,30.234401540876732,875.3522062920532,-5.288021202156732,185208.87080703574,10.5,10500185208.870808,47.655,-122.3035,60.0,1.5
2026-02-06T21:24:38+00:00,SAT-60053,316.3440101394234,30.49184352015437,870.0783615449925,-5.262996420925609,184332.39711360217,10.5,10500184332.397114,47.655,-122.3035,60.0,1.5166666666666666
2026-02-06T21:24:39+00:00,SAT-60053,316.5954709320735,30.75153958016038,864.8294744911781,-5.23750689602659,183439.64613105508,10.5,10500183439.646132,47.655,-122.3035,60.0,1.5333333333333334
2026-02-06T21:24:40+00:00,SAT-60053,316.85131899181107,31.013500802929702,859.6060086283635,-5.2115436300771645,182530.30273300014,10.5,10500182530.302732,47.655,-122.3035,60.0,1.55
2026-02-06T21:24:41+00:00,SAT-60053,317.111662250131,31.27773730021826,854.4084364275657,-5.185097437907236,181604.04521592727,10.5,10500181604.045216,47.655,-122.3035,60.0,1.5666666666666667
2026-02-06T21:24:42+00:00,SAT-60053,317.3766118123952,31.544258135881535,849.237239520346,-5.158158973619412,180660.54624697674,10.5,10500180660.546247,47.655,-122.3035,60.0,1.5833333333333333
2026-02-06T21:24:43+00:00,SAT-60053,317.64628205342615,31.813071245323666,844.0929088591089,-5.130718810045225,179699.47564683185,10.5,10500179699.475647,47.655,-122.3035,60.0,1.6
2026-02-06T21:24:44+00:00,SAT-60053,317.9207907194959,32.08418335472012,838.9759447981543,-5.10276734667083,178720.49716488773,10.5,10500178720.497166,47.655,-122.3035,60.0,1.6166666666666667
2026-02-06T21:24:45+00:00,SAT-60053,318.2002590273716,32.35759989097079,833.886857266558,-5.074294911179822,177723.27203570993,10.5,10500177723.272036,47.655,-122.3035,60.0,1.6333333333333333
2026-02-06T21:24:46+00:00,SAT-60053,318.48481177092583,32.63332489228024,828.8261658397823,-5.045291651988265,176707.4552151568,10.5,10500176707.455215,47.655,-122.3035,60.0,1.65
2026-02-06T21:24:47+00:00,SAT-60053,318.77457742343,32.911360908078905,823.7943999184628,-5.01574763115551,175672.69863450955,10.5,10500175672.698635,47.655,-122.3035,60.0,1.6666666666666667
2026-02-06T21:24:48+00:00,SAT-60053,319.06968824674686,33.191708898764084,818.7920988145333,-4.985652800437407,174618.65036175385,10.5,10500174618.650362,47.655,-122.3035,60.0,1.6833333333333333
2026-02-06T21:24:49+00:00,SAT-60053,319.370280400622,33.474368128857975,813.8198118612337,-4.954996995708075,173544.9544062072,10.5,10500173544.954407,47.655,-122.3035,60.0,1.7
2026-02-06T21:24:50+00:00,SAT-60053,319.67649405292696,33.75933605427097,808.8780985286814,-4.923769928318889,172451.25041587383,10.5,10500172451.250416,47.655,-122.3035,60.0,1.7166666666666666
2026-02-06T21:24:51+00:00,SAT-60053,319.9884734901233,34.0466082032192,803.96752854806,-4.891961275718018,171337.17685132424,10.5,10500171337.176851,47.655,-122.3035,60.0,1.7333333333333334
2026-02-06T21:24:52+00:00,SAT-60053,320.30636723430723,34.336178056403774,799.0886819454317,-4.859560541907493,170202.36609831153,10.5,10500170202.366098,47.655,-122.3035,60.0,1.75
2026-02-06T21:24:53+00:00,SAT-60053,320.6303281515058,34.62803691281389,794.2421492147175,-4.826557214292165,169046.4499612853,10.5,10500169046.44996,47.655,-122.3035,60.0,1.7666666666666666
2026-02-06T21:24:54+00:00,SAT-60053,320.9605135701308,34.92217375824367,789.428531334252,-4.792940664129219,167869.05617671274,10.5,10500167869.056177,47.655,-122.3035,60.0,1.7833333333333334
2026-02-06T21:24:55+00:00,SAT-60053,321.29708539232627,35.21857512125279,784.6484398826175,-4.758700229400159,166669.81131560577,10.5,10500166669.811316,47.655,-122.3035,60.0,1.8
2026-02-06T21:24:56+00:00,SAT-60053,321.6402102100064,35.51722492721251,779.9024970718318,-4.723825162312202,165448.338944798,10.5,10500165448.338945,47.655,-122.3035,60.0,1.8166666666666667
2026-02-06T21:24:57+00:00,SAT-60053,321.99005941553753,35.81810434202111,775.1913358328919,-4.688304677006523,164204.26129788926,10.5,10500164204.261297,47.655,-122.3035,60.0,1.8333333333333333
2026-02-06T21:24:58+00:00,SAT-60053,322.34680931357445,36.12119161140567,770.5155998537381,-4.652127971977737,162937.2000604706,10.5,10500162937.20006,47.655,-122.3035,60.0,1.85
2026-02-06T21:24:59+00:00,SAT-60053,322.71064123176467,36.426461894191064,765.8759435948596,-4.615284200945025,161646.77534990813,10.5,10500161646.77535,47.655,-122.3035,60.0,1.8666666666666667
2026-02-06T21:25:00+00:00,SAT-60053,323.08174162534453,36.7338870859796,761.2730323339481,-4.577762510640946,160332.60703886664,10.5,10500160332.607038,47.655,-122.3035,60.0,1.8833333333333333
2026-02-06T21:25:01+00:00,SAT-60053,323.46030217995917,37.043435637353475,756.7075421728671,-4.539552027280462,158994.3142813981,10.5,10500158994.314281,47.655,-122.3035,60.0,1.9
2026-02-06T21:25:02+00:00,SAT-60053,323.84651990747625,37.355072363062106,752.1801600581134,-4.5006419437964835,157631.51856829925,10.5,10500157631.518568,47.655,-122.3035,60.0,1.9166666666666667
2026-02-06T21:25:03+00:00,SAT-60053,324.2405972423772,37.6687582489525,747.6915837142797,-4.461021464992283,156243.84180611698,10.5,10500156243.841806,47.655,-122.3035,60.0,1.9333333333333333
2026-02-06T21:25:04+00:00,SAT-60053,324.6427421254601,37.984450246950296,743.242521632214,-4.420679811147824,154830.90644345747,10.5,10500154830.906443,47.655,-122.3035,60.0,1.95
2026-02-06T21:25:05+00:00,SAT-60053,325.0531680779542,38.30210106171184,738.8336930535861,-4.379606297980136,153392.33827153657,10.5,10500153392.338272,47.655,-122.3035,60.0,1.9666666666666666
2026-02-06T21:25:06+00:00,SAT-60053,325.4720942715833,38.62165893442277,734.465827875705,-4.337790337128914,151927.76644118776,10.5,10500151927.766441,47.655,-122.3035,60.0,1.9833333333333334
2026-02-06T21:25:07+00:00,SAT-60053,325.89974558626824,38.94306741828805,730.139666555855,-4.295221424806072,150436.82306532128,10.5,10500150436.823065,47.655,-122.3035,60.0,2.0
2026-02-06T21:25:08+00:00,SAT-60053,326.3363526517809,39.26626514471271,725.8559600269482,-4.251889182198832,148919.14463401126,10.5,10500148919.144634,47.655,-122.3035,60.0,2.0166666666666666
2026-02-06T21:25:09+00:00,SAT-60053,326.7821518764184,39.591185584007036,721.6154695728861,-4.207783369317952,147374.3724995193,10.5,10500147374.3725,47.655,-122.3035,60.0,2.033333333333333
2026-02-06T21:25:10+00:00,SAT-60053,327.23738545777184,39.91775679884081,717.4189666901073,-4.162893943715392,145802.1549328356,10.5,10500145802.154932,47.655,-122.3035,60.0,2.05
2026-02-06T21:25:11+00:00,SAT-60053,327.70230137822136,40.24590119415534,713.2672328905754,-4.117211041087617,144202.1464443244,10.5,10500144202.146444,47.655,-122.3035,60.0,2.066666666666667
2026-02-06T21:25:12+00:00,SAT-60053,328.1771533739667,40.575535257814074,709.161059524114,-4.07072498371318,142574.00807924388,10.5,10500142574.00808,47.655,-122.3035,60.0,2.0833333333333335
2026-02-06T21:25:13+00:00,SAT-60053,328.66220087697604,40.90656929428311,705.1012475923222,-4.02342638699807,140917.411149415,10.5,10500140917.41115,47.655,-122.3035,60.0,2.1
2026-02-06T21:25:14+00:00,SAT-60053,329.15770893878545,41.238907159785285,701.0886074562346,-3.975306116098402,139232.03571396455,10.5,10500139232.035713,47.655,-122.3035,60.0,2.1166666666666667
2026-02-06T21:25:15+00:00,SAT-60053,329.6639481150069,41.57244598753836,697.1239585872413,-3.926355336177499,137517.57233954078,10.5,10500137517.57234,47.655,-122.3035,60.0,2.1333333333333333
2026-02-06T21:25:16+00:00,SAT-60053,330.18119431771385,41.907075911152035,693.2081292678829,-3.876565534734278,135773.7228823479,10.5,10500135773.722883,47.655,-122.3035,60.0,2.15
2026-02-06T21:25:17+00:00,SAT-60053,330.70972862818604,42.24267978471115,689.3419562703812,-3.8259285663184577,134000.20205426184,10.5,10500134000.202055,47.655,-122.3035,60.0,2.1666666666666665
2026-02-06T21:25:18+00:00,SAT-60053,331.24983706888315,42.579132902403956,685.5262844905709,-3.774436682627585,132196.73847695542,10.5,10500132196.738478,47.655,-122.3035,60.0,2.183333333333333
2026-02-06T21:25:19+00:00,SAT-60053,331.80181032805206,42.91630271756942,681.7619665518173,-3.7220825562163786,130363.07551229984,10.5,10500130363.075512,47.655,-122.3035,60.0,2.2
2026-02-06T21:25:20+00:00,SAT-60053,332.36594343118605,43.25404856179871,678.0498623852866,-3.668859295266232,128498.97177965508,10.5,10500128498.971779,47.655,-122.3035,60.0,2.216666666666667
2026-02-06T21:25:21+00:00,SAT-60053,332.94253535206286,43.59222136457269,674.3908387954884,-3.6147605377014105,126604.20445221745,10.5,10500126604.204453,47.655,-122.3035,60.0,2.2333333333333334
2026-02-06T21:25:22+00:00,SAT-60053,333.53188857064157,43.93066338233127,670.7857689319516,-3.5597804233593267,124678.56828230458,10.5,10500124678.568283,47.655,-122.3035,60.0,2.25
2026-02-06T21:25:23+00:00,SAT-60053,334.13430855282127,44.26920792767991,667.2355317886575,-3.5039136651940264,122721.87809520302,10.5,10500122721.878096,47.655,-122.3035,60.0,2.2666666666666666
2026-02-06T21:25:24+00:00,SAT-60053,334.75010316155436,44.60767910974001,663.7410116324596,-3.447155563789299,120733.96929747859,10.5,10500120733.969297,47.655,-122.3035,60.0,2.283333333333333
2026-02-06T21:25:25+00:00,SAT-60053,335.37958198342596,44.94589158265645,660.3030974170297,-3.3895020751834006,118714.70025248504,10.5,10500118714.700253,47.655,-122.3035,60.0,2.3
2026-02-06T21:25:26+00:00,SAT-60053,336.02305557399467,45.28365030985814,656.9226821291585,-3.330949826705816,116663.95283503454,10.5,10500116663.952835,47.655,-122.3035,60.0,2.316666666666667
2026-02-06T21:25:27+00:00,SAT-60053,336.68083460578333,45.62075034185822,653.6006621192668,-3.271496128366718,114581.63283030469,10.5,10500114581.63283,47.655,-122.3035,60.0,2.3333333333333335
2026-02-06T21:25:28+00:00,SAT-60053,337.35322891024674,45.95697660992002,650.3379364205539,-3.2111390919414986,112467.67410468256,10.5,10500112467.674105,47.655,-122.3035,60.0,2.35
2026-02-06T21:25:29+00:00,SAT-60053,338.04054642938905,46.2921037499122,647.1354059493808,-3.149877584757075,110322.03698716559,10.5,10500110322.036987,47.655,-122.3035,60.0,2.3666666666666667
2026-02-06T21:25:30+00:00,SAT-60053,338.74309203673147,46.62589594320643,643.9939727517451,-3.087711310941112,108144.71111505305,10.5,10500108144.711115,47.655,-122.3035,60.0,2.3833333333333333
2026-02-06T21:25:31+00:00,SAT-60053,339.461166247253,46.95810679136642,640.9145391687244,-3.0246408422303035,105935.71651298241,10.5,10500105935.716513,47.655,-122.3035,60.0,2.4
2026-02-06T21:25:32+00:00,SAT-60053,340.195063799877,47.28847922375645,637.8980069711918,-2.9606676438787813,103695.10450035139,10.5,10500103695.1045,47.655,-122.3035,60.0,2.4166666666666665
2026-02-06T21:25:33+00:00,SAT-60053,340.9450721058598,47.61674544190528,634.945276468694,-2.8957941358519674,101422.95983458549,10.5,10500101422.959835,47.655,-122.3035,60.0,2.433333333333333
2026-02-06T21:25:34+00:00,SAT-60053,341.7114695668721,47.94262690925958,632.0572455573007,-2.830023704353889,99119.4011148734,10.5,10500099119.401115,47.655,-122.3035,60.0,2.45
2026-02-06T21:25:35+00:00,SAT-60053,342.49452374721847,48.265834385914424,629.2348087559548,-2.763360750672814,96784.58249294767,10.5,10500096784.582493,47.655,-122.3035,60.0,2.466666666666667
2026-02-06T21:25:36+00:00,SAT-60053,343.29448940648996,48.586068017659834,626.4788561941106,-2.6958107095953254,94418.69431802357,10.5,10500094418.694319,47.655,-122.3035,60.0,2.4833333333333334
2026-02-06T21:25:37+00:00,SAT-60053,344.1116063840572,48.90301748139558,623.7902725810059,-2.6273801147546156,92021.96542557274,10.5,10500092021.965425,47.655,-122.3035,60.0,2.5
2026-02-06T21:25:38+00:00,SAT-60053,344.9460973497791,49.216362198004674,621.1699361097608,-2.5580765862348804,89594.66270317661,10.5,10500089594.662703,47.655,-122.3035,60.0,2.5166666666666666
2026-02-06T21:25:39+00:00,SAT-60053,345.7981654010334,49.52577160938188,618.6187173738386,-2.487908882094637,87137.09289509107,10.5,10500087137.092896,47.655,-122.3035,60.0,2.533333333333333
2026-02-06T21:25:40+00:00,SAT-60053,346.6679915300302,49.83090553281752,616.1374782321257,-2.4168869323786986,84649.60379348948,10.5,10500084649.603794,47.655,-122.3035,60.0,2.55
2026-02-06T21:25:41+00:00,SAT-60053,347.5557319660298,50.13141459659936,613.7270706400822,-2.345021845431535,82132.58445958342,10.5,10500082132.58446,47.655,-122.3035,60.0,2.566666666666667
2026-02-06T21:25:42+00:00,SAT-60053,348.46151539382623,50.42694075906198,611.3883354746055,-2.272325928091636,79586.4659309147,10.5,10500079586.46593,47.655,-122.3035,60.0,2.5833333333333335
2026-02-06T21:25:43+00:00,SAT-60053,349.38544006757473,50.71711791809305,609.1221013387458,-2.1988127341627215,77011.72291902211,10.5,10500077011.72292,47.655,-122.3035,60.0,2.6
2026-02-06T21:25:44+00:00,SAT-60053,350.3275708519214,51.001572619834526,606.9291833180871,-2.124497020566572,74408.87227372812,10.5,10500074408.872274,47.655,-122.3035,60.0,2.6166666666666667
2026-02-06T21:25:45+00:00,SAT-60053,351.2879361741893,51.27992485931197,604.8103817808521,-2.049394834702825,71778.4760428485,10.5,10500071778.476044,47.655,-122.3035,60.0,2.6333333333333333
2026-02-06T21:25:46+00:00,SAT-60053,352.26652497254224,51.55178899376838,602.7664810908846,-1.9735234462181952,69121.13908246168,10.5,10500069121.139082,47.655,-122.3035,60.0,2.65
2026-02-06T21:25:47+00:00,SAT-60053,353.2632836028426,51.816774751635165,600.7982483886796,-1.8969014140943938,66437.51140661162,10.5,10500066437.511406,47.655,-122.3035,60.0,2.6666666666666665
2026-02-06T21:25:48+00:00,SAT-60053,354.2781128040143,52.074488356912426,598.9064323055039,-1.8195485402541527,63728.286562394445,10.5,10500063728.286562,47.655,-122.3035,60.0,2.683333333333333
2026-02-06T21:25:49+00:00,SAT-60053,355.31086470830894,52.32453375490356,597.0917617237883,-1.7414858923015126,60994.20242641956,10.5,10500060994.202427,47.655,-122.3035,60.0,2.7
2026-02-06T21:25:50+00:00,SAT-60053,356.36133997794764,52.566513948058564,595.3549445148391,-1.6627357830100766,58236.04048640144,10.5,10500058236.040487,47.655,-122.3035,60.0,2.716666666666667
2026-02-06T21:25:51+00:00,SAT-60053,357.42928509504065,52.80003243419327,593.6966662970057,-1.58332176692721,55454.62572222448,10.5,10500055454.625723,47.655,-122.3035,60.0,2.7333333333333334
2026-02-06T21:25:52+00:00,SAT-60053,358.5143898699909,53.024694745744256,592.1175891972373,-1.5032686010770921,52650.82522959757,10.5,10500052650.82523,47.655,-122.3035,60.0,2.75
2026-02-06T21:25:53+00:00,SAT-60053,359.616285200351,53.240110079520846,590.6183506518287,-1.4226022550328699,49825.54857282345,10.5,10500049825.548573,47.655,-122.3035,60.0,2.7666666666666666
2026-02-06T21:25:54+00:00,SAT-60053,0.7345411746982242,53.44589301645006,589.1995621971221,-1.3413498511862214,46979.74569278633,10.5,10500046979.745693,47.655,-122.3035,60.0,2.783333333333333
2026-02-06T21:25:55+00:00,SAT-60053,1.8686655313310478,53.641665311882505,587.8618083197807,-1.259539652834815,44114.40648972416,10.5,10500044114.40649,47.655,-122.3035,60.0,2.8
2026-02-06T21:25:56+00:00,SAT-60053,3.0181025664589716,53.82705775155421,586.6056453189387,-1.177201019561881,41230.559260432594,10.5,10500041230.559261,47.655,-122.3035,60.0,2.816666666666667
2026-02-06T21:25:57+00:00,SAT-60053,4.182232524985811,54.00171205476535,585.4316002128566,-1.0943643665884148,38329.269274607155,10.5,10500038329.269274,47.655,-122.3035,60.0,2.8333333333333335
2026-02-06T21:25:58+00:00,SAT-60053,5.36037153088612,54.16528280949239,584.3401696861125,-1.0110611175081043,35411.63711942045,10.5,10500035411.63712,47.655,-122.3035,60.0,2.85
2026-02-06T21:25:59+00:00,SAT-60053,6.551772100403551,54.317439420665416,583.3318190839342,-0.9273236572277022,32478.797051294976,10.5,10500032478.79705,47.655,-122.3035,60.0,2.8666666666666667
2026-02-06T21:26:00+00:00,SAT-60053,7.755624280892672,54.45786805216742,582.4069814534607,-0.8431852687843823,29531.914782979675,10.5,10500029531.914783,47.655,-122.3035,60.0,2.8833333333333333
2026-02-06T21:26:01+00:00,SAT-60053,8.971057431222171,54.58627353915237,581.5660566480225,-0.7586800783451811,26572.185557197714,10.5,10500026572.185556,47.655,-122.3035,60.0,2.9
2026-02-06T21:26:02+00:00,SAT-60053,10.197142673439762,54.70238124978411,580.8094104862695,-0.6738429957577349,23600.832064481812,10.5,10500023600.832064,47.655,-122.3035,60.0,2.9166666666666665
2026-02-06T21:26:03+00:00,SAT-60053,11.43289602915449,54.80593887292476,580.1373739705928,-0.588709638169296,20619.101767989134,10.5,10500020619.101768,47.655,-122.3035,60.0,2.933333333333333
2026-02-06T21:26:04+00:00,SAT-60053,12.6772822079719,54.89671810606183,579.5502425817217,-0.503316262850879,17628.26455071872,10.5,10500017628.264551,47.655,-122.3035,60.0,2.95
2026-02-06T21:26:05+00:00,SAT-60053,13.929219048340645,54.97451622200118,579.0482756403138,-0.4176996946802718,14629.610175659769,10.5,10500014629.610176,47.655,-122.3035,60.0,2.966666666666667
2026-02-06T21:26:06+00:00,SAT-60053,15.187582573696131,55.039157491412695,578.6316957408724,-0.3318972463007091,11624.445489410697,10.5,10500011624.44549,47.655,-122.3035,60.0,2.9833333333333334
2026-02-06T21:26:07+00:00,SAT-60053,16.451212603308655,55.09049443932773,578.3006882652871,-0.2459466420045444,8614.091756263315,10.5,10500008614.091757,47.655,-122.3035,60.0,3.0
2026-02-06T21:26:08+00:00,SAT-60053,17.71891887948864,55.12840891722941,578.0554009722892,-0.1598859296700717,5599.881573857849,10.5,10500005599.881575,47.655,-122.3035,60.0,3.0166666666666666
2026-02-06T21:26:09+00:00,SAT-60053,18.989487586623046,55.15281297236934,577.8959436747324,-0.07375340415349423,2583.156190045613,10.5,10500002583.15619,47.655,-122.3035,60.0,3.033333333333333
2026-02-06T21:26:10+00:00,SAT-60053,20.26168823289511,55.16364950239613,577.8223879932773,0.012412480563469651,-434.73757407343226,10.5,10499999565.262426,47.655,-122.3035,60.0,3.05
2026-02-06T21:26:11+00:00,SAT-60053,21.534280772554048,55.160892683082835,577.8347671976933,0.09857319706858707,-3452.4503255521,10.5,10499996547.549675,47.655,-122.3035,60.0,3.066666666666667
2026-02-06T21:26:12+00:00,SAT-60053,22.806022854373268,55.14454816260027,577.9330761336237,0.1846902292098695,-6468.63306582459,10.5,10499993531.366934,47.655,-122.3035,60.0,3.0833333333333335
2026-02-06T21:26:13+00:00,SAT-60053,24.075677109378255,55.11465301933668,578.1172712338163,0.2707251587143899,-9481.940224463866,10.5,10499990518.059776,47.655,-122.3035,60.0,3.1
2026-02-06T21:26:14+00:00,SAT-60053,25.34201837000809,55.071275483658255,578.3872706157404,0.35663974927718245,-12491.032604330612,10.5,10499987508.967396,47.655,-122.3035,60.0,3.1166666666666667
2026-02-06T21:26:15+00:00,SAT-60053,26.603840705195292,55.01451442852089,578.7429542630657,0.44239603548242196,-15494.580495969083,10.5,10499984505.419504,47.655,-122.3035,60.0,3.1333333333333333
2026-02-06T21:26:16+00:00,SAT-60053,27.85996419105261,54.9444986363955,579.1841642958277,0.5279563951485088,-18491.26621143799,10.5,10499981508.73379,47.655,-122.3035,60.0,3.15
2026-02-06T21:26:17+00:00,SAT-60053,29.109241283658182,54.861385856766226,579.7107053127389,0.6132836446313445,-21479.787422234345,10.5,10499978520.212578,47.655,-122.3035,60.0,3.1666666666666665
2026-02-06T21:26:18+00:00,SAT-60053,30.350562776096478,54.76536166533467,580.322344828552,0.6983411059055309,-24458.859508760805,10.5,10499975541.140491,47.655,-122.3035,60.0,3.183333333333333
2026-02-06T21:26:19+00:00,SAT-60053,31.582863202456075,54.65663814684121,581.0188137783235,0.783092692959188,-27427.218586237665,10.5,10499972572.781414,47.655,-122.3035,60.0,3.2
2026-02-06T21:26:20+00:00,SAT-60053,32.8051256794541,54.53545241808278,581.7998071078396,0.8675029689505113,-30383.623506567223,10.5,10499969616.376493,47.655,-122.3035,60.0,3.216666666666667
2026-02-06T21:26:21+00:00,SAT-60053,34.016386097706395,54.40206501701198,582.664984421046,0.9515372420785999,-33326.85921613578,10.5,10499966673.140783,47.655,-122.3035,60.0,3.2333333333333334
2026-02-06T21:26:22+00:00,SAT-60053,35.21573669364294,54.25675817434253,583.6139707230909,1.0351616050013666,-36255.73813639551,10.5,10499963744.261864,47.655,-122.3035,60.0,3.25
2026-02-06T21:26:23+00:00,SAT-60053,36.40232891225548,54.099833999404176,584.6463572026814,1.1183430217029984,-39169.10320633044,10.5,10499960830.896793,47.655,-122.3035,60.0,3.2666666666666666
2026-02-06T21:26:24+00:00,SAT-60053,37.57537562632108,53.93161259599989,585.7617021010745,1.2010493543480374,-42065.828822999916,10.5,10499957934.171177,47.655,-122.3035,60.0,3.283333333333333
2026-02-06T21:26:25+00:00,SAT-60053,38.73415265950059,53.752430140030285,586.9595316078482,1.283249462767051,-44944.82432594764,10.5,10499955055.175674,47.655,-122.3035,60.0,3.3
2026-02-06T21:26:26+00:00,SAT-60053,39.87799971393217,53.562636929629704,588.239340855894,1.3649132168541447,-47805.03443141494,10.5,10499952194.965569,47.655,-122.3035,60.0,3.316666666666667
2026-02-06T21:26:27+00:00,SAT-60053,41.00632065141893,53.362595441458424,589.600594928772,1.4460115447251058,-50645.44091904277,10.5,10499949354.55908,47.655,-122.3035,60.0,3.3333333333333335
2026-02-06T21:26:28+00:00,SAT-60053,42.118583213643,53.152678406543956,591.0427299160953,1.526516500601207,-53465.06500944954,10.5,10499946534.93499,47.655,-122.3035,60.0,3.35
2026-02-06T21:26:29+00:00,SAT-60053,43.21431824244127,52.93326691998717,592.5651540366176,1.6064012703238988,-56262.9675573791,10.5,10499943737.032442,47.655,-122.3035,60.0,3.3666666666666667
2026-02-06T21:26:30+00:00,SAT-60053,44.29311840733858,52.70474860875856,594.1672487668192,1.6856402243222366,-59038.250906843976,10.5,10499940961.749094,47.655,-122.3035,60.0,3.3833333333333333
2026-02-06T21:26:31+00:00,SAT-60053,45.35463653525132,52.46751586369149,595.8483700223182,1.7642089194032111,-61790.05895383038,10.5,10499938209.941046,47.655,-122.3035,60.0,3.4
2026-02-06T21:26:32+00:00,SAT-60053,46.3985835672494,52.22196415391184,597.6078493410694,1.8420841493859392,-64517.57891972173,10.5,10499935482.42108,47.655,-122.3035,60.0,3.4166666666666665
2026-02-06T21:26:33+00:00,SAT-60053,47.42472623257425,51.96849042557002,599.4449951170584,1.9192439397706913,-67220.04116458546,10.5,10499932779.958836,47.655,-122.3035,60.0,3.433333333333333
2026-02-06T21:26:34+00:00,SAT-60053,48.43288446362539,51.707491599561614,601.3590938286824,1.9956675687133756,-69896.71992178817,10.5,10499930103.280079,47.655,-122.3035,60.0,3.45
2026-02-06T21:26:35+00:00,SAT-60053,49.42292862421742,51.439363169322476,603.3494112880461,2.071335572872227,-72546.93350277138,10.5,10499927453.066498,47.655,-122.3035,60.0,3.466666666666667
2026-02-06T21:26:36+00:00,SAT-60053,50.39477659490046,51.164497903838914,605.4151938960916,2.1462297511909925,-75170.04442955473,10.5,10499924829.95557,47.655,-122.3035,60.0,3.4833333333333334
2026-02-06T21:26:37+00:00,SAT-60053,51.34839076296129,50.883284657559095,607.5556699014995,2.2203331612452137,-77765.4593067673,10.5,10499922234.540693,47.655,-122.3035,60.0,3.5
2026-02-06T21:26:38+00:00,SAT-60053,52.283774958525335,50.59610728808555,609.7700506559454,2.2936301248359476,-80332.62901756339,10.5,10499919667.370983,47.655,-122.3035,60.0,3.5166666666666666
2026-02-06T21:26:39+00:00,SAT-60053,53.20097137978939,50.30334367912555,612.0575318749376,2.366106199050463,-82871.04771004568,10.5,10499917128.95229,47.655,-122.3035,60.0,3.533333333333333
2026-02-06T21:26:40+00:00,SAT-60053,54.100057528890986,50.00536487069431,614.417294869791,2.4377481839873063,-85380.25306782973,10.5,10499914619.746933,47.655,-122.3035,60.0,3.55
2026-02-06T21:26:41+00:00,SAT-60053,54.98114320344595,49.70253428843458,616.8485077873062,2.5085440945273625,-87859.82532134718,10.5,10499912140.174679,47.655,-122.3035,60.0,3.566666666666667
2026-02-06T21:26:42+00:00,SAT-60053,55.844367555592726,49.39520707253622,619.3503268212952,2.5784831549229676,-90309.3870583334,10.5,10499909690.612942,47.655,-122.3035,60.0,3.5833333333333335
2026-02-06T21:26:43+00:00,SAT-60053,56.689896248234156,49.0837294986633,621.9218974187106,2.647555757464519,-92728.6017761576,10.5,10499907271.398224,47.655,-122.3035,60.0,3.6
2026-02-06T21:26:44+00:00,SAT-60053,57.51791871395816,48.768438490103094,624.5623554445519,2.715753447821515,-95117.17336840378,10.5,10499904882.826632,47.655,-122.3035,60.0,3.6166666666666667
2026-02-06T21:26:45+00:00,SAT-60053,58.32864553978688,48.44966121232621,627.2708283321539,2.783068911202457,-97474.84564013213,10.5,10499902525.15436,47.655,-122.3035,60.0,3.6333333333333333
2026-02-06T21:26:46+00:00,SAT-60053,59.122305986922136,48.12771474429662,630.046436219669,2.8494959195785152,-99801.40045942855,10.5,10499900198.59954,47.655,-122.3035,60.0,3.65
2026-02-06T21:26:47+00:00,SAT-60053,59.89914564179819,47.80290582530986,632.8882930339175,2.9150293224208426,-102096.65743298602,10.5,10499897903.342567,47.655,-122.3035,60.0,3.6666666666666665
2026-02-06T21:26:48+00:00,SAT-60053,60.65942421548345,47.47553066645124,635.7955075649988,2.9796650021590487,-104360.47234607219,10.5,10499895639.527655,47.655,-122.3035,60.0,3.683333333333333
2026-02-06T21:26:49+00:00,SAT-60053,61.403413483594605,47.14587482510055,638.7671844964809,3.043399824349872,-106592.73541722538,10.5,10499893407.264584,47.655,-122.3035,60.0,3.7
2026-02-06T21:26:50+00:00,SAT-60053,62.13139536649301,46.81421313732179,641.802425385891,3.106231651331901,-108793.37177650066,10.5,10499891206.628223,47.655,-122.3035,60.0,3.716666666666667
2026-02-06T21:26:51+00:00,SAT-60053,62.84366016310867,46.48080969582811,644.9003296588256,3.1681592575518427,-110962.3384998376,10.5,10499889037.6615,47.655,-122.3035,60.0,3.7333333333333334
2026-02-06T21:26:52+00:00,SAT-60053,63.540504911667284,46.14591787919795,648.0599955186141,3.229182304520718,-113099.62373192038,10.5,10499886900.376268,47.655,-122.3035,60.0,3.75
2026-02-06T21:26:53+00:00,SAT-60053,64.22223188833112,45.809780420722625,651.2805208310035,3.2893013253143097,-115205.24614331777,10.5,10499884794.753857,47.655,-122.3035,60.0,3.7666666666666666
2026-02-06T21:26:54+00:00,SAT-60053,64.8891472398037,45.47262951139577,654.5610039933881,3.3485176650313977,-117279.25284507884,10.5,10499882720.747154,47.655,-122.3035,60.0,3.783333333333333
2026-02-06T21:26:55+00:00,SAT-60053,65.54155973491275,45.13468693734506,657.900544744655,3.4068334246270946,-119321.71742153865,10.5,10499880678.282578,47.655,-122.3035,60.0,3.8
2026-02-06T21:26:56+00:00,SAT-60053,66.17977963078005,44.79616424703679,661.2982449190135,3.4642514979643484,-121332.74122801867,10.5,10499878667.258772,47.655,-122.3035,60.0,3.816666666666667
2026-02-06T21:26:57+00:00,SAT-60053,66.80411766395189,44.45726293525423,664.7532092367787,3.520775414046143,-123312.44786513108,10.5,10499876687.552135,47.655,-122.3035,60.0,3.8333333333333335
2026-02-06T21:26:58+00:00,SAT-60053,67.41488412413696,44.11817465977818,668.2645459378068,3.576409437819992,-125260.9867093785,10.5,10499874739.01329,47.655,-122.3035,60.0,3.85
2026-02-06T21:26:59+00:00,SAT-60053,68.01238805033776,43.77908146195792,671.8313675154686,3.6311583917654913,-127178.52666439547,10.5,10499872821.473335,47.655,-122.3035,60.0,3.8666666666666667
2026-02-06T21:27:00+00:00,SAT-60053,68.59693649389749,43.44015601557225,675.4527912726855,3.6850277496081327,-129065.2594432025,10.5,10499870934.740557,47.655,-122.3035,60.0,3.8833333333333333
2026-02-06T21:27:01+00:00,SAT-60053,69.1688338878029,43.10156187504633,679.1279399714308,3.7380234817226627,-130921.39415357794,10.5,10499869078.605846,47.655,-122.3035,60.0,3.9
2026-02-06T21:27:02+00:00,SAT-60053,69.7283814753994,42.763453744235505,682.8559423280464,3.7901521339351043,-132747.16005803787,10.5,10499867252.839941,47.655,-122.3035,60.0,3.9166666666666665
2026-02-06T21:27:03+00:00,SAT-60053,70.27587682853104,42.425977741798256,686.6359335871513,3.841420685197707,-134542.80158901104,10.5,10499865457.198412,47.655,-122.3035,60.0,3.933333333333333
2026-02-06T21:27:04+00:00,SAT-60053,70.81161341609983,42.08927168158804,690.467055953608,3.891836603509521,-136308.58030741377,10.5,10499863691.419693,47.655,-122.3035,60.0,3.95
2026-02-06T21:27:05+00:00,SAT-60053,71.33588024584019,41.75346534830238,694.3484590802572,3.9414077170817876,-138044.77039031708,10.5,10499861955.22961,47.655,-122.3035,60.0,3.966666666666667
2026-02-06T21:27:06+00:00,SAT-60053,71.84896154870891,41.41868078330782,698.2793004271637,3.990142307884691,-139751.66190734945,10.5,10499860248.338093,47.655,-122.3035,60.0,3.9833333333333334
2026-02-06T21:27:07+00:00,SAT-60053,72.35113652973739,41.0850325599336,702.2587457141603,4.038048940949672,-141429.554842142,10.5,10499858570.445158,47.655,-122.3035,60.0,4.0
2026-02-06T21:27:08+00:00,SAT-60053,72.84267914670012,40.75262806979553,706.2859692031501,4.08513656476024,-143078.76260843934,10.5,10499856921.237392,47.655,-122.3035,60.0,4.016666666666667
2026-02-06T21:27:09+00:00,SAT-60053,73.32385794605806,40.42156779606831,710.3601540805292,4.131414348889098,-144699.60636346476,10.5,10499855300.393637,47.655,-122.3035,60.0,4.033333333333333
2026-02-06T21:27:10+00:00,SAT-60053,73.79493592030968,40.09194559478719,714.4804926776841,4.176891801656741,-146292.41912882205,10.5,10499853707.580872,47.655,-122.3035,60.0,4.05
2026-02-06T21:27:11+00:00,SAT-60053,74.25617041524191,39.76384896043035,718.6461868088317,4.221578617569081,-147857.5404471161,10.5,10499852142.459553,47.655,-122.3035,60.0,4.066666666666666
2026-02-06T21:27:12+00:00,SAT-60053,74.70781305290734,39.43735929714655,722.8564479567049,4.265484716686701,-149395.31776083025,10.5,10499850604.68224,47.655,-122.3035,60.0,4.083333333333333
2026-02-06T21:27:13+00:00,SAT-60053,75.15010968845893,39.1125521795267,727.1104974975032,4.308620189979408,-150906.10449841197,10.5,10499849093.895502,47.655,-122.3035,60.0,4.1
2026-02-06T21:27:14+00:00,SAT-60053,75.58330038755155,38.789497610030224,731.4075668713429,4.350995335346567,-152390.26133585707,10.5,10499847609.738665,47.655,-122.3035,60.0,4.116666666666666
2026-02-06T21:27:15+00:00,SAT-60053,76.00761943039493,38.4682602658414,735.7468977886325,4.392620543038443,-153848.1521836805,10.5,10499846151.847816,47.655,-122.3035,60.0,4.133333333333334
2026-02-06T21:27:16+00:00,SAT-60053,76.42329532521987,38.148899746222426,740.1277423221768,4.433506343801765,-155280.1458731778,10.5,10499844719.854126,47.655,-122.3035,60.0,4.15
2026-02-06T21:27:17+00:00,SAT-60053,76.8305508448026,37.831470807883974,744.5493630472947,4.473663363219742,-156686.6145572191,10.5,10499843313.385443,47.655,-122.3035,60.0,4.166666666666667
2026-02-06T21:27:18+00:00,SAT-60053,77.2296030745623,37.51602359533995,749.0110331364033,4.513102301994529,-158067.93301965774,10.5,10499841932.06698,47.655,-122.3035,60.0,4.183333333333334
2026-02-06T21:27:19+00:00,SAT-60053,77.62066347295455,37.2026038641879,753.5120364339342,4.551833937830435,-159424.4787412883,10.5,10499840575.52126,47.655,-122.3035,60.0,4.2
2026-02-06T21:27:20+00:00,SAT-60053,78.00393794402025,36.89125319581412,758.0516675331302,4.589869071900854,-160756.63002489202,10.5,10499839243.369976,47.655,-122.3035,60.0,4.216666666666667
2026-02-06T21:27:21+00:00,SAT-60053,78.37962691603195,36.58200920738231,762.6292317994516,4.627218534478824,-162064.76619244256,10.5,10499837935.233807,47.655,-122.3035,60.0,4.233333333333333
2026-02-06T21:27:22+00:00,SAT-60053,78.74792542952532,36.274905752993426,767.2440453995956,4.663893186540592,-163349.26764127007,10.5,10499836650.732359,47.655,-122.3035,60.0,4.25
2026-02-06T21:27:23+00:00,SAT-60053,79.10902323315256,35.96997311651864,771.8954353321202,4.699903868935124,-164610.51406376206,10.5,10499835389.485937,47.655,-122.3035,60.0,4.266666666666667
2026-02-06T21:27:24+00:00,SAT-60053,79.46310488181054,35.667238199678174,776.5827394073694,4.735261431728966,-165848.88547514478,10.5,10499834151.114525,47.655,-122.3035,60.0,4.283333333333333
2026-02-06T21:27:25+00:00,SAT-60053,79.81034984233905,35.36672470019115,781.305306256666,4.7699766479919745,-167064.7591938945,10.5,10499832935.240807,47.655,-122.3035,60.0,4.3
2026-02-06T21:27:26+00:00,SAT-60053,80.15093259742832,35.068453287610545,786.0624952555216,4.80406033058202,-168258.51393203234,10.5,10499831741.486069,47.655,-122.3035,60.0,4.316666666666666
2026-02-06T21:27:27+00:00,SAT-60053,80.48502276099151,34.77244176410575,790.8536765633177,4.837523156550616,-169430.52364506607,10.5,10499830569.476355,47.655,-122.3035,60.0,4.333333333333333
2026-02-06T21:27:28+00:00,SAT-60053,80.81278518415188,34.47870522882695,795.6782309878639,4.870375808965582,-170581.16249922008,10.5,10499829418.837502,47.655,-122.3035,60.0,4.35
2026-02-06T21:27:29+00:00,SAT-60053,81.13438007287223,34.187256226143745,800.5355499913975,4.902628856557104,-171710.80065613124,10.5,10499828289.199345,47.655,-122.3035,60.0,4.366666666666666
2026-02-06T21:27:30+00:00,SAT-60053,81.4499630988983,33.8981048942457,805.4250355765531,4.9342928380987345,-172819.80722822825,10.5,10499827180.192772,47.655,-122.3035,60.0,4.383333333333334
2026-02-06T21:27:31+00:00,SAT-60053,81.75968551682996,33.61125910183175,810.3461002564853,4.965378163466663,-173908.54681340902,10.5,10499826091.453186,47.655,-122.3035,60.0,4.4
2026-02-06T21:27:32+00:00,SAT-60053,82.0636942755043,33.3267245840652,815.2981669263175,4.995895169427247,-174977.38144895592,10.5,10499825022.618551,47.655,-122.3035,60.0,4.416666666666667
2026-02-06T21:27:33+00:00,SAT-60053,82.36213213253838,33.04450506881406,820.2806687902291,5.025854100846358,-176026.66995340743,10.5,10499823973.330046,47.655,-122.3035,60.0,4.433333333333334
2026-02-06T21:27:34+00:00,SAT-60053,82.65513776740093,32.76460239786777,825.293049269799,5.055265096055693,-177056.7674140247,10.5,10499822943.232586,47.655,-122.3035,60.0,4.45
2026-02-06T21:27:35+00:00,SAT-60053,82.94284589260573,32.48701664306182,830.3347618977589,5.084138146854229,-178068.02378587323,10.5,10499821931.976213,47.655,-122.3035,60.0,4.466666666666667
2026-02-06T21:27:36+00:00,SAT-60053,83.22538736194167,32.211746218823556,835.4052701718525,5.1124832101056645,-179060.7878004372,10.5,10499820939.2122,47.655,-122.3035,60.0,4.483333333333333
2026-02-06T21:27:37+00:00,SAT-60053,83.50288928317492,31.938787983155862,840.5040475199945,5.140310027363978,-180035.40064814364,10.5,10499819964.599352,47.655,-122.3035,60.0,4.5
2026-02-06T21:27:38+00:00,SAT-60053,83.77547511971473,31.66813734312862,845.6305770855381,5.167628296313111,-180992.20198290533,10.5,10499819007.798018,47.655,-122.3035,60.0,4.516666666666667
2026-02-06T21:27:39+00:00,SAT-60053,84.04326479959049,31.399788346047703,850.7843516835213,5.194447553352949,-181931.52580978526,10.5,10499818068.47419,47.655,-122.3035,60.0,4.533333333333333
2026-02-06T21:27:40+00:00,SAT-60053,84.30637481644979,31.133733772085318,855.9648736398176,5.220777201720782,-182853.70146992896,10.5,10499817146.29853,47.655,-122.3035,60.0,4.55
2026-02-06T21:27:41+00:00,SAT-60053,84.56491833009096,30.869965220697914,861.1716546583276,5.2466265212777055,-183759.05398332572,10.5,10499816240.946016,47.655,-122.3035,60.0,4.566666666666666
2026-02-06T21:27:42+00:00,SAT-60053,84.81900526545103,30.60847319209383,866.4042156979365,5.2720046677454,-184647.9040220775,10.5,10499815352.095978,47.655,-122.3035,60.0,4.583333333333333
2026-02-06T21:27:43+00:00,SAT-60053,85.06874240930136,30.349247164521532,871.662086848704,5.296920652467683,-185520.56720156272,10.5,10499814479.432798,47.655,-122.3035,60.0,4.6
2026-02-06T21:27:44+00:00,SAT-60053,85.31423350381353,30.092275668500914,876.9448071878778,5.3213833438790035,-186377.35413186924,10.5,10499813622.645868,47.655,-122.3035,60.0,4.616666666666666
