DopplerPredictor/satellites_20260211_204923/SAT-52114.csv

timestamp,satellite,azimuth_deg,elevation_deg,distance_km,relative_velocity_kms,doppler_shift_hz,tx_freq_ghz,rx_freq_hz,ue_lat,ue_lon,ue_alt_m,time_minutes
2026-02-06T21:24:18+00:00,SAT-52114,307.48018380554277,30.129477142301052,969.4261834886034,-5.663234306844039,198350.4208830444,10.5,10500198350.420883,47.655,-122.3035,60.0,1.1833333333333333
2026-02-06T21:24:19+00:00,SAT-52114,307.6000222194558,30.3831434715404,963.7781315314097,-5.645749945893123,197738.04460376984,10.5,10500197738.044603,47.655,-122.3035,60.0,1.2
2026-02-06T21:24:20+00:00,SAT-52114,307.7218490208679,30.639324535328104,958.1475170620082,-5.627948965366191,197114.5789676437,10.5,10500197114.578968,47.655,-122.3035,60.0,1.2166666666666666
2026-02-06T21:24:21+00:00,SAT-52114,307.84571479526426,30.89805285059546,952.534655851161,-5.609824899954354,196479.7975322005,10.5,10500196479.797533,47.655,-122.3035,60.0,1.2333333333333334
2026-02-06T21:24:22+00:00,SAT-52114,307.97167182068745,31.159361166460375,946.9398701176076,-5.591371153165762,195833.4692603925,10.5,10500195833.469261,47.655,-122.3035,60.0,1.25
2026-02-06T21:24:23+00:00,SAT-52114,308.09977413740944,31.42328244927964,941.3634886588943,-5.572581001037147,195175.3586505837,10.5,10500195175.35865,47.655,-122.3035,60.0,1.2666666666666666
2026-02-06T21:24:24+00:00,SAT-52114,308.23007762113747,31.68984986657913,935.8058469785049,-5.553447599074558,194505.2259796438,10.5,10500194505.225979,47.655,-122.3035,60.0,1.2833333333333334
2026-02-06T21:24:25+00:00,SAT-52114,308.3626400599887,31.959096769949632,930.2672874060672,-5.533963938108015,193822.82575679125,10.5,10500193822.825756,47.655,-122.3035,60.0,1.3
2026-02-06T21:24:26+00:00,SAT-52114,308.49752123417466,32.23105667432701,924.7481592615906,-5.514122896425825,193127.90854955782,10.5,10500193127.90855,47.655,-122.3035,60.0,1.3166666666666667
2026-02-06T21:24:27+00:00,SAT-52114,308.63478300101553,32.50576323818782,919.2488189677009,-5.4939171979345005,192420.21951837177,10.5,10500192420.219519,47.655,-122.3035,60.0,1.3333333333333333
2026-02-06T21:24:28+00:00,SAT-52114,308.77448938305776,32.78325024001676,913.7696302036137,-5.473339428275049,191699.49898101846,10.5,10500191699.498981,47.655,-122.3035,60.0,1.35
2026-02-06T21:24:29+00:00,SAT-52114,308.91670666114527,33.06355155373664,908.3109640430249,-5.452382044607854,190965.48275534826,10.5,10500190965.482756,47.655,-122.3035,60.0,1.3666666666666667
2026-02-06T21:24:30+00:00,SAT-52114,309.0615034723819,33.34670112272608,902.87319908225,-5.431037340206398,190217.90091919916,10.5,10500190217.900919,47.655,-122.3035,60.0,1.3833333333333333
2026-02-06T21:24:31+00:00,SAT-52114,309.2089509121945,33.632732929952596,897.4567216036694,-5.409297496602643,189456.4796367484,10.5,10500189456.479637,47.655,-122.3035,60.0,1.4
2026-02-06T21:24:32+00:00,SAT-52114,309.35912264300475,33.92168096862775,892.0619256871721,-5.387154525128167,188680.9391110358,10.5,10500188680.939112,47.655,-122.3035,60.0,1.4166666666666667
2026-02-06T21:24:33+00:00,SAT-52114,309.5120950069102,34.213579207474574,886.6892133798985,-5.364600296785415,187890.99463018135,10.5,10500187890.99463,47.655,-122.3035,60.0,1.4333333333333333
2026-02-06T21:24:34+00:00,SAT-52114,309.6679471449641,34.50846155503605,881.3389948361942,-5.341626552431405,187086.3569240616,10.5,10500187086.356924,47.655,-122.3035,60.0,1.45
2026-02-06T21:24:35+00:00,SAT-52114,309.8267611230445,34.80636182193203,876.0116884474052,-5.318224860542882,186266.730685067,10.5,10500186266.730684,47.655,-122.3035,60.0,1.4666666666666666
2026-02-06T21:24:36+00:00,SAT-52114,309.98862206294734,35.10731367794998,870.7077210137983,-5.294386699820466,185431.8174612481,10.5,10500185431.817461,47.655,-122.3035,60.0,1.4833333333333334
2026-02-06T21:24:37+00:00,SAT-52114,310.1536182830273,35.41135061078468,865.4275278340947,-5.270103327357701,184581.31103903838,10.5,10500184581.311039,47.655,-122.3035,60.0,1.5
2026-02-06T21:24:38+00:00,SAT-52114,310.32184144197015,35.71850587412258,860.1715529264834,-5.245365929210699,183714.90271684,10.5,10500183714.902718,47.655,-122.3035,60.0,1.5166666666666666
2026-02-06T21:24:39+00:00,SAT-52114,310.49338669516425,36.02881244091052,854.9402490994682,-5.220165489900262,182832.27673443593,10.5,10500182832.276735,47.655,-122.3035,60.0,1.5333333333333334
2026-02-06T21:24:40+00:00,SAT-52114,310.6683528550078,36.34230294550325,849.7340781528635,-5.194492900866611,181933.11407153352,10.5,10500181933.11407,47.655,-122.3035,60.0,1.55
2026-02-06T21:24:41+00:00,SAT-52114,310.84684256351596,36.659009628331034,844.5535109706243,-5.168338878457714,181017.08957536882,10.5,10500181017.089575,47.655,-122.3035,60.0,1.5666666666666667
2026-02-06T21:24:42+00:00,SAT-52114,311.0289624714028,36.97896427164217,839.3990276954688,-5.141694012494508,180083.87366166606,10.5,10500180083.873661,47.655,-122.3035,60.0,1.5833333333333333
2026-02-06T21:24:43+00:00,SAT-52114,311.21482342845337,37.30219813380849,834.271117855068,-5.114548779510534,179133.13277834564,10.5,10500179133.132778,47.655,-122.3035,60.0,1.6
2026-02-06T21:24:44+00:00,SAT-52114,311.40454068492136,37.628741879957836,829.1702804750277,-5.086893463315414,178164.526623321,10.5,10500178164.526623,47.655,-122.3035,60.0,1.6166666666666667
2026-02-06T21:24:45+00:00,SAT-52114,311.5982341006442,37.95862550268103,824.0970242710961,-5.058718279597239,177177.71250860157,10.5,10500177177.71251,47.655,-122.3035,60.0,1.6333333333333333
2026-02-06T21:24:46+00:00,SAT-52114,311.7960283706691,38.291878245479154,819.0518677171033,-5.030013270968848,176172.34168436922,10.5,10500176172.341684,47.655,-122.3035,60.0,1.65
2026-02-06T21:24:47+00:00,SAT-52114,311.99805325891344,38.62852851403086,814.0353392175721,-5.00076840451031,175148.06275532872,10.5,10500175148.062756,47.655,-122.3035,60.0,1.6666666666666667
2026-02-06T21:24:48+00:00,SAT-52114,312.2044438489027,38.968603788036305,809.0479771830483,-4.970973444864803,174104.51723598872,10.5,10500174104.517237,47.655,-122.3035,60.0,1.6833333333333333
2026-02-06T21:24:49+00:00,SAT-52114,312.4153408027753,39.312130518353435,804.0903302319948,-4.940618141344164,173041.34610388937,10.5,10500173041.346104,47.655,-122.3035,60.0,1.7
2026-02-06T21:24:50+00:00,SAT-52114,312.6308906430257,39.65913403028109,799.1629572060822,-4.909692068234934,171958.1842064446,10.5,10500171958.184206,47.655,-122.3035,60.0,1.7166666666666666
2026-02-06T21:24:51+00:00,SAT-52114,312.8512460427222,40.00963840907574,794.2664273447447,-4.878184713693619,170854.66337443015,10.5,10500170854.663374,47.655,-122.3035,60.0,1.7333333333333334
2026-02-06T21:24:52+00:00,SAT-52114,313.07656613600244,40.363666384151415,789.4013203710791,-4.846085464353468,169730.41188284804,10.5,10500169730.411882,47.655,-122.3035,60.0,1.75
2026-02-06T21:24:53+00:00,SAT-52114,313.3070168452304,40.72123920445374,784.5682265930955,-4.8133836166351704,168585.05484707453,10.5,10500168585.054848,47.655,-122.3035,60.0,1.7666666666666666
2026-02-06T21:24:54+00:00,SAT-52114,313.54277122704724,41.08237650637796,779.7677469936898,-4.780068421545399,167418.21579189523,10.5,10500167418.215792,47.655,-122.3035,60.0,1.7833333333333334
2026-02-06T21:24:55+00:00,SAT-52114,313.7840098402602,41.44709617636214,775.0004932759331,-4.74612897443582,166229.51279039885,10.5,10500166229.51279,47.655,-122.3035,60.0,1.8
2026-02-06T21:24:56+00:00,SAT-52114,314.0309211286165,41.81541419584811,770.2670880183118,-4.7115543958500465,165018.56479800266,10.5,10500165018.564798,47.655,-122.3035,60.0,1.8166666666666667
2026-02-06T21:24:57+00:00,SAT-52114,314.283701834791,42.187344490152206,765.5681646496026,-4.67633367898846,163784.98631002527,10.5,10500163784.986311,47.655,-122.3035,60.0,1.8333333333333333
2026-02-06T21:24:58+00:00,SAT-52114,314.542557429449,42.562898755269885,760.9043675758733,-4.640455842370696,162528.39270857276,10.5,10500162528.392708,47.655,-122.3035,60.0,1.85
2026-02-06T21:24:59+00:00,SAT-52114,314.8077025731826,42.94208628562191,756.2763521552331,-4.603909803713288,161248.39584520008,10.5,10500161248.395845,47.655,-122.3035,60.0,1.8666666666666667
2026-02-06T21:25:00+00:00,SAT-52114,315.07936159704343,43.32491378011013,751.6847847983643,-4.566684506120761,159944.6084606571,10.5,10500159944.608461,47.655,-122.3035,60.0,1.8833333333333333
2026-02-06T21:25:01+00:00,SAT-52114,315.3577690177611,43.711385145963334,747.1303429432019,-4.5287688673010065,158616.6424061961,10.5,10500158616.642406,47.655,-122.3035,60.0,1.9
2026-02-06T21:25:02+00:00,SAT-52114,315.6431700788751,44.10150128545375,742.6137150802637,-4.49015185242507,157264.11119542987,10.5,10500157264.111195,47.655,-122.3035,60.0,1.9166666666666667
2026-02-06T21:25:03+00:00,SAT-52114,315.9358213270063,44.495259874996194,738.1356007053141,-4.450822380878733,155886.6267383774,10.5,10500155886.626738,47.655,-122.3035,60.0,1.9333333333333333
2026-02-06T21:25:04+00:00,SAT-52114,316.235991213987,44.892655121526026,733.696710365025,-4.4107694605871535,154483.8040460815,10.5,10500154483.804047,47.655,-122.3035,60.0,1.95
2026-02-06T21:25:05+00:00,SAT-52114,316.5439607417505,45.29367751497142,729.2977655686755,-4.36998217109319,153055.26063793935,10.5,10500153055.260637,47.655,-122.3035,60.0,1.9666666666666666
2026-02-06T21:25:06+00:00,SAT-52114,316.86002414188533,45.69831356314739,724.9394987167253,-4.328449631830371,151600.61543048854,10.5,10500151600.61543,47.655,-122.3035,60.0,1.9833333333333334
2026-02-06T21:25:07+00:00,SAT-52114,317.18448959029894,46.106545506355836,720.622653061032,-4.286161059057881,150119.4907315105,10.5,10500150119.490732,47.655,-122.3035,60.0,2.0
2026-02-06T21:25:08+00:00,SAT-52114,317.5176799648662,46.5183510186957,716.3479826082832,-4.24310582364679,148611.51426394886,10.5,10500148611.514263,47.655,-122.3035,60.0,2.0166666666666666
2026-02-06T21:25:09+00:00,SAT-52114,317.8599336488694,46.93370289557612,712.1162519658009,-4.1992734129374,147076.31782999256,10.5,10500147076.31783,47.655,-122.3035,60.0,2.033333333333333
2026-02-06T21:25:10+00:00,SAT-52114,318.2116053742574,47.35256871716915,707.9282362253839,-4.15465346280804,145513.5384342605,10.5,10500145513.538435,47.655,-122.3035,60.0,2.05
2026-02-06T21:25:11+00:00,SAT-52114,318.5730671117914,47.77491049308962,703.7847208151675,-4.109235824700108,143922.82063130202,10.5,10500143922.820631,47.655,-122.3035,60.0,2.066666666666667
2026-02-06T21:25:12+00:00,SAT-52114,318.9447090132538,48.200684290850624,699.6865012846388,-4.063010519815014,142303.8149213802,10.5,10500142303.814922,47.655,-122.3035,60.0,2.0833333333333335
2026-02-06T21:25:13+00:00,SAT-52114,319.3269403971137,48.62983983537699,695.6343831353321,-4.015967885260527,140656.1828691352,10.5,10500140656.182869,47.655,-122.3035,60.0,2.1
2026-02-06T21:25:14+00:00,SAT-52114,319.7201907972392,49.06232009811856,691.6291815057681,-3.968098430651482,138979.5920811342,10.5,10500138979.592081,47.655,-122.3035,60.0,2.1166666666666667
2026-02-06T21:25:15+00:00,SAT-52114,320.1249110477776,49.49806084397975,687.6717209994117,-3.9193930309528904,137273.7229600531,10.5,10500137273.72296,47.655,-122.3035,60.0,2.1333333333333333
2026-02-06T21:25:16+00:00,SAT-52114,320.5415744381066,49.936990170100096,683.7628353202984,-3.8698428523286323,135538.2661075838,10.5,10500135538.266108,47.655,-122.3035,60.0,2.15
2026-02-06T21:25:17+00:00,SAT-52114,320.9706779117917,50.37902800660364,679.9033669826186,-3.81943943869472,133772.92535589592,10.5,10500133772.925356,47.655,-122.3035,60.0,2.1666666666666665
2026-02-06T21:25:18+00:00,SAT-52114,321.41274332612034,50.824085595047386,676.0941669339765,-3.768174696820073,131977.41724580264,10.5,10500131977.417246,47.655,-122.3035,60.0,2.183333333333333
2026-02-06T21:25:19+00:00,SAT-52114,321.8683187601363,51.2720649315846,672.3360941935106,-3.716040986450141,130151.47418327144,10.5,10500130151.474184,47.655,-122.3035,60.0,2.2
2026-02-06T21:25:20+00:00,SAT-52114,322.33797988226564,51.72285818522444,668.6300154001312,-3.6630311082059435,128294.84401559697,10.5,10500128294.844015,47.655,-122.3035,60.0,2.216666666666667
2026-02-06T21:25:21+00:00,SAT-52114,322.82233136265603,52.176347077585525,664.9768043728282,-3.6091383652847404,126407.2921924199,10.5,10500126407.292192,47.655,-122.3035,60.0,2.2333333333333334
2026-02-06T21:25:22+00:00,SAT-52114,323.3220083355897,52.63240223097474,661.3773416094397,-3.5543565684755283,124488.60194139056,10.5,10500124488.601942,47.655,-122.3035,60.0,2.25
2026-02-06T21:25:23+00:00,SAT-52114,323.83767789893574,53.09088247601823,657.8325137804227,-3.498680126471216,122538.57743128337,10.5,10500122538.57743,47.655,-122.3035,60.0,2.2666666666666666
2026-02-06T21:25:24+00:00,SAT-52114,324.3700406559659,53.551634127801165,654.3432131325527,-3.442104032985509,120557.04332077575,10.5,10500120557.043322,47.655,-122.3035,60.0,2.283333333333333
2026-02-06T21:25:25+00:00,SAT-52114,324.91983227502396,54.014490215674805,650.9103369054695,-3.384623914025608,118543.84641413788,10.5,10500118543.846415,47.655,-122.3035,60.0,2.3
2026-02-06T21:25:26+00:00,SAT-52114,325.48782506346976,54.47926967236321,647.5347867010794,-3.3262361122855255,116498.85861704372,10.5,10500116498.858618,47.655,-122.3035,60.0,2.316666666666667
2026-02-06T21:25:27+00:00,SAT-52114,326.0748295475655,54.94577648612164,644.21746776879,-3.2669376653935274,114421.97617470428,10.5,10500114421.976175,47.655,-122.3035,60.0,2.3333333333333335
2026-02-06T21:25:28+00:00,SAT-52114,326.6816960214613,55.413798800034535,640.9592883124401,-3.206726367271528,112313.12182093335,10.5,10500112313.12182,47.655,-122.3035,60.0,2.35
2026-02-06T21:25:29+00:00,SAT-52114,327.3093160548839,55.883107968200726,637.7611587360311,-3.145600837254258,110172.24719899293,10.5,10500110172.247198,47.655,-122.3035,60.0,2.3666666666666667
2026-02-06T21:25:30+00:00,SAT-52114,327.95862393349273,56.35345756945288,634.6239908205284,-3.08356051123645,107999.33255153046,10.5,10500107999.332552,47.655,-122.3035,60.0,2.3833333333333333
2026-02-06T21:25:31+00:00,SAT-52114,328.6305979814144,56.82458236671108,631.5486969094914,-3.0206057284687766,105794.38976053946,10.5,10500105794.389761,47.655,-122.3035,60.0,2.4
2026-02-06T21:25:32+00:00,SAT-52114,329.32626174232274,57.29619722597243,628.536189008137,-2.956737721623166,103557.46199940509,10.5,10500103557.462,47.655,-122.3035,60.0,2.4166666666666665
2026-02-06T21:25:33+00:00,SAT-52114,330.04668494786506,57.76799598118278,625.5873778923155,-2.8919586988532715,101288.62660700874,10.5,10500101288.626608,47.655,-122.3035,60.0,2.433333333333333
2026-02-06T21:25:34+00:00,SAT-52114,330.7929842326409,58.23965026060968,622.7031721356436,-2.826271858850354,98987.99561504884,10.5,10500098987.995615,47.655,-122.3035,60.0,2.45
2026-02-06T21:25:35+00:00,SAT-52114,331.5663235093616,58.710808267299214,619.8844771216213,-2.759681436002039,96655.7173296915,10.5,10500096655.717329,47.655,-122.3035,60.0,2.466666666666667
2026-02-06T21:25:36+00:00,SAT-52114,332.36791392576487,59.181093522456834,617.1321940107131,-2.692192715947019,94291.97687636189,10.5,10500094291.976877,47.655,-122.3035,60.0,2.4833333333333334
2026-02-06T21:25:37+00:00,SAT-52114,333.1990132965634,59.65010357276113,614.4472186919149,-2.6238121057444466,91896.99865737345,10.5,10500091896.998657,47.655,-122.3035,60.0,2.5
2026-02-06T21:25:38+00:00,SAT-52114,334.06092491111417,60.11740867904619,611.83044066434,-2.554547138009068,89471.04649675748,10.5,10500089471.046497,47.655,-122.3035,60.0,2.5166666666666666
2026-02-06T21:25:39+00:00,SAT-52114,334.9549955660083,60.58255048594202,609.2827419146802,-2.48440649911551,87014.42462809673,10.5,10500087014.424627,47.655,-122.3035,60.0,2.533333333333333
2026-02-06T21:25:40+00:00,SAT-52114,335.8826126765366,61.045040690152085,606.8049957665411,-2.4134000689182002,84527.47908568502,10.5,10500084527.479086,47.655,-122.3035,60.0,2.55
2026-02-06T21:25:41+00:00,SAT-52114,336.84520030084565,61.504359727126314,604.3980656901581,-2.3415389568518648,82010.5989689193,10.5,10500082010.598969,47.655,-122.3035,60.0,2.566666666666667
2026-02-06T21:25:42+00:00,SAT-52114,337.844213885691,61.95995549778391,602.0628040761172,-2.268835501050026,79464.21641142578,10.5,10500079464.216412,47.655,-122.3035,60.0,2.5833333333333335
2026-02-06T21:25:43+00:00,SAT-52114,338.881133507118,62.41124215531814,599.8000510099463,-2.195303281995526,76888.80705915898,10.5,10500076888.807058,47.655,-122.3035,60.0,2.6
2026-02-06T21:25:44+00:00,SAT-52114,339.9574553788026,62.8575989873722,597.6106330330978,-2.120957177995132,74284.89201335708,10.5,10500074284.892014,47.655,-122.3035,60.0,2.6166666666666667
2026-02-06T21:25:45+00:00,SAT-52114,341.07468140301893,63.2983694418775,595.495361848605,-2.045813334186389,71653.03674503074,10.5,10500071653.036745,47.655,-122.3035,60.0,2.6333333333333333
2026-02-06T21:25:46+00:00,SAT-52114,342.2343064662608,63.732860326339264,593.4550330576451,-1.969889203959689,68993.85254573927,10.5,10500068993.852547,47.655,-122.3035,60.0,2.65
2026-02-06T21:25:47+00:00,SAT-52114,343.43780325373535,64.16034125037484,591.4904248547965,-1.8932035320705092,66307.99593610973,10.5,10500066307.995935,47.655,-122.3035,60.0,2.6666666666666665
2026-02-06T21:25:48+00:00,SAT-52114,344.6866042991585,64.58004436343678,589.6022967401336,-1.8157763486040512,63596.16845445304,10.5,10500063596.168455,47.655,-122.3035,60.0,2.683333333333333
2026-02-06T21:25:49+00:00,SAT-52114,345.9820810389596,64.99116446250957,587.7913882373429,-1.7376290149508307,60859.11826702366,10.5,10500060859.118267,47.655,-122.3035,60.0,2.7
2026-02-06T21:25:50+00:00,SAT-52114,347.32551972118995,65.39285956357537,586.0584175659883,-1.6587841413377298,58097.637279608156,10.5,10500058097.63728,47.655,-122.3035,60.0,2.716666666666667
2026-02-06T21:25:51+00:00,SAT-52114,348.7180939485982,65.78425199817148,584.4040803960212,-1.5792656341134006,55312.562793660094,10.5,10500055312.562794,47.655,-122.3035,60.0,2.7333333333333334
2026-02-06T21:25:52+00:00,SAT-52114,350.160833916799,66.16443016134859,582.8290485551341,-1.4990986393938064,52504.77553252847,10.5,10500052504.775532,47.655,-122.3035,60.0,2.75
2026-02-06T21:25:53+00:00,SAT-52114,351.6545923604377,66.53245098942816,581.333968792317,-1.4183095511255102,49675.19992386818,10.5,10500049675.199924,47.655,-122.3035,60.0,2.7666666666666666
2026-02-06T21:25:54+00:00,SAT-52114,353.2000075195942,66.887343286115,579.9194615333714,-1.3369259605352137,46824.80232914913,10.5,10500046824.80233,47.655,-122.3035,60.0,2.783333333333333
2026-02-06T21:25:55+00:00,SAT-52114,354.79746353178336,67.22811198335748,578.5861196868403,-1.2549766146550876,43954.589591037744,10.5,10500043954.589592,47.655,-122.3035,60.0,2.8
2026-02-06T21:25:56+00:00,SAT-52114,356.4470489479341,67.55374342992849,577.3345074913025,-1.1724914224193725,41065.60924692579,10.5,10500041065.609247,47.655,-122.3035,60.0,2.816666666666667
2026-02-06T21:25:57+00:00,SAT-52114,358.1485144108134,67.86321179503231,576.1651593565826,-1.0895013550323434,38158.94603939504,10.5,10500038158.94604,47.655,-122.3035,60.0,2.8333333333333335
2026-02-06T21:25:58+00:00,SAT-52114,359.9012306242102,68.15548660928792,575.0785788043322,-1.0060384402319038,35235.72171530409,10.5,10500035235.721716,47.655,-122.3035,60.0,2.85
2026-02-06T21:25:59+00:00,SAT-52114,1.7041482988409027,68.42954148196857,574.0752374143251,-0.9221356835106954,32297.092266618336,10.5,10500032297.092266,47.655,-122.3035,60.0,2.8666666666666667
2026-02-06T21:26:00+00:00,SAT-52114,3.555761808138223,68.68436394517845,573.155573849327,-0.8378270338901639,29344.246731673018,10.5,10500029344.24673,47.655,-122.3035,60.0,2.8833333333333333
2026-02-06T21:26:01+00:00,SAT-52114,5.4540786951604705,68.91896635210321,572.3199929140948,-0.7531472994419811,26378.404236376093,10.5,10500026378.404236,47.655,-122.3035,60.0,2.9
2026-02-06T21:26:02+00:00,SAT-52114,7.39659713317427,69.132397668297,571.5688646986282,-0.6681320892676457,23400.811962088388,10.5,10500023400.811962,47.655,-122.3035,60.0,2.9166666666666665
2026-02-06T21:26:03+00:00,SAT-52114,9.380293595589436,69.3237559480731,570.9025237792896,-0.5828177516079861,20412.74297795662,10.5,10500020412.742977,47.655,-122.3035,60.0,2.933333333333333
2026-02-06T21:26:04+00:00,SAT-52114,11.401622799566965,69.49220121151777,570.3212684816448,-0.49724128934279443,17415.493281353134,10.5,10500017415.49328,47.655,-122.3035,60.0,2.95
2026-02-06T21:26:05+00:00,SAT-52114,13.456531589649856,69.63696836807205,569.8253602275795,-0.4114402855736669,14410.379191472199,10.5,10500014410.379192,47.655,-122.3035,60.0,2.966666666666667
2026-02-06T21:26:06+00:00,SAT-52114,15.540487976445181,69.75737978903616,569.4150229566326,-0.32545282710548246,11398.734669327692,10.5,10500011398.734669,47.655,-122.3035,60.0,2.9833333333333334
2026-02-06T21:26:07+00:00,SAT-52114,17.64852582631362,69.85285709260647,569.0904426236441,-0.23931741539232337,8381.90819870257,10.5,10500008381.9082,47.655,-122.3035,60.0,3.0
2026-02-06T21:26:08+00:00,SAT-52114,19.775304774594524,69.92293169045692,568.8517667852167,-0.15307288802438201,5361.2600362882085,10.5,10500005361.260036,47.655,-122.3035,60.0,3.0166666666666666
2026-02-06T21:26:09+00:00,SAT-52114,21.9151841324287,69.96725366811859,568.6991042644811,-0.06675832697733095,2338.1589981892566,10.5,10500002338.158998,47.655,-122.3035,60.0,3.033333333333333
2026-02-06T21:26:10+00:00,SAT-52114,24.06230847428387,69.9855986113254,568.6325249073657,0.019587026153843144,-686.0205089460691,10.5,10499999313.97949,47.655,-122.3035,60.0,3.05
2026-02-06T21:26:11+00:00,SAT-52114,26.210701907583964,69.97787207229212,568.6520594234054,0.1059238606868216,-3709.901658738949,10.5,10499996290.098341,47.655,-122.3035,60.0,3.066666666666667
2026-02-06T21:26:12+00:00,SAT-52114,28.3543673120733,69.9441114668658,568.7576993168391,0.1922128859084476,-6732.10832421508,10.5,10499993267.891676,47.655,-122.3035,60.0,3.0833333333333335
2026-02-06T21:26:13+00:00,SAT-52114,30.48738643160715,69.88448531361963,568.9493969065259,0.27841491855167244,-9751.26814161736,10.5,10499990248.73186,47.655,-122.3035,60.0,3.1
2026-02-06T21:26:14+00:00,SAT-52114,32.604016714015216,69.79928985153082,569.2270654331021,0.36449097450355866,-12766.015722408087,10.5,10499987233.984278,47.655,-122.3035,60.0,3.1166666666666667
2026-02-06T21:26:15+00:00,SAT-52114,34.69878101211498,69.68894319355091,569.5905792576027,0.45040235274762175,-15774.995593284833,10.5,10499984225.004406,47.655,-122.3035,60.0,3.1333333333333333
2026-02-06T21:26:16+00:00,SAT-52114,36.766546735808674,69.55397728626458,570.0397741437982,0.5361107237482662,-18776.86529177727,10.5,10499981223.134708,47.655,-122.3035,60.0,3.15
2026-02-06T21:26:17+00:00,SAT-52114,38.8025919073901,69.39502802912703,570.5744476286794,0.6215782141250272,-21770.298331897284,10.5,10499978229.701668,47.655,-122.3035,60.0,3.1666666666666665
2026-02-06T21:26:18+00:00,SAT-52114,40.802656391055365,69.21282396894865,571.1943594773901,0.7067674832612373,-24753.98688729852,10.5,10499975246.013113,47.655,-122.3035,60.0,3.183333333333333
2026-02-06T21:26:19+00:00,SAT-52114,42.762977526485685,69.00817401577142,571.8992322145626,0.7916418086092862,-27726.64477902745,10.5,10499972273.35522,47.655,-122.3035,60.0,3.2
2026-02-06T21:26:20+00:00,SAT-52114,44.680310331092066,68.78195462142044,572.6887517407295,0.8761651605597787,-30687.01009775795,10.5,10499969312.989902,47.655,-122.3035,60.0,3.216666666666667
2026-02-06T21:26:21+00:00,SAT-52114,46.55193315249119,68.53509684178884,573.5625680234045,0.9603022689770307,-33633.84753414585,10.5,10499966366.152466,47.655,-122.3035,60.0,3.2333333333333334
2026-02-06T21:26:22+00:00,SAT-52114,48.37564028135789,68.26857365695783,574.5202958545203,1.0440186992052418,-36565.95104088655,10.5,10499963434.04896,47.655,-122.3035,60.0,3.25
2026-02-06T21:26:23+00:00,SAT-52114,50.14972348726665,67.98338785821326,575.5615156836675,1.1272809108428417,-39482.14589124133,10.5,10499960517.854109,47.655,-122.3035,60.0,3.2666666666666666
2026-02-06T21:26:24+00:00,SAT-52114,51.87294460658695,67.68056075119749,576.6857745099531,1.2100563193914522,-42381.29083824466,10.5,10499957618.709162,47.655,-122.3035,60.0,3.283333333333333
2026-02-06T21:26:25+00:00,SAT-52114,53.54450141216562,67.36112185015531,577.89258683534,1.2923133557658828,-45262.2801989961,10.5,10499954737.7198,47.655,-122.3035,60.0,3.3
2026-02-06T21:26:26+00:00,SAT-52114,55.16398889021199,67.02609967451109,579.1814356773383,1.3740215079083073,-48124.04531216468,10.5,10499951875.954687,47.655,-122.3035,60.0,3.316666666666667
2026-02-06T21:26:27+00:00,SAT-52114,56.73135784298681,66.67651370494487,580.551773623199,1.4551513796191504,-50965.55659849548,10.5,10499949034.443401,47.655,-122.3035,60.0,3.3333333333333335
2026-02-06T21:26:28+00:00,SAT-52114,58.246872520796785,66.31336749775532,582.0030239427803,1.535674722632742,-53785.824684234685,10.5,10499946214.175316,47.655,-122.3035,60.0,3.35
2026-02-06T21:26:29+00:00,SAT-52114,59.711068641521834,65.93764292867507,583.5345817334045,1.6155644673450467,-56583.90147734467,10.5,10499943416.098522,47.655,-122.3035,60.0,3.3666666666666667
2026-02-06T21:26:30+00:00,SAT-52114,61.12471289413617,65.5502955011578,585.1458150953607,1.6947947703029904,-59358.88183078107,10.5,10499940641.11817,47.655,-122.3035,60.0,3.3833333333333333
2026-02-06T21:26:31+00:00,SAT-52114,62.488764749678054,65.15225063001904,586.8360663547661,1.7733410220061405,-62109.903815740676,10.5,10499937890.096184,47.655,-122.3035,60.0,3.4
2026-02-06T21:26:32+00:00,SAT-52114,63.804341099691015,64.7444008128847,588.6046532942132,1.8511798888476718,-64836.150190611384,10.5,10499935163.84981,47.655,-122.3035,60.0,3.4166666666666665
2026-02-06T21:26:33+00:00,SAT-52114,65.07268408731078,64.3276035786094,590.4508704252418,1.9282892993376688,-67536.84791845405,10.5,10499932463.152082,47.655,-122.3035,60.0,3.433333333333333
2026-02-06T21:26:34+00:00,SAT-52114,66.29513224667411,63.902680122624695,592.3739902470719,2.0046484905742363,-70211.26979461731,10.5,10499929788.730206,47.655,-122.3035,60.0,3.45
2026-02-06T21:26:35+00:00,SAT-52114,67.47309500774602,63.470414515926606,594.3732645516843,2.0802379817129006,-72858.73351752384,10.5,10499927141.266483,47.655,-122.3035,60.0,3.466666666666667
2026-02-06T21:26:36+00:00,SAT-52114,68.60803042642043,63.0315534109324,596.4479257024411,2.155039607572897,-75478.60286570457,10.5,10499924521.397135,47.655,-122.3035,60.0,3.4833333333333334
2026-02-06T21:26:37+00:00,SAT-52114,69.70142600946853,62.58680614545638,598.5971879462217,2.2290364834513343,-78070.28646544207,10.5,10499921929.713535,47.655,-122.3035,60.0,3.5
2026-02-06T21:26:38+00:00,SAT-52114,70.75478237820768,62.13684518294506,600.8202486904678,2.3022130205108233,-80633.23832971024,10.5,10499919366.761671,47.655,-122.3035,60.0,3.5166666666666666
2026-02-06T21:26:39+00:00,SAT-52114,71.76959955185022,61.68230681042512,603.1162897955761,2.3745549180749883,-83166.95758833058,10.5,10499916833.042412,47.655,-122.3035,60.0,3.533333333333333
2026-02-06T21:26:40+00:00,SAT-52114,72.74736557712072,61.2237920404975,605.4844788596042,2.446049138720743,-85670.9876155984,10.5,10499914329.012384,47.655,-122.3035,60.0,3.55
2026-02-06T21:26:41+00:00,SAT-52114,73.68954723706273,60.76186767027799,607.9239704781388,2.51668388272259,-88144.91513521396,10.5,10499911855.084866,47.655,-122.3035,60.0,3.566666666666667
2026-02-06T21:26:42+00:00,SAT-52114,74.59758258911553,60.29706745441589,610.4339074786742,2.5864485889294238,-90588.37025099194,10.5,10499909411.62975,47.655,-122.3035,60.0,3.5833333333333335
2026-02-06T21:26:43+00:00,SAT-52114,75.47287510344047,59.82989335161615,613.0134221558667,2.6553339083661993,-93001.02552228014,10.5,10499906998.974478,47.655,-122.3035,60.0,3.6
2026-02-06T21:26:44+00:00,SAT-52114,76.31678917018047,59.36081682058484,615.6616374804606,2.7233316519523503,-95382.59413283732,10.5,10499904617.405867,47.655,-122.3035,60.0,3.6166666666666667
2026-02-06T21:26:45+00:00,SAT-52114,77.13064676895036,58.89028014569556,618.3776682560739,2.790434786783139,-97732.82976059044,10.5,10499902267.170238,47.655,-122.3035,60.0,3.6333333333333333
2026-02-06T21:26:46+00:00,SAT-52114,77.91572513627143,58.41869776423206,621.1606222722735,2.8566374059064694,-100051.52551909069,10.5,10499899948.474482,47.655,-122.3035,60.0,3.65
2026-02-06T21:26:47+00:00,SAT-52114,78.67325526192124,57.94645758484975,624.0096014275108,2.9219346967354984,-102338.51285118965,10.5,10499897661.487148,47.655,-122.3035,60.0,3.6666666666666665
2026-02-06T21:26:48+00:00,SAT-52114,79.40442107354718,57.47392228549497,626.9237028205513,2.98632285992533,-104593.65868775778,10.5,10499895406.341312,47.655,-122.3035,60.0,3.683333333333333
2026-02-06T21:26:49+00:00,SAT-52114,80.11035917664918,57.00143058939467,629.9020197610018,3.0497991497673342,-106816.8668624646,10.5,10499893183.133137,47.655,-122.3035,60.0,3.7
2026-02-06T21:26:50+00:00,SAT-52114,80.7921590734738,56.529298492543,632.9436428201209,3.1123617920133184,-109008.07523363328,10.5,10499890991.924767,47.655,-122.3035,60.0,3.716666666666667
2026-02-06T21:26:51+00:00,SAT-52114,81.45086373971101,56.05782045797657,636.0476607996757,3.1740099426187522,-111167.25423925408,10.5,10499888832.74576,47.655,-122.3035,60.0,3.7333333333333334
2026-02-06T21:26:52+00:00,SAT-52114,82.08747049314714,55.58727056639633,639.2131616596519,3.234743661842999,-113294.40598986478,10.5,10499886705.59401,47.655,-122.3035,60.0,3.75
2026-02-06T21:26:53+00:00,SAT-52114,82.70293209183181,55.11790361877069,642.4392334201319,3.2945638781240394,-115389.56300329081,10.5,10499884610.436996,47.655,-122.3035,60.0,3.7666666666666666
2026-02-06T21:26:54+00:00,SAT-52114,83.29815800411859,54.649956191557266,645.7249650271484,3.3534723459598843,-117452.786729474,10.5,10499882547.21327,47.655,-122.3035,60.0,3.783333333333333
2026-02-06T21:26:55+00:00,SAT-52114,83.87401580351315,54.1836476451154,649.0694471765281,3.411471586070018,-119484.16545467328,10.5,10499880515.834545,47.655,-122.3035,60.0,3.8
2026-02-06T21:26:56+00:00,SAT-52114,84.43133264760327,53.71918108794708,652.4717730780588,3.46856487651527,-121483.81399044514,10.5,10499878516.18601,47.655,-122.3035,60.0,3.816666666666667
2026-02-06T21:26:57+00:00,SAT-52114,84.97089681823513,53.25674429042962,655.9310392108022,3.5247562062532682,-123451.87204695896,10.5,10499876548.127953,47.655,-122.3035,60.0,3.8333333333333335
2026-02-06T21:26:58+00:00,SAT-52114,85.49345929012814,52.79651055462931,659.4463460320826,3.5800502134611394,-125388.50207279717,10.5,10499874611.497927,47.655,-122.3035,60.0,3.85
2026-02-06T21:26:59+00:00,SAT-52114,85.99973530576806,52.3386395433768,663.0167986249689,3.634452165321445,-127293.88854697329,10.5,10499872706.111452,47.655,-122.3035,60.0,3.8666666666666667
2026-02-06T21:27:00+00:00,SAT-52114,86.4904059457392,51.88327806461433,666.6415073255893,3.6879679227320454,-129168.23674292192,10.5,10499870831.763258,47.655,-122.3035,60.0,3.8833333333333333
2026-02-06T21:27:01+00:00,SAT-52114,86.96611967874031,51.43056081489969,670.3195883152599,3.740603893412269,-131011.77108607859,10.5,10499868988.228914,47.655,-122.3035,60.0,3.9
2026-02-06T21:27:02+00:00,SAT-52114,87.42749387938005,50.98061108524716,674.0501641658375,3.7923670088292365,-132824.7343457419,10.5,10499867175.265654,47.655,-122.3035,60.0,3.9166666666666665
2026-02-06T21:27:03+00:00,SAT-52114,87.87511630864668,50.5335414281774,677.8323643620627,3.8432646402756507,-134607.38469576288,10.5,10499865392.615305,47.655,-122.3035,60.0,3.933333333333333
2026-02-06T21:27:04+00:00,SAT-52114,88.30954654451459,50.089454294967005,681.6653257402082,3.893304652149656,-136359.9975806309,10.5,10499863640.002419,47.655,-122.3035,60.0,3.95
2026-02-06T21:27:05+00:00,SAT-52114,88.73131737315633,49.64844262873839,685.5481929798615,3.942495289824783,-138082.8617882049,10.5,10499861917.138212,47.655,-122.3035,60.0,3.966666666666667
2026-02-06T21:27:06+00:00,SAT-52114,89.14093611972267,49.2105904347319,689.4801189838787,3.990845177615925,-139776.27937847326,10.5,10499860223.720621,47.655,-122.3035,60.0,3.9833333333333334
2026-02-06T21:27:07+00:00,SAT-52114,89.53888592889538,48.77597331638566,693.4602652563099,4.038363268702671,-141440.56392965713,10.5,10499858559.43607,47.655,-122.3035,60.0,4.0
2026-02-06T21:27:08+00:00,SAT-52114,89.92562698932576,48.34465898444312,697.4878022303834,4.085058853323965,-143076.04082522195,10.5,10499856923.959175,47.655,-122.3035,60.0,4.016666666666667
2026-02-06T21:27:09+00:00,SAT-52114,90.30159770697053,47.916707734382236,701.5619096046596,4.1309415082089656,-144683.04548273236,10.5,10499855316.954517,47.655,-122.3035,60.0,4.033333333333333
2026-02-06T21:27:10+00:00,SAT-52114,90.66721582207558,47.49217290024352,705.6817766287552,4.176021025918112,-146261.92087907752,10.5,10499853738.07912,47.655,-122.3035,60.0,4.05
2026-02-06T21:27:11+00:00,SAT-52114,91.02287946928082,47.07110128802536,709.8466023185938,4.220307456940109,-147813.01902488535,10.5,10499852186.980974,47.655,-122.3035,60.0,4.066666666666666
2026-02-06T21:27:12+00:00,SAT-52114,91.36896819174731,46.65353357845944,714.0555957136442,4.263811057347835,-149336.6991312112,10.5,10499850663.300869,47.655,-122.3035,60.0,4.083333333333333
2026-02-06T21:27:13+00:00,SAT-52114,91.70584390195697,46.23950471049992,718.307976081953,4.306542240689747,-150833.32592457128,10.5,10499849166.674076,47.655,-122.3035,60.0,4.1
2026-02-06T21:27:14+00:00,SAT-52114,92.0338517918963,45.8290442460612,722.6029730771984,4.348511579860128,-152303.2697124467,10.5,10499847696.730288,47.655,-122.3035,60.0,4.116666666666666
2026-02-06T21:27:15+00:00,SAT-52114,92.35332119803974,45.42217671230325,726.9398268976074,4.38972976614573,-153746.9049489236,10.5,10499846253.09505,47.655,-122.3035,60.0,4.133333333333334
2026-02-06T21:27:16+00:00,SAT-52114,92.66456641964565,45.018921926824056,731.3177884040331,4.430207636818411,-155164.61120110404,10.5,10499844835.3888,47.655,-122.3035,60.0,4.15
2026-02-06T21:27:17+00:00,SAT-52114,92.96788749693873,44.61929530053223,735.7361192655457,4.469956071576726,-156556.76952205255,10.5,10499843443.230478,47.655,-122.3035,60.0,4.166666666666667
2026-02-06T21:27:18+00:00,SAT-52114,93.26357094221588,44.22330813128538,740.1940920017486,4.50898603730357,-157923.76401839798,10.5,10499842076.235981,47.655,-122.3035,60.0,4.183333333333334
2026-02-06T21:27:19+00:00,SAT-52114,93.55189043583536,43.83096787557543,744.6909900697262,4.547308551833537,-159265.98058131317,10.5,10499840734.019419,47.655,-122.3035,60.0,4.2
2026-02-06T21:27:20+00:00,SAT-52114,93.83310748328144,43.44227840676038,749.2261079148606,4.584934681404452,-160583.8067972569,10.5,10499839416.193203,47.655,-122.3035,60.0,4.216666666666667
2026-02-06T21:27:21+00:00,SAT-52114,94.10747203742399,43.057240257727564,753.7987510191056,4.621875475547179,-161877.62966753947,10.5,10499838122.370333,47.655,-122.3035,60.0,4.233333333333333
2026-02-06T21:27:22+00:00,SAT-52114,94.3752230839323,42.6758508540887,758.4082358843215,4.658142008123983,-163147.83704565983,10.5,10499836852.162954,47.655,-122.3035,60.0,4.25
2026-02-06T21:27:23+00:00,SAT-52114,94.63658919807865,42.29810472968056,763.0538900565455,4.6937453589973,-164394.81699526828,10.5,10499835605.183004,47.655,-122.3035,60.0,4.266666666666667
2026-02-06T21:27:24+00:00,SAT-52114,94.89178907048473,41.923993730370526,767.735052131972,4.728696530265588,-165618.9548563916,10.5,10499834381.045143,47.655,-122.3035,60.0,4.283333333333333
2026-02-06T21:27:25+00:00,SAT-52114,95.14103200065898,41.55350721192121,772.4510716793999,4.7630065430667425,-166820.6366358983,10.5,10499833179.363363,47.655,-122.3035,60.0,4.3
2026-02-06T21:27:26+00:00,SAT-52114,95.38451836899272,41.18663221812853,777.2013092592198,4.796686330112357,-168000.24524359367,10.5,10499831999.754757,47.655,-122.3035,60.0,4.316666666666666
2026-02-06T21:27:27+00:00,SAT-52114,95.62244007810246,40.823353656238,781.9851363352237,4.829746802369463,-169158.1628276965,10.5,10499830841.837172,47.655,-122.3035,60.0,4.333333333333333
2026-02-06T21:27:28+00:00,SAT-52114,95.85498097374769,40.46365445649876,786.8019352529212,4.862198760165394,-170294.76766135535,10.5,10499829705.232338,47.655,-122.3035,60.0,4.35
2026-02-06T21:27:29+00:00,SAT-52114,96.08231723921254,40.10751572842166,791.651099129194,4.894052959749199,-171410.43647391084,10.5,10499828589.563526,47.655,-122.3035,60.0,4.366666666666666
2026-02-06T21:27:30+00:00,SAT-52114,96.30461777153042,39.754916902499836,796.5320318083374,4.925320038480299,-172505.54183068592,10.5,10499827494.45817,47.655,-122.3035,60.0,4.383333333333334
2026-02-06T21:27:31+00:00,SAT-52114,96.52204453436863,39.40583586847627,801.4441477434888,4.956010598393289,-173580.4550597785,10.5,10499826419.54494,47.655,-122.3035,60.0,4.4
2026-02-06T21:27:32+00:00,SAT-52114,96.73475289568773,39.06024909915666,806.3868719613971,4.986135088054741,-174635.5421141875,10.5,10499825364.457886,47.655,-122.3035,60.0,4.416666666666667
2026-02-06T21:27:33+00:00,SAT-52114,96.94289194242776,38.71813177468016,811.3596399093676,5.015703838419654,-175671.16482765676,10.5,10499824328.835173,47.655,-122.3035,60.0,4.433333333333334
2026-02-06T21:27:34+00:00,SAT-52114,97.1466047803112,38.37945789649547,816.3618973379633,5.044727135259231,-176687.68345140267,10.5,10499823312.31655,47.655,-122.3035,60.0,4.45
2026-02-06T21:27:35+00:00,SAT-52114,97.3460288201686,38.044200389397766,821.3931002559457,5.073215075972009,-177685.4516390339,10.5,10499822314.54836,47.655,-122.3035,60.0,4.466666666666667
2026-02-06T21:27:36+00:00,SAT-52114,97.54129604410642,37.712331206571044,826.4527147424023,5.101177694090703,-178664.8208073079,10.5,10499821335.179193,47.655,-122.3035,60.0,4.483333333333333
2026-02-06T21:27:37+00:00,SAT-52114,97.7325332620078,37.38382141991187,831.5402168830581,5.1286248443322995,-179626.136110099,10.5,10499820373.86389,47.655,-122.3035,60.0,4.5
2026-02-06T21:27:38+00:00,SAT-52114,97.91986235064785,37.058641311965395,836.6550925919329,5.15556630060265,-180569.7398709337,10.5,10499819430.26013,47.655,-122.3035,60.0,4.516666666666667
2026-02-06T21:27:39+00:00,SAT-52114,98.10340048365103,36.736760455852696,841.7968375307516,5.182011668550016,-181495.968520246,10.5,10499818504.031479,47.655,-122.3035,60.0,4.533333333333333
2026-02-06T21:27:40+00:00,SAT-52114,98.2832603465842,36.41814779550734,846.964956941136,5.207970437035665,-182405.15439809524,10.5,10499817594.845602,47.655,-122.3035,60.0,4.55
2026-02-06T21:27:41+00:00,SAT-52114,98.45955034254273,36.10277171761824,852.1589655281297,5.233451956848984,-183297.62500867964,10.5,10499816702.37499,47.655,-122.3035,60.0,4.566666666666666
2026-02-06T21:27:42+00:00,SAT-52114,98.63237478650191,35.79060012021757,857.3783873224988,5.258465430804826,-184173.7026735031,10.5,10499815826.297327,47.655,-122.3035,60.0,4.583333333333333
2026-02-06T21:27:43+00:00,SAT-52114,98.80183408932629,35.48160047740671,862.6227555331519,5.283019920709036,-185033.70477533786,10.5,10499814966.295225,47.655,-122.3035,60.0,4.6
2026-02-06T21:27:44+00:00,SAT-52114,98.96802493260526,35.1757398994501,867.8916124065105,5.307124349485861,-185877.94383273492,10.5,10499814122.056168,47.655,-122.3035,60.0,4.616666666666666
2026-02-06T21:27:45+00:00,SAT-52114,99.1310404347051,34.872985188813765,873.1845090879983,5.330787512420791,-186706.72789379617,10.5,10499813293.272106,47.655,-122.3035,60.0,4.633333333333334
2026-02-06T21:27:46+00:00,SAT-52114,99.29097030853531,34.57330289188308,878.501005494747,5.354018040725519,-187520.35926006502,10.5,10499812479.64074,47.655,-122.3035,60.0,4.65
2026-02-06T21:27:47+00:00,SAT-52114,99.44790101054879,34.27665934927274,883.8406701519598,5.3768244086838894,-188319.13473680793,10.5,10499811680.865263,47.655,-122.3035,60.0,4.666666666666667
2026-02-06T21:27:48+00:00,SAT-52114,99.60191588230506,33.98302074236179,889.2030800364057,5.399214981693409,-189103.34731563122,10.5,10499810896.652685,47.655,-122.3035,60.0,4.683333333333334
2026-02-06T21:27:49+00:00,SAT-52114,99.7530952863463,33.69235313411912,894.5878204678248,5.421197963702488,-189873.2843335109,10.5,10499810126.715666,47.655,-122.3035,60.0,4.7
2026-02-06T21:27:50+00:00,SAT-52114,99.90151673378895,33.40462250995635,899.9944849479122,5.442781412889783,-190629.2280219495,10.5,10499809370.771978,47.655,-122.3035,60.0,4.716666666666667
2026-02-06T21:27:51+00:00,SAT-52114,100.0472550061672,33.11979481495427,905.4226750149377,5.463973225718673,-191371.45494849663,10.5,10499808628.545052,47.655,-122.3035,60.0,4.733333333333333
2026-02-06T21:27:52+00:00,SAT-52114,100.19038227077144,32.83783598933568,910.8720000824667,5.484781192321021,-192100.2379565223,10.5,10499807899.762043,47.655,-122.3035,60.0,4.75
2026-02-06T21:27:53+00:00,SAT-52114,100.33096819172789,32.558711998649386,916.342077333311,5.50521294228867,-192815.84426660606,10.5,10499807184.155733,47.655,-122.3035,60.0,4.766666666666667
2026-02-06T21:27:54+00:00,SAT-52114,100.46908003430892,32.282388864549155,921.8325315594207,5.525275953411651,-193518.53578258574,10.5,10499806481.464218,47.655,-122.3035,60.0,4.783333333333333
2026-02-06T21:27:55+00:00,SAT-52114,100.60478276446841,32.008832692938505,927.3429950104893,5.544977582533086,-194208.57017222696,10.5,10499805791.429829,47.655,-122.3035,60.0,4.8
2026-02-06T21:27:56+00:00,SAT-52114,100.73813914419834,31.738009698585174,932.8731072733304,5.564325023166725,-194886.19938280972,10.5,10499805113.800617,47.655,-122.3035,60.0,4.816666666666666
2026-02-06T21:27:57+00:00,SAT-52114,100.86920982141116,31.46988622996484,938.422515108987,5.583325364241158,-195551.67169859944,10.5,10499804448.3283,47.655,-122.3035,60.0,4.833333333333333
2026-02-06T21:27:58+00:00,SAT-52114,100.99805341678085,31.204428789485803,943.9908723484253,5.601985543581719,-196205.23011158622,10.5,10499803794.769888,47.655,-122.3035,60.0,4.85
2026-02-06T21:27:59+00:00,SAT-52114,101.12472660547157,30.94160405436257,949.5778397418392,5.620312300749581,-196847.1106697107,10.5,10499803152.88933,47.655,-122.3035,60.0,4.866666666666666
2026-02-06T21:28:00+00:00,SAT-52114,101.24928419407769,30.681378898059783,955.1830847609135,5.638312382973556,-197477.54968946663,10.5,10499802522.45031,47.655,-122.3035,60.0,4.883333333333334
2026-02-06T21:28:01+00:00,SAT-52114,101.37177919799967,30.423720400718008,960.8062816064747,5.655992263708916,-198096.77389864033,10.5,10499801903.2261,47.655,-122.3035,60.0,4.9
2026-02-06T21:28:02+00:00,SAT-52114,101.4922629097503,30.168595871344987,966.4471109354521,5.673358379612774,-198705.00873619082,10.5,10499801294.991264,47.655,-122.3035,60.0,4.916666666666667
