DopplerPredictor/satellites_20260211_204923/SAT-45406.csv

timestamp,satellite,azimuth_deg,elevation_deg,distance_km,relative_velocity_kms,doppler_shift_hz,tx_freq_ghz,rx_freq_hz,ue_lat,ue_lon,ue_alt_m,time_minutes
2026-02-06T21:24:42+00:00,SAT-45406,262.45636932414504,30.14257873805502,984.9362665912619,-5.57695385345898,195328.51443954368,10.5,10500195328.514439,47.655,-122.3035,60.0,1.5833333333333333
2026-02-06T21:24:43+00:00,SAT-45406,262.59510951279105,30.390290929771403,979.3742637814644,-5.5589231842822295,194697.00413531886,10.5,10500194697.004135,47.655,-122.3035,60.0,1.6
2026-02-06T21:24:44+00:00,SAT-45406,262.7360980868196,30.640326756522423,973.8302433031081,-5.540576868789884,194054.43856193937,10.5,10500194054.438562,47.655,-122.3035,60.0,1.6166666666666667
2026-02-06T21:24:45+00:00,SAT-45406,262.8793900512759,30.89271298034869,968.3045199563038,-5.5219087373119935,193400.60163146575,10.5,10500193400.601631,47.655,-122.3035,60.0,1.6333333333333333
2026-02-06T21:24:46+00:00,SAT-45406,263.02504216337843,31.14747642100506,962.7974146942931,-5.50291252661623,192735.27397900855,10.5,10500192735.27398,47.655,-122.3035,60.0,1.65
2026-02-06T21:24:47+00:00,SAT-45406,263.17311300092797,31.404643937123566,957.3092547167588,-5.483581862976179,192058.23236970787,10.5,10500192058.23237,47.655,-122.3035,60.0,1.6666666666666667
2026-02-06T21:24:48+00:00,SAT-45406,263.3236630332411,31.664242405222108,951.8403735800229,-5.463910220040296,191369.2482231261,10.5,10500191369.248222,47.655,-122.3035,60.0,1.6833333333333333
2026-02-06T21:24:49+00:00,SAT-45406,263.476754694366,31.92629869519493,946.391111349263,-5.443890968991539,190668.08937005064,10.5,10500190668.08937,47.655,-122.3035,60.0,1.7
2026-02-06T21:24:50+00:00,SAT-45406,263.63245246072853,32.19083964651709,940.9618147007022,-5.423517374615286,189954.5199147755,10.5,10500189954.519915,47.655,-122.3035,60.0,1.7166666666666666
2026-02-06T21:24:51+00:00,SAT-45406,263.79082293238775,32.45789204261213,935.5528370277232,-5.40278258670177,189228.29993397827,10.5,10500189228.299934,47.655,-122.3035,60.0,1.7333333333333334
2026-02-06T21:24:52+00:00,SAT-45406,263.9519349177086,32.72748258303177,930.1645385555523,-5.381679596765452,188489.1839608495,10.5,10500188489.18396,47.655,-122.3035,60.0,1.75
2026-02-06T21:24:53+00:00,SAT-45406,264.11585952074023,32.99963785153632,924.7972864991135,-5.360201312563002,187736.92359502762,10.5,10500187736.923595,47.655,-122.3035,60.0,1.7666666666666666
2026-02-06T21:24:54+00:00,SAT-45406,264.28267023469726,33.27438428583753,919.4514551465621,-5.338340497017601,186971.26536346957,10.5,10500186971.265364,47.655,-122.3035,60.0,1.7833333333333334
2026-02-06T21:24:55+00:00,SAT-45406,264.4524430380307,33.551748142144596,914.1274260037262,-5.316089796760185,186191.95172008613,10.5,10500186191.95172,47.655,-122.3035,60.0,1.8
2026-02-06T21:24:56+00:00,SAT-45406,264.6252564957216,33.831755458844135,908.8255879100907,-5.293441768288153,185398.7219619301,10.5,10500185398.721962,47.655,-122.3035,60.0,1.8166666666666667
2026-02-06T21:24:57+00:00,SAT-45406,264.8011918661772,34.11443201919303,903.5463371286884,-5.270388796288859,184591.30936853995,10.5,10500184591.309368,47.655,-122.3035,60.0,1.8333333333333333
2026-02-06T21:24:58+00:00,SAT-45406,264.9803332105281,34.39980330713689,898.2900775174481,-5.246923159133128,183769.4434957995,10.5,10500183769.443497,47.655,-122.3035,60.0,1.85
2026-02-06T21:24:59+00:00,SAT-45406,265.16276750900767,34.68789446381583,893.0572206352296,-5.223037058983473,182932.85123045513,10.5,10500182932.85123,47.655,-122.3035,60.0,1.8666666666666667
2026-02-06T21:25:00+00:00,SAT-45406,265.34858478391305,34.9787302429564,887.8481858178224,-5.198722496870364,182081.2524147583,10.5,10500182081.252415,47.655,-122.3035,60.0,1.8833333333333333
2026-02-06T21:25:01+00:00,SAT-45406,265.5378782241115,35.27233495633312,882.6634003785423,-5.173971437209324,181214.36560855008,10.5,10500181214.365608,47.655,-122.3035,60.0,1.9
2026-02-06T21:25:02+00:00,SAT-45406,265.73074432089174,35.56873242512544,877.5032996447478,-5.148775667995517,180331.9031926845,10.5,10500180331.903193,47.655,-122.3035,60.0,1.9166666666666667
2026-02-06T21:25:03+00:00,SAT-45406,265.9272830054853,35.867945920096346,872.3683271337875,-5.123126910125502,179433.57519793833,10.5,10500179433.575197,47.655,-122.3035,60.0,1.9333333333333333
2026-02-06T21:25:04+00:00,SAT-45406,266.12759779690117,36.169998104386465,867.2589346199165,-5.097016700482037,178519.0852101469,10.5,10500178519.08521,47.655,-122.3035,60.0,1.95
2026-02-06T21:25:05+00:00,SAT-45406,266.33179595237686,36.47491096572154,862.17558231782,-5.070436555530406,177588.13610003912,10.5,10500177588.1361,47.655,-122.3035,60.0,1.9666666666666666
2026-02-06T21:25:06+00:00,SAT-45406,266.5399886311698,36.78270575425185,857.1187389029749,-5.043377803648584,176640.42415073075,10.5,10500176640.42415,47.655,-122.3035,60.0,1.9833333333333334
2026-02-06T21:25:07+00:00,SAT-45406,266.7522910595858,37.09340290624859,852.0888816992315,-5.015831709997981,175675.643431226,10.5,10500175675.64343,47.655,-122.3035,60.0,2.0
2026-02-06T21:25:08+00:00,SAT-45406,266.96882270867883,37.40702197077097,847.0864967418634,-4.987789414663305,174693.483629814,10.5,10500174693.48363,47.655,-122.3035,60.0,2.0166666666666666
2026-02-06T21:25:09+00:00,SAT-45406,267.18970747783686,37.72358152790733,842.1120789023058,-4.959241970253468,173693.63137101138,10.5,10500173693.63137,47.655,-122.3035,60.0,2.033333333333333
2026-02-06T21:25:10+00:00,SAT-45406,267.4150738885956,38.04309910435924,837.1661319753993,-4.930180324710023,172675.7696134412,10.5,10500172675.769613,47.655,-122.3035,60.0,2.05
2026-02-06T21:25:11+00:00,SAT-45406,267.64505528680974,38.36559108272143,832.2491687837747,-4.900595355726486,171639.578855343,10.5,10500171639.578856,47.655,-122.3035,60.0,2.066666666666667
2026-02-06T21:25:12+00:00,SAT-45406,267.8797900558274,38.691072607472265,827.3617112479151,-4.870477814822804,170584.73517582435,10.5,10500170584.735176,47.655,-122.3035,60.0,2.0833333333333335
2026-02-06T21:25:13+00:00,SAT-45406,268.119421837189,39.019557481469775,822.5042905119878,-4.8398183981866305,169510.91271602176,10.5,10500169510.912716,47.655,-122.3035,60.0,2.1
2026-02-06T21:25:14+00:00,SAT-45406,268.3640997647275,39.35105806093762,817.6774469990319,-4.8086077377047625,168417.7833649838,10.5,10500168417.783365,47.655,-122.3035,60.0,2.1166666666666667
2026-02-06T21:25:15+00:00,SAT-45406,268.61397870932683,39.685585143507886,812.8817304750843,-4.77683635410731,167305.01511858165,10.5,10500167305.015118,47.655,-122.3035,60.0,2.1333333333333333
2026-02-06T21:25:16+00:00,SAT-45406,268.86921953261,40.02314784617777,808.1177001600387,-4.744494742392587,166172.27507145013,10.5,10500166172.275072,47.655,-122.3035,60.0,2.15
2026-02-06T21:25:17+00:00,SAT-45406,269.12998935658203,40.3637534819839,803.3859247533103,-4.7115733424898565,165019.228389473,10.5,10500165019.22839,47.655,-122.3035,60.0,2.1666666666666665
2026-02-06T21:25:18+00:00,SAT-45406,269.3964618441466,40.707407427199044,798.6869824887542,-4.678062516843932,163845.53752470078,10.5,10500163845.537525,47.655,-122.3035,60.0,2.183333333333333
2026-02-06T21:25:19+00:00,SAT-45406,269.66881749124093,41.05411297890079,794.0214612119455,-4.643952602543652,162650.86404111056,10.5,10500162650.86404,47.655,-122.3035,60.0,2.2
2026-02-06T21:25:20+00:00,SAT-45406,269.9472439347317,41.40387120790688,789.3899584054637,-4.609233918553465,161434.86886788654,10.5,10500161434.868868,47.655,-122.3035,60.0,2.216666666666667
2026-02-06T21:25:21+00:00,SAT-45406,270.23193627463706,41.756680803551355,784.7930812069717,-4.57389676419246,160197.2122461494,10.5,10500160197.212246,47.655,-122.3035,60.0,2.2333333333333334
2026-02-06T21:25:22+00:00,SAT-45406,270.5230974104588,42.11253790917099,780.2314464288062,-4.537931416955243,158937.5536526341,10.5,10500158937.553652,47.655,-122.3035,60.0,2.25
2026-02-06T21:25:23+00:00,SAT-45406,270.82093839205925,42.47143594769376,775.7056805797454,-4.50132814239834,157655.5521459535,10.5,10500157655.552145,47.655,-122.3035,60.0,2.2666666666666666
2026-02-06T21:25:24+00:00,SAT-45406,271.1256787859266,42.8333654377119,771.2164198769134,-4.464077273894991,156350.86915994866,10.5,10500156350.86916,47.655,-122.3035,60.0,2.283333333333333
2026-02-06T21:25:25+00:00,SAT-45406,271.43754706224695,43.198313805289764,766.764310178147,-4.426169091109521,155023.16424734727,10.5,10500155023.164248,47.655,-122.3035,60.0,2.3
2026-02-06T21:25:26+00:00,SAT-45406,271.75678098984235,43.56626517476567,762.3500070355595,-4.38759401886754,153672.10204503936,10.5,10500153672.102045,47.655,-122.3035,60.0,2.316666666666667
2026-02-06T21:25:27+00:00,SAT-45406,272.08362806050565,43.93720016403942,757.9741755507688,-4.348342429359739,152297.34534641713,10.5,10500152297.345346,47.655,-122.3035,60.0,2.3333333333333335
2026-02-06T21:25:28+00:00,SAT-45406,272.4183459164523,44.311095651226324,753.6374904273908,-4.308404839160007,150898.56200178346,10.5,10500150898.562002,47.655,-122.3035,60.0,2.35
2026-02-06T21:25:29+00:00,SAT-45406,272.76120280780805,44.687924544802364,749.3406358270448,-4.267771827609408,149475.42205981308,10.5,10500149475.42206,47.655,-122.3035,60.0,2.3666666666666667
2026-02-06T21:25:30+00:00,SAT-45406,273.11247806142484,45.067655533520266,745.0843053067525,-4.226434068529224,148027.59887827752,10.5,10500148027.598879,47.655,-122.3035,60.0,2.3833333333333333
2026-02-06T21:25:31+00:00,SAT-45406,273.4724625682778,45.450252824825554,740.8692017247133,-4.184382378450371,146554.7708132434,10.5,10500146554.770813,47.655,-122.3035,60.0,2.4
2026-02-06T21:25:32+00:00,SAT-45406,273.84145929139686,45.83567587285097,736.6960370979747,-4.141607708205411,145056.62092458917,10.5,10500145056.620924,47.655,-122.3035,60.0,2.4166666666666665
2026-02-06T21:25:33+00:00,SAT-45406,274.21978378915395,46.22387909034037,732.5655324684931,-4.098101149938939,143532.83722153833,10.5,10500143532.837221,47.655,-122.3035,60.0,2.433333333333333
2026-02-06T21:25:34+00:00,SAT-45406,274.60776475469146,46.6148115450582,728.4784177621992,-4.05385399699709,141983.1147602434,10.5,10500141983.11476,47.655,-122.3035,60.0,2.45
2026-02-06T21:25:35+00:00,SAT-45406,275.00574457495094,47.00841664505619,724.4354315883362,-4.008857746986253,140407.15575091503,10.5,10500140407.15575,47.655,-122.3035,60.0,2.466666666666667
2026-02-06T21:25:36+00:00,SAT-45406,275.41407990414183,47.40463180695267,720.4373210357471,-3.963104120729676,138804.67022176256,10.5,10500138804.670221,47.655,-122.3035,60.0,2.4833333333333334
2026-02-06T21:25:37+00:00,SAT-45406,275.8331422508291,47.80338810797698,716.4848414502568,-3.91658506551753,137175.37613282475,10.5,10500137175.376133,47.655,-122.3035,60.0,2.5
2026-02-06T21:25:38+00:00,SAT-45406,276.2633185757399,48.204609919471864,712.5787562088113,-3.8692928338844013,135519.0021350911,10.5,10500135519.002134,47.655,-122.3035,60.0,2.5166666666666666
2026-02-06T21:25:39+00:00,SAT-45406,276.70501190522907,48.60821452890124,708.7198364150521,-3.8212199584595257,133835.28668965053,10.5,10500133835.28669,47.655,-122.3035,60.0,2.533333333333333
2026-02-06T21:25:40+00:00,SAT-45406,277.15864194766044,49.014111739332485,704.9088606199728,-3.7723593032287637,132123.97986310255,10.5,10500132123.979862,47.655,-122.3035,60.0,2.55
2026-02-06T21:25:41+00:00,SAT-45406,277.6246457166729,49.42220345349295,701.1466144914502,-3.722704076080508,130384.84376696807,10.5,10500130384.843767,47.655,-122.3035,60.0,2.566666666666667
2026-02-06T21:25:42+00:00,SAT-45406,278.10347815333046,49.83238323788411,697.4338904712648,-3.672247863573255,128617.65377539677,10.5,10500128617.653776,47.655,-122.3035,60.0,2.5833333333333335
2026-02-06T21:25:43+00:00,SAT-45406,278.5956127444727,50.24453586879779,693.7714873974435,-3.6209846605071316,126822.19956088717,10.5,10500126822.19956,47.655,-122.3035,60.0,2.6
2026-02-06T21:25:44+00:00,SAT-45406,279.1015421307195,50.65853685930056,690.1602100971152,-3.568908924579123,124998.28700854372,10.5,10500124998.287008,47.655,-122.3035,60.0,2.6166666666666667
2026-02-06T21:25:45+00:00,SAT-45406,279.6217787010777,51.07425196984503,686.6008689248536,-3.5160155172797776,123145.73614602961,10.5,10500123145.736147,47.655,-122.3035,60.0,2.6333333333333333
2026-02-06T21:25:46+00:00,SAT-45406,280.1568551495291,51.4915366890459,683.0942793599654,-3.4622998557008704,121264.3864605131,10.5,10500121264.386461,47.655,-122.3035,60.0,2.65
2026-02-06T21:25:47+00:00,SAT-45406,280.70732501300074,51.91023570890906,679.6412614523804,-3.4077578653931884,119354.09524754781,10.5,10500119354.095247,47.655,-122.3035,60.0,2.6666666666666665
2026-02-06T21:25:48+00:00,SAT-45406,281.2737631521902,52.330182371783366,676.2426393155537,-3.3523860229219316,117414.73910154297,10.5,10500117414.739101,47.655,-122.3035,60.0,2.683333333333333
2026-02-06T21:25:49+00:00,SAT-45406,281.85676617398207,52.75119809944057,672.8992405769301,-3.296181387957745,115446.21503972699,10.5,10500115446.21504,47.655,-122.3035,60.0,2.7
2026-02-06T21:25:50+00:00,SAT-45406,282.4569527780457,53.17309180369067,669.6118957964002,-3.239141661298132,113448.4425343028,10.5,10500113448.442533,47.655,-122.3035,60.0,2.716666666666667
2026-02-06T21:25:51+00:00,SAT-45406,283.0749640153726,53.59565928275764,666.3814378268945,-3.1812651950704804,111421.36386980103,10.5,10500111421.36387,47.655,-122.3035,60.0,2.7333333333333334
2026-02-06T21:25:52+00:00,SAT-45406,283.71146342988857,54.01868259869514,663.2087011647974,-3.122551020892514,109364.94512937812,10.5,10500109364.94513,47.655,-122.3035,60.0,2.75
2026-02-06T21:25:53+00:00,SAT-45406,284.36713706274764,54.44192943951559,660.0945212722797,-3.0629988673767814,107279.17680789757,10.5,10500107279.176807,47.655,-122.3035,60.0,2.7666666666666666
2026-02-06T21:25:54+00:00,SAT-45406,285.0426932898454,54.865152466637554,657.0397338821728,-3.002609258794666,105164.07726756086,10.5,10500105164.077267,47.655,-122.3035,60.0,2.783333333333333
2026-02-06T21:25:55+00:00,SAT-45406,285.73886248001315,55.2880886615864,654.0451742044406,-2.9413834703630783,103019.69117185837,10.5,10500103019.691172,47.655,-122.3035,60.0,2.8
2026-02-06T21:25:56+00:00,SAT-45406,286.4563964106892,55.71045865585683,651.111676177251,-2.8793235943879902,100846.0918021957,10.5,10500100846.091803,47.655,-122.3035,60.0,2.816666666666667
2026-02-06T21:25:57+00:00,SAT-45406,287.1960674252836,56.131966063047216,648.2400716520727,-2.8164325528161966,98643.38149750941,10.5,10500098643.381498,47.655,-122.3035,60.0,2.8333333333333335
2026-02-06T21:25:58+00:00,SAT-45406,287.9586672784421,56.55229681096487,645.4311895662629,-2.752714167349055,96411.69410994681,10.5,10500096411.69411,47.655,-122.3035,60.0,2.85
2026-02-06T21:25:59+00:00,SAT-45406,288.7450056367918,56.97111848835844,642.6858550457221,-2.6881731449072745,94151.19449578143,10.5,10500094151.194496,47.655,-122.3035,60.0,2.8666666666666667
2026-02-06T21:26:00+00:00,SAT-45406,289.5559081633193,57.38807970118076,640.0048885220482,-2.6228150995569175,91862.07928335421,10.5,10500091862.079283,47.655,-122.3035,60.0,2.8833333333333333
2026-02-06T21:26:01+00:00,SAT-45406,290.3922141357039,57.8028094520525,637.3891048278247,-2.556646634524123,89544.57974557618,10.5,10500089544.579746,47.655,-122.3035,60.0,2.9
2026-02-06T21:26:02+00:00,SAT-45406,291.2547735581224,58.214916562761964,634.8393122101105,-2.4896753027545873,87198.96041855452,10.5,10500087198.960419,47.655,-122.3035,60.0,2.9166666666666665
2026-02-06T21:26:03+00:00,SAT-45406,292.14444366559775,58.623989132822174,632.3563113832674,-2.421909668973929,84825.52127520918,10.5,10500084825.521275,47.655,-122.3035,60.0,2.933333333333333
2026-02-06T21:26:04+00:00,SAT-45406,293.0620847837691,59.02959406359991,629.9408945198924,-2.3533593075212775,82424.59764939589,10.5,10500082424.597649,47.655,-122.3035,60.0,2.95
2026-02-06T21:26:05+00:00,SAT-45406,294.00855545315744,59.431276653651544,627.5938442439111,-2.2840348451727595,79996.5617357658,10.5,10500079996.561735,47.655,-122.3035,60.0,2.966666666666667
2026-02-06T21:26:06+00:00,SAT-45406,294.9847067631682,59.82856029063916,625.3159325809613,-2.213947946086251,77541.82206246706,10.5,10500077541.822062,47.655,-122.3035,60.0,2.9833333333333334
2026-02-06T21:26:07+00:00,SAT-45406,295.9913758037422,60.220946250317624,623.1079199237938,-2.143111358582621,75060.82512962191,10.5,10500075060.82513,47.655,-122.3035,60.0,3.0
2026-02-06T21:26:08+00:00,SAT-45406,297.0293781920522,60.60791363584906,620.9705539510143,-2.071538896996071,72554.05477364859,10.5,10500072554.054773,47.655,-122.3035,60.0,3.0166666666666666
2026-02-06T21:26:09+00:00,SAT-45406,298.09949958812666,60.988919471244735,618.9045685639286,-1.9992454625172325,70022.03289727503,10.5,10500070022.032898,47.655,-122.3035,60.0,3.033333333333333
2026-02-06T21:26:10+00:00,SAT-45406,299.2024861649867,61.36339898309855,616.9106828026005,-1.9262470587236071,67465.32001348038,10.5,10500067465.320013,47.655,-122.3035,60.0,3.05
2026-02-06T21:26:11+00:00,SAT-45406,300.33903399853284,61.73076609952137,614.9895997464191,-1.852560770923482,64884.51452203163,10.5,10500064884.514523,47.655,-122.3035,60.0,3.066666666666667
2026-02-06T21:26:12+00:00,SAT-45406,301.5097773442891,62.09041419100334,613.142005435269,-1.778204773546712,62280.25296834011,10.5,10500062280.252968,47.655,-122.3035,60.0,3.0833333333333335
2026-02-06T21:26:13+00:00,SAT-45406,302.7152758262424,62.4417170911983,611.368567783328,-1.7031983508574762,59653.210768909674,10.5,10500059653.21077,47.655,-122.3035,60.0,3.1
2026-02-06T21:26:14+00:00,SAT-45406,303.95600059649513,62.784030434317316,609.669935472208,-1.627561829892769,57004.099862559175,10.5,10500057004.099863,47.655,-122.3035,60.0,3.1166666666666667
2026-02-06T21:26:15+00:00,SAT-45406,305.2323194943045,63.1166933252518,608.0467369109774,-1.5513166242426133,54333.670243790584,10.5,10500054333.670244,47.655,-122.3035,60.0,3.1333333333333333
2026-02-06T21:26:16+00:00,SAT-45406,306.54448141087613,63.439030396661536,606.4995791525226,-1.4744851992697845,51642.70874463672,10.5,10500051642.708744,47.655,-122.3035,60.0,3.15
2026-02-06T21:26:17+00:00,SAT-45406,307.89260000206195,63.75035426736948,605.0290468445932,-1.3970910385791244,48932.03786027468,10.5,10500048932.03786,47.655,-122.3035,60.0,3.1666666666666665
2026-02-06T21:26:18+00:00,SAT-45406,309.2766369946758,64.04996842734813,603.6357012142898,-1.319158633621142,46202.51538490002,10.5,10500046202.515385,47.655,-122.3035,60.0,3.183333333333333
2026-02-06T21:26:19+00:00,SAT-45406,310.69638542331484,64.33717057331,602.3200790629215,-1.240713455111767,43455.033410725606,10.5,10500043455.033411,47.655,-122.3035,60.0,3.2
2026-02-06T21:26:20+00:00,SAT-45406,312.1514531688386,64.6112564021043,601.0826917893643,-1.1617819220668995,40690.517243440605,10.5,10500040690.517244,47.655,-122.3035,60.0,3.216666666666667
2026-02-06T21:26:21+00:00,SAT-45406,313.64124725015694,64.87152386178109,599.9240244443046,-1.0823913564434162,37909.92381354661,10.5,10500037909.923813,47.655,-122.3035,60.0,3.2333333333333334
2026-02-06T21:26:22+00:00,SAT-45406,315.1649593644295,65.11727784464978,598.844534829718,-1.0025699607416703,35114.240891902424,10.5,10500035114.240892,47.655,-122.3035,60.0,3.25
2026-02-06T21:26:23+00:00,SAT-45406,316.7215532697781,65.34783530015655,597.8446526206864,-0.9223467523944461,32304.484791747775,10.5,10500032304.48479,47.655,-122.3035,60.0,3.2666666666666666
2026-02-06T21:26:24+00:00,SAT-45406,318.3097545529891,65.56253071375116,596.9247785526511,-0.8417515421733367,29481.69961240331,10.5,10500029481.699612,47.655,-122.3035,60.0,3.283333333333333
2026-02-06T21:26:25+00:00,SAT-45406,319.92804345512286,65.7607218996644,596.0852836302007,-0.7608148659932744,26646.95485077674,10.5,10500026646.954851,47.655,-122.3035,60.0,3.3
2026-02-06T21:26:26+00:00,SAT-45406,321.5746512843454,65.94179601614957,595.3265084038707,-0.6795679417900833,23801.34389103236,10.5,10500023801.343891,47.655,-122.3035,60.0,3.316666666666667
2026-02-06T21:26:27+00:00,SAT-45406,323.24756100170976,66.1051757099116,594.6487622899521,-0.5980426032586591,20945.981683821814,10.5,10500020945.981684,47.655,-122.3035,60.0,3.3333333333333335
2026-02-06T21:26:28+00:00,SAT-45406,324.94451239860575,66.2503252682921,594.0523229563829,-0.5162712513357677,18082.003047006474,10.5,10500018082.003048,47.655,-122.3035,60.0,3.35
2026-02-06T21:26:29+00:00,SAT-45406,326.6630122451196,66.37675665334224,593.5374357570264,-0.4342867864396138,15210.560292400502,10.5,10500015210.560293,47.655,-122.3035,60.0,3.3666666666666667
2026-02-06T21:26:30+00:00,SAT-45406,328.4003495549818,66.48403527272137,593.1043132335298,-0.3521225439005177,12332.820964280016,10.5,10500012332.820965,47.655,-122.3035,60.0,3.3833333333333333
2026-02-06T21:26:31+00:00,SAT-45406,330.15361596756526,66.57178534246935,592.7531346815763,-0.26981223186776776,9449.965664618427,10.5,10500009449.965664,47.655,-122.3035,60.0,3.4
2026-02-06T21:26:32+00:00,SAT-45406,331.9197310556718,66.6396946974187,592.4840457790682,-0.1873898579892634,6563.185485097379,10.5,10500006563.185486,47.655,-122.3035,60.0,3.4166666666666665
2026-02-06T21:26:33+00:00,SAT-45406,333.69547209334195,66.68751890898476,592.2971582874283,-0.10488966467066822,3673.679739608447,10.5,10500003673.679739,47.655,-122.3035,60.0,3.433333333333333
2026-02-06T21:26:34+00:00,SAT-45406,335.47750769401284,66.71508458934252,592.1925498174738,-0.02234605491102731,782.6533667027298,10.5,10500000782.653366,47.655,-122.3035,60.0,3.45
2026-02-06T21:26:35+00:00,SAT-45406,337.2624344484431,66.72229177720399,592.1702636692522,0.06020647702577898,-2108.685498588091,10.5,10499997891.3145,47.655,-122.3035,60.0,3.466666666666667
2026-02-06T21:26:36+00:00,SAT-45406,339.04681561482954,66.70911533056525,592.2303087410216,0.14273341761713626,-4999.128046710004,10.5,10499995000.871954,47.655,-122.3035,60.0,3.4833333333333334
2026-02-06T21:26:37+00:00,SAT-45406,340.8272207646916,66.6756052806442,592.3726595100433,0.2252003072476821,-7887.467356168987,10.5,10499992112.532644,47.655,-122.3035,60.0,3.5
2026-02-06T21:26:38+00:00,SAT-45406,342.6002652515269,66.6218861351642,592.5972560863449,0.30757280971331463,-10772.500827855394,10.5,10499989227.499172,47.655,-122.3035,60.0,3.5166666666666666
2026-02-06T21:26:39+00:00,SAT-45406,344.3626483495423,66.54815515443593,592.9040043358004,0.38981678581573453,-13653.032762636118,10.5,10499986346.967237,47.655,-122.3035,60.0,3.533333333333333
2026-02-06T21:26:40+00:00,SAT-45406,346.11118905602206,66.45467965467249,593.292776076608,0.47189836190045537,-16527.876761845626,10.5,10499983472.123238,47.655,-122.3035,60.0,3.55
2026-02-06T21:26:41+00:00,SAT-45406,347.8428585707188,66.34179342475862,593.7634093441222,0.5537839976747922,-19395.8581025588,10.5,10499980604.141897,47.655,-122.3035,60.0,3.566666666666667
2026-02-06T21:26:42+00:00,SAT-45406,349.55480870661887,66.20989236646668,594.3157087233212,0.635440557384295,-22255.816230490684,10.5,10499977744.18377,47.655,-122.3035,60.0,3.5833333333333335
2026-02-06T21:26:43+00:00,SAT-45406,351.24439567449724,66.05942948583635,594.949445752262,0.7168353702142866,-25106.606875513888,10.5,10499974893.393124,47.655,-122.3035,60.0,3.6
2026-02-06T21:26:44+00:00,SAT-45406,352.90919884811905,65.89090937898736,595.6643593857721,0.7979362956593757,-27947.104341175404,10.5,10499972052.895658,47.655,-122.3035,60.0,3.6166666666666667
2026-02-06T21:26:45+00:00,SAT-45406,354.5470343946333,65.70488235703289,596.460156524338,0.8787117852348066,-30776.20366608912,10.5,10499969223.796333,47.655,-122.3035,60.0,3.6333333333333333
2026-02-06T21:26:46+00:00,SAT-45406,356.1559638169193,65.50193835564863,597.3365126045388,0.9591309380243683,-33592.82256945859,10.5,10499966407.177431,47.655,-122.3035,60.0,3.65
2026-02-06T21:26:47+00:00,SAT-45406,357.73429763285094,65.28270076842611,598.2930722448784,1.0391635609345529,-36395.903561432504,10.5,10499963604.09644,47.655,-122.3035,60.0,3.6666666666666665
2026-02-06T21:26:48+00:00,SAT-45406,359.2805945854157,65.04782032889017,599.3294499517106,1.1187802091031058,-39184.41535838307,10.5,10499960815.584642,47.655,-122.3035,60.0,3.683333333333333
2026-02-06T21:26:49+00:00,SAT-45406,0.7936568429405222,64.7979691565038,600.4452308654645,1.1979522460478547,-41957.3549895724,10.5,10499958042.64501,47.655,-122.3035,60.0,3.7
2026-02-06T21:26:50+00:00,SAT-45406,2.2725217907654547,64.53383505544079,601.6399715668583,1.2766518865815475,-44713.74930021171,10.5,10499955286.2507,47.655,-122.3035,60.0,3.716666666666667
2026-02-06T21:26:51+00:00,SAT-45406,3.7164509863373616,64.25611614485449,602.9132009259099,1.3548522308097222,-47452.65614221049,10.5,10499952547.343859,47.655,-122.3035,60.0,3.7333333333333334
2026-02-06T21:26:52+00:00,SAT-45406,5.124916881151443,63.96551587878637,604.2644209848584,1.432527306932213,-50173.165873266356,10.5,10499949826.834127,47.655,-122.3035,60.0,3.75
2026-02-06T21:26:53+00:00,SAT-45406,6.497587912043741,63.6627384922123,605.6931078837694,1.5096521066753452,-52874.40259785029,10.5,10499947125.597403,47.655,-122.3035,60.0,3.7666666666666666
2026-02-06T21:26:54+00:00,SAT-45406,7.834312500676951,63.348484897226356,607.1987128214786,1.5862026091026635,-55555.52500115919,10.5,10499944444.474998,47.655,-122.3035,60.0,3.783333333333333
2026-02-06T21:26:55+00:00,SAT-45406,9.135102445683568,63.0234490398382,608.7806630402824,1.6621558195605781,-58215.727713157044,10.5,10499941784.272287,47.655,-122.3035,60.0,3.8
2026-02-06T21:26:56+00:00,SAT-45406,10.400116152872753,62.68831471022273,610.4383628494681,1.7374897770958302,-60854.241568366,10.5,10499939145.758432,47.655,-122.3035,60.0,3.816666666666667
2026-02-06T21:26:57+00:00,SAT-45406,11.629642038647251,62.34375279912247,612.1711946562452,1.8121835601420915,-63470.33380503509,10.5,10499936529.666195,47.655,-122.3035,60.0,3.8333333333333335
2026-02-06T21:26:58+00:00,SAT-45406,12.824082407486125,61.99041897898996,613.9785200023437,1.8862173546487282,-66063.31045129776,10.5,10499933936.689548,47.655,-122.3035,60.0,3.85
2026-02-06T21:26:59+00:00,SAT-45406,13.983938075545803,61.628951770705456,615.8596806685626,1.9595724059767854,-68632.51464036579,10.5,10499931367.48536,47.655,-122.3035,60.0,3.8666666666666667
2026-02-06T21:27:00+00:00,SAT-45406,15.10979382871192,61.25997098813958,617.8139997313399,2.0322310407160984,-71177.32737465674,10.5,10499928822.672625,47.655,-122.3035,60.0,3.8833333333333333
2026-02-06T21:27:01+00:00,SAT-45406,16.202304888817526,60.88407651348339,619.8407826410837,2.1041767031212197,-73697.16880193433,10.5,10499926302.831198,47.655,-122.3035,60.0,3.9
2026-02-06T21:27:02+00:00,SAT-45406,17.262184462995766,60.501847367324295,621.9393183368401,2.1753939065228143,-76191.49651352987,10.5,10499923808.503487,47.655,-122.3035,60.0,3.9166666666666665
2026-02-06T21:27:03+00:00,SAT-45406,18.290192362804046,60.113841055754385,624.1088803125041,2.2458682786865274,-78659.80713300178,10.5,10499921340.192867,47.655,-122.3035,60.0,3.933333333333333
2026-02-06T21:27:04+00:00,SAT-45406,19.287124748778364,59.72059314454726,626.3487277282652,2.3155865013076427,-81101.63419698253,10.5,10499918898.365803,47.655,-122.3035,60.0,3.95
2026-02-06T21:27:05+00:00,SAT-45406,20.2538049251685,59.322617048631145,628.6581064617138,2.3845363497025387,-83516.54954534132,10.5,10499916483.450455,47.655,-122.3035,60.0,3.966666666666667
2026-02-06T21:27:06+00:00,SAT-45406,21.19107519371728,58.92040398996379,631.0362501985287,2.4527066491127134,-85904.16179076624,10.5,10499914095.83821,47.655,-122.3035,60.0,3.9833333333333334
2026-02-06T21:27:07+00:00,SAT-45406,22.099789673661924,58.51442311191994,633.4823814795888,2.5200872988872827,-88264.11716573758,10.5,10499911735.882833,47.655,-122.3035,60.0,4.0
2026-02-06T21:27:08+00:00,SAT-45406,22.980808054020642,58.10512171428921,635.9957127721993,2.5866691842523366,-90596.09643231763,10.5,10499909403.903568,47.655,-122.3035,60.0,4.016666666666667
2026-02-06T21:27:09+00:00,SAT-45406,23.83499016725959,57.692925605610014,638.5754474533294,2.652444229341774,-92899.8167395146,10.5,10499907100.18326,47.655,-122.3035,60.0,4.033333333333333
2026-02-06T21:27:10+00:00,SAT-45406,24.663191367317303,57.27823952993573,641.2207808457293,2.7174053459528644,-95175.0298284858,10.5,10499904824.970171,47.655,-122.3035,60.0,4.05
2026-02-06T21:27:11+00:00,SAT-45406,25.466258600626368,56.861447668187196,643.9309012029518,2.781546406855181,-97421.52109770353,10.5,10499902578.478903,47.655,-122.3035,60.0,4.066666666666666
2026-02-06T21:27:12+00:00,SAT-45406,26.245027110955373,56.44291419470055,646.7049906677435,2.844862223111802,-99639.10880864762,10.5,10499900360.891191,47.655,-122.3035,60.0,4.083333333333333
2026-02-06T21:27:13+00:00,SAT-45406,27.000317713027137,56.02298387518865,649.542226207826,2.907348517114441,-101827.64314138159,10.5,10499898172.35686,47.655,-122.3035,60.0,4.1
2026-02-06T21:27:14+00:00,SAT-45406,27.732934569865403,55.601982695476735,652.44178052478,2.969001912462376,-103987.00584007002,10.5,10499896012.99416,47.655,-122.3035,60.0,4.116666666666666
2026-02-06T21:27:15+00:00,SAT-45406,28.443663418972317,55.180218508942794,655.4028229528374,3.029819870660375,-106117.10799587207,10.5,10499893882.892004,47.655,-122.3035,60.0,4.133333333333334
2026-02-06T21:27:16+00:00,SAT-45406,29.13327017907495,54.75798170211215,658.4245202945397,3.089800701232144,-108217.89040115714,10.5,10499891782.109598,47.655,-122.3035,60.0,4.15
2026-02-06T21:27:17+00:00,SAT-45406,29.802499906225638,54.335545860909406,661.5060376664843,3.1489434904729907,-110289.32105412206,10.5,10499889710.678946,47.655,-122.3035,60.0,4.166666666666667
2026-02-06T21:27:18+00:00,SAT-45406,30.452076033936038,53.91316844331833,664.6465392740135,3.2072481146650724,-112331.39562164457,10.5,10499887668.604378,47.655,-122.3035,60.0,4.183333333333334
2026-02-06T21:27:19+00:00,SAT-45406,31.08269987607679,53.49109144194407,667.8451891990834,3.264715160901453,-114344.13466620716,10.5,10499885655.865334,47.655,-122.3035,60.0,4.2
2026-02-06T21:27:20+00:00,SAT-45406,31.69505033546437,53.06954204516181,671.1011521091692,3.321345923391595,-116327.58351649977,10.5,10499883672.416483,47.655,-122.3035,60.0,4.216666666666667
2026-02-06T21:27:21+00:00,SAT-45406,32.28978380204515,52.648733283412376,674.413593962486,3.37714239055627,-118281.81181542878,10.5,10499881718.188185,47.655,-122.3035,60.0,4.233333333333333
2026-02-06T21:27:22+00:00,SAT-45406,32.867534208692554,52.2288646597525,677.7816827003386,3.432107163708199,-120206.91067196922,10.5,10499879793.089329,47.655,-122.3035,60.0,4.25
2026-02-06T21:27:23+00:00,SAT-45406,33.428913206373664,51.81012277130067,681.2045888583716,3.4862434536492644,-122102.99254198474,10.5,10499877897.007458,47.655,-122.3035,60.0,4.266666666666667
2026-02-06T21:27:24+00:00,SAT-45406,33.97451045183389,51.39268191003719,684.6814861744233,3.539555063968634,-123970.19064325713,10.5,10499876029.809357,47.655,-122.3035,60.0,4.283333333333333
2026-02-06T21:27:25+00:00,SAT-45406,34.504893984307735,50.97670464391849,688.2115521797241,3.592046323661713,-125808.65659551711,10.5,10499874191.343405,47.655,-122.3035,60.0,4.3
2026-02-06T21:27:26+00:00,SAT-45406,35.02061066638337,50.56234238355572,691.7939687228942,3.6437220708992513,-127618.5598519698,10.5,10499872381.440147,47.655,-122.3035,60.0,4.316666666666666
2026-02-06T21:27:27+00:00,SAT-45406,35.522186683209846,50.14973592773123,695.4279224777551,3.6945876567297344,-129400.08782896804,10.5,10499870599.91217,47.655,-122.3035,60.0,4.333333333333333
2026-02-06T21:27:28+00:00,SAT-45406,36.010128089134454,49.73901598554438,699.1126054548303,3.744648843303789,-131153.4423414007,10.5,10499868846.55766,47.655,-122.3035,60.0,4.35
2026-02-06T21:27:29+00:00,SAT-45406,36.484921376108964,49.330303687057416,702.8472154113467,3.7939118431288334,-132878.8409775564,10.5,10499867121.159023,47.655,-122.3035,60.0,4.366666666666666
2026-02-06T21:27:30+00:00,SAT-45406,36.947034074729366,48.92371106656365,706.6309563003839,3.842383240090956,-134576.51433297578,10.5,10499865423.485666,47.655,-122.3035,60.0,4.383333333333334
2026-02-06T21:27:31+00:00,SAT-45406,37.39691536347261,48.51934153202243,710.463038641257,3.8900700152607977,-136246.7069142826,10.5,10499863753.293085,47.655,-122.3035,60.0,4.4
2026-02-06T21:27:32+00:00,SAT-45406,37.83499669292522,48.11729030960703,714.3426799156366,3.9369794595793555,-137889.67408107122,10.5,10499862110.325918,47.655,-122.3035,60.0,4.416666666666667
2026-02-06T21:27:33+00:00,SAT-45406,38.26169240565015,47.7176448758725,718.2691048765879,3.983119180934442,-139505.68229375416,10.5,10499860494.317707,47.655,-122.3035,60.0,4.433333333333334
2026-02-06T21:27:34+00:00,SAT-45406,38.67740035835596,47.320485367961254,722.2415458646688,4.028497080949898,-141095.0083006222,10.5,10499858904.9917,47.655,-122.3035,60.0,4.45
2026-02-06T21:27:35+00:00,SAT-45406,39.082502538834895,46.925884975750115,726.259243100877,4.07312131836786,-142657.93785533632,10.5,10499857342.062145,47.655,-122.3035,60.0,4.466666666666667
2026-02-06T21:27:36+00:00,SAT-45406,39.4773656726855,46.533910317840075,730.3214449430811,4.117000293478424,-144194.76517158895,10.5,10499855805.234829,47.655,-122.3035,60.0,4.483333333333333
2026-02-06T21:27:37+00:00,SAT-45406,39.86234181991765,46.14462179987267,734.4274081269186,4.1601426103303325,-145705.79159956216,10.5,10499854294.2084,47.655,-122.3035,60.0,4.5
2026-02-06T21:27:38+00:00,SAT-45406,40.23776895687388,45.75807395795495,738.5763979690106,4.20255707586497,-147191.32559559649,10.5,10499852808.674404,47.655,-122.3035,60.0,4.516666666666667
2026-02-06T21:27:39+00:00,SAT-45406,40.60397154554146,45.374315784305736,742.7676885693078,4.244252664667377,-148651.68148762253,10.5,10499851348.318512,47.655,-122.3035,60.0,4.533333333333333
2026-02-06T21:27:40+00:00,SAT-45406,40.961261085537075,44.993391039077714,747.000562978288,4.285238506379049,-150087.17903430384,10.5,10499849912.820965,47.655,-122.3035,60.0,4.55
2026-02-06T21:27:41+00:00,SAT-45406,41.30993665008134,44.6153385468344,751.2743133515942,4.325523847261782,-151498.14207884012,10.5,10499848501.857922,47.655,-122.3035,60.0,4.566666666666666
2026-02-06T21:27:42+00:00,SAT-45406,41.65028540295299,44.24019248063885,755.5882410663439,4.365118072937206,-152884.89934540202,10.5,10499847115.100655,47.655,-122.3035,60.0,4.583333333333333
2026-02-06T21:27:43+00:00,SAT-45406,41.98258310120527,43.86798262899515,759.9416568601139,4.404030639087078,-154247.78201196215,10.5,10499845752.217989,47.655,-122.3035,60.0,4.6
2026-02-06T21:27:44+00:00,SAT-45406,42.30709457565835,43.49873465433441,764.3338809008138,4.44227110223539,-155587.12478841477,10.5,10499844412.875212,47.655,-122.3035,60.0,4.616666666666666
2026-02-06T21:27:45+00:00,SAT-45406,42.62407419723969,43.132470334934574,768.7642428872574,4.479849049144069,-156903.26344371453,10.5,10499843096.736557,47.655,-122.3035,60.0,4.633333333333334
2026-02-06T21:27:46+00:00,SAT-45406,42.93376632144012,42.769207799491646,773.23208207932,4.516774163424958,-158196.5371389098,10.5,10499841803.462862,47.655,-122.3035,60.0,4.65
2026-02-06T21:27:47+00:00,SAT-45406,43.23640572100823,42.408961743515526,777.7367473945276,4.553056122016083,-159467.2848013037,10.5,10499840532.715199,47.655,-122.3035,60.0,4.666666666666667
2026-02-06T21:27:48+00:00,SAT-45406,43.53221799489699,42.05174364212509,782.277597401402,4.588704641078482,-160715.84673195498,10.5,10499839284.153269,47.655,-122.3035,60.0,4.683333333333334
2026-02-06T21:27:49+00:00,SAT-45406,43.82141996444705,41.6975619474918,786.8540003585791,4.623729450332609,-161942.5637068308,10.5,10499838057.436293,47.655,-122.3035,60.0,4.7
2026-02-06T21:27:50+00:00,SAT-45406,44.10422005208896,41.34642227739782,791.4653342283301,4.658140239536341,-163147.77510223948,10.5,10499836852.224897,47.655,-122.3035,60.0,4.716666666666667
2026-02-06T21:27:51+00:00,SAT-45406,44.38081864124332,40.99832759732959,796.1109866367077,4.691946756571247,-164331.8223302272,10.5,10499835668.17767,47.655,-122.3035,60.0,4.733333333333333
2026-02-06T21:27:52+00:00,SAT-45406,44.65140842752598,40.65327838520651,800.7903549315131,4.7251586403662325,-165495.04298685672,10.5,10499834504.957014,47.655,-122.3035,60.0,4.75
2026-02-06T21:27:53+00:00,SAT-45406,44.916174745053155,40.31127279911524,805.5028460736364,4.757785552000327,-166637.7754439821,10.5,10499833362.224556,47.655,-122.3035,60.0,4.766666666666667
2026-02-06T21:27:54+00:00,SAT-45406,45.17529588689986,39.97230682617485,810.247876659146,4.789837109599225,-167760.35656904973,10.5,10499832239.64343,47.655,-122.3035,60.0,4.783333333333333
2026-02-06T21:27:55+00:00,SAT-45406,45.428943407861624,39.63637442772107,815.024872876452,4.821322830796673,-168863.11970985294,10.5,10499831136.880291,47.655,-122.3035,60.0,4.8
2026-02-06T21:27:56+00:00,SAT-45406,45.67728241115503,39.30346768026023,819.833270406082,4.852252227287866,-169946.39800619197,10.5,10499830053.601994,47.655,-122.3035,60.0,4.816666666666666
2026-02-06T21:27:57+00:00,SAT-45406,45.92047182778089,38.97357690196105,824.6725144147593,4.882634723998755,-171010.52155884096,10.5,10499828989.478441,47.655,-122.3035,60.0,4.833333333333333
2026-02-06T21:27:58+00:00,SAT-45406,46.15866467927082,38.646690777474106,829.5420594688663,4.912479664367202,-172055.8176145166,10.5,10499827944.182386,47.655,-122.3035,60.0,4.85
2026-02-06T21:27:59+00:00,SAT-45406,46.39200832923951,38.32279647526082,834.4413694531756,4.941796325616261,-173082.61110081276,10.5,10499826917.388899,47.655,-122.3035,60.0,4.866666666666666
2026-02-06T21:28:00+00:00,SAT-45406,46.62064472458017,38.001879757227286,839.3699175048109,4.970593892382524,-174091.22370255395,10.5,10499825908.776297,47.655,-122.3035,60.0,4.883333333333334
2026-02-06T21:28:01+00:00,SAT-45406,46.84471062465138,37.68392508378048,844.3271859209095,4.9988814806887225,-175081.97470141685,10.5,10499824918.0253,47.655,-122.3035,60.0,4.9
2026-02-06T21:28:02+00:00,SAT-45406,47.064337821319064,37.368915711340854,849.3126660901944,5.02666806604117,-176055.1784575991,10.5,10499823944.821543,47.655,-122.3035,60.0,4.916666666666667
2026-02-06T21:28:03+00:00,SAT-45406,47.27965334595842,37.05683378869895,854.3258583528306,5.053962593902394,-177011.14827903756,10.5,10499822988.85172,47.655,-122.3035,60.0,4.933333333333334
2026-02-06T21:28:04+00:00,SAT-45406,47.490779672049406,36.7476604410132,859.3662719704657,5.080773830678042,-177950.19120233983,10.5,10499822049.808798,47.655,-122.3035,60.0,4.95
2026-02-06T21:28:05+00:00,SAT-45406,47.697834902210545,36.441375857963465,864.4334249476503,5.107110497706354,-178872.61268566243,10.5,10499821127.387314,47.655,-122.3035,60.0,4.966666666666667
2026-02-06T21:28:06+00:00,SAT-45406,47.9009329525653,36.13795936873828,869.5268439868935,5.1329811870368784,-179778.71365892477,10.5,10499820221.28634,47.655,-122.3035,60.0,4.983333333333333
2026-02-06T21:28:07+00:00,SAT-45406,48.10018372524745,35.837389517631664,874.6460643597196,5.158394370411853,-180668.79083837543,10.5,10499819331.209162,47.655,-122.3035,60.0,5.0
2026-02-06T21:28:08+00:00,SAT-45406,48.29569327353603,35.5396441346521,879.7906297866824,5.183358416288394,-181543.1373227813,10.5,10499818456.862677,47.655,-122.3035,60.0,5.016666666666667
2026-02-06T21:28:09+00:00,SAT-45406,48.48756396029786,35.244700400992784,884.9600923343604,5.207881594675478,-182402.04276283868,10.5,10499817597.957237,47.655,-122.3035,60.0,5.033333333333333
2026-02-06T21:28:10+00:00,SAT-45406,48.675894609354934,34.95253491037105,890.154012317168,5.231972019769651,-183245.7913520337,10.5,10499816754.208649,47.655,-122.3035,60.0,5.05
2026-02-06T21:28:11+00:00,SAT-45406,48.860780647995625,34.66312372989211,895.3719581419649,5.255637709319795,-184074.66390584732,10.5,10499815925.336094,47.655,-122.3035,60.0,5.066666666666666
2026-02-06T21:28:12+00:00,SAT-45406,49.042314245264365,34.37644245401172,900.6135062118641,5.278886593919299,-184888.93818720628,10.5,10499815111.061813,47.655,-122.3035,60.0,5.083333333333333
2026-02-06T21:28:13+00:00,SAT-45406,49.220584444322675,34.092466254786714,905.8782408393114,5.301726416120235,-185688.88537303518,10.5,10499814311.114628,47.655,-122.3035,60.0,5.1
2026-02-06T21:28:14+00:00,SAT-45406,49.39567728534133,33.81116993445004,911.1657540585483,5.324164837722111,-186474.77381196216,10.5,10499813525.226189,47.655,-122.3035,60.0,5.116666666666666
2026-02-06T21:28:15+00:00,SAT-45406,49.56767592665837,33.5325279691403,916.475645545075,5.346209423427653,-187246.8684518753,10.5,10499812753.131548,47.655,-122.3035,60.0,5.133333333333334
2026-02-06T21:28:16+00:00,SAT-45406,49.736660759917285,33.25651455084817,921.8075225188154,5.3678675647717045,-188005.42817559105,10.5,10499811994.571825,47.655,-122.3035,60.0,5.15
2026-02-06T21:28:17+00:00,SAT-45406,49.90270951751759,32.98310363065726,927.1609995714115,5.389146541436162,-188750.7079483624,10.5,10499811249.292051,47.655,-122.3035,60.0,5.166666666666667
2026-02-06T21:28:18+00:00,SAT-45406,50.065897377410515,32.712268956209186,932.5356985546724,5.410053575937093,-189482.96073325325,10.5,10499810517.039267,47.655,-122.3035,60.0,5.183333333333334
2026-02-06T21:28:19+00:00,SAT-45406,50.2262970648348,32.44398410415358,937.9312485235598,5.430595658698035,-190202.43136446536,10.5,10499809797.568636,47.655,-122.3035,60.0,5.2
2026-02-06T21:28:20+00:00,SAT-45406,50.38397894420465,32.17822251912427,943.3472855047189,5.450779755823185,-190909.36382443432,10.5,10499809090.636175,47.655,-122.3035,60.0,5.216666666666667
2026-02-06T21:28:21+00:00,SAT-45406,50.5390111132482,31.914957540204988,948.7834524722247,5.470612672499125,-191603.99645958006,10.5,10499808396.00354,47.655,-122.3035,60.0,5.233333333333333
2026-02-06T21:28:22+00:00,SAT-45406,50.69145948892258,31.654162432252754,954.2393991870933,5.490101097269511,-192286.56353099406,10.5,10499807713.436468,47.655,-122.3035,60.0,5.25
2026-02-06T21:28:23+00:00,SAT-45406,50.84138789081924,31.395810413117378,959.7147820809549,5.50925157261539,-192957.29418403713,10.5,10499807042.705816,47.655,-122.3035,60.0,5.266666666666667
2026-02-06T21:28:24+00:00,SAT-45406,50.98885812018919,31.139874680463357,965.2092641103807,5.5280705971214665,-193616.41602663466,10.5,10499806383.583973,47.655,-122.3035,60.0,5.283333333333333
2026-02-06T21:28:25+00:00,SAT-45406,51.133930038256175,30.886328432175823,970.722514713105,5.5465644683152435,-194264.14962483832,10.5,10499805735.850374,47.655,-122.3035,60.0,5.3
2026-02-06T21:28:26+00:00,SAT-45406,51.27666163689445,30.635144892523865,976.2542096075066,5.5647394324838535,-194900.71375004525,10.5,10499805099.28625,47.655,-122.3035,60.0,5.316666666666666
2026-02-06T21:28:27+00:00,SAT-45406,51.4171091102245,30.386297329899463,981.804030741506,5.582601565182699,-195526.32119390523,10.5,10499804473.678806,47.655,-122.3035,60.0,5.333333333333333
2026-02-06T21:28:28+00:00,SAT-45406,51.55532692003545,30.139759078623836,987.3716661222912,5.600156879197343,-196141.18254960267,10.5,10499803858.81745,47.655,-122.3035,60.0,5.35
