DopplerPredictor/satellites_20260211_204923/SAT-58402.csv

timestamp,satellite,azimuth_deg,elevation_deg,distance_km,relative_velocity_kms,doppler_shift_hz,tx_freq_ghz,rx_freq_hz,ue_lat,ue_lon,ue_alt_m,time_minutes
2026-02-06T21:29:19+00:00,SAT-58402,216.49282851890075,30.03486945107326,1011.7900806869794,-1.8871950958815078,66097.55508511102,10.5,10500066097.555084,47.655,-122.3035,60.0,6.2
2026-02-06T21:29:20+00:00,SAT-58402,216.0462166744239,30.115957627820066,1009.9079449007168,-1.8429584101957635,64548.19923140133,10.5,10500064548.199232,47.655,-122.3035,60.0,6.216666666666667
2026-02-06T21:29:21+00:00,SAT-58402,215.59721229711508,30.19546104111127,1008.0699272076907,-1.7984773883317096,62990.28569118623,10.5,10500062990.28569,47.655,-122.3035,60.0,6.233333333333333
2026-02-06T21:29:22+00:00,SAT-58402,215.14585187190636,30.27334836221946,1006.2762712890473,-1.7537562123862402,61423.960939189215,10.5,10500061423.96094,47.655,-122.3035,60.0,6.25
2026-02-06T21:29:23+00:00,SAT-58402,214.69217343773116,30.34958853231937,1004.5272166550478,-1.708799202132858,59849.37627215094,10.5,10500059849.376272,47.655,-122.3035,60.0,6.266666666666667
2026-02-06T21:29:24+00:00,SAT-58402,214.23621658980016,30.424150794251403,1002.8229985077621,-1.6636108311180091,58266.68837259107,10.5,10500058266.688372,47.655,-122.3035,60.0,6.283333333333333
2026-02-06T21:29:25+00:00,SAT-58402,213.7780224754264,30.4970047253474,1001.1638475877037,-1.618195692327918,56676.05810631546,10.5,10500056676.058105,47.655,-122.3035,60.0,6.3
2026-02-06T21:29:26+00:00,SAT-58402,213.3176337963677,30.568120269082776,999.5499900547159,-1.5725585511417814,55077.65237706115,10.5,10500055077.652376,47.655,-122.3035,60.0,6.316666666666666
2026-02-06T21:29:27+00:00,SAT-58402,212.85509479455624,30.637467769315275,997.9816473160366,-1.526704286008421,53471.64204874167,10.5,10500053471.642048,47.655,-122.3035,60.0,6.333333333333333
2026-02-06T21:29:28+00:00,SAT-58402,212.39045125100867,30.705018002144808,996.4590359135336,-1.480637925193238,51858.20323248092,10.5,10500051858.203232,47.655,-122.3035,60.0,6.35
2026-02-06T21:29:29+00:00,SAT-58402,211.92375047205635,30.770742209544235,994.9823673742899,-1.434364633328687,50237.51681555382,10.5,10500050237.516815,47.655,-122.3035,60.0,6.366666666666666
2026-02-06T21:29:30+00:00,SAT-58402,211.45504127625657,30.834612132512177,993.5518480746009,-1.3878897102681131,48609.768421242894,10.5,10500048609.768421,47.655,-122.3035,60.0,6.383333333333334
2026-02-06T21:29:31+00:00,SAT-58402,210.98437397850245,30.89660004421911,992.1676791051174,-1.3412185823194684,46975.14810180588,10.5,10500046975.148102,47.655,-122.3035,60.0,6.4
2026-02-06T21:29:32+00:00,SAT-58402,210.5118003739835,30.956678782750373,990.8300561447288,-1.2943568129667173,45333.85071398471,10.5,10500045333.850714,47.655,-122.3035,60.0,6.416666666666667
2026-02-06T21:29:33+00:00,SAT-58402,210.03737371527382,31.014821784253588,989.5391693237566,-1.247310081475816,43686.07516969646,10.5,10500043686.07517,47.655,-122.3035,60.0,6.433333333333334
2026-02-06T21:29:34+00:00,SAT-58402,209.56114869339913,31.071003114986034,988.2952031084801,-1.2000842122202646,42032.02546313816,10.5,10500042032.025463,47.655,-122.3035,60.0,6.45
2026-02-06T21:29:35+00:00,SAT-58402,209.08318140513506,31.125197504481278,987.0983361564212,-1.1526851304320633,40371.90912099818,10.5,10500040371.90912,47.655,-122.3035,60.0,6.466666666666667
2026-02-06T21:29:36+00:00,SAT-58402,208.60352933237144,31.17738037645248,985.9487412157532,-1.1051188933859497,38705.93829466007,10.5,10500038705.938295,47.655,-122.3035,60.0,6.483333333333333
2026-02-06T21:29:37+00:00,SAT-58402,208.12225130678385,31.227527880767322,984.8465849936141,-1.0573916724255719,37034.329130683145,10.5,10500037034.32913,47.655,-122.3035,60.0,6.5
2026-02-06T21:29:38+00:00,SAT-58402,207.63940747702142,31.275616924210627,983.792028042342,-1.0095097482262463,35357.301604884226,10.5,10500035357.301605,47.655,-122.3035,60.0,6.516666666666667
2026-02-06T21:29:39+00:00,SAT-58402,207.15505927419235,31.32162520056308,982.7852246504386,-0.9614795077748591,33675.07941656098,10.5,10500033675.079416,47.655,-122.3035,60.0,6.533333333333333
2026-02-06T21:29:40+00:00,SAT-58402,206.66926937492164,31.365531220004854,981.8263227365399,-0.91330744917191,31987.89015667984,10.5,10500031987.890156,47.655,-122.3035,60.0,6.55
2026-02-06T21:29:41+00:00,SAT-58402,206.1821016581089,31.407314338137986,980.9154637386031,-0.865000172648599,30295.9649932564,10.5,10500030295.964993,47.655,-122.3035,60.0,6.566666666666666
2026-02-06T21:29:42+00:00,SAT-58402,205.69362116101834,31.446954783933805,980.052782512047,-0.8165643691960455,28599.538273102513,10.5,10500028599.538273,47.655,-122.3035,60.0,6.583333333333333
2026-02-06T21:29:43+00:00,SAT-58402,205.20389403713824,31.48443368642486,979.2384072392389,-0.7680068262729777,26898.847721733764,10.5,10500026898.847721,47.655,-122.3035,60.0,6.6
2026-02-06T21:29:44+00:00,SAT-58402,204.71298750650615,31.519733100862727,978.4724593332821,-0.7193344205639808,25194.13418973268,10.5,10500025194.13419,47.655,-122.3035,60.0,6.616666666666666
2026-02-06T21:29:45+00:00,SAT-58402,204.22096980557208,31.552836033684823,977.7550533490315,-0.6705541097413829,23485.641364215106,10.5,10500023485.641365,47.655,-122.3035,60.0,6.633333333333334
2026-02-06T21:29:46+00:00,SAT-58402,203.72791013659995,31.58372646618525,977.0862969023221,-0.6216729322080948,21773.615759823406,10.5,10500021773.615759,47.655,-122.3035,60.0,6.65
2026-02-06T21:29:47+00:00,SAT-58402,203.23387861304468,31.61238937719233,976.4662905894544,-0.5726980042645398,20058.30661950031,10.5,10500020058.30662,47.655,-122.3035,60.0,6.666666666666667
2026-02-06T21:29:48+00:00,SAT-58402,202.73894620089993,31.63881076458625,975.8951279095071,-0.5236365064728625,18339.965436905877,10.5,10500018339.965437,47.655,-122.3035,60.0,6.683333333333334
2026-02-06T21:29:49+00:00,SAT-58402,202.24318466428394,31.66297766509611,975.372895200246,-0.47449568560290256,16618.846024573697,10.5,10500016618.846025,47.655,-122.3035,60.0,6.7
2026-02-06T21:29:50+00:00,SAT-58402,201.74666650489323,31.68487817304862,974.8996715720958,-0.4252828486305004,14895.204303706183,10.5,10500014895.204304,47.655,-122.3035,60.0,6.716666666666667
2026-02-06T21:29:51+00:00,SAT-58402,201.24946489990353,31.704501457655258,974.4755288480934,-0.37600535521736933,13169.298040787866,10.5,10500013169.29804,47.655,-122.3035,60.0,6.733333333333333
2026-02-06T21:29:52+00:00,SAT-58402,200.75165364051955,31.72183777871557,974.1005315113446,-0.32667061660355745,11441.386808794747,10.5,10500011441.386808,47.655,-122.3035,60.0,6.75
2026-02-06T21:29:53+00:00,SAT-58402,200.25330706440286,31.736878501001012,973.7747366535837,-0.27728608263793353,9711.731532947044,10.5,10500009711.731533,47.655,-122.3035,60.0,6.766666666666667
2026-02-06T21:29:54+00:00,SAT-58402,199.7544999958722,31.749616106725693,973.4981939366678,-0.2278592445920726,7980.594589263357,10.5,10500007980.59459,47.655,-122.3035,60.0,6.783333333333333
2026-02-06T21:29:55+00:00,SAT-58402,199.2553076744166,31.76004420680366,973.270945551266,-0.1783976233822628,6248.239392045545,10.5,10500006248.239391,47.655,-122.3035,60.0,6.8
2026-02-06T21:29:56+00:00,SAT-58402,198.7558056915083,31.7681575501887,973.0930261872932,-0.1289087689859423,4514.930373439863,10.5,10500004514.930374,47.655,-122.3035,60.0,6.816666666666666
2026-02-06T21:29:57+00:00,SAT-58402,198.25606991687104,31.77395203178745,972.9644630049276,-0.0794002484426303,2780.932563178818,10.5,10500002780.932564,47.655,-122.3035,60.0,6.833333333333333
2026-02-06T21:29:58+00:00,SAT-58402,197.75617643791708,31.77742469839799,972.8852756175938,-0.02987964762265889,1046.5116505296419,10.5,10500001046.51165,47.655,-122.3035,60.0,6.85
2026-02-06T21:29:59+00:00,SAT-58402,197.25620148043433,31.778573753291568,972.8554760731828,0.019645441405264367,-688.0664581471087,10.5,10499999311.933542,47.655,-122.3035,60.0,6.866666666666666
2026-02-06T21:30:00+00:00,SAT-58402,196.75622134853262,31.777398558766404,972.8750688478707,0.06916742131159503,-2422.5356722341157,10.5,10499997577.464327,47.655,-122.3035,60.0,6.883333333333334
2026-02-06T21:30:01+00:00,SAT-58402,196.2563123496446,31.773899637198717,972.944050840871,0.11867869787569606,-4156.630010001148,10.5,10499995843.36999,47.655,-122.3035,60.0,6.9
2026-02-06T21:30:02+00:00,SAT-58402,195.75655072210543,31.76807867024545,973.0624113775351,0.1681716849223034,-5890.083771500968,10.5,10499994109.91623,47.655,-122.3035,60.0,6.916666666666667
2026-02-06T21:30:03+00:00,SAT-58402,195.2570125728909,31.759938496372655,973.230132217378,0.2176388098358376,-7622.631731703854,10.5,10499992377.368269,47.655,-122.3035,60.0,6.933333333333334
2026-02-06T21:30:04+00:00,SAT-58402,194.7577738034947,31.749483106667707,973.4471875675989,0.26707252019406946,-9354.009372836623,10.5,10499990645.990627,47.655,-122.3035,60.0,6.95
2026-02-06T21:30:05+00:00,SAT-58402,194.2589100405742,31.736717638913337,973.7135441032223,0.31646528820437014,-11083.95303975888,10.5,10499988916.04696,47.655,-122.3035,60.0,6.966666666666667
2026-02-06T21:30:06+00:00,SAT-58402,193.7604965708613,31.721648370032426,974.0291609916612,0.36580961768842984,-12812.200184597417,10.5,10499987187.799816,47.655,-122.3035,60.0,6.983333333333333
2026-02-06T21:30:07+00:00,SAT-58402,193.26260827046252,31.704282706808467,974.3939899242464,0.4150980492268393,-14538.489546931205,10.5,10499985461.510452,47.655,-122.3035,60.0,7.0
2026-02-06T21:30:08+00:00,SAT-58402,192.76531953979222,31.68462917498793,974.8079751528866,0.4643231640534509,-16262.561290188409,10.5,10499983737.43871,47.655,-122.3035,60.0,7.016666666666667
2026-02-06T21:30:09+00:00,SAT-58402,192.2687042392292,31.66269740686168,975.2710535306139,0.5134775934512185,-17984.157330728427,10.5,10499982015.842669,47.655,-122.3035,60.0,7.033333333333333
2026-02-06T21:30:10+00:00,SAT-58402,191.77283562190885,31.638498127088102,975.7831545614972,0.5625540193194979,-19703.021357711168,10.5,10499980296.978642,47.655,-122.3035,60.0,7.05
2026-02-06T21:30:11+00:00,SAT-58402,191.27778627379624,31.61204313721992,976.3442004511234,0.6115451827463171,-21418.8991333342,10.5,10499978581.100866,47.655,-122.3035,60.0,7.066666666666666
2026-02-06T21:30:12+00:00,SAT-58402,190.7836280509639,31.583345298593674,976.9541061656278,0.660443889247613,-23131.538676333,10.5,10499976868.461323,47.655,-122.3035,60.0,7.083333333333333
2026-02-06T21:30:13+00:00,SAT-58402,190.29043201883985,31.552418513785824,977.6127794959499,0.7092430116868279,-24840.69036423756,10.5,10499975159.309635,47.655,-122.3035,60.0,7.1
2026-02-06T21:30:14+00:00,SAT-58402,189.7982683954318,31.51927770678801,978.3201211249976,0.7579354975012854,-26546.10718647064,10.5,10499973453.892813,47.655,-122.3035,60.0,7.116666666666666
2026-02-06T21:30:15+00:00,SAT-58402,189.30720649419283,31.483938801757198,979.0760247020252,0.8065143705333072,-28247.544808481223,10.5,10499971752.45519,47.655,-122.3035,60.0,7.133333333333334
2026-02-06T21:30:16+00:00,SAT-58402,188.81731467085766,31.446418700638635,979.8803769188303,0.8549727389670808,-29944.761849727212,10.5,10499970055.23815,47.655,-122.3035,60.0,7.15
2026-02-06T21:30:17+00:00,SAT-58402,188.32866027043144,31.406735259439532,980.7330575938704,0.9033038005320668,-31637.52006592074,10.5,10499968362.479935,47.655,-122.3035,60.0,7.166666666666667
2026-02-06T21:30:18+00:00,SAT-58402,187.84130957553086,31.36490726333453,981.6339397615693,0.951500840447633,-33325.58427704057,10.5,10499966674.415724,47.655,-122.3035,60.0,7.183333333333334
2026-02-06T21:30:19+00:00,SAT-58402,187.35532776158155,31.320954401005746,982.5828897595705,0.9995572449457639,-35008.72284095459,10.5,10499964991.277159,47.655,-122.3035,60.0,7.2
2026-02-06T21:30:20+00:00,SAT-58402,186.87077884793524,31.27489723755161,983.5797673294818,1.0474664988960245,-36686.707570235994,10.5,10499963313.292429,47.655,-122.3035,60.0,7.216666666666667
2026-02-06T21:30:21+00:00,SAT-58402,186.38772565591913,31.22675718677021,984.6244257152443,1.0952221904973163,-38359.31389648842,10.5,10499961640.686104,47.655,-122.3035,60.0,7.233333333333333
2026-02-06T21:30:22+00:00,SAT-58402,185.90622976814936,31.17655648254996,985.7167117661899,1.1428180141796869,-40026.32097197959,10.5,10499959973.679028,47.655,-122.3035,60.0,7.25
2026-02-06T21:30:23+00:00,SAT-58402,185.42635149101122,31.124318149520143,986.8564660429823,1.1902477822570456,-41687.51207776874,10.5,10499958312.487923,47.655,-122.3035,60.0,7.266666666666667
2026-02-06T21:30:24+00:00,SAT-58402,184.948149815431,31.070065972624942,988.0435229351892,1.2375054232175133,-43342.67456382738,10.5,10499956657.325436,47.655,-122.3035,60.0,7.283333333333333
2026-02-06T21:30:25+00:00,SAT-58402,184.47168238355442,31.013824466301806,989.2777107771429,1.2845849665129117,-44991.59931630292,10.5,10499955008.400684,47.655,-122.3035,60.0,7.3
2026-02-06T21:30:26+00:00,SAT-58402,183.99700546470118,30.955618843944126,990.5588519486333,1.33148059053992,-46634.08243802171,10.5,10499953365.917562,47.655,-122.3035,60.0,7.316666666666666
2026-02-06T21:30:27+00:00,SAT-58402,183.524173915673,30.89547498483708,991.8867630234543,1.378186573246957,-48269.9235185331,10.5,10499951730.07648,47.655,-122.3035,60.0,7.333333333333333
2026-02-06T21:30:28+00:00,SAT-58402,183.05324116482424,30.833419403064454,993.2612548686882,1.424697340368938,-49898.92732349474,10.5,10499950101.072676,47.655,-122.3035,60.0,7.35
2026-02-06T21:30:29+00:00,SAT-58402,182.58425918081937,30.76947921401875,994.6821327920957,1.4710074256100365,-51520.90240010435,10.5,10499948479.097599,47.655,-122.3035,60.0,7.366666666666666
2026-02-06T21:30:30+00:00,SAT-58402,182.1172784596479,30.703682102564457,996.1491966497969,1.5171115142958216,-53135.66260598232,10.5,10499946864.337395,47.655,-122.3035,60.0,7.383333333333334
2026-02-06T21:30:31+00:00,SAT-58402,181.65234799932085,30.636056289153306,997.6622409974843,1.5630044140524078,-54743.02608223147,10.5,10499945256.973917,47.655,-122.3035,60.0,7.4
2026-02-06T21:30:32+00:00,SAT-58402,181.18951528817163,30.566630497238513,999.2210552123971,1.6086810801367657,-56342.816140611656,10.5,10499943657.183859,47.655,-122.3035,60.0,7.416666666666667
2026-02-06T21:30:33+00:00,SAT-58402,180.728826287827,30.49543391960126,1000.8254236405561,1.6541365816793647,-57934.86008121435,10.5,10499942065.13992,47.655,-122.3035,60.0,7.433333333333334
2026-02-06T21:30:34+00:00,SAT-58402,180.27032542965577,30.42249618627047,1002.4751257103308,1.6993661563080176,-59518.99110562076,10.5,10499940481.008894,47.655,-122.3035,60.0,7.45
2026-02-06T21:30:35+00:00,SAT-58402,179.81405559719803,30.3478473301821,1004.1699361004862,1.7443651681529158,-61095.04684606046,10.5,10499938904.953154,47.655,-122.3035,60.0,7.466666666666667
2026-02-06T21:30:36+00:00,SAT-58402,179.36005812463947,30.271517754915124,1005.909624866346,1.789129117030543,-62662.86968707099,10.5,10499937337.130314,47.655,-122.3035,60.0,7.483333333333333
2026-02-06T21:30:37+00:00,SAT-58402,178.90837279433092,30.193538202276116,1007.6939575751135,1.8336536555375227,-64222.30736419656,10.5,10499935777.692636,47.655,-122.3035,60.0,7.5
2026-02-06T21:30:38+00:00,SAT-58402,178.45903783238447,30.11393971945456,1009.5226954582447,1.8779345868113977,-65773.21288556124,10.5,10499934226.787115,47.655,-122.3035,60.0,7.516666666666667
2026-02-06T21:30:39+00:00,SAT-58402,178.01208990755825,30.03275362664758,1011.3955955615836,1.921967835131642,-67315.44350219192,10.5,10499932684.556498,47.655,-122.3035,60.0,7.533333333333333
