DopplerPredictor/satellites_20260211_204923/SAT-63435.csv

timestamp,satellite,azimuth_deg,elevation_deg,distance_km,relative_velocity_kms,doppler_shift_hz,tx_freq_ghz,rx_freq_hz,ue_lat,ue_lon,ue_alt_m,time_minutes
2026-02-06T21:25:50+00:00,SAT-63435,231.2383624194069,30.027578578834074,848.8190784830367,-5.876478828801612,205819.1460654321,10.5,10500205819.146065,47.655,-122.3035,60.0,2.716666666666667
2026-02-06T21:25:51+00:00,SAT-63435,231.16229742988588,30.320004849928107,842.9583536830211,-5.857670569121431,205160.4012525726,10.5,10500205160.401253,47.655,-122.3035,60.0,2.7333333333333334
2026-02-06T21:25:52+00:00,SAT-63435,231.08464607450995,30.616035501998553,837.1163867203371,-5.838459148228135,204487.53602865958,10.5,10500204487.536028,47.655,-122.3035,60.0,2.75
2026-02-06T21:25:53+00:00,SAT-63435,231.00536016938554,30.91573241033184,831.2935796753778,-5.818834585961996,203800.20084628332,10.5,10500203800.200846,47.655,-122.3035,60.0,2.7666666666666666
2026-02-06T21:25:54+00:00,SAT-63435,230.92438957435138,31.21915841481238,825.4903445819417,-5.798786659202218,203098.03764850978,10.5,10500203098.03765,47.655,-122.3035,60.0,2.783333333333333
2026-02-06T21:25:55+00:00,SAT-63435,230.84168209320677,31.52637731653629,819.7071036695404,-5.77830480977129,202380.6766433015,10.5,10500202380.676643,47.655,-122.3035,60.0,2.8
2026-02-06T21:25:56+00:00,SAT-63435,230.75718336928202,31.83745386781228,813.9442896975581,-5.757378324332077,201647.7426042746,10.5,10500201647.742605,47.655,-122.3035,60.0,2.816666666666667
2026-02-06T21:25:57+00:00,SAT-63435,230.67083677135562,32.152453769835176,808.2023461099949,-5.735996129051282,200898.84767894482,10.5,10500200898.84768,47.655,-122.3035,60.0,2.8333333333333335
2026-02-06T21:25:58+00:00,SAT-63435,230.5825832760053,32.47144365738371,802.4817273949984,-5.714146903161659,200133.59536615634,10.5,10500200133.595366,47.655,-122.3035,60.0,2.85
2026-02-06T21:25:59+00:00,SAT-63435,230.4923613403227,32.79449108726484,796.782899331132,-5.691819052041361,199351.5795732069,10.5,10500199351.579573,47.655,-122.3035,60.0,2.8666666666666667
2026-02-06T21:26:00+00:00,SAT-63435,230.4001067671056,33.121664522882305,791.106339260498,-5.669000676659255,198552.3835456934,10.5,10500198552.383545,47.655,-122.3035,60.0,2.8833333333333333
2026-02-06T21:26:01+00:00,SAT-63435,230.30575256163655,33.453033314338704,785.4525363923309,-5.645679614012952,197735.58128382266,10.5,10500197735.581284,47.655,-122.3035,60.0,2.9
2026-02-06T21:26:02+00:00,SAT-63435,230.20922877853442,33.78866767789587,779.8219920662592,-5.621843359674344,196900.73482962872,10.5,10500196900.734829,47.655,-122.3035,60.0,2.9166666666666665
2026-02-06T21:26:03+00:00,SAT-63435,230.11046235975732,34.12863866763902,774.2152200928177,-5.597479146738357,196047.39703209195,10.5,10500196047.397032,47.655,-122.3035,60.0,2.933333333333333
2026-02-06T21:26:04+00:00,SAT-63435,230.0093769604496,34.47301814821732,768.6327470152198,-5.572573920088746,195175.11064581826,10.5,10500195175.110645,47.655,-122.3035,60.0,2.95
2026-02-06T21:26:05+00:00,SAT-63435,229.90589276330485,34.82187876235119,763.0751123967956,-5.547114256598431,194283.40553611767,10.5,10500194283.405537,47.655,-122.3035,60.0,2.966666666666667
2026-02-06T21:26:06+00:00,SAT-63435,229.7999262822054,35.17529388912396,757.5428691880173,-5.521086494141099,193371.80319753586,10.5,10500193371.803198,47.655,-122.3035,60.0,2.9833333333333334
2026-02-06T21:26:07+00:00,SAT-63435,229.6913901494395,35.53333760575384,752.0365839648572,-5.494476603055425,192439.81225198787,10.5,10500192439.812252,47.655,-122.3035,60.0,3.0
2026-02-06T21:26:08+00:00,SAT-63435,229.5801928909966,35.8960846363477,746.5568372953369,-5.467270276407322,191486.9316101237,10.5,10500191486.93161,47.655,-122.3035,60.0,3.0166666666666666
2026-02-06T21:26:09+00:00,SAT-63435,229.46623868411427,36.263610301032934,741.1042240160573,-5.439452868142267,190512.6483051612,10.5,10500190512.648306,47.655,-122.3035,60.0,3.033333333333333
2026-02-06T21:26:10+00:00,SAT-63435,229.34942709911124,36.63599045527295,735.6793535704101,-5.411009429892092,189516.43878201552,10.5,10500189516.438782,47.655,-122.3035,60.0,3.05
2026-02-06T21:26:11+00:00,SAT-63435,229.22965282175903,37.01330142531172,730.2828503100803,-5.381924700089432,188497.7685160413,10.5,10500188497.768517,47.655,-122.3035,60.0,3.066666666666667
2026-02-06T21:26:12+00:00,SAT-63435,229.10680535596262,37.39561993614392,724.9153538074063,-5.35218307321166,187456.0909358248,10.5,10500187456.090937,47.655,-122.3035,60.0,3.0833333333333335
2026-02-06T21:26:13+00:00,SAT-63435,228.98076870550048,37.78302302991222,719.5775191984127,-5.321768664319465,186390.84968359806,10.5,10500186390.849684,47.655,-122.3035,60.0,3.1
2026-02-06T21:26:14+00:00,SAT-63435,228.85142103053474,38.175587980932946,714.2700174614781,-5.290665238258016,185301.4761355643,10.5,10500185301.476135,47.655,-122.3035,60.0,3.1166666666666667
2026-02-06T21:26:15+00:00,SAT-63435,228.71863428053268,38.573392197064045,708.993535766612,-5.258856271769942,184187.39157735716,10.5,10500184187.391577,47.655,-122.3035,60.0,3.1333333333333333
2026-02-06T21:26:16+00:00,SAT-63435,228.5822737977046,38.97651311629126,703.7487777627845,-5.226324950980531,183048.00711596146,10.5,10500183048.007116,47.655,-122.3035,60.0,3.15
2026-02-06T21:26:17+00:00,SAT-63435,228.44219789038885,39.3850280933118,698.5364638677647,-5.193054111930164,181882.72159690797,10.5,10500181882.721598,47.655,-122.3035,60.0,3.1666666666666665
2026-02-06T21:26:18+00:00,SAT-63435,228.2982573752776,39.79901427070309,693.3573316172672,-5.159026324598685,180690.92454716185,10.5,10500180690.924547,47.655,-122.3035,60.0,3.183333333333333
2026-02-06T21:26:19+00:00,SAT-63435,228.15029508163224,40.2185484449107,688.2121359302989,-5.124223870725657,179471.99539829447,10.5,10500179471.995398,47.655,-122.3035,60.0,3.2
2026-02-06T21:26:20+00:00,SAT-63435,227.9981453169668,40.64370691813392,683.101649396628,-5.088628755270354,178225.30388786067,10.5,10500178225.303888,47.655,-122.3035,60.0,3.216666666666667
2026-02-06T21:26:21+00:00,SAT-63435,227.8416332900284,41.074565337704925,678.02666255282,-5.052222688121425,176950.20941879388,10.5,10500176950.20942,47.655,-122.3035,60.0,3.2333333333333334
2026-02-06T21:26:22+00:00,SAT-63435,227.6805744878741,41.511198519380635,672.9879841765186,-5.0149871419701775,175646.06308637312,10.5,10500175646.063086,47.655,-122.3035,60.0,3.25
2026-02-06T21:26:23+00:00,SAT-63435,227.51477400040724,41.95368025987982,667.9864415230079,-4.976903357899333,174312.20787396526,10.5,10500174312.207874,47.655,-122.3035,60.0,3.2666666666666666
2026-02-06T21:26:24+00:00,SAT-63435,227.3440257888668,42.40208313332189,663.0228805561982,-4.937952317579857,172947.97767924,10.5,10500172947.977678,47.655,-122.3035,60.0,3.283333333333333
2026-02-06T21:26:25+00:00,SAT-63435,227.16811189470647,42.856478267115186,658.0981662073444,-4.898114795796354,171552.69915383167,10.5,10500171552.699154,47.655,-122.3035,60.0,3.3
2026-02-06T21:26:26+00:00,SAT-63435,226.9868015797147,43.31693510300169,653.2131825813759,-4.857371391028057,170125.6927744146,10.5,10500170125.692774,47.655,-122.3035,60.0,3.316666666666667
2026-02-06T21:26:27+00:00,SAT-63435,226.79985039167863,43.78352114014546,648.36883313273,-4.8157025268471845,168666.27289167975,10.5,10500168666.272892,47.655,-122.3035,60.0,3.3333333333333335
2026-02-06T21:26:28+00:00,SAT-63435,226.60699914930123,44.25630165600313,643.5660408397903,-4.773088475532236,167173.7485573719,10.5,10500167173.748558,47.655,-122.3035,60.0,3.35
2026-02-06T21:26:29+00:00,SAT-63435,226.40797283761617,44.73533940525598,638.8057483557747,-4.72950937295006,165647.42404552296,10.5,10500165647.424046,47.655,-122.3035,60.0,3.3666666666666667
2026-02-06T21:26:30+00:00,SAT-63435,226.20247940523623,45.22069429410537,634.0889181447814,-4.684945299799239,164086.60169793863,10.5,10500164086.601698,47.655,-122.3035,60.0,3.3833333333333333
2026-02-06T21:26:31+00:00,SAT-63435,225.9902084501115,45.71242303482229,629.4165325368082,-4.639376248930777,162490.58077963107,10.5,10500162490.58078,47.655,-122.3035,60.0,3.4
2026-02-06T21:26:32+00:00,SAT-63435,225.77082978802042,46.21057876695846,624.7895938153669,-4.592782196563945,160858.65997309852,10.5,10500160858.659973,47.655,-122.3035,60.0,3.4166666666666665
2026-02-06T21:26:33+00:00,SAT-63435,225.5439918862774,46.715210653412875,620.2091242340681,-4.54514312785035,159190.1382736876,10.5,10500159190.138273,47.655,-122.3035,60.0,3.433333333333333
2026-02-06T21:26:34+00:00,SAT-63435,225.30932015084943,47.22636344431205,615.676166007714,-4.496439093292187,157484.3169655988,10.5,10500157484.316965,47.655,-122.3035,60.0,3.45
2026-02-06T21:26:35+00:00,SAT-63435,225.0664150493793,47.744077009403405,611.1917812471222,-4.446650229572757,155740.50035145963,10.5,10500155740.50035,47.655,-122.3035,60.0,3.466666666666667
2026-02-06T21:26:36+00:00,SAT-63435,224.81485005458805,48.268385832093564,606.7570518731773,-4.395756826719881,153957.9981046713,10.5,10500153957.998104,47.655,-122.3035,60.0,3.4833333333333334
2026-02-06T21:26:37+00:00,SAT-63435,224.55416938548123,48.79931846713283,602.3730794638955,-4.343739352547329,152136.12612545094,10.5,10500152136.126125,47.655,-122.3035,60.0,3.5
2026-02-06T21:26:38+00:00,SAT-63435,224.28388552698425,49.3368969534883,598.0409850771163,-4.290578559576376,150274.21028567688,10.5,10500150274.210285,47.655,-122.3035,60.0,3.5166666666666666
2026-02-06T21:26:39+00:00,SAT-63435,224.00347649732868,49.88113618855304,593.7619089665583,-4.236255487107568,148371.5865014505,10.5,10500148371.586502,47.655,-122.3035,60.0,3.533333333333333
2026-02-06T21:26:40+00:00,SAT-63435,223.7123828422357,50.43204324677377,589.5370102958083,-4.180751532521153,146427.60323033913,10.5,10500146427.60323,47.655,-122.3035,60.0,3.55
2026-02-06T21:26:41+00:00,SAT-63435,223.41000431976778,50.98961664605649,585.3674667812021,-4.124048572870321,144441.6257300855,10.5,10500144441.62573,47.655,-122.3035,60.0,3.566666666666667
2026-02-06T21:26:42+00:00,SAT-63435,223.09569623603898,51.55384556383298,581.2544742134371,-4.066128956669634,142413.0357710038,10.5,10500142413.03577,47.655,-122.3035,60.0,3.5833333333333335
2026-02-06T21:26:43+00:00,SAT-63435,222.76876540145332,52.12470897981443,577.1992459873746,-4.006975633887483,140341.2361888656,10.5,10500140341.236189,47.655,-122.3035,60.0,3.6
2026-02-06T21:26:44+00:00,SAT-63435,222.4284656514988,52.70217475708558,573.2030125021988,-3.9465721716261286,138225.65143408094,10.5,10500138225.651434,47.655,-122.3035,60.0,3.6166666666666667
2026-02-06T21:26:45+00:00,SAT-63435,222.07399289080547,53.28619863840838,569.267020545938,-3.8849029334216363,136065.73385154066,10.5,10500136065.733852,47.655,-122.3035,60.0,3.6333333333333333
2026-02-06T21:26:46+00:00,SAT-63435,221.70447958749486,53.876723172858554,565.3925325011642,-3.821953078377041,133860.9636502561,10.5,10500133860.96365,47.655,-122.3035,60.0,3.65
2026-02-06T21:26:47+00:00,SAT-63435,221.31898866948958,54.473676537544016,561.5808255515608,-3.7577086707796363,131610.8527426203,10.5,10500131610.852743,47.655,-122.3035,60.0,3.6666666666666665
2026-02-06T21:26:48+00:00,SAT-63435,220.91650673963514,55.07697125908926,557.8331907791636,-3.6921567750745425,129314.94807078401,10.5,10500129314.94807,47.655,-122.3035,60.0,3.683333333333333
2026-02-06T21:26:49+00:00,SAT-63435,220.49593652827355,55.68650282066011,554.1509321668856,-3.625285572255738,126972.83568316202,10.5,10500126972.835684,47.655,-122.3035,60.0,3.7
2026-02-06T21:26:50+00:00,SAT-63435,220.05608848729352,56.30214814411114,550.5353654849596,-3.5570844369285015,124584.14343348579,10.5,10500124584.143433,47.655,-122.3035,60.0,3.716666666666667
2026-02-06T21:26:51+00:00,SAT-63435,219.59567142605505,56.92376392473177,546.9878171005289,-3.487544020090471,122148.54388014639,10.5,10500122148.54388,47.655,-122.3035,60.0,3.7333333333333334
2026-02-06T21:26:52+00:00,SAT-63435,219.11328207247848,57.55118480017191,543.5096227046753,-3.4166563759370514,119665.75872745618,10.5,10500119665.758728,47.655,-122.3035,60.0,3.75
2026-02-06T21:26:53+00:00,SAT-63435,218.6073934232043,58.18422133944196,540.1021259129835,-3.3444150564662056,117135.56213910878,10.5,10500117135.56214,47.655,-122.3035,60.0,3.7666666666666666
2026-02-06T21:26:54+00:00,SAT-63435,218.07634174228093,58.8226578214957,536.7666767717545,-3.2708152520448013,114557.78566140716,10.5,10500114557.785662,47.655,-122.3035,60.0,3.783333333333333
2026-02-06T21:26:55+00:00,SAT-63435,217.5183120407358,59.46624978309869,533.5046301240279,-3.195853794800151,111932.31834204978,10.5,10500111932.318342,47.655,-122.3035,60.0,3.8
2026-02-06T21:26:56+00:00,SAT-63435,216.93132188677973,60.114721275381,530.3173439722237,-3.1195294129770206,109259.11563878873,10.5,10500109259.115639,47.655,-122.3035,60.0,3.816666666666667
2026-02-06T21:26:57+00:00,SAT-63435,216.31320331314333,60.76776183866907,527.2061775871081,-3.0418426868522266,106538.19787537276,10.5,10500106538.197876,47.655,-122.3035,60.0,3.8333333333333335
2026-02-06T21:26:58+00:00,SAT-63435,215.6615826748828,61.425023091160796,524.1724896607248,-2.9627962896972635,103769.65868107752,10.5,10500103769.658682,47.655,-122.3035,60.0,3.85
2026-02-06T21:26:59+00:00,SAT-63435,214.9738581927543,62.08611493611543,521.2176362190145,-2.8823949509241706,100953.663699918,10.5,10500100953.6637,47.655,-122.3035,60.0,3.8666666666666667
2026-02-06T21:27:00+00:00,SAT-63435,214.2471750302931,62.750601267937725,518.3429685711833,-2.800645679269039,98090.45840747905,10.5,10500098090.458408,47.655,-122.3035,60.0,3.8833333333333333
2026-02-06T21:27:01+00:00,SAT-63435,213.47839764475737,63.417995162151136,515.5498310364911,-2.7175577886366358,95180.36901610339,10.5,10500095180.369017,47.655,-122.3035,60.0,3.9
2026-02-06T21:27:02+00:00,SAT-63435,212.6640792819166,64.08775342509678,512.839558645263,-2.633142993310298,92223.80580954484,10.5,10500092223.805809,47.655,-122.3035,60.0,3.9166666666666665
2026-02-06T21:27:03+00:00,SAT-63435,211.80042847713577,64.75927042454838,510.21347474494405,-2.5474155191467314,89221.26703748056,10.5,10500089221.267038,47.655,-122.3035,60.0,3.933333333333333
2026-02-06T21:27:04+00:00,SAT-63435,210.88327252134698,65.43187110036104,507.6728884952607,-2.4603921552059314,86173.34072380928,10.5,10500086173.340723,47.655,-122.3035,60.0,3.95
2026-02-06T21:27:05+00:00,SAT-63435,209.90801801711262,66.10480302233717,505.2190923118889,-2.3720923425839957,83080.70777795202,10.5,10500083080.707777,47.655,-122.3035,60.0,3.966666666666667
2026-02-06T21:27:06+00:00,SAT-63435,208.86960883918593,66.77722737461959,502.85335922152655,-2.28253822170761,79944.14365130528,10.5,10500079944.143652,47.655,-122.3035,60.0,3.9833333333333334
2026-02-06T21:27:07+00:00,SAT-63435,207.7624821642502,67.44820871616689,500.576940169801,-2.191754692383265,76764.52044041843,10.5,10500076764.520441,47.655,-122.3035,60.0,4.0
2026-02-06T21:27:08+00:00,SAT-63435,206.58052368870582,68.11670337619569,498.3910612692859,-2.0997694529083875,73542.80825683102,10.5,10500073542.808256,47.655,-122.3035,60.0,4.016666666666667
2026-02-06T21:27:09+00:00,SAT-63435,205.31702383929465,68.78154633818042,496.2969210085126,-2.00661302925478,70280.07624920034,10.5,10500070280.07625,47.655,-122.3035,60.0,4.033333333333333
2026-02-06T21:27:10+00:00,SAT-63435,203.96463772192192,69.44143648657081,494.2956874318766,-1.9123187892803535,66977.4931010563,10.5,10500066977.493101,47.655,-122.3035,60.0,4.05
2026-02-06T21:27:11+00:00,SAT-63435,202.51535285190494,70.09492012904602,492.3884953053705,-1.816922957002476,63636.327530714596,10.5,10500063636.32753,47.655,-122.3035,60.0,4.066666666666666
2026-02-06T21:27:12+00:00,SAT-63435,200.96047044229246,70.74037278665249,490.57644326808037,-1.720464591589126,60257.94755545792,10.5,10500060257.947556,47.655,-122.3035,60.0,4.083333333333333
2026-02-06T21:27:13+00:00,SAT-63435,199.29060833975788,71.37597935694902,488.86059100463706,-1.6229855543080822,56843.81933395691,10.5,10500056843.819334,47.655,-122.3035,60.0,4.1
2026-02-06T21:27:14+00:00,SAT-63435,197.49573660318887,71.99971295841836,487.2419564506282,-1.524530484631328,53395.50632934516,10.5,10500053395.506329,47.655,-122.3035,60.0,4.116666666666666
2026-02-06T21:27:15+00:00,SAT-63435,195.5652602435219,72.60931306820245,485.7215130218409,-1.42514674738362,49914.66745813868,10.5,10500049914.667458,47.655,-122.3035,60.0,4.133333333333334
2026-02-06T21:27:16+00:00,SAT-63435,193.4881677413251,73.20226397756896,484.3001868962168,-1.324884329997161,46403.053491659855,10.5,10500046403.053492,47.655,-122.3035,60.0,4.15
2026-02-06T21:27:17+00:00,SAT-63435,191.25326821932921,73.77577516652771,482.9788543982743,-1.223795783515925,42862.50498975933,10.5,10500042862.50499,47.655,-122.3035,60.0,4.166666666666667
2026-02-06T21:27:18+00:00,SAT-63435,188.8495435565445,74.32676601131732,481.75833944237013,-1.1219361061627606,39294.94822284351,10.5,10500039294.948223,47.655,-122.3035,60.0,4.183333333333334
2026-02-06T21:27:19+00:00,SAT-63435,186.26664328533343,74.85185815727743,480.6394110920808,-1.0193626222139776,35702.390929550216,10.5,10500035702.39093,47.655,-122.3035,60.0,4.2
2026-02-06T21:27:20+00:00,SAT-63435,183.4955470749695,75.34737999907385,479.622781240385,-0.916134843623682,32086.917470247576,10.5,10500032086.91747,47.655,-122.3035,60.0,4.216666666666667
2026-02-06T21:27:21+00:00,SAT-63435,180.52940908422335,75.80938877865078,478.7091024278505,-0.8123143211082691,28450.683611382996,10.5,10500028450.68361,47.655,-122.3035,60.0,4.233333333333333
2026-02-06T21:27:22+00:00,SAT-63435,177.36457666589652,76.23371658980922,477.8989658093377,-0.7079644766697764,24795.91065974265,10.5,10500024795.91066,47.655,-122.3035,60.0,4.25
2026-02-06T21:27:23+00:00,SAT-63435,174.00173988297647,76.61604660466615,477.1928992877308,-0.6031504226345161,21124.879124418865,10.5,10500021124.879124,47.655,-122.3035,60.0,4.266666666666667
2026-02-06T21:27:24+00:00,SAT-63435,170.4471177963613,76.95202453502615,476.5913658281446,-0.4979387763162533,17439.922225530634,10.5,10500017439.922226,47.655,-122.3035,60.0,4.283333333333333
2026-02-06T21:27:25+00:00,SAT-63435,166.71352835347804,77.23740710763771,476.09476195697204,-0.39239744207752775,13743.41826108928,10.5,10500013743.41826,47.655,-122.3035,60.0,4.3
2026-02-06T21:27:26+00:00,SAT-63435,162.82113600149287,77.46824380992015,475.703416478286,-0.28659541548716755,10037.783747766127,10.5,10500010037.783749,47.655,-122.3035,60.0,4.316666666666666
2026-02-06T21:27:27+00:00,SAT-63435,158.79764767157334,77.64108075831636,475.4175893855575,-0.18060255028939104,6325.4652591647455,10.5,10500006325.46526,47.655,-122.3035,60.0,4.333333333333333
2026-02-06T21:27:28+00:00,SAT-63435,154.6777611466163,77.75316750845315,475.23747100578237,-0.07448933486213506,2608.931596446026,10.5,10500002608.931597,47.655,-122.3035,60.0,4.35
2026-02-06T21:27:29+00:00,SAT-63435,150.50177409664028,77.8026414764302,475.1631813665474,0.03167334005729449,-1109.3343469020563,10.5,10499998890.665653,47.655,-122.3035,60.0,4.366666666666666
2026-02-06T21:27:30+00:00,SAT-63435,146.313427524978,77.78866303719373,475.1947697947509,0.13781441923146157,-4826.843915901135,10.5,10499995173.156084,47.655,-122.3035,60.0,4.383333333333334
2026-02-06T21:27:31+00:00,SAT-63435,142.15723960918737,77.71147922585851,475.33221475254277,0.24386291929498877,-8541.110972836354,10.5,10499991458.889027,47.655,-122.3035,60.0,4.4
2026-02-06T21:27:32+00:00,SAT-63435,138.07572057453748,77.57240498715629,475.5754239090043,0.34974816402714826,-12249.660137497713,10.5,10499987750.339863,47.655,-122.3035,60.0,4.416666666666667
2026-02-06T21:27:33+00:00,SAT-63435,134.10689202049815,77.37372526015267,475.92423444646886,0.45540001933375224,-15950.035017239821,10.5,10499984049.964983,47.655,-122.3035,60.0,4.433333333333334
2026-02-06T21:27:34+00:00,SAT-63435,130.2824511580182,77.11853452329537,476.378413601196,0.5607491261959087,-19639.806365832726,10.5,10499980360.193634,47.655,-122.3035,60.0,4.45
2026-02-06T21:27:35+00:00,SAT-63435,126.62675643693925,76.81053889161691,476.93765943636805,0.66572711848393,-23316.579712226332,10.5,10499976683.420288,47.655,-122.3035,60.0,4.466666666666667
2026-02-06T21:27:36+00:00,SAT-63435,123.15662907537528,76.45384771893357,477.6016018323176,0.7702668487411437,-26978.0032684545,10.5,10499973021.99673,47.655,-122.3035,60.0,4.483333333333333
2026-02-06T21:27:37+00:00,SAT-63435,119.88182315207905,76.05277768104926,478.3698037019341,0.8743025819008146,-30621.77471442111,10.5,10499969378.225286,47.655,-122.3035,60.0,4.5
2026-02-06T21:27:38+00:00,SAT-63435,116.80594511643041,75.61168500034687,479.2417623992666,0.9777702066532216,-34245.64860086916,10.5,10499965754.351398,47.655,-122.3035,60.0,4.516666666666667
2026-02-06T21:27:39+00:00,SAT-63435,113.92759833824769,75.13483345517679,480.216911338928,1.0806074102315202,-37847.44247112101,10.5,10499962152.55753,47.655,-122.3035,60.0,4.533333333333333
2026-02-06T21:27:40+00:00,SAT-63435,111.24156831182994,74.62629917130224,481.2946217898165,1.1827538520438838,-41425.04294241045,10.5,10499958574.957058,47.655,-122.3035,60.0,4.55
2026-02-06T21:27:41+00:00,SAT-63435,108.73992206448301,74.08990868925702,482.47420484200296,1.2841513298099094,-44976.41152468235,10.5,10499955023.588476,47.655,-122.3035,60.0,4.566666666666666
2026-02-06T21:27:42+00:00,SAT-63435,106.41295186229824,73.52920449808217,483.75491353931073,1.384743905282564,-48499.58902390708,10.5,10499951500.410976,47.655,-122.3035,60.0,4.583333333333333
2026-02-06T21:27:43+00:00,SAT-63435,104.24993768561455,72.94743161214582,485.13594513727776,1.4844780530507395,-51992.70075377535,10.5,10499948007.299246,47.655,-122.3035,60.0,4.6
2026-02-06T21:27:44+00:00,SAT-63435,102.23973224079064,72.34753916966437,486.6164435095263,1.5833027443148977,-55453.95946987574,10.5,10499944546.04053,47.655,-122.3035,60.0,4.616666666666666
2026-02-06T21:27:45+00:00,SAT-63435,100.37118874045622,71.7321920247932,488.1955016376793,1.6811695816073007,-58881.67008816698,10.5,10499941118.329912,47.655,-122.3035,60.0,4.633333333333334
2026-02-06T21:27:46+00:00,SAT-63435,98.63345823207803,71.10378836347105,489.8721642356399,1.778032834727913,-62274.23094360528,10.5,10499937725.769056,47.655,-122.3035,60.0,4.65
2026-02-06T21:27:47+00:00,SAT-63435,97.01618411939327,70.46448047696559,491.64543040970636,1.873849539055452,-65630.13723341314,10.5,10499934369.862766,47.655,-122.3035,60.0,4.666666666666667
2026-02-06T21:27:48+00:00,SAT-63435,95.50961872636911,69.81619664224229,493.5142564167387,1.9685795133261188,-68947.98163976576,10.5,10499931052.01836,47.655,-122.3035,60.0,4.683333333333334
2026-02-06T21:27:49+00:00,SAT-63435,94.10468293617063,69.16066280273164,495.47755844005366,2.0621854261422885,-72226.45665920665,10.5,10499927773.54334,47.655,-122.3035,60.0,4.7
2026-02-06T21:27:50+00:00,SAT-63435,92.7929856003502,68.49942320717551,497.5342154316501,2.154632763893934,-75464.35347912024,10.5,10499924535.64652,47.655,-122.3035,60.0,4.716666666666667
2026-02-06T21:27:51+00:00,SAT-63435,91.5668156584385,67.83385957820525,499.68307192244333,2.245889895228651,-78660.56423574484,10.5,10499921339.435764,47.655,-122.3035,60.0,4.733333333333333
2026-02-06T21:27:52+00:00,SAT-63435,90.4191165052485,67.16520856463978,501.9229408967957,2.335927989720361,-81814.07916560658,10.5,10499918185.920834,47.655,-122.3035,60.0,4.75
2026-02-06T21:27:53+00:00,SAT-63435,89.34344966443756,66.49457747092215,504.2526065859336,2.424721059359292,-84923.98805867413,10.5,10499915076.011942,47.655,-122.3035,60.0,4.766666666666667
2026-02-06T21:27:54+00:00,SAT-63435,88.33395263942543,65.82295827241032,506.6708273027442,2.5122458672043693,-87989.47705897884,10.5,10499912010.522942,47.655,-122.3035,60.0,4.783333333333333
2026-02-06T21:27:55+00:00,SAT-63435,87.38529441603642,65.15124006080912,509.1763381854686,2.5984819201469262,-91009.82841116945,10.5,10499908990.171589,47.655,-122.3035,60.0,4.8
2026-02-06T21:27:56+00:00,SAT-63435,86.49263085837076,64.48022002837672,511.76785393417805,2.683411384134753,-93984.41749129962,10.5,10499906015.582508,47.655,-122.3035,60.0,4.816666666666666
2026-02-06T21:27:57+00:00,SAT-63435,85.65156149777532,63.810613156853464,514.4440714627028,2.7670190365810696,-96912.71113998882,10.5,10499903087.28886,47.655,-122.3035,60.0,4.833333333333333
2026-02-06T21:27:58+00:00,SAT-63435,84.8580885912979,63.14306074413383,517.2036725030953,2.8492921807925087,-99794.26466532837,10.5,10499900205.735334,47.655,-122.3035,60.0,4.85
2026-02-06T21:27:59+00:00,SAT-63435,84.10857895311138,62.478137914697875,520.0453261247535,2.9302205459281523,-102628.71833902372,10.5,10499897371.28166,47.655,-122.3035,60.0,4.866666666666666
2026-02-06T21:28:00+00:00,SAT-63435,83.39972877794209,61.816360241596634,522.9676911537683,3.009796253089077,-105415.79620870684,10.5,10499894584.20379,47.655,-122.3035,60.0,4.883333333333334
2026-02-06T21:28:01+00:00,SAT-63435,82.72853147770402,61.15818957774524,525.9694185584545,3.088013668205691,-108155.30094542856,10.5,10499891844.699055,47.655,-122.3035,60.0,4.9
2026-02-06T21:28:02+00:00,SAT-63435,82.09224847946447,60.504039222982044,529.0491536881619,3.1648693326380393,-110847.11141298762,10.5,10499889152.888588,47.655,-122.3035,60.0,4.916666666666667
2026-02-06T21:28:03+00:00,SAT-63435,81.48838281543124,59.85427849660453,532.205538442871,3.2403618259837197,-113491.17786288359,10.5,10499886508.822138,47.655,-122.3035,60.0,4.933333333333334
2026-02-06T21:28:04+00:00,SAT-63435,80.91465532931824,59.20923680677949,535.4372133059693,3.3144917262805875,-116087.52054044725,10.5,10499883912.47946,47.655,-122.3035,60.0,4.95
2026-02-06T21:28:05+00:00,SAT-63435,80.36898327496782,58.569207263411265,538.7428193373313,3.387261462421773,-118636.22451579025,10.5,10499881363.775484,47.655,-122.3035,60.0,4.966666666666667
2026-02-06T21:28:06+00:00,SAT-63435,79.84946111571824,57.934449914575985,542.1210000192145,3.458675214235031,-121137.4361841612,10.5,10499878862.563816,47.655,-122.3035,60.0,4.983333333333333
2026-02-06T21:28:07+00:00,SAT-63435,79.35434330886773,57.30519464587239,545.5704030024974,3.5287387780151,-123591.35855632016,10.5,10499876408.641443,47.655,-122.3035,60.0,5.0
2026-02-06T21:28:08+00:00,SAT-63435,78.88202888355869,56.68164379170685,549.0896817188146,3.597459545963927,-125998.25053844828,10.5,10499874001.749462,47.655,-122.3035,60.0,5.016666666666667
2026-02-06T21:28:09+00:00,SAT-63435,78.43104761538316,56.06397447507769,552.677496972185,3.6648463113651846,-128358.42010853534,10.5,10499871641.579891,47.655,-122.3035,60.0,5.033333333333333
2026-02-06T21:28:10+00:00,SAT-63435,78.0000476521861,55.452340739142635,556.3325183363382,3.7309092088039124,-130672.22222261869,10.5,10499869327.777777,47.655,-122.3035,60.0,5.05
2026-02-06T21:28:11+00:00,SAT-63435,77.587784420541,54.846875473146696,560.0534254924189,3.7956596192170804,-132940.05548925232,10.5,10499867059.944511,47.655,-122.3035,60.0,5.066666666666666
2026-02-06T21:28:12+00:00,SAT-63435,77.19311067961023,54.24769216318361,563.8389094719979,3.859110036999717,-135162.35751500138,10.5,10499864837.642485,47.655,-122.3035,60.0,5.083333333333333
2026-02-06T21:28:13+00:00,SAT-63435,76.81496760203856,53.65488649401725,567.6876737675457,3.921274022245079,-137339.6032316908,10.5,10499862660.396769,47.655,-122.3035,60.0,5.1
2026-02-06T21:28:14+00:00,SAT-63435,76.45237676212318,53.06853780597689,571.5984353952729,3.9821660453962897,-139472.29945544875,10.5,10499860527.700544,47.655,-122.3035,60.0,5.116666666666666
2026-02-06T21:28:15+00:00,SAT-63435,76.10443294237267,52.488710439033675,575.5699258030403,4.041801499757694,-141560.98532490697,10.5,10499858439.014675,47.655,-122.3035,60.0,5.133333333333334
2026-02-06T21:28:16+00:00,SAT-63435,75.77029765579287,51.91545495214801,579.6008917907457,4.100196471298113,-143606.2242387371,10.5,10499856393.77576,47.655,-122.3035,60.0,5.15
2026-02-06T21:28:17+00:00,SAT-63435,75.44919332523065,51.34880926523026,583.6900962011314,4.157367787094412,-145608.6055523496,10.5,10499854391.394447,47.655,-122.3035,60.0,5.166666666666667
2026-02-06T21:28:18+00:00,SAT-63435,75.14039802797897,50.78879969319214,587.8363186589055,4.213332874376118,-147568.73964103937,10.5,10499852431.260359,47.655,-122.3035,60.0,5.183333333333334
2026-02-06T21:28:19+00:00,SAT-63435,74.84324075901894,50.23544190880056,592.0383561692853,4.26810968950259,-149487.2554124667,10.5,10499850512.744587,47.655,-122.3035,60.0,5.2
2026-02-06T21:28:20+00:00,SAT-63435,74.55709715259177,49.688741831853555,596.2950236457092,4.321716655975207,-151364.79813558108,10.5,10499848635.201864,47.655,-122.3035,60.0,5.216666666666667
2026-02-06T21:28:21+00:00,SAT-63435,74.28138561288229,49.148696450631334,600.6051543757267,4.374172595612587,-153202.02703008684,10.5,10499846797.97297,47.655,-122.3035,60.0,5.233333333333333
2026-02-06T21:28:22+00:00,SAT-63435,74.01556381171922,48.61529458285711,604.9676004182461,4.425496654789104,-154999.61268300348,10.5,10499845000.387318,47.655,-122.3035,60.0,5.25
2026-02-06T21:28:23+00:00,SAT-63435,73.75912551480806,48.08851758223651,609.3812329272225,4.4757082815797276,-156758.23624818187,10.5,10499843241.763752,47.655,-122.3035,60.0,5.266666666666667
2026-02-06T21:28:24+00:00,SAT-63435,73.51159770050859,47.56833998947927,613.844942452547,4.524827106427995,-158478.58526679125,10.5,10499841521.414734,47.655,-122.3035,60.0,5.283333333333333
2026-02-06T21:28:25+00:00,SAT-63435,73.27253794561302,47.05473014379245,618.3576391219287,4.572872945233822,-160161.35377546801,10.5,10499839838.646225,47.655,-122.3035,60.0,5.3
2026-02-06T21:28:26+00:00,SAT-63435,73.04153204543373,46.54765074424328,622.9182528258528,4.619865716988239,-161807.2394215351,10.5,10499838192.760578,47.655,-122.3035,60.0,5.316666666666666
2026-02-06T21:28:27+00:00,SAT-63435,72.8181918483881,46.04705937482342,627.5257333203954,4.665825436760456,-163416.94321738003,10.5,10499836583.056782,47.655,-122.3035,60.0,5.333333333333333
2026-02-06T21:28:28+00:00,SAT-63435,72.6021532809117,45.55290898803518,632.1790503230436,4.710772131365408,-164991.1665867751,10.5,10499835008.833414,47.655,-122.3035,60.0,5.35
2026-02-06T21:28:29+00:00,SAT-63435,72.39307454678699,45.06514835858005,636.8771935244115,4.754725789581081,-166530.60962127786,10.5,10499833469.390379,47.655,-122.3035,60.0,5.366666666666666
2026-02-06T21:28:30+00:00,SAT-63435,72.19063448273977,44.583722505743985,641.6191725503029,4.797706414316766,-168035.97290738396,10.5,10499831964.027092,47.655,-122.3035,60.0,5.383333333333334
2026-02-06T21:28:31+00:00,SAT-63435,71.99453105121478,44.108573076887545,646.4040169758063,4.839733888691434,-169507.95283602516,10.5,10499830492.047165,47.655,-122.3035,60.0,5.4
2026-02-06T21:28:32+00:00,SAT-63435,71.80447996437802,43.63963871355263,651.2307762058255,4.8808279868106625,-170947.24198002327,10.5,10499829052.75802,47.655,-122.3035,60.0,5.416666666666667
2026-02-06T21:28:33+00:00,SAT-63435,71.62021342157776,43.176855387217444,656.0985193663578,4.921008353453469,-172354.5283826367,10.5,10499827645.471617,47.655,-122.3035,60.0,5.433333333333334
2026-02-06T21:28:34+00:00,SAT-63435,71.4414789507586,42.720156710176056,661.0063351755147,4.96029448107537,-173730.49475211074,10.5,10499826269.505247,47.655,-122.3035,60.0,5.45
2026-02-06T21:28:35+00:00,SAT-63435,71.26803834455862,42.269474223706396,665.9533317916068,4.9987056551920315,-175075.81654878164,10.5,10499824924.18345,47.655,-122.3035,60.0,5.466666666666667
2026-02-06T21:28:36+00:00,SAT-63435,71.09966668308707,41.8247376680336,670.9386366067586,5.036261001107673,-176391.16362170316,10.5,10499823608.836378,47.655,-122.3035,60.0,5.483333333333333
2026-02-06T21:28:37+00:00,SAT-63435,70.93615143289999,41.38587522651382,675.9613960871264,5.07297933852926,-177677.1951166204,10.5,10499822322.804884,47.655,-122.3035,60.0,5.5
2026-02-06T21:28:38+00:00,SAT-63435,70.77729162051835,40.95281376259161,681.0207754681202,5.108879357131666,-178934.56562500482,10.5,10499821065.434376,47.655,-122.3035,60.0,5.516666666666667
2026-02-06T21:28:39+00:00,SAT-63435,70.62289706519444,40.52547902276068,686.1159586247206,5.143979401603453,-180163.91765544767,10.5,10499819836.082344,47.655,-122.3035,60.0,5.533333333333333
2026-02-06T21:28:40+00:00,SAT-63435,70.47278767620841,40.10379584080445,691.2461477274176,5.178297587046426,-181365.8856754411,10.5,10499818634.114325,47.655,-122.3035,60.0,5.55
2026-02-06T21:28:41+00:00,SAT-63435,70.32679280048607,39.68768831585669,696.4105630132381,5.211851772719095,-182541.09519176264,10.5,10499817458.904808,47.655,-122.3035,60.0,5.566666666666666
2026-02-06T21:28:42+00:00,SAT-63435,70.18475061967877,39.277079977936616,701.6084425305901,5.2446594892598615,-183690.16020152363,10.5,10499816309.839798,47.655,-122.3035,60.0,5.583333333333333
2026-02-06T21:28:43+00:00,SAT-63435,70.04650759394679,38.87189394535032,706.8390418115222,5.2767380129825145,-184813.68579431175,10.5,10499815186.314205,47.655,-122.3035,60.0,5.6
2026-02-06T21:28:44+00:00,SAT-63435,69.91191794468781,38.47205306322705,712.1016336180818,5.308104284310273,-185912.26529540602,10.5,10499814087.734705,47.655,-122.3035,60.0,5.616666666666666
2026-02-06T21:28:45+00:00,SAT-63435,69.78084317679405,38.07748003643103,717.3955076073244,5.338774965281604,-186986.4822798739,10.5,10499813013.51772,47.655,-122.3035,60.0,5.633333333333334
2026-02-06T21:28:46+00:00,SAT-63435,69.65315163399721,37.68809754688314,722.719970053675,5.36876639873548,-188036.90914306635,10.5,10499811963.090857,47.655,-122.3035,60.0,5.65
2026-02-06T21:28:47+00:00,SAT-63435,69.52871808673686,37.30382836368593,728.0743435305851,5.398094629368702,-189064.1078381344,10.5,10499810935.892162,47.655,-122.3035,60.0,5.666666666666667
2026-02-06T21:28:48+00:00,SAT-63435,69.40742334872932,36.92459544212542,733.4579666131896,5.426775343614771,-190068.6277703327,10.5,10499809931.37223,47.655,-122.3035,60.0,5.683333333333334
2026-02-06T21:28:49+00:00,SAT-63435,69.28915392132807,36.55032201801705,738.870193521003,5.454823954399191,-191051.00876550906,10.5,10499808948.991234,47.655,-122.3035,60.0,5.7
2026-02-06T21:28:50+00:00,SAT-63435,69.17380166099669,36.18093168780552,744.3103938451462,5.482255546620954,-192011.77916063525,10.5,10499807988.220839,47.655,-122.3035,60.0,5.716666666666667
2026-02-06T21:28:51+00:00,SAT-63435,69.06126347040792,35.816348484966404,749.7779522211977,5.509084875933069,-192951.45576109597,10.5,10499807048.544239,47.655,-122.3035,60.0,5.733333333333333
2026-02-06T21:28:52+00:00,SAT-63435,68.95144101065308,35.456496949348704,755.2722680008324,5.535326403230098,-193870.54504858833,10.5,10499806129.454952,47.655,-122.3035,60.0,5.75
2026-02-06T21:28:53+00:00,SAT-63435,68.84424043197502,35.10130218771607,760.7927549578503,5.560994243687948,-194769.54139627973,10.5,10499805230.458603,47.655,-122.3035,60.0,5.766666666666667
2026-02-06T21:28:54+00:00,SAT-63435,68.73957212346114,34.750689931589676,766.338840943388,5.5861022355291805,-195648.9294772599,10.5,10499804351.070522,47.655,-122.3035,60.0,5.783333333333333
2026-02-06T21:28:55+00:00,SAT-63435,68.63735047788215,34.404586585094805,771.9099676097061,5.61066386924934,-196509.1817857475,10.5,10499803490.818214,47.655,-122.3035,60.0,5.8
2026-02-06T21:28:56+00:00,SAT-63435,68.53749367313348,34.06291927217485,777.5055900633934,5.634692351436782,-197350.76087233057,10.5,10499802649.239128,47.655,-122.3035,60.0,5.816666666666666
2026-02-06T21:28:57+00:00,SAT-63435,68.43992346675016,33.72561587504383,783.1251765822235,5.658200598771989,-198174.11913379718,10.5,10499801825.880867,47.655,-122.3035,60.0,5.833333333333333
2026-02-06T21:28:58+00:00,SAT-63435,68.34456500368621,33.392605068778735,788.7682083260216,5.681201193014941,-198979.69723660254,10.5,10499801020.302763,47.655,-122.3035,60.0,5.85
2026-02-06T21:28:59+00:00,SAT-63435,68.2513466369183,33.06381635455254,794.4341790026441,5.703706419814921,-199767.9254761528,10.5,10499800232.074524,47.655,-122.3035,60.0,5.866666666666666
2026-02-06T21:29:00+00:00,SAT-63435,68.16019975880914,32.73918008679776,800.122594572659,5.725728304457555,-200539.22502881754,10.5,10499799460.774971,47.655,-122.3035,60.0,5.883333333333334
2026-02-06T21:29:01+00:00,SAT-63435,68.07105864238078,32.41862749499266,805.8329729896826,5.747278569847241,-201294.00648029655,10.5,10499798705.993519,47.655,-122.3035,60.0,5.9
2026-02-06T21:29:02+00:00,SAT-63435,67.98386029304858,32.10209070482282,811.5648438988085,5.768368641261156,-202032.66999212548,10.5,10499797967.330008,47.655,-122.3035,60.0,5.916666666666667
2026-02-06T21:29:03+00:00,SAT-63435,67.89854430936272,31.789502756154096,817.3177483397775,5.789009657978598,-202755.60570898443,10.5,10499797244.39429,47.655,-122.3035,60.0,5.933333333333334
2026-02-06T21:29:04+00:00,SAT-63435,67.81505275191627,31.48079761771976,823.0912384617462,5.809212521100273,-203463.19543353177,10.5,10499796536.804567,47.655,-122.3035,60.0,5.95
2026-02-06T21:29:05+00:00,SAT-63435,67.7333300196842,31.175910196902198,828.8848772857489,5.828987846128849,-204155.81096557443,10.5,10499795844.189034,47.655,-122.3035,60.0,5.966666666666667
2026-02-06T21:29:06+00:00,SAT-63435,67.65332273418177,30.87477634996209,834.6982384198626,5.848345970851953,-204833.81437816392,10.5,10499795166.185621,47.655,-122.3035,60.0,5.983333333333333
2026-02-06T21:29:07+00:00,SAT-63435,67.57497963047821,30.577332889810002,840.5309057822383,5.867296962828378,-205497.5582797949,10.5,10499794502.441721,47.655,-122.3035,60.0,6.0
2026-02-06T21:29:08+00:00,SAT-63435,67.49825145439141,30.283517591548907,846.3824733315964,5.885850696183007,-206147.3885040883,10.5,10499793852.611496,47.655,-122.3035,60.0,6.016666666666667
