DopplerPredictor/satellites_20260211_204923/SAT-53035.csv

timestamp,satellite,azimuth_deg,elevation_deg,distance_km,relative_velocity_kms,doppler_shift_hz,tx_freq_ghz,rx_freq_hz,ue_lat,ue_lon,ue_alt_m,time_minutes
2026-02-06T21:28:36+00:00,SAT-53035,298.7559123430871,30.128162665676513,983.7882832344703,-5.821249772137057,203884.79088236135,10.5,10500203884.790882,47.655,-122.3035,60.0,5.483333333333333
2026-02-06T21:28:37+00:00,SAT-53035,298.7627678052822,30.385940576033104,977.9826394296398,-5.805871414548922,203346.17574923675,10.5,10500203346.175749,47.655,-122.3035,60.0,5.5
2026-02-06T21:28:38+00:00,SAT-53035,298.76968528991296,30.646433208968187,972.1923327551433,-5.790209887969802,202797.64284024423,10.5,10500202797.64284,47.655,-122.3035,60.0,5.516666666666667
2026-02-06T21:28:39+00:00,SAT-53035,298.77666645492263,30.909681978488084,966.417645620834,-5.7742592849681005,202238.98525214085,10.5,10500202238.985252,47.655,-122.3035,60.0,5.533333333333333
2026-02-06T21:28:40+00:00,SAT-53035,298.78371301715913,31.1757289379471,960.6588663281611,-5.758013401587067,201669.9856961185,10.5,10500201669.985697,47.655,-122.3035,60.0,5.55
2026-02-06T21:28:41+00:00,SAT-53035,298.7908267546524,31.444616776792895,954.9162893658976,-5.741466015740106,201090.42624838516,10.5,10500201090.426249,47.655,-122.3035,60.0,5.566666666666666
2026-02-06T21:28:42+00:00,SAT-53035,298.7980095096166,31.71638882964754,949.1902154282235,-5.724610708422358,200500.0820882384,10.5,10500200500.082088,47.655,-122.3035,60.0,5.583333333333333
2026-02-06T21:28:43+00:00,SAT-53035,298.80526319125687,31.991089076839252,943.4809516111142,-5.707440919362165,199898.72344721472,10.5,10500199898.723448,47.655,-122.3035,60.0,5.6
2026-02-06T21:28:44+00:00,SAT-53035,298.81258977882044,32.26876214703959,937.7888115532298,-5.689949989527679,199286.11709785115,10.5,10500199286.117098,47.655,-122.3035,60.0,5.616666666666666
2026-02-06T21:28:45+00:00,SAT-53035,298.8199913249623,32.54945332155988,932.1141155344112,-5.672131070197711,198662.02316896163,10.5,10500198662.023169,47.655,-122.3035,60.0,5.633333333333334
2026-02-06T21:28:46+00:00,SAT-53035,298.82746995906814,32.83320853376958,926.4571906648587,-5.653977169454305,198026.1967740036,10.5,10500198026.196774,47.655,-122.3035,60.0,5.65
2026-02-06T21:28:47+00:00,SAT-53035,298.8350278908683,33.12007437016664,920.8183710279468,-5.63548117071447,197378.38866013745,10.5,10500197378.38866,47.655,-122.3035,60.0,5.666666666666667
2026-02-06T21:28:48+00:00,SAT-53035,298.84266741437403,33.410098071839045,915.1979978045546,-5.616635788568796,196718.34366150852,10.5,10500196718.343662,47.655,-122.3035,60.0,5.683333333333334
2026-02-06T21:28:49+00:00,SAT-53035,298.85039091182136,33.70332753307627,909.5964194414394,-5.597433570666831,196045.80076528052,10.5,10500196045.800766,47.655,-122.3035,60.0,5.7
2026-02-06T21:28:50+00:00,SAT-53035,298.8582008579888,33.999811299304795,904.0139918177293,-5.577866935434351,195360.4944326541,10.5,10500195360.494432,47.655,-122.3035,60.0,5.716666666666667
2026-02-06T21:28:51+00:00,SAT-53035,298.8660998247496,34.29959856624498,898.4510783738032,-5.557928120262771,194662.1527842408,10.5,10500194662.152784,47.655,-122.3035,60.0,5.733333333333333
2026-02-06T21:28:52+00:00,SAT-53035,298.8740904858775,34.60273917552177,892.9080502918368,-5.5376092435765,193950.49977392447,10.5,10500193950.499773,47.655,-122.3035,60.0,5.75
2026-02-06T21:28:53+00:00,SAT-53035,298.882175622203,34.90928361272721,887.3852866144522,-5.516902148760815,193225.24972255493,10.5,10500193225.249723,47.655,-122.3035,60.0,5.766666666666667
2026-02-06T21:28:54+00:00,SAT-53035,298.89035812674155,35.21928299588563,881.8831745190197,-5.495798685744061,192486.11718014814,10.5,10500192486.11718,47.655,-122.3035,60.0,5.783333333333333
2026-02-06T21:28:55+00:00,SAT-53035,298.8986410108983,35.53278907847599,876.402109311132,-5.474290405964792,191732.8062423449,10.5,10500191732.806242,47.655,-122.3035,60.0,5.8
2026-02-06T21:28:56+00:00,SAT-53035,298.90702741016713,35.84985423439665,870.9424947222933,-5.452368737374452,190965.016679745,10.5,10500190965.01668,47.655,-122.3035,60.0,5.816666666666666
2026-02-06T21:28:57+00:00,SAT-53035,298.91552059074485,36.17053145138828,865.5047430330769,-5.430024935263931,190182.44221564528,10.5,10500190182.442215,47.655,-122.3035,60.0,5.833333333333333
2026-02-06T21:28:58+00:00,SAT-53035,298.9241239563944,36.494874320407895,860.0892752453208,-5.407250118061678,189384.7717798412,10.5,10500189384.77178,47.655,-122.3035,60.0,5.85
2026-02-06T21:28:59+00:00,SAT-53035,298.93284105585303,36.82293702575698,854.6965212186255,-5.384035174669232,188571.68626312452,10.5,10500188571.686264,47.655,-122.3035,60.0,5.866666666666666
2026-02-06T21:29:00+00:00,SAT-53035,298.9416755904692,37.15477432812333,849.3269198992626,-5.360370882962442,187742.86266769806,10.5,10500187742.862667,47.655,-122.3035,60.0,5.883333333333334
2026-02-06T21:29:01+00:00,SAT-53035,298.9506314226546,37.490441553134424,843.9809194309062,-5.3362477947258045,186897.97007708898,10.5,10500186897.970078,47.655,-122.3035,60.0,5.9
2026-02-06T21:29:02+00:00,SAT-53035,298.9597125845557,37.82999457114703,838.6589773801159,-5.31165633329547,186036.6730760199,10.5,10500186036.673077,47.655,-122.3035,60.0,5.916666666666667
2026-02-06T21:29:03+00:00,SAT-53035,298.9689232876805,38.17348978121009,833.3615608644413,-5.286586749621722,185158.63021153148,10.5,10500185158.63021,47.655,-122.3035,60.0,5.933333333333334
2026-02-06T21:29:04+00:00,SAT-53035,298.97826793290324,38.52098409039771,828.0891467243463,-5.261029080142657,184263.49251753988,10.5,10500184263.492517,47.655,-122.3035,60.0,5.95
2026-02-06T21:29:05+00:00,SAT-53035,298.9877511211359,38.87253488818489,822.8422217371457,-5.234973249726116,183350.9071202993,10.5,10500183350.90712,47.655,-122.3035,60.0,5.966666666666667
2026-02-06T21:29:06+00:00,SAT-53035,298.997377664978,39.22820002533266,817.6212827282756,-5.208408979626781,182420.51401466943,10.5,10500182420.514015,47.655,-122.3035,60.0,5.983333333333333
2026-02-06T21:29:07+00:00,SAT-53035,299.0071526009516,39.58803778434839,812.4268367743629,-5.181325841442834,181471.9479539067,10.5,10500181471.947954,47.655,-122.3035,60.0,6.0
2026-02-06T21:29:08+00:00,SAT-53035,299.0170812027066,39.952106850989566,807.2594013524779,-5.15371320682597,180504.83668829553,10.5,10500180504.836689,47.655,-122.3035,60.0,6.016666666666667
2026-02-06T21:29:09+00:00,SAT-53035,299.02716899502144,40.32046627954829,802.1195045395469,-5.125560346925395,179518.8044480981,10.5,10500179518.804447,47.655,-122.3035,60.0,6.033333333333333
2026-02-06T21:29:10+00:00,SAT-53035,299.03742176917257,40.693175462307394,797.0076851125845,-5.096856307084839,178513.46755491366,10.5,10500178513.467554,47.655,-122.3035,60.0,6.05
2026-02-06T21:29:11+00:00,SAT-53035,299.04784559893363,41.070294087057476,791.9244927738927,-5.067590033340236,177488.43885216245,10.5,10500177488.438852,47.655,-122.3035,60.0,6.066666666666666
2026-02-06T21:29:12+00:00,SAT-53035,299.0584468582335,41.45188210049848,786.8704882501044,-5.037750254759102,176443.3235841129,10.5,10500176443.323584,47.655,-122.3035,60.0,6.083333333333333
2026-02-06T21:29:13+00:00,SAT-53035,299.0692322396874,41.83799965957789,781.8462435085687,-5.0073256386433505,175377.7248317407,10.5,10500175377.724833,47.655,-122.3035,60.0,6.1
2026-02-06T21:29:14+00:00,SAT-53035,299.0802087750985,42.228707090915826,776.8523418189516,-4.976304640874075,174291.23827117024,10.5,10500174291.238272,47.655,-122.3035,60.0,6.116666666666666
2026-02-06T21:29:15+00:00,SAT-53035,299.09138385694763,42.62406483514704,771.8893779640896,-4.9446756018137625,173183.45553257546,10.5,10500173183.455532,47.655,-122.3035,60.0,6.133333333333334
2026-02-06T21:29:16+00:00,SAT-53035,299.1027652618901,43.024133394502826,766.957958355199,-4.91242672301877,172053.96338455277,10.5,10500172053.963385,47.655,-122.3035,60.0,6.15
2026-02-06T21:29:17+00:00,SAT-53035,299.1143611759945,43.42897327440431,762.05870117031,-4.879546104657137,170902.34504465063,10.5,10500170902.345045,47.655,-122.3035,60.0,6.166666666666667
2026-02-06T21:29:18+00:00,SAT-53035,299.12618022218504,43.83864492370638,757.1922364553818,-4.846021722772104,169728.17938304204,10.5,10500169728.179382,47.655,-122.3035,60.0,6.183333333333334
2026-02-06T21:29:19+00:00,SAT-53035,299.1382314897119,44.253208668500534,752.3592062480974,-4.811841417915266,168531.04052440936,10.5,10500168531.040524,47.655,-122.3035,60.0,6.2
2026-02-06T21:29:20+00:00,SAT-53035,299.1505245659355,44.672724639928845,747.5602647129895,-4.776992984161137,167310.50096561117,10.5,10500167310.500965,47.655,-122.3035,60.0,6.216666666666667
2026-02-06T21:29:21+00:00,SAT-53035,299.1630695711984,45.09725270454021,742.7960781877938,-4.741464092437629,166066.12889039092,10.5,10500166066.128891,47.655,-122.3035,60.0,6.233333333333333
2026-02-06T21:29:22+00:00,SAT-53035,299.1758771961979,45.526852382743684,738.067325306266,-4.705242371615941,164797.49100948824,10.5,10500164797.491009,47.655,-122.3035,60.0,6.25
2026-02-06T21:29:23+00:00,SAT-53035,299.18895874288967,45.96158276879777,733.3746970401249,-4.668315332239989,163504.14988932075,10.5,10500163504.149889,47.655,-122.3035,60.0,6.266666666666667
2026-02-06T21:29:24+00:00,SAT-53035,299.2023261684952,46.40150243799371,728.7188968170632,-4.630670505530231,162185.66882048588,10.5,10500162185.668821,47.655,-122.3035,60.0,6.283333333333333
2026-02-06T21:29:25+00:00,SAT-53035,299.21599213409854,46.8466693605385,724.1006405001259,-4.59229533681887,160841.6080854113,10.5,10500160841.608086,47.655,-122.3035,60.0,6.3
2026-02-06T21:29:26+00:00,SAT-53035,299.22997005687836,47.29714079924642,719.5206564733679,-4.553177289700734,159471.52860615897,10.5,10500159471.528606,47.655,-122.3035,60.0,6.316666666666666
2026-02-06T21:29:27+00:00,SAT-53035,299.2442741676173,47.75297321046486,714.9796856236428,-4.513303799917032,158074.99032923917,10.5,10500158074.99033,47.655,-122.3035,60.0,6.333333333333333
2026-02-06T21:29:28+00:00,SAT-53035,299.2589195731676,48.214222133724135,710.4784813683772,-4.472662328906469,156651.55410119734,10.5,10500156651.554102,47.655,-122.3035,60.0,6.35
2026-02-06T21:29:29+00:00,SAT-53035,299.2739223249325,48.68094207947471,706.0178096299471,-4.431240402594233,155200.78302716825,10.5,10500155200.783028,47.655,-122.3035,60.0,6.366666666666666
2026-02-06T21:29:30+00:00,SAT-53035,299.28929949407876,49.153186413621924,701.5984487713611,-4.3890255624453465,153722.24075655747,10.5,10500153722.240757,47.655,-122.3035,60.0,6.383333333333334
2026-02-06T21:29:31+00:00,SAT-53035,299.3050692534635,49.63100722930643,697.2211895807629,-4.346005443375523,152215.494211809,10.5,10500152215.494211,47.655,-122.3035,60.0,6.4
2026-02-06T21:29:32+00:00,SAT-53035,299.32125096812496,50.11445521886057,692.8868351782324,-4.302167810169427,150680.11486392692,10.5,10500150680.114864,47.655,-122.3035,60.0,6.416666666666667
2026-02-06T21:29:33+00:00,SAT-53035,299.3378652948076,50.60357954187228,688.5962008862629,-4.2575005416445535,149115.67817782733,10.5,10500149115.678177,47.655,-122.3035,60.0,6.433333333333334
2026-02-06T21:29:34+00:00,SAT-53035,299.35493429136346,51.0984276832832,684.3501141160355,-4.211991636582656,147521.76382008212,10.5,10500147521.76382,47.655,-122.3035,60.0,6.45
2026-02-06T21:29:35+00:00,SAT-53035,299.3724815373085,51.59904530325582,680.1494142477754,-4.165629347039097,145897.96032797638,10.5,10500145897.960327,47.655,-122.3035,60.0,6.466666666666667
2026-02-06T21:29:36+00:00,SAT-53035,299.3905322679034,52.10547609389177,675.9949523781588,-4.118402084049531,144243.86180695737,10.5,10500144243.861807,47.655,-122.3035,60.0,6.483333333333333
2026-02-06T21:29:37+00:00,SAT-53035,299.40911352160384,52.61776161607594,671.8875911617572,-4.070298528545943,142559.0718153837,10.5,10500142559.071815,47.655,-122.3035,60.0,6.5
2026-02-06T21:29:38+00:00,SAT-53035,299.42825430425415,53.135941140333735,667.8282045418653,-4.021307617623416,140843.20288352904,10.5,10500140843.202883,47.655,-122.3035,60.0,6.516666666666667
2026-02-06T21:29:39+00:00,SAT-53035,299.44798577113283,53.66005147679994,663.8176774950242,-3.9714186344891718,139095.8796639784,10.5,10500139095.879663,47.655,-122.3035,60.0,6.533333333333333
2026-02-06T21:29:40+00:00,SAT-53035,299.46834143013064,54.190126807266154,659.8569056858383,-3.9206211711816166,137316.7376258911,10.5,10500137316.737625,47.655,-122.3035,60.0,6.55
2026-02-06T21:29:41+00:00,SAT-53035,299.4893573676815,54.72619850292948,655.9467951589708,-3.8689052442661787,135505.4271071585,10.5,10500135505.427107,47.655,-122.3035,60.0,6.566666666666666
2026-02-06T21:29:42+00:00,SAT-53035,299.51107250205115,55.2682949478986,652.0882619157554,-3.816261223373262,133661.61081150096,10.5,10500133661.610811,47.655,-122.3035,60.0,6.583333333333333
2026-02-06T21:29:43+00:00,SAT-53035,299.53352886593,55.8164413431561,648.2822315620782,-3.7626800394268094,131784.97110151284,10.5,10500131784.971102,47.655,-122.3035,60.0,6.6
2026-02-06T21:29:44+00:00,SAT-53035,299.55677192534637,56.3706595300613,644.5296387485872,-3.7081530485953973,129875.20523365425,10.5,10500129875.205235,47.655,-122.3035,60.0,6.616666666666666
2026-02-06T21:29:45+00:00,SAT-53035,299.5808509366822,56.930967785186624,640.8314267465898,-3.652672173022481,127932.03028721975,10.5,10500127932.030287,47.655,-122.3035,60.0,6.633333333333334
2026-02-06T21:29:46+00:00,SAT-53035,299.6058193500978,57.49738062549352,637.1885468835944,-3.59622995401528,125955.18502723787,10.5,10500125955.185028,47.655,-122.3035,60.0,6.65
2026-02-06T21:29:47+00:00,SAT-53035,299.631735266021,58.0699086125856,633.601957925806,-3.5388195271599177,123944.42903289826,10.5,10500123944.429033,47.655,-122.3035,60.0,6.666666666666667
2026-02-06T21:29:48+00:00,SAT-53035,299.6586619514494,58.648558143782644,630.0726254854414,-3.4804347344810873,121899.54662585746,10.5,10500121899.546625,47.655,-122.3035,60.0,6.683333333333334
2026-02-06T21:29:49+00:00,SAT-53035,299.68666842756625,59.233331251582904,626.6015213161835,-3.4210701373076287,119820.34732084589,10.5,10500119820.34732,47.655,-122.3035,60.0,6.7
2026-02-06T21:29:50+00:00,SAT-53035,299.715830138964,59.824225396621195,623.1896225958063,-3.3607210817269144,117706.66811815726,10.5,10500117706.668118,47.655,-122.3035,60.0,6.716666666666667
2026-02-06T21:29:51+00:00,SAT-53035,299.7462297186911,60.42123326300955,619.8379111435199,-3.2993837291441093,115558.37457396324,10.5,10500115558.374575,47.655,-122.3035,60.0,6.733333333333333
2026-02-06T21:29:52+00:00,SAT-53035,299.77795786501105,61.0243425507624,616.5473726068387,-3.2370551223569586,113375.36311453194,10.5,10500113375.363115,47.655,-122.3035,60.0,6.75
2026-02-06T21:29:53+00:00,SAT-53035,299.81111434996944,61.633535772100885,613.3189955825512,-3.1737332018570723,111157.56160716778,10.5,10500111157.561607,47.655,-122.3035,60.0,6.766666666666667
2026-02-06T21:29:54+00:00,SAT-53035,299.84580918266585,62.24879004318222,610.1537707214329,-3.109416927913201,108904.93363608437,10.5,10500108904.933636,47.655,-122.3035,60.0,6.783333333333333
2026-02-06T21:29:55+00:00,SAT-53035,299.88216395737874,62.87007689218051,607.0526897112043,-3.0441062212792716,106617.47642574902,10.5,10500106617.476425,47.655,-122.3035,60.0,6.8
2026-02-06T21:29:56+00:00,SAT-53035,299.920313418459,63.49736204967956,604.0167443186175,-2.977802121629358,104295.22638994562,10.5,10500104295.22639,47.655,-122.3035,60.0,6.816666666666666
2026-02-06T21:29:57+00:00,SAT-53035,299.9604072881168,64.13060526457666,601.0469252735395,-2.910506750267565,101938.25782571698,10.5,10500101938.257826,47.655,-122.3035,60.0,6.833333333333333
2026-02-06T21:29:58+00:00,SAT-53035,300.00261240580784,64.76976010780143,598.1442211902192,-2.8422234140415608,99546.68655285647,10.5,10500099546.686552,47.655,-122.3035,60.0,6.85
2026-02-06T21:29:59+00:00,SAT-53035,300.0471152464455,65.41477379335878,595.3096173849241,-2.7729566103618875,97120.67008970527,10.5,10500097120.67009,47.655,-122.3035,60.0,6.866666666666666
2026-02-06T21:30:00+00:00,SAT-53035,300.09412489549266,66.06558699698532,592.5440946885665,-2.7027120983077486,94660.41014357793,10.5,10500094660.410143,47.655,-122.3035,60.0,6.883333333333334
2026-02-06T21:30:01+00:00,SAT-53035,300.1438765824685,66.72213368763056,589.84862818842,-2.63149692828684,92166.15364957521,10.5,10500092166.15365,47.655,-122.3035,60.0,6.9
2026-02-06T21:30:02+00:00,SAT-53035,300.19663589795726,67.38434096364355,587.2241859402515,-2.559319482203901,89638.19417745648,10.5,10500089638.194178,47.655,-122.3035,60.0,6.916666666666667
2026-02-06T21:30:03+00:00,SAT-53035,300.25270385390075,68.05212889667304,584.6717276403931,-2.486189523504732,87076.87368439297,10.5,10500087076.873684,47.655,-122.3035,60.0,6.933333333333334
2026-02-06T21:30:04+00:00,SAT-53035,300.31242299100825,68.72541038680001,582.1922032479068,-2.4121181970577763,84482.58251082037,10.5,10500084482.58251,47.655,-122.3035,60.0,6.95
2026-02-06T21:30:05+00:00,SAT-53035,300.37618479311527,69.40409101603598,579.786551606863,-2.337118115386695,81855.76240066819,10.5,10500081855.762402,47.655,-122.3035,60.0,6.966666666666667
2026-02-06T21:30:06+00:00,SAT-53035,300.4444387506473,70.08806892358777,577.4556989826211,-2.2612033220110748,79196.90521739639,10.5,10500079196.905218,47.655,-122.3035,60.0,6.983333333333333
2026-02-06T21:30:07+00:00,SAT-53035,300.51770351209296,70.77723466887419,575.2005576346703,-2.184389380947744,76506.55607871,10.5,10500076506.556078,47.655,-122.3035,60.0,7.0
2026-02-06T21:30:08+00:00,SAT-53035,300.5965807128794,71.47147111687994,573.0220243002072,-2.106693326359147,73785.3115930323,10.5,10500073785.311592,47.655,-122.3035,60.0,7.016666666666667
2026-02-06T21:30:09+00:00,SAT-53035,300.68177225568684,72.17065330255963,570.9209787279324,-2.0281337438302067,71033.82270616418,10.5,10500071033.822706,47.655,-122.3035,60.0,7.033333333333333
2026-02-06T21:30:10+00:00,SAT-53035,300.7741020981481,72.87464831076512,568.8982821307868,-1.9487307413466213,68252.79368482153,10.5,10500068252.793684,47.655,-122.3035,60.0,7.05
2026-02-06T21:30:11+00:00,SAT-53035,300.8745439744289,73.58331513230029,566.9547756676329,-1.8685059503634607,65442.98215406185,10.5,10500065442.982155,47.655,-122.3035,60.0,7.066666666666666
2026-02-06T21:30:12+00:00,SAT-53035,300.9842570267518,74.29650449523415,565.0912789238686,-1.7874825461757595,62605.199810748665,10.5,10500062605.19981,47.655,-122.3035,60.0,7.083333333333333
2026-02-06T21:30:13+00:00,SAT-53035,301.1046321127571,75.01405866585507,563.3085883717264,-1.7056852403107199,59740.312157094224,10.5,10500059740.312157,47.655,-122.3035,60.0,7.1
2026-02-06T21:30:14+00:00,SAT-53035,301.2373527111837,75.73581119060249,561.6074758381604,-1.6231402381345599,56849.23701587209,10.5,10500056849.237017,47.655,-122.3035,60.0,7.116666666666666
2026-02-06T21:30:15+00:00,SAT-53035,301.3844760848197,76.46158653392875,559.988687015011,-1.5398752664346171,53932.94549645902,10.5,10500053932.945496,47.655,-122.3035,60.0,7.133333333333334
2026-02-06T21:30:16+00:00,SAT-53035,301.54854302687505,77.191199596397,558.4529399416629,-1.455919495277255,50992.459257968316,10.5,10500050992.459257,47.655,-122.3035,60.0,7.15
2026-02-06T21:30:17+00:00,SAT-53035,301.73272863675845,77.9244549986819,557.0009235656357,-1.3713035630699602,48028.85138703049,10.5,10500048028.851387,47.655,-122.3035,60.0,7.166666666666667
2026-02-06T21:30:18+00:00,SAT-53035,301.9410532130857,78.66114607114022,555.6332962781784,-1.2860594932287985,45043.243479135104,10.5,10500045043.243479,47.655,-122.3035,60.0,7.183333333333334
2026-02-06T21:30:19+00:00,SAT-53035,302.1786831546804,79.40105332900922,554.3506845329746,-1.2002206608879904,42036.80447265921,10.5,10500042036.804472,47.655,-122.3035,60.0,7.2
2026-02-06T21:30:20+00:00,SAT-53035,302.452370065518,80.14394217916721,553.1536814980481,-1.113821771339129,39010.74989371765,10.5,10500039010.749893,47.655,-122.3035,60.0,7.216666666666667
2026-02-06T21:30:21+00:00,SAT-53035,302.7711081247663,80.88955940975927,552.0428457291705,-1.0268987570438128,35966.33824910977,10.5,10500035966.33825,47.655,-122.3035,60.0,7.233333333333333
2026-02-06T21:30:22+00:00,SAT-53035,303.1471474128124,81.6376276189268,551.0186999459822,-0.9394887471550071,32904.86995882857,10.5,10500032904.869959,47.655,-122.3035,60.0,7.25
2026-02-06T21:30:23+00:00,SAT-53035,303.5976097842997,82.38783619734339,550.0817298385087,-0.8516299850853855,29827.684468955344,10.5,10500029827.68447,47.655,-122.3035,60.0,7.266666666666667
2026-02-06T21:30:24+00:00,SAT-53035,304.1471697981846,83.13982614533307,549.2323829558884,-0.7633617584698811,26736.157798652,10.5,10500026736.157799,47.655,-122.3035,60.0,7.283333333333333
2026-02-06T21:30:25+00:00,SAT-53035,304.83271713415735,83.89316338693837,548.4710676649491,-0.6747243110558798,23631.69945418286,10.5,10500023631.699453,47.655,-122.3035,60.0,7.3
2026-02-06T21:30:26+00:00,SAT-53035,305.7119389657148,84.64728920751789,547.7981521966593,-0.5857587668319169,20515.749771580733,10.5,10500020515.749771,47.655,-122.3035,60.0,7.316666666666666
2026-02-06T21:30:27+00:00,SAT-53035,306.880261924621,85.40142165473686,547.2139637682463,-0.49650703036527166,17389.77642604789,10.5,10500017389.776426,47.655,-122.3035,60.0,7.333333333333333
2026-02-06T21:30:28+00:00,SAT-53035,308.50737651217787,86.15434113239112,546.7187878047116,-0.40701169588920194,14255.27124780644,10.5,10500014255.271248,47.655,-122.3035,60.0,7.35
2026-02-06T21:30:29+00:00,SAT-53035,310.92551589499766,86.90386616166894,546.3128672510115,-0.31731595316603123,11113.746925025473,10.5,10500011113.746925,47.655,-122.3035,60.0,7.366666666666666
2026-02-06T21:30:30+00:00,SAT-53035,314.87821790559383,87.64534714256858,545.9964019781263,-0.22746347361136202,7966.733015409284,10.5,10500007966.733015,47.655,-122.3035,60.0,7.383333333333334
2026-02-06T21:30:31+00:00,SAT-53035,322.38634836854135,88.36620117235243,545.7695483026976,-0.13749831757681133,4815.77269884661,10.5,10500004815.7727,47.655,-122.3035,60.0,7.4
2026-02-06T21:30:32+00:00,SAT-53035,340.6474509805804,89.0179192952968,545.6324185991356,-0.04746481979683051,1662.4187652736762,10.5,10500001662.418766,47.655,-122.3035,60.0,7.416666666666667
2026-02-06T21:30:33+00:00,SAT-53035,31.800150120498245,89.34259467507285,545.5850810259705,0.042592515760440215,-1491.7700680936484,10.5,10499998508.229933,47.655,-122.3035,60.0,7.433333333333334
2026-02-06T21:30:34+00:00,SAT-53035,79.39117315346772,88.96406772019856,545.6275593570739,0.13262912774478303,-4645.233074276412,10.5,10499995354.766926,47.655,-122.3035,60.0,7.45
2026-02-06T21:30:35+00:00,SAT-53035,95.99023009476997,88.30097672695015,545.7598329244298,0.22260050445022123,-7796.411265046977,10.5,10499992203.588736,47.655,-122.3035,60.0,7.466666666666667
2026-02-06T21:30:36+00:00,SAT-53035,103.00486191267814,87.57707824282129,545.9818366676466,0.3124622972820703,-10943.751365025128,10.5,10499989056.248634,47.655,-122.3035,60.0,7.483333333333333
2026-02-06T21:30:37+00:00,SAT-53035,106.7621333278716,86.83438991512669,546.2934612966295,0.40217042775574957,-14085.70955922904,10.5,10499985914.290442,47.655,-122.3035,60.0,7.5
2026-02-06T21:30:38+00:00,SAT-53035,109.08523183802903,86.08424266900487,546.6945535609678,0.49168118822441526,-17220.755020983084,10.5,10499982779.24498,47.655,-122.3035,60.0,7.516666666666667
2026-02-06T21:30:39+00:00,SAT-53035,110.65942639703265,85.33093392980129,547.1849166197786,0.5809513641333858,-20347.374193784923,10.5,10499979652.625807,47.655,-122.3035,60.0,7.533333333333333
2026-02-06T21:30:40+00:00,SAT-53035,111.79538292294468,84.57651749157851,547.764310533476,0.6699383138574656,-23464.073587546318,10.5,10499976535.926413,47.655,-122.3035,60.0,7.55
2026-02-06T21:30:41+00:00,SAT-53035,112.65340645373874,83.8221580879948,548.4324528351657,0.7586000853959532,-26569.383865745913,10.5,10499973430.616135,47.655,-122.3035,60.0,7.566666666666666
2026-02-06T21:30:42+00:00,SAT-53035,113.32432871557586,83.06861110073534,549.1890192184195,0.8468955075300533,-29661.863038147407,10.5,10499970338.136961,47.655,-122.3035,60.0,7.583333333333333
2026-02-06T21:30:43+00:00,SAT-53035,113.86337804886485,82.31642120223167,550.0336443159653,0.9347842649370576,-32740.099091615924,10.5,10499967259.900908,47.655,-122.3035,60.0,7.6
2026-02-06T21:30:44+00:00,SAT-53035,114.30603382143563,81.56601457144217,550.9659225532884,1.0222270168965732,-35802.71414771221,10.5,10499964197.285852,47.655,-122.3035,60.0,7.616666666666666
2026-02-06T21:30:45+00:00,SAT-53035,114.67611546276396,80.81774554769417,551.9854091206199,1.1091854470768079,-38848.366206418985,10.5,10499961151.633793,47.655,-122.3035,60.0,7.633333333333334
2026-02-06T21:30:46+00:00,SAT-53035,114.99020219153707,80.07192191503597,553.0916209945807,1.195622347653774,-41875.75209235125,10.5,10499958124.247908,47.655,-122.3035,60.0,7.65
2026-02-06T21:30:47+00:00,SAT-53035,115.26018644227901,79.32881934259976,554.2840380437164,1.2815017098620107,-44883.61062622567,10.5,10499955116.389374,47.655,-122.3035,60.0,7.666666666666667
2026-02-06T21:30:48+00:00,SAT-53035,115.49481898733312,78.58868998590707,555.5621042243413,1.3667887502891138,-47870.72354580613,10.5,10499952129.276455,47.655,-122.3035,60.0,7.683333333333334
2026-02-06T21:30:49+00:00,SAT-53035,115.70068115558946,77.85176781836644,556.9252288026078,1.4514499958348326,-50835.91848153079,10.5,10499949164.081518,47.655,-122.3035,60.0,7.7
2026-02-06T21:30:50+00:00,SAT-53035,115.8828173535666,77.11827200525326,558.3727876613037,1.5354533464402564,-53778.07115355347,10.5,10499946221.928846,47.655,-122.3035,60.0,7.716666666666667
2026-02-06T21:30:51+00:00,SAT-53035,116.04515863948386,76.38840909265335,559.9041246692149,1.6187680616281204,-56696.1049003283,10.5,10499943303.8951,47.655,-122.3035,60.0,7.733333333333333
2026-02-06T21:30:52+00:00,SAT-53035,116.19081361924252,75.66237448477408,561.5185530370597,1.7013648830053079,-59588.994969165404,10.5,10499940411.005032,47.655,-122.3035,60.0,7.75
2026-02-06T21:30:53+00:00,SAT-53035,116.32227272293702,74.94035340671631,563.215356795602,1.7832159833743577,-62455.766733900804,10.5,10499937544.233267,47.655,-122.3035,60.0,7.766666666666667
2026-02-06T21:30:54+00:00,SAT-53035,116.44155450694385,74.22252159786755,564.9937922230088,1.8642950571275942,-65295.498860881075,10.5,10499934704.501139,47.655,-122.3035,60.0,7.783333333333333
2026-02-06T21:30:55+00:00,SAT-53035,116.55031230664515,73.50904577337296,566.8530893623608,1.9445773033398612,-68107.32271679945,10.5,10499931892.677282,47.655,-122.3035,60.0,7.8
2026-02-06T21:30:56+00:00,SAT-53035,116.64991322488027,72.80008396779719,568.7924535223023,2.024039438964641,-70890.42283087964,10.5,10499929109.57717,47.655,-122.3035,60.0,7.816666666666666
2026-02-06T21:30:57+00:00,SAT-53035,116.74149747923394,72.09578578952598,570.8110667908483,2.102659728328902,-73644.03792791035,10.5,10499926355.962072,47.655,-122.3035,60.0,7.833333333333333
2026-02-06T21:30:58+00:00,SAT-53035,116.82602357692028,71.39629260988004,572.9080895786127,2.1804179719363868,-76367.46053608881,10.5,10499923632.539463,47.655,-122.3035,60.0,7.85
2026-02-06T21:30:59+00:00,SAT-53035,116.90430311310394,70.70173772138142,575.0826621508638,2.257295484710912,-79060.03622500929,10.5,10499920939.963776,47.655,-122.3035,60.0,7.866666666666666
2026-02-06T21:31:00+00:00,SAT-53035,116.9770278696618,70.01224647983253,577.3339061378872,2.3332751218216186,-81721.16451017256,10.5,10499918278.83549,47.655,-122.3035,60.0,7.883333333333334
2026-02-06T21:31:01+00:00,SAT-53035,117.04479113132972,69.32793642373237,579.6609260710991,2.4083412386467553,-84350.29745074817,10.5,10499915649.702549,47.655,-122.3035,60.0,7.9
2026-02-06T21:31:02+00:00,SAT-53035,117.1081046084089,68.64891739788128,582.0628108792362,2.4824796702111027,-86946.9389293862,10.5,10499913053.061071,47.655,-122.3035,60.0,7.916666666666667
2026-02-06T21:31:03+00:00,SAT-53035,117.16741198737219,67.97529167739292,584.5386353640338,2.5556777422838457,-89510.64504091155,10.5,10499910489.35496,47.655,-122.3035,60.0,7.933333333333334
2026-02-06T21:31:04+00:00,SAT-53035,117.22309986798287,67.30715408614707,587.0874616869738,2.627924179785045,-92041.02088433116,10.5,10499907958.979116,47.655,-122.3035,60.0,7.95
2026-02-06T21:31:05+00:00,SAT-53035,117.27550665612199,66.64459213850469,589.7083407646863,2.6992091490841323,-94537.72204430636,10.5,10499905462.277956,47.655,-122.3035,60.0,7.966666666666667
2026-02-06T21:31:06+00:00,SAT-53035,117.32492984528004,65.98768616853911,592.4003137065325,2.769524179693027,-97000.45184851444,10.5,10499902999.548151,47.655,-122.3035,60.0,7.983333333333333
2026-02-06T21:31:07+00:00,SAT-53035,117.37163201646274,65.33650947909912,595.1624131740945,2.838862126948198,-99428.96006061659,10.5,10499900571.03994,47.655,-122.3035,60.0,8.0
2026-02-06T21:31:08+00:00,SAT-53035,117.41584581281218,64.69112849841187,597.9936647034433,2.9072171547714607,-101823.04227646826,10.5,10499898176.957724,47.655,-122.3035,60.0,8.016666666666667
2026-02-06T21:31:09+00:00,SAT-53035,117.4577780871396,64.05160293928286,600.8930880102188,2.974584668898674,-104182.5375855055,10.5,10499895817.462414,47.655,-122.3035,60.0,8.033333333333333
2026-02-06T21:31:10+00:00,SAT-53035,117.49761337882036,63.41798597162072,603.8596982281126,3.0409613037569927,-106507.32811113088,10.5,10499893492.671888,47.655,-122.3035,60.0,8.05
2026-02-06T21:31:11+00:00,SAT-53035,117.53551684296772,62.790324395241626,606.8925071342668,3.106344841053143,-108797.33615933062,10.5,10499891202.663841,47.655,-122.3035,60.0,8.066666666666666
2026-02-06T21:31:12+00:00,SAT-53035,117.5716367301579,62.1686588268513,609.9905242934769,3.1707341922529313,-111052.52360503271,10.5,10499888947.476395,47.655,-122.3035,60.0,8.083333333333334
2026-02-06T21:31:13+00:00,SAT-53035,117.60610649481507,61.55302388643352,613.1527581849216,3.2341293281098333,-113272.88942390021,10.5,10499886727.110577,47.655,-122.3035,60.0,8.1
2026-02-06T21:31:14+00:00,SAT-53035,117.63904659613597,60.94344839314987,616.3782172586127,3.2965312823368857,-115458.46982093625,10.5,10499884541.53018,47.655,-122.3035,60.0,8.116666666666667
2026-02-06T21:31:15+00:00,SAT-53035,117.67056604189015,60.33995555553591,619.6659109955029,3.3579419892095066,-117609.33254264796,10.5,10499882390.667458,47.655,-122.3035,60.0,8.133333333333333
2026-02-06T21:31:16+00:00,SAT-53035,117.70076371755208,59.742563186116136,623.0148508056353,3.418364372973168,-119725.58000848128,10.5,10499880274.419992,47.655,-122.3035,60.0,8.15
2026-02-06T21:31:17+00:00,SAT-53035,117.72972953433096,59.15128389263379,626.4240510154588,3.4778022115243665,-121807.34453635204,10.5,10499878192.655464,47.655,-122.3035,60.0,8.166666666666666
2026-02-06T21:31:18+00:00,SAT-53035,117.7575454245911,58.56612528735597,629.8925297191909,3.5362601133483795,-123854.78753490851,10.5,10499876145.212465,47.655,-122.3035,60.0,8.183333333333334
2026-02-06T21:31:19+00:00,SAT-53035,117.7842862075883,57.98709019247595,633.4193096071791,3.5937434446437178,-125868.09695112157,10.5,10499874131.90305,47.655,-122.3035,60.0,8.2
2026-02-06T21:31:20+00:00,SAT-53035,117.81002034487102,57.41417684962129,637.0034187215845,3.650258339029768,-127847.48761028725,10.5,10499872152.51239,47.655,-122.3035,60.0,8.216666666666667
2026-02-06T21:31:21+00:00,SAT-53035,117.83481060152674,56.84737911952274,640.6438912217432,3.70581159377555,-129793.19758151913,10.5,10499870206.802418,47.655,-122.3035,60.0,8.233333333333333
2026-02-06T21:31:22+00:00,SAT-53035,117.85871462647033,56.28668668989657,644.3397680460374,3.7604106438108875,-131705.4872675093,10.5,10499868294.512732,47.655,-122.3035,60.0,8.25
2026-02-06T21:31:23+00:00,SAT-53035,117.88178546335389,55.73208527813421,648.090097547849,3.8140635145107566,-133584.63775083676,10.5,10499866415.36225,47.655,-122.3035,60.0,8.266666666666667
2026-02-06T21:31:24+00:00,SAT-53035,117.90407200124052,55.18355683198973,651.8939360844181,3.8667787923833297,-135430.94976733858,10.5,10499864569.050232,47.655,-122.3035,60.0,8.283333333333333
2026-02-06T21:31:25+00:00,SAT-53035,117.92561937368777,54.64107972537388,655.7503485764746,3.918565572188948,-137244.74185399272,10.5,10499862755.258146,47.655,-122.3035,60.0,8.3
2026-02-06T21:31:26+00:00,SAT-53035,117.94646931232408,54.1046289525127,659.6584090151265,3.9694333991297372,-139026.34832415378,10.5,10499860973.651676,47.655,-122.3035,60.0,8.316666666666666
2026-02-06T21:31:27+00:00,SAT-53035,117.96666046164516,53.57417632061079,663.6172009110949,4.019392247882119,-140776.1185331829,10.5,10499859223.881466,47.655,-122.3035,60.0,8.333333333333334
2026-02-06T21:31:28+00:00,SAT-53035,117.98622865906013,53.04969063573488,667.6258177230367,4.068452478156542,-142494.41532196145,10.5,10499857505.584679,47.655,-122.3035,60.0,8.35
2026-02-06T21:31:29+00:00,SAT-53035,118.00520718539785,52.53113788516888,671.6833632415455,4.116624817697407,-144181.6144214768,10.5,10499855818.385578,47.655,-122.3035,60.0,8.366666666666667
2026-02-06T21:31:30+00:00,SAT-53035,118.0236269886637,52.01848141262448,675.7889519562012,4.163920300285214,-145838.10228139476,10.5,10499854161.897718,47.655,-122.3035,60.0,8.383333333333333
2026-02-06T21:31:31+00:00,SAT-53035,118.0415168850907,51.511682092086645,679.9417093607823,4.210350186040197,-147464.27327875627,10.5,10499852535.72672,47.655,-122.3035,60.0,8.4
2026-02-06T21:31:32+00:00,SAT-53035,118.05890373945073,51.01069850180099,684.1407721790022,4.25592608467973,-149060.53403497286,10.5,10499850939.465965,47.655,-122.3035,60.0,8.416666666666666
2026-02-06T21:31:33+00:00,SAT-53035,118.07581262754873,50.51548707427832,688.3852887131666,4.300659740032127,-150627.29586858832,10.5,10499849372.704132,47.655,-122.3035,60.0,8.433333333333334
2026-02-06T21:31:34+00:00,SAT-53035,118.09226698264443,50.02600226330835,692.6744189779268,4.3445630915197935,-152164.97694867905,10.5,10499847835.023052,47.655,-122.3035,60.0,8.45
2026-02-06T21:31:35+00:00,SAT-53035,118.10828872780237,49.542196694258536,697.0073348953476,4.387648273231095,-153674.00226234677,10.5,10499846325.997738,47.655,-122.3035,60.0,8.466666666666667
2026-02-06T21:31:36+00:00,SAT-53035,118.12389839558563,49.06402130610265,701.383220489054,4.429927521368328,-155154.80037315498,10.5,10499844845.199627,47.655,-122.3035,60.0,8.483333333333333
2026-02-06T21:31:37+00:00,SAT-53035,118.13911523656331,48.59142549540232,705.8012719860676,4.471413188661087,-156607.803925946,10.5,10499843392.196074,47.655,-122.3035,60.0,8.5
2026-02-06T21:31:38+00:00,SAT-53035,118.15395731787223,48.12435725024378,710.2606979330246,4.512117699451446,-158033.44807373435,10.5,10499841966.551926,47.655,-122.3035,60.0,8.516666666666667
2026-02-06T21:31:39+00:00,SAT-53035,118.16844161267402,47.66276328093875,714.7607192675961,4.55205354007985,-159432.1701409794,10.5,10499840567.829859,47.655,-122.3035,60.0,8.533333333333333
2026-02-06T21:31:40+00:00,SAT-53035,118.18258408188133,47.20658914383224,719.3005693803184,4.591233264938894,-160804.40983561496,10.5,10499839195.590164,47.655,-122.3035,60.0,8.55
2026-02-06T21:31:41+00:00,SAT-53035,118.19639974828041,46.75577935707335,723.8794941824643,4.629669398908721,-162150.6058319238,10.5,10499837849.394169,47.655,-122.3035,60.0,8.566666666666666
2026-02-06T21:31:42+00:00,SAT-53035,118.20990276468906,46.31027751878061,728.4967520766089,4.667374500420494,-163471.19797928736,10.5,10499836528.802021,47.655,-122.3035,60.0,8.583333333333334
2026-02-06T21:31:43+00:00,SAT-53035,118.22310647582921,45.87002641174167,733.1516139900915,4.704361102263023,-164766.62522898338,10.5,10499835233.374771,47.655,-122.3035,60.0,8.6
2026-02-06T21:31:44+00:00,SAT-53035,118.23602347534106,45.43496810715052,737.8433633494412,4.740641697786623,-166037.32515098676,10.5,10499833962.674849,47.655,-122.3035,60.0,8.616666666666667
2026-02-06T21:31:45+00:00,SAT-53035,118.2486656577861,45.00504406296229,742.5712960410444,4.7762287692658525,-167283.7349273525,10.5,10499832716.265072,47.655,-122.3035,60.0,8.633333333333333
2026-02-06T21:31:46+00:00,SAT-53035,118.26104426650514,44.58019521340149,747.3347204000996,4.811134677165536,-168506.28747384343,10.5,10499831493.712526,47.655,-122.3035,60.0,8.65
2026-02-06T21:31:47+00:00,SAT-53035,118.27316993762383,44.16036206238404,752.1329570891322,4.845371744581353,-169705.4143973969,10.5,10499830294.585602,47.655,-122.3035,60.0,8.666666666666666
2026-02-06T21:31:48+00:00,SAT-53035,118.28505274048443,43.74548476338112,756.9653390607277,4.878952222314846,-170881.5447729038,10.5,10499829118.455227,47.655,-122.3035,60.0,8.683333333333334
2026-02-06T21:31:49+00:00,SAT-53035,118.29670221485974,43.335503197008094,761.8312114854298,4.911888249122509,-172035.10375096343,10.5,10499827964.89625,47.655,-122.3035,60.0,8.7
2026-02-06T21:31:50+00:00,SAT-53035,118.30812740532505,42.93035704667651,766.7299316399971,4.944191836345434,-173166.51201954874,10.5,10499826833.48798,47.655,-122.3035,60.0,8.716666666666667
2026-02-06T21:31:51+00:00,SAT-53035,118.31933689303665,42.529985870249014,771.6608687803275,4.975874919389442,-174276.1876070583,10.5,10499825723.812393,47.655,-122.3035,60.0,8.733333333333333
2026-02-06T21:31:52+00:00,SAT-53035,118.33033882493274,42.134329162610705,776.6234040657291,5.006949288999534,-175364.54347525683,10.5,10499824635.456524,47.655,-122.3035,60.0,8.75
2026-02-06T21:31:53+00:00,SAT-53035,118.34114094097009,41.74332641927836,781.6169304146435,5.037426607272372,-176431.9880801001,10.5,10499823568.011919,47.655,-122.3035,60.0,8.766666666666667
2026-02-06T21:31:54+00:00,SAT-53035,118.35175059910388,41.35691719420225,786.640852376347,5.067318420419458,-177478.92581875526,10.5,10499822521.07418,47.655,-122.3035,60.0,8.783333333333333
2026-02-06T21:31:55+00:00,SAT-53035,118.36217479864781,40.97504115244681,791.6945860153712,5.0966360897064185,-178505.75461080277,10.5,10499821494.24539,47.655,-122.3035,60.0,8.8
2026-02-06T21:31:56+00:00,SAT-53035,118.3724202018498,40.59763812411902,796.7775587270569,5.125390872196548,-179512.86872621646,10.5,10499820487.131273,47.655,-122.3035,60.0,8.816666666666666
2026-02-06T21:31:57+00:00,SAT-53035,118.38249315391484,40.22464814837216,801.889209133629,5.153593851642834,-180500.65636491016,10.5,10499819499.343636,47.655,-122.3035,60.0,8.833333333333334
2026-02-06T21:31:58+00:00,SAT-53035,118.39239970162541,39.85601151905564,807.0289869113515,5.181255959585295,-181469.50039565572,10.5,10499818530.499605,47.655,-122.3035,60.0,8.85
2026-02-06T21:31:59+00:00,SAT-53035,118.40214561074191,39.49166882534314,812.1963526387224,5.208387968907651,-182419.77813041027,10.5,10499817580.22187,47.655,-122.3035,60.0,8.866666666666667
2026-02-06T21:32:00+00:00,SAT-53035,118.41173638207864,39.13156098962287,817.3907776382429,5.235000498745452,-183351.86149621967,10.5,10499816648.138504,47.655,-122.3035,60.0,8.883333333333333
2026-02-06T21:32:01+00:00,SAT-53035,118.42117726657904,38.775629302025706,822.6117438230813,5.261103967960974,-184266.11540571254,10.5,10499815733.884594,47.655,-122.3035,60.0,8.9
2026-02-06T21:32:02+00:00,SAT-53035,118.43047327935557,38.42381545522896,827.8587434973367,5.286708682397564,-185162.9008131166,10.5,10499814837.099186,47.655,-122.3035,60.0,8.916666666666666
2026-02-06T21:32:03+00:00,SAT-53035,118.43962921274523,38.07606157063486,833.1312792433226,5.311824748611749,-186042.5716927921,10.5,10499813957.428307,47.655,-122.3035,60.0,8.933333333333334
2026-02-06T21:32:04+00:00,SAT-53035,118.44864964855417,37.732310227885876,838.4288637228153,5.336462094508355,-186905.47576196105,10.5,10499813094.524239,47.655,-122.3035,60.0,8.95
2026-02-06T21:32:05+00:00,SAT-53035,118.45753896949779,37.39250449047498,843.7510194988797,5.360630504557599,-187751.9557141587,10.5,10499812248.044287,47.655,-122.3035,60.0,8.966666666666667
2026-02-06T21:32:06+00:00,SAT-53035,118.46630136991696,37.056587926864324,849.0972788928218,5.384339584296695,-188582.34797592976,10.5,10499811417.652023,47.655,-122.3035,60.0,8.983333333333333
2026-02-06T21:32:07+00:00,SAT-53035,118.47494086573775,36.72450463181265,854.467183805732,5.407598735327994,-189396.98183115714,10.5,10499810603.01817,47.655,-122.3035,60.0,9.0
2026-02-06T21:32:08+00:00,SAT-53035,118.48346130394017,36.39619924717084,859.8602855150991,5.430417244552445,-190196.18254639575,10.5,10499809803.817453,47.655,-122.3035,60.0,9.016666666666667
2026-02-06T21:32:09+00:00,SAT-53035,118.491866371245,36.07161697533992,865.2761445604164,5.452804195448293,-190980.2682634767,10.5,10499809019.731737,47.655,-122.3035,60.0,9.033333333333333
2026-02-06T21:32:10+00:00,SAT-53035,118.50015960245415,35.75070359647224,870.7143305403035,5.47476849766966,-191749.55103617525,10.5,10499808250.448963,47.655,-122.3035,60.0,9.05
2026-02-06T21:32:11+00:00,SAT-53035,118.50834438814843,35.43340548216128,876.174421939149,5.4963189049761585,-192504.33745818137,10.5,10499807495.662542,47.655,-122.3035,60.0,9.066666666666666
2026-02-06T21:32:12+00:00,SAT-53035,118.51642398201058,35.11966960656639,881.6560059716331,5.517463989737033,-193244.92777012708,10.5,10499806755.07223,47.655,-122.3035,60.0,9.083333333333334
2026-02-06T21:32:13+00:00,SAT-53035,118.52440150763057,34.80944355761105,887.158678401824,5.538212199803751,-193971.61785150506,10.5,10499806028.382149,47.655,-122.3035,60.0,9.1
2026-02-06T21:32:14+00:00,SAT-53035,118.53227996492612,34.50267554365752,892.682043418993,5.558571737148251,-194684.69497006704,10.5,10499805315.30503,47.655,-122.3035,60.0,9.116666666666667
2026-02-06T21:32:15+00:00,SAT-53035,118.54006223627246,34.1993144057316,898.2257133923968,5.578550729866509,-195384.44380611586,10.5,10499804615.556194,47.655,-122.3035,60.0,9.133333333333333
2026-02-06T21:32:16+00:00,SAT-53035,118.54775109212989,33.89930961902994,903.7893087975967,5.598157068371931,-196071.14071530537,10.5,10499803928.859285,47.655,-122.3035,60.0,9.15
2026-02-06T21:32:17+00:00,SAT-53035,118.5553491964404,33.602611302406316,909.372457979414,5.61739852875795,-196745.0580493205,10.5,10499803254.94195,47.655,-122.3035,60.0,9.166666666666666
2026-02-06T21:32:18+00:00,SAT-53035,118.56285911175704,33.30917022012912,914.9747970379175,5.636282730299929,-197406.46266741393,10.5,10499802593.537333,47.655,-122.3035,60.0,9.183333333333334
2026-02-06T21:32:19+00:00,SAT-53035,118.57028330391938,33.01893778510452,920.5959696720245,5.654817086599615,-198055.61422527835,10.5,10499801944.385775,47.655,-122.3035,60.0,9.2
2026-02-06T21:32:20+00:00,SAT-53035,118.57762414666487,32.73186606373111,926.2356269743797,5.673008929329915,-198692.76950911188,10.5,10499801307.230492,47.655,-122.3035,60.0,9.216666666666667
2026-02-06T21:32:21+00:00,SAT-53035,118.58488392581656,32.44790777361247,931.8934273496451,5.690865365055284,-199318.17742086254,10.5,10499800681.822578,47.655,-122.3035,60.0,9.233333333333333
2026-02-06T21:32:22+00:00,SAT-53035,118.59206484338051,32.167016287883825,937.5690362899963,5.7083934035920345,-199932.08347394905,10.5,10499800067.916527,47.655,-122.3035,60.0,9.25
2026-02-06T21:32:23+00:00,SAT-53035,118.59916902129808,31.889145632373445,943.2621262786314,5.7255998875111365,-200534.7273241508,10.5,10499799465.272676,47.655,-122.3035,60.0,9.266666666666667
2026-02-06T21:32:24+00:00,SAT-53035,118.60619850506919,31.614250485748382,948.9723766229771,5.742491493453868,-201126.34281568756,10.5,10499798873.657185,47.655,-122.3035,60.0,9.283333333333333
2026-02-06T21:32:25+00:00,SAT-53035,118.61315526720622,31.342286178964955,954.6994732892008,5.759074804701794,-201707.16052292695,10.5,10499798292.839478,47.655,-122.3035,60.0,9.3
2026-02-06T21:32:26+00:00,SAT-53035,118.62004121037486,31.073208690782256,960.4431088091036,5.77535622404896,-202277.40469880027,10.5,10499797722.5953,47.655,-122.3035,60.0,9.316666666666666
2026-02-06T21:32:27+00:00,SAT-53035,118.62685817050746,30.806974646994302,966.2029821001149,5.791341995226406,-202837.2940251795,10.5,10499797162.705975,47.655,-122.3035,60.0,9.333333333333334
2026-02-06T21:32:28+00:00,SAT-53035,118.6336079197505,30.543541318138285,971.9787983066574,5.807038306058716,-203387.04522585592,10.5,10499796612.954775,47.655,-122.3035,60.0,9.35
2026-02-06T21:32:29+00:00,SAT-53035,118.64029216908878,30.282866612161698,977.7702687443889,5.822451120597491,-203926.8671871447,10.5,10499796073.132812,47.655,-122.3035,60.0,9.366666666666667
2026-02-06T21:32:30+00:00,SAT-53035,118.64691257108497,30.024909074427715,983.5771106770302,5.837586331387944,-204456.9662909045,10.5,10499795543.033709,47.655,-122.3035,60.0,9.383333333333333
