DopplerPredictor/satellites_20260211_204923/SAT-48460.csv

timestamp,satellite,azimuth_deg,elevation_deg,distance_km,relative_velocity_kms,doppler_shift_hz,tx_freq_ghz,rx_freq_hz,ue_lat,ue_lon,ue_alt_m,time_minutes
2026-02-06T21:27:34+00:00,SAT-48460,251.30503002120042,30.273393570743686,796.3965132875644,-5.88583499823134,206146.83869541864,10.5,10500206146.838696,47.655,-122.3035,60.0,4.45
2026-02-06T21:27:35+00:00,SAT-48460,251.3938671630851,30.584323532576327,790.5264574007182,-5.865551095981849,205436.41063782005,10.5,10500205436.410637,47.655,-122.3035,60.0,4.466666666666667
2026-02-06T21:27:36+00:00,SAT-48460,251.48455066998986,30.899372209090856,784.6766310377786,-5.844803564160079,204709.74431144906,10.5,10500204709.744312,47.655,-122.3035,60.0,4.483333333333333
2026-02-06T21:27:37+00:00,SAT-48460,251.57714052129404,31.218614928264042,778.8474965853912,-5.82358012164295,203966.40957942637,10.5,10500203966.40958,47.655,-122.3035,60.0,4.5
2026-02-06T21:27:38+00:00,SAT-48460,251.6716993048607,31.542128255629144,773.0395286784004,-5.801868185717703,203205.9657419263,10.5,10500203205.965742,47.655,-122.3035,60.0,4.516666666666667
2026-02-06T21:27:39+00:00,SAT-48460,251.76829235978383,31.86998998888978,767.2532145006306,-5.779654824885942,202427.9598831749,10.5,10500202427.959883,47.655,-122.3035,60.0,4.533333333333333
2026-02-06T21:27:40+00:00,SAT-48460,251.8669879279949,32.20227914736557,761.4890541327379,-5.7569266995686155,201631.92479468737,10.5,10500201631.924795,47.655,-122.3035,60.0,4.55
2026-02-06T21:27:41+00:00,SAT-48460,251.96785731507836,32.53907595499154,755.747560959195,-5.733670185794264,200817.3833073538,10.5,10500200817.383307,47.655,-122.3035,60.0,4.566666666666666
2026-02-06T21:27:42+00:00,SAT-48460,252.07097506385878,32.88046182715871,750.0292619519224,-5.7098712620583605,199983.84432877487,10.5,10500199983.844328,47.655,-122.3035,60.0,4.583333333333333
2026-02-06T21:27:43+00:00,SAT-48460,252.1764191381072,33.22651934752331,744.3346980667553,-5.685515560916395,199130.8046502696,10.5,10500199130.80465,47.655,-122.3035,60.0,4.6
2026-02-06T21:27:44+00:00,SAT-48460,252.28427111973178,33.57733224388563,738.6644245884565,-5.66058827498812,198257.74565474648,10.5,10500198257.745655,47.655,-122.3035,60.0,4.616666666666666
2026-02-06T21:27:45+00:00,SAT-48460,252.39461641827063,33.93298535395392,733.0190115694726,-5.635074288549103,197364.13792559647,10.5,10500197364.137926,47.655,-122.3035,60.0,4.633333333333334
2026-02-06T21:27:46+00:00,SAT-48460,252.50754449710496,34.29356459441675,727.3990441374507,-5.608958062606374,196449.43722155585,10.5,10500196449.437222,47.655,-122.3035,60.0,4.65
2026-02-06T21:27:47+00:00,SAT-48460,252.62314911410044,34.659156917766936,721.8051229173742,-5.58222368573614,195513.08625725823,10.5,10500195513.086258,47.655,-122.3035,60.0,4.666666666666667
2026-02-06T21:27:48+00:00,SAT-48460,252.74152858018888,35.02985026658162,716.2378644029926,-5.554854809931215,194554.5124563399,10.5,10500194554.512457,47.655,-122.3035,60.0,4.683333333333334
2026-02-06T21:27:49+00:00,SAT-48460,252.86278603575798,35.40573351733118,710.6979013922366,-5.526834710902307,193573.13006344618,10.5,10500193573.130064,47.655,-122.3035,60.0,4.7
2026-02-06T21:27:50+00:00,SAT-48460,252.98702974823482,35.78689642127985,705.1858833624914,-5.498146281210828,192568.33990371332,10.5,10500192568.339903,47.655,-122.3035,60.0,4.716666666666667
2026-02-06T21:27:51+00:00,SAT-48460,253.11437343186157,36.173429537645106,699.7024768527161,-5.468771964629895,191539.52708381313,10.5,10500191539.527084,47.655,-122.3035,60.0,4.733333333333333
2026-02-06T21:27:52+00:00,SAT-48460,253.24493658996067,36.5654241540844,694.248365911033,-5.438693808823595,190486.06283700358,10.5,10500190486.062838,47.655,-122.3035,60.0,4.75
2026-02-06T21:27:53+00:00,SAT-48460,253.37884488431044,36.96297220189222,688.8242524897712,-5.407893483306459,189407.3051521457,10.5,10500189407.305153,47.655,-122.3035,60.0,4.766666666666667
2026-02-06T21:27:54+00:00,SAT-48460,253.51623053315654,37.36616616304476,683.430856822604,-5.37635218653847,188302.59551977768,10.5,10500188302.59552,47.655,-122.3035,60.0,4.783333333333333
2026-02-06T21:27:55+00:00,SAT-48460,253.65723273810022,37.775098959948096,678.0689178943413,-5.344050748983266,187171.26254164905,10.5,10500187171.26254,47.655,-122.3035,60.0,4.8
2026-02-06T21:27:56+00:00,SAT-48460,253.8019981466373,38.18986384134889,672.7391938079369,-5.310969606561667,186012.62100095092,10.5,10500186012.621,47.655,-122.3035,60.0,4.816666666666666
2026-02-06T21:27:57+00:00,SAT-48460,253.95068135084273,38.61055425417426,667.4424621779766,-5.277088736731721,184825.96962356896,10.5,10500184825.969624,47.655,-122.3035,60.0,4.833333333333333
2026-02-06T21:27:58+00:00,SAT-48460,254.1034454244323,39.03726369689233,662.1795205879099,-5.242387762667545,183610.59472686675,10.5,10500183610.594727,47.655,-122.3035,60.0,4.85
2026-02-06T21:27:59+00:00,SAT-48460,254.26046250592987,39.47008556650342,656.9511869433845,-5.206845910125806,182365.76870896787,10.5,10500182365.76871,47.655,-122.3035,60.0,4.866666666666666
2026-02-06T21:28:00+00:00,SAT-48460,254.42191442857387,39.90911298657413,651.7582998685991,-5.170441998587468,181090.74973850214,10.5,10500181090.749739,47.655,-122.3035,60.0,4.883333333333334
2026-02-06T21:28:01+00:00,SAT-48460,254.58799340219258,40.35443861740422,646.6017191114888,-5.133154477012439,179784.7830068847,10.5,10500179784.783007,47.655,-122.3035,60.0,4.9
2026-02-06T21:28:02+00:00,SAT-48460,254.75890275336374,40.80615445067627,641.4823259132539,-5.094961480424761,178447.1027101689,10.5,10500178447.10271,47.655,-122.3035,60.0,4.916666666666667
2026-02-06T21:28:03+00:00,SAT-48460,254.9348577300504,41.2643515892965,636.4010233214534,-5.055840712412335,177076.9279336891,10.5,10500177076.927933,47.655,-122.3035,60.0,4.933333333333334
2026-02-06T21:28:04+00:00,SAT-48460,255.11608637198208,41.7291199952718,631.3587366202851,-5.015769611010097,175673.46846199184,10.5,10500175673.468462,47.655,-122.3035,60.0,4.95
2026-02-06T21:28:05+00:00,SAT-48460,255.30283046174497,42.20054822894988,626.3564135954259,-4.974725275501893,174235.9222151275,10.5,10500174235.922215,47.655,-122.3035,60.0,4.966666666666667
2026-02-06T21:28:06+00:00,SAT-48460,255.49534655751646,42.6787231566559,621.3950248718758,-4.932684511528413,172763.4768285209,10.5,10500172763.476828,47.655,-122.3035,60.0,4.983333333333333
2026-02-06T21:28:07+00:00,SAT-48460,255.69390711923518,43.16372963512511,616.4755642068122,-4.889623883877499,171255.31150191155,10.5,10500171255.311502,47.655,-122.3035,60.0,5.0
2026-02-06T21:28:08+00:00,SAT-48460,255.89880173852112,43.655650171671695,611.5990487297992,-4.845519696074939,169710.59628453647,10.5,10500169710.596285,47.655,-122.3035,60.0,5.016666666666667
2026-02-06T21:28:09+00:00,SAT-48460,256.11033848012937,44.154564550592404,606.7665192033479,-4.800348056769264,168128.49440020692,10.5,10500168128.4944,47.655,-122.3035,60.0,5.033333333333333
2026-02-06T21:28:10+00:00,SAT-48460,256.32884535042837,44.660549431731326,601.9790402172707,-4.754084888863573,166508.16256714342,10.5,10500166508.162567,47.655,-122.3035,60.0,5.05
2026-02-06T21:28:11+00:00,SAT-48460,256.554671903686,45.17367791278593,597.2377003739306,-4.706706003000559,164848.7535717322,10.5,10500164848.753572,47.655,-122.3035,60.0,5.066666666666666
2026-02-06T21:28:12+00:00,SAT-48460,256.78819100425426,45.69401905914892,592.5436124001984,-4.658187120414097,163149.41706888442,10.5,10500163149.417068,47.655,-122.3035,60.0,5.083333333333333
2026-02-06T21:28:13+00:00,SAT-48460,257.02980075936046,46.22163739287091,587.8979132366244,-4.608503903868645,161409.30066566507,10.5,10500161409.300665,47.655,-122.3035,60.0,5.1
2026-02-06T21:28:14+00:00,SAT-48460,257.27992664177896,46.756592337857235,583.3017640957485,-4.55763202133118,159627.5521513533,10.5,10500159627.55215,47.655,-122.3035,60.0,5.116666666666666
2026-02-06T21:28:15+00:00,SAT-48460,257.5390238251989,47.2989376210675,578.7563504569132,-4.505547230041807,157803.32244195073,10.5,10500157803.322441,47.655,-122.3035,60.0,5.133333333333334
2026-02-06T21:28:16+00:00,SAT-48460,257.80757975754057,47.84872062829905,574.2628819772298,-4.452225414745277,155935.76691921116,10.5,10500155935.76692,47.655,-122.3035,60.0,5.15
2026-02-06T21:28:17+00:00,SAT-48460,258.08611699771,48.405981704763846,569.8225923644143,-4.39764261467086,154024.0463755897,10.5,10500154024.046375,47.655,-122.3035,60.0,5.166666666666667
2026-02-06T21:28:18+00:00,SAT-48460,258.37519634492645,48.970753393506335,565.4367392227186,-4.34177516137571,152067.33184210042,10.5,10500152067.331842,47.655,-122.3035,60.0,5.183333333333334
2026-02-06T21:28:19+00:00,SAT-48460,258.67542030212314,49.54305961994584,561.1066037613856,-4.284599710618503,150064.80570466613,10.5,10500150064.805704,47.655,-122.3035,60.0,5.2
2026-02-06T21:28:20+00:00,SAT-48460,258.98743690665174,50.122914803439556,556.8334904713166,-4.226093362880322,148015.66592526948,10.5,10500148015.665926,47.655,-122.3035,60.0,5.216666666666667
2026-02-06T21:28:21+00:00,SAT-48460,259.3119439785446,50.71032290040063,552.6187266815413,-4.166233694426166,145919.12712985842,10.5,10500145919.12713,47.655,-122.3035,60.0,5.233333333333333
2026-02-06T21:28:22+00:00,SAT-48460,259.6496938305864,51.3052763593798,548.4636620847097,-4.104998898443987,143774.42555163233,10.5,10500143774.425552,47.655,-122.3035,60.0,5.25
2026-02-06T21:28:23+00:00,SAT-48460,260.00149850541266,51.907754994385456,544.3696681218227,-4.042367854236026,141580.82145441524,10.5,10500141580.821455,47.655,-122.3035,60.0,5.266666666666667
2026-02-06T21:28:24+00:00,SAT-48460,260.3682355991368,52.517724757057366,540.338137297957,-3.9783202863717033,139337.60470686317,10.5,10500139337.604708,47.655,-122.3035,60.0,5.283333333333333
2026-02-06T21:28:25+00:00,SAT-48460,260.7508547533669,53.135136410083255,536.3704823392649,-3.912836754477672,137044.09442486893,10.5,10500137044.094425,47.655,-122.3035,60.0,5.3
2026-02-06T21:28:26+00:00,SAT-48460,261.1503848842266,53.75992406368698,532.4681353601544,-3.8458989053682533,134699.6478022361,10.5,10500134699.647802,47.655,-122.3035,60.0,5.316666666666666
2026-02-06T21:28:27+00:00,SAT-48460,261.5679422665979,54.3920036009207,528.6325467790175,-3.7774895393765044,132303.66243387383,10.5,10500132303.662434,47.655,-122.3035,60.0,5.333333333333333
2026-02-06T21:28:28+00:00,SAT-48460,262.00473956579197,55.03127094805925,524.8651841678025,-3.7075926788720817,129855.57871558216,10.5,10500129855.578716,47.655,-122.3035,60.0,5.35
2026-02-06T21:28:29+00:00,SAT-48460,262.46209593789064,55.6776001700878,521.1675310332547,-3.6361937664294146,127354.88678473976,10.5,10500127354.886786,47.655,-122.3035,60.0,5.366666666666666
2026-02-06T21:28:30+00:00,SAT-48460,262.94144834941113,56.33084139123795,517.5410854005183,-3.563279823427459,124801.1320751382,10.5,10500124801.132074,47.655,-122.3035,60.0,5.383333333333334
2026-02-06T21:28:31+00:00,SAT-48460,263.44436427099924,56.990818510620976,513.9873582385649,-3.488839479527152,122193.91634940694,10.5,10500122193.91635,47.655,-122.3035,60.0,5.4
2026-02-06T21:28:32+00:00,SAT-48460,263.9725559037727,57.65732666000638,510.5078718562224,-3.4128632370301117,119532.90695797348,10.5,10500119532.906958,47.655,-122.3035,60.0,5.416666666666667
2026-02-06T21:28:33+00:00,SAT-48460,264.5278961639699,58.330129412520904,507.1041580345558,-3.3353434997989497,116817.83785197482,10.5,10500116817.837852,47.655,-122.3035,60.0,5.433333333333334
2026-02-06T21:28:34+00:00,SAT-48460,265.11243661431325,59.00895565941073,503.7777561304022,-3.2562748225366547,114048.51831407603,10.5,10500114048.518314,47.655,-122.3035,60.0,5.45
2026-02-06T21:28:35+00:00,SAT-48460,265.7284276142444,59.69349615074906,500.5302109312989,-3.1756539926050804,111224.83582409984,10.5,10500111224.835825,47.655,-122.3035,60.0,5.466666666666667
2026-02-06T21:28:36+00:00,SAT-48460,266.378340929635,60.38339961408171,497.3630704288077,-3.0934801830839715,108346.76141980095,10.5,10500108346.76142,47.655,-122.3035,60.0,5.483333333333333
2026-02-06T21:28:37+00:00,SAT-48460,267.06489509383306,61.07826840113904,494.2778834391942,-3.0097551066005725,105414.35508462995,10.5,10500105414.355085,47.655,-122.3035,60.0,5.5
2026-02-06T21:28:38+00:00,SAT-48460,267.79108381997344,61.777653589364526,491.27619707068834,-2.924483194407917,102427.77201981221,10.5,10500102427.77202,47.655,-122.3035,60.0,5.516666666666667
2026-02-06T21:28:39+00:00,SAT-48460,268.5602077740463,62.481049458770364,488.35955401214596,-2.837671648359191,99387.26446471013,10.5,10500099387.264465,47.655,-122.3035,60.0,5.533333333333333
2026-02-06T21:28:40+00:00,SAT-48460,269.3759099724444,63.187887213939156,485.52948976987733,-2.74933063597455,96293.18852888812,10.5,10500096293.188528,47.655,-122.3035,60.0,5.55
2026-02-06T21:28:41+00:00,SAT-48460,270.24221508907044,63.89752786735075,482.7875297099302,-2.6594734431450258,93146.00954044938,10.5,10500093146.00954,47.655,-122.3035,60.0,5.566666666666666
2026-02-06T21:28:42+00:00,SAT-48460,271.1635728507141,64.60925414248014,480.1351859480789,-2.568116517450699,89946.30356322153,10.5,10500089946.303564,47.655,-122.3035,60.0,5.583333333333333
2026-02-06T21:28:43+00:00,SAT-48460,272.1449055337099,65.322261215166,477.57395419661145,-2.4752796325095727,86694.76315294935,10.5,10500086694.763153,47.655,-122.3035,60.0,5.6
2026-02-06T21:28:44+00:00,SAT-48460,273.1916594263644,66.03564615188368,475.105310447208,-2.380985978773383,83392.20053734815,10.5,10500083392.200537,47.655,-122.3035,60.0,5.616666666666666
2026-02-06T21:28:45+00:00,SAT-48460,274.3098597248397,66.748395837063,472.7307075632677,-2.285262225985013,80039.54980362659,10.5,10500080039.549803,47.655,-122.3035,60.0,5.633333333333334
2026-02-06T21:28:46+00:00,SAT-48460,275.5061678169389,67.45937317697786,470.4515718099443,-2.188138643313642,76637.87110612782,10.5,10500076637.871105,47.655,-122.3035,60.0,5.65
2026-02-06T21:28:47+00:00,SAT-48460,276.78793918324715,68.16730138911109,468.2692992643703,-2.0896490990110634,73188.3506542922,10.5,10500073188.350655,47.655,-122.3035,60.0,5.666666666666667
2026-02-06T21:28:48+00:00,SAT-48460,278.16327895289754,68.87074614216628,466.18525222622213,-1.9898311270007343,69692.3030448875,10.5,10500069692.303045,47.655,-122.3035,60.0,5.683333333333334
2026-02-06T21:28:49+00:00,SAT-48460,279.6410906641911,69.56809540425347,464.2007555618761,-1.8887259817444806,66151.1731836731,10.5,10500066151.173183,47.655,-122.3035,60.0,5.7
2026-02-06T21:28:50+00:00,SAT-48460,281.23111157870676,70.25753691413708,462.31709299384454,-1.7863785622804156,62566.53362488646,10.5,10500062566.533625,47.655,-122.3035,60.0,5.716666666666667
2026-02-06T21:28:51+00:00,SAT-48460,282.9439248492267,70.93703328751612,460.5355034659693,-1.6828374667955783,58940.086482607825,10.5,10500058940.086483,47.655,-122.3035,60.0,5.733333333333333
2026-02-06T21:28:52+00:00,SAT-48460,284.7909351463296,71.60429509869482,458.85717745419066,-1.5781549094630738,55273.660518045035,10.5,10500055273.660519,47.655,-122.3035,60.0,5.75
2026-02-06T21:28:53+00:00,SAT-48460,286.78428926581245,72.25675255610696,457.28325336025443,-1.4723866582759313,51569.208962212375,10.5,10500051569.208961,47.655,-122.3035,60.0,5.766666666666667
2026-02-06T21:28:54+00:00,SAT-48460,288.93671750194176,72.89152700236919,455.8148139674199,-1.3655919697458838,47828.807228805534,10.5,10500047828.807228,47.655,-122.3035,60.0,5.783333333333333
2026-02-06T21:28:55+00:00,SAT-48460,291.2612652281315,73.50540426184739,454.45288296129326,-1.2578334371941131,44054.64760070178,10.5,10500044054.6476,47.655,-122.3035,60.0,5.8
2026-02-06T21:28:56+00:00,SAT-48460,293.77087817218654,74.09481290762176,453.1984216019632,-1.1491769024574667,40249.03613753819,10.5,10500040249.036137,47.655,-122.3035,60.0,5.816666666666666
2026-02-06T21:28:57+00:00,SAT-48460,296.47780183373646,74.65581197246746,452.0523254841949,-1.0396912526623632,36414.38555787422,10.5,10500036414.385557,47.655,-122.3035,60.0,5.833333333333333
2026-02-06T21:28:58+00:00,SAT-48460,299.3927579367519,75.18409417623987,451.01542150030343,-0.9294482654967754,32553.20981996199,10.5,10500032553.20982,47.655,-122.3035,60.0,5.85
2026-02-06T21:28:59+00:00,SAT-48460,302.5238747585078,75.6750124725111,450.0884649573427,-0.8185223857973283,28668.11629688145,10.5,10500028668.116297,47.655,-122.3035,60.0,5.866666666666666
2026-02-06T21:29:00+00:00,SAT-48460,305.8753786190287,76.12363891596765,449.27213691710557,-0.706990513733273,24761.798357847172,10.5,10500024761.798357,47.655,-122.3035,60.0,5.883333333333334
2026-02-06T21:29:01+00:00,SAT-48460,309.44610689024086,76.5248650173829,448.5670417473748,-0.5949317451635513,20837.026274414446,10.5,10500020837.026274,47.655,-122.3035,60.0,5.9
2026-02-06T21:29:02+00:00,SAT-48460,313.227978387128,76.87355074502531,447.97370493211946,-0.4824271112731398,16896.638101442724,10.5,10500016896.638102,47.655,-122.3035,60.0,5.916666666666667
2026-02-06T21:29:03+00:00,SAT-48460,317.2046458260135,77.1647242733558,447.4925711413567,-0.36955930026066,12943.529929418472,10.5,10500012943.52993,47.655,-122.3035,60.0,5.933333333333334
2026-02-06T21:29:04+00:00,SAT-48460,321.35063141899457,77.39382587722407,447.12400257858076,-0.2564123551990585,8980.645302258119,10.5,10500008980.645302,47.655,-122.3035,60.0,5.95
2026-02-06T21:29:05+00:00,SAT-48460,325.6312706274954,77.55697779129558,446.86827762952123,-0.14307137297002748,5010.96467271798,10.5,10500005010.964672,47.655,-122.3035,60.0,5.966666666666667
2026-02-06T21:29:06+00:00,SAT-48460,330.00371892807965,77.65124998624317,446.72558981115816,-0.02962218177994836,1037.4941076384841,10.5,10500001037.494108,47.655,-122.3035,60.0,5.983333333333333
2026-02-06T21:29:07+00:00,SAT-48460,334.4190930836126,77.67488384290537,446.69604704235974,0.08384897781522521,-2936.74588391368,10.5,10499997063.254116,47.655,-122.3035,60.0,6.0
2026-02-06T21:29:08+00:00,SAT-48460,338.8255548259008,77.62743611837412,446.7796712326366,0.19725578192858634,-6908.731874269354,10.5,10499993091.268126,47.655,-122.3035,60.0,6.016666666666667
2026-02-06T21:29:09+00:00,SAT-48460,343.17188649835754,77.50981651629336,446.97639819903503,0.3105121493314598,-10875.448934677097,10.5,10499989124.551065,47.655,-122.3035,60.0,6.033333333333333
2026-02-06T21:29:10+00:00,SAT-48460,347.4109616697277,77.32421158978383,447.2860779081449,0.4235325683403572,-14833.902084267076,10.5,10499985166.097916,47.655,-122.3035,60.0,6.05
2026-02-06T21:29:11+00:00,SAT-48460,351.50254585593865,77.07390954884303,447.70847504411694,0.5362324145491782,-18781.127418376785,10.5,10499981218.872581,47.655,-122.3035,60.0,6.066666666666666
2026-02-06T21:29:12+00:00,SAT-48460,355.4150575467069,76.76305756764387,448.2432698935628,0.6485282712465285,-22714.20333092085,10.5,10499977285.796669,47.655,-122.3035,60.0,6.083333333333333
2026-02-06T21:29:13+00:00,SAT-48460,359.12619225781975,76.3963904935079,448.8900595500109,0.7603382150040373,-26630.26051690197,10.5,10499973369.739483,47.655,-122.3035,60.0,6.1
2026-02-06T21:29:14+00:00,SAT-48460,2.6225555450289315,75.97896700094931,449.64835940318704,0.8715821242621282,-30526.49278038991,10.5,10499969473.50722,47.655,-122.3035,60.0,6.116666666666666
2026-02-06T21:29:15+00:00,SAT-48460,5.89859661718001,75.51593936086014,450.5176049360525,0.9821819408071832,-34400.16619255787,10.5,10499965599.833807,47.655,-122.3035,60.0,6.133333333333334
2026-02-06T21:29:16+00:00,SAT-48460,8.955167900129705,75.01237084434507,451.49715378261743,1.092061933066675,-38248.62831339169,10.5,10499961751.371687,47.655,-122.3035,60.0,6.15
2026-02-06T21:29:17+00:00,SAT-48460,11.797989262644958,74.4731039725721,452.5862880483462,1.2011489224121226,-42069.316117776674,10.5,10499957930.683882,47.655,-122.3035,60.0,6.166666666666667
2026-02-06T21:29:18+00:00,SAT-48460,14.436210922073244,73.902675383339,453.78421685625574,1.3093725163369927,-45859.764162374035,10.5,10499954140.235838,47.655,-122.3035,60.0,6.183333333333334
2026-02-06T21:29:19+00:00,SAT-48460,16.881182958887543,73.30526914018266,455.0900791255699,1.4166652881411004,-49617.61087892862,10.5,10499950382.389122,47.655,-122.3035,60.0,6.2
2026-02-06T21:29:20+00:00,SAT-48460,19.14547085907815,72.68469920351922,456.5029465295732,1.5229629660179058,-53340.605196905955,10.5,10499946659.394804,47.655,-122.3035,60.0,6.216666666666667
2026-02-06T21:29:21+00:00,SAT-48460,21.24211177675646,72.04441236608587,458.0218266420481,1.6282045586545477,-57026.61094253662,10.5,10499942973.389057,47.655,-122.3035,60.0,6.233333333333333
2026-02-06T21:29:22+00:00,SAT-48460,23.18408188914973,71.38750444702208,459.64566620897307,1.7323324916504192,-60673.6116167719,10.5,10499939326.388384,47.655,-122.3035,60.0,6.25
2026-02-06T21:29:23+00:00,SAT-48460,24.98393606695377,70.71674418891531,461.37335455627533,1.835292730932937,-64279.71471782602,10.5,10499935720.285282,47.655,-122.3035,60.0,6.266666666666667
2026-02-06T21:29:24+00:00,SAT-48460,26.65358081395999,70.03460087569238,463.20372712066694,1.9370348113912155,-67843.15274404855,10.5,10499932156.847256,47.655,-122.3035,60.0,6.283333333333333
2026-02-06T21:29:25+00:00,SAT-48460,28.204145810602615,69.34327300562038,465.13556900903956,2.0375119295548325,-71362.28643992686,10.5,10499928637.71356,47.655,-122.3035,60.0,6.3
2026-02-06T21:29:26+00:00,SAT-48460,29.645925747218623,68.64471627524657,467.16761865028786,2.1366809630516608,-74835.60547758157,10.5,10499925164.394522,47.655,-122.3035,60.0,6.316666666666666
2026-02-06T21:29:27+00:00,SAT-48460,30.988370232967622,67.94066989396474,469.2985714665396,2.2345024805004905,-78261.7288032481,10.5,10499921738.271196,47.655,-122.3035,60.0,6.333333333333333
2026-02-06T21:29:28+00:00,SAT-48460,32.24010518688249,67.23268071115224,471.5270835542512,2.3309407283972443,-81639.40417797655,10.5,10499918360.595821,47.655,-122.3035,60.0,6.35
2026-02-06T21:29:29+00:00,SAT-48460,33.40897364665547,66.52212496354895,473.85177535222533,2.425963598616608,-84967.5070394012,10.5,10499915032.49296,47.655,-122.3035,60.0,6.366666666666666
2026-02-06T21:29:30+00:00,SAT-48460,34.50208748167678,65.81022764917071,476.271235277217,2.5195425855402704,-88245.03900019005,10.5,10499911754.961,47.655,-122.3035,60.0,6.383333333333334
2026-02-06T21:29:31+00:00,SAT-48460,35.52588416945673,65.09807964830874,478.7840233167824,2.611652733519505,-91471.12600796249,10.5,10499908528.873993,47.655,-122.3035,60.0,6.4
2026-02-06T21:29:32+00:00,SAT-48460,36.48618474819127,64.386652773917,481.3886745697312,2.7022725274355746,-94645.01451225144,10.5,10499905354.985487,47.655,-122.3035,60.0,6.416666666666667
2026-02-06T21:29:33+00:00,SAT-48460,37.38825043943516,63.67681297193837,484.0837026774344,2.7913838106299234,-97766.06859007174,10.5,10499902233.93141,47.655,-122.3035,60.0,6.433333333333334
2026-02-06T21:29:34+00:00,SAT-48460,38.236836453071966,62.96933187174047,486.867603173279,2.8789717258289054,-100833.767876854,10.5,10499899166.232122,47.655,-122.3035,60.0,6.45
2026-02-06T21:29:35+00:00,SAT-48460,39.03624214640281,62.26489688204687,489.73885677320885,2.965024509413304,-103847.70036089332,10.5,10499896152.299639,47.655,-122.3035,60.0,6.466666666666667
2026-02-06T21:29:36+00:00,SAT-48460,39.79035711273872,61.56412005353491,492.69593246108593,3.049533441262318,-106807.56062667308,10.5,10499893192.439373,47.655,-122.3035,60.0,6.483333333333333
2026-02-06T21:29:37+00:00,SAT-48460,40.50270316711276,60.86754583375762,495.7372905240278,3.1324927128284115,-109713.14523428844,10.5,10499890286.854765,47.655,-122.3035,60.0,6.5
2026-02-06T21:29:38+00:00,SAT-48460,41.17647230025048,60.175657882951164,498.8613854561772,3.2138992289613975,-112564.34577848745,10.5,10499887435.65422,47.655,-122.3035,60.0,6.516666666666667
2026-02-06T21:29:39+00:00,SAT-48460,41.814560800793934,59.488885092464606,502.06666866482374,3.293752538501755,-115361.14645775521,10.5,10499884638.853542,47.655,-122.3035,60.0,6.533333333333333
2026-02-06T21:29:40+00:00,SAT-48460,42.41959984833987,58.807606887459904,505.3515911073075,3.3720546500713557,-118103.61762252616,10.5,10499881896.382378,47.655,-122.3035,60.0,6.55
2026-02-06T21:29:41+00:00,SAT-48460,42.99398284762709,58.132157935453485,508.7146057442056,3.448809884715457,-120791.91061408322,10.5,10499879208.089386,47.655,-122.3035,60.0,6.566666666666666
2026-02-06T21:29:42+00:00,SAT-48460,43.53988981662459,57.462832333644336,512.1541698455558,3.52402476472239,-123426.25387055299,10.5,10499876573.74613,47.655,-122.3035,60.0,6.583333333333333
2026-02-06T21:29:43+00:00,SAT-48460,44.05930912800989,56.799887338360506,515.6687471861994,3.5977078392900697,-126006.94682100954,10.5,10499873993.053179,47.655,-122.3035,60.0,6.6
2026-02-06T21:29:44+00:00,SAT-48460,44.55405686925403,56.14354670926351,519.2568100672561,3.669869519335077,-128534.3540997896,10.5,10499871465.6459,47.655,-122.3035,60.0,6.616666666666666
2026-02-06T21:29:45+00:00,SAT-48460,45.02579408197709,55.49400371663865,522.9168411728517,3.740521999604535,-131008.90281852127,10.5,10499868991.097181,47.655,-122.3035,60.0,6.633333333333334
2026-02-06T21:29:46+00:00,SAT-48460,45.47604212542274,54.85142383997379,526.6473353491674,3.8096790608273103,-133431.07563662177,10.5,10499866568.924364,47.655,-122.3035,60.0,6.65
2026-02-06T21:29:47+00:00,SAT-48460,45.90619635838344,54.21594721722138,530.4468011861682,3.8773559471911763,-135801.40647002985,10.5,10499864198.59353,47.655,-122.3035,60.0,6.666666666666667
2026-02-06T21:29:48+00:00,SAT-48460,46.31753834004644,53.58769086264424,534.31376247714,3.943569263316886,-138120.4768828017,10.5,10499861879.523117,47.655,-122.3035,60.0,6.683333333333334
2026-02-06T21:29:49+00:00,SAT-48460,46.71124671974655,52.96675067821002,538.2467595754746,4.00833679884116,-140388.9099432654,10.5,10499859611.090057,47.655,-122.3035,60.0,6.7
2026-02-06T21:29:50+00:00,SAT-48460,47.088406957406626,52.35320329401722,542.2443505765084,4.0716774438856405,-142607.36726338603,10.5,10499857392.632736,47.655,-122.3035,60.0,6.716666666666667
2026-02-06T21:29:51+00:00,SAT-48460,47.45002001752245,51.74710774338619,546.3051124150586,4.1336110902240275,-144776.54553722055,10.5,10499855223.454462,47.655,-122.3035,60.0,6.733333333333333
2026-02-06T21:29:52+00:00,SAT-48460,47.79701015125851,51.14850699349439,550.427641864388,4.194158411990708,-146897.16886040688,10.5,10499853102.83114,47.655,-122.3035,60.0,6.75
2026-02-06T21:29:53+00:00,SAT-48460,48.13023185963449,50.55742936417856,554.61055631647,4.253340903516519,-148969.9900553317,10.5,10499851030.009945,47.655,-122.3035,60.0,6.766666666666667
2026-02-06T21:29:54+00:00,SAT-48460,48.450476152586795,49.97388981068318,558.8524945999851,4.311180687950449,-150995.78396825353,10.5,10499849004.216032,47.655,-122.3035,60.0,6.783333333333333
2026-02-06T21:29:55+00:00,SAT-48460,48.75847616240307,49.3978911161633,563.1521176074541,4.367700425522174,-152975.34425626817,10.5,10499847024.655745,47.655,-122.3035,60.0,6.8
2026-02-06T21:29:56+00:00,SAT-48460,49.054912192589846,48.82942498917689,567.5081088308782,4.422923261343936,-154909.4815591102,10.5,10499845090.51844,47.655,-122.3035,60.0,6.816666666666666
2026-02-06T21:29:57+00:00,SAT-48460,49.34041626642779,48.268473070541205,571.9191748453217,4.4768727286249845,-156799.02010931287,10.5,10499843200.97989,47.655,-122.3035,60.0,6.833333333333333
2026-02-06T21:29:58+00:00,SAT-48460,49.61557622677871,47.71500786401739,576.3840456959696,4.529572608449044,-158644.7928210221,10.5,10499841355.207178,47.655,-122.3035,60.0,6.85
2026-02-06T21:29:59+00:00,SAT-48460,49.880939433062,47.16899360294796,580.9014751453363,4.581046976621438,-160447.64293078077,10.5,10499839552.357069,47.655,-122.3035,60.0,6.866666666666666
2026-02-06T21:30:00+00:00,SAT-48460,50.13701611046666,46.630387036362855,585.4702409671983,4.631320045732104,-162208.4184659078,10.5,10499837791.581533,47.655,-122.3035,60.0,6.883333333333334
2026-02-06T21:30:01+00:00,SAT-48460,50.38428237516802,46.09913816611174,590.0891450830096,4.680416072861305,-163927.96901196128,10.5,10499836072.030989,47.655,-122.3035,60.0,6.9
2026-02-06T21:30:02+00:00,SAT-48460,50.62318297431676,45.5751909311801,594.757013606277,4.728359449638455,-165607.14886697975,10.5,10499834392.851133,47.655,-122.3035,60.0,6.916666666666667
2026-02-06T21:30:03+00:00,SAT-48460,50.854133780033244,45.05848382382908,599.4726969767447,4.775174449123259,-167246.8081761891,10.5,10499832753.191824,47.655,-122.3035,60.0,6.933333333333334
2026-02-06T21:30:04+00:00,SAT-48460,51.07752404426129,44.54895048080182,604.2350698421438,4.8208853576021,-168847.79754806924,10.5,10499831152.202452,47.655,-122.3035,60.0,6.95
2026-02-06T21:30:05+00:00,SAT-48460,51.29371845895939,44.04652021035759,609.0430310713845,4.865516302202682,-170410.9620166901,10.5,10499829589.037983,47.655,-122.3035,60.0,6.966666666666667
2026-02-06T21:30:06+00:00,SAT-48460,51.503059025644326,43.55111849252558,613.895503595822,4.909091271395872,-171937.14175977255,10.5,10499828062.85824,47.655,-122.3035,60.0,6.983333333333333
2026-02-06T21:30:07+00:00,SAT-48460,51.70586676300758,43.0626674347915,618.7914342709739,4.951634084600475,-173427.17103411915,10.5,10499826572.828966,47.655,-122.3035,60.0,7.0
2026-02-06T21:30:08+00:00,SAT-48460,51.90244326551153,42.58108619219084,623.7297937079188,4.993168320570363,-174881.8756674286,10.5,10499825118.124332,47.655,-122.3035,60.0,7.016666666666667
2026-02-06T21:30:09+00:00,SAT-48460,52.0930721261804,42.10629135859452,628.7095760332792,5.033717301392165,-176302.0724978269,10.5,10499823697.927502,47.655,-122.3035,60.0,7.033333333333333
2026-02-06T21:30:10+00:00,SAT-48460,52.278020238708535,41.63819732608783,633.7297986332393,5.073304075591909,-177688.5687821908,10.5,10499822311.431217,47.655,-122.3035,60.0,7.05
2026-02-06T21:30:11+00:00,SAT-48460,52.45753899048615,41.17671661516628,638.7895018807204,5.1119514114384685,-179042.16196160583,10.5,10499820957.838037,47.655,-122.3035,60.0,7.066666666666666
2026-02-06T21:30:12+00:00,SAT-48460,52.6318653569646,40.7217601772214,643.8877488558742,5.149681734594779,-180363.63747764856,10.5,10499819636.362522,47.655,-122.3035,60.0,7.083333333333333
2026-02-06T21:30:13+00:00,SAT-48460,52.80122290460845,40.27323767638593,649.0236250043946,5.186517121537661,-181653.76854192058,10.5,10499818346.231459,47.655,-122.3035,60.0,7.1
2026-02-06T21:30:14+00:00,SAT-48460,52.965822712843696,39.83105774741897,654.1962377892685,5.222479323479472,-182913.3169738862,10.5,10499817086.683025,47.655,-122.3035,60.0,7.116666666666666
2026-02-06T21:30:15+00:00,SAT-48460,53.12586422337223,39.39512822904657,659.404716366384,5.257589680176831,-184143.03018208922,10.5,10499815856.969818,47.655,-122.3035,60.0,7.133333333333334
2026-02-06T21:30:16+00:00,SAT-48460,53.28153601976976,38.96535638381815,664.6482111741756,5.29186921176516,-185343.6443805874,10.5,10499814656.35562,47.655,-122.3035,60.0,7.15
2026-02-06T21:30:17+00:00,SAT-48460,53.43301654914321,38.54164909103015,669.9258936148622,5.325338507227328,-186515.8806826519,10.5,10499813484.119318,47.655,-122.3035,60.0,7.166666666666667
2026-02-06T21:30:18+00:00,SAT-48460,53.58047478479697,38.12391303114813,675.236955624448,5.358017725990971,-187660.44515671305,10.5,10499812339.554844,47.655,-122.3035,60.0,7.183333333333334
2026-02-06T21:30:19+00:00,SAT-48460,53.724070838367815,37.71205485327872,680.580609244322,5.389926716332406,-188778.0329733654,10.5,10499811221.967026,47.655,-122.3035,60.0,7.2
2026-02-06T21:30:20+00:00,SAT-48460,53.86395652931549,37.30598131836231,685.9560863109378,5.4210848659802044,-189869.3231728736,10.5,10499810130.676826,47.655,-122.3035,60.0,7.216666666666667
2026-02-06T21:30:21+00:00,SAT-48460,54.00027590743706,36.90559944012339,691.3626379965021,5.451511113274948,-190934.979056034,10.5,10499809065.020945,47.655,-122.3035,60.0,7.233333333333333
2026-02-06T21:30:22+00:00,SAT-48460,54.13316573733891,36.51081661183017,696.7995343607909,5.481224089378897,-191975.6531649586,10.5,10499808024.346834,47.655,-122.3035,60.0,7.25
2026-02-06T21:30:23+00:00,SAT-48460,54.26275595105738,36.1215407108169,702.2660640447948,5.510241911066284,-192991.98002571493,10.5,10499807008.019974,47.655,-122.3035,60.0,7.266666666666667
2026-02-06T21:30:24+00:00,SAT-48460,54.38917006268959,35.73768020721113,707.761533757711,5.538582361199132,-193984.58246935246,10.5,10499806015.41753,47.655,-122.3035,60.0,7.283333333333333
2026-02-06T21:30:25+00:00,SAT-48460,54.51252555773687,35.35914424950376,713.2852679439242,5.566262768687533,-194954.06742760385,10.5,10499805045.932573,47.655,-122.3035,60.0,7.3
2026-02-06T21:30:26+00:00,SAT-48460,54.632934251964734,34.98584274942556,718.8366083302732,5.593300045692348,-195901.0272358808,10.5,10499804098.972765,47.655,-122.3035,60.0,7.316666666666666
2026-02-06T21:30:27+00:00,SAT-48460,54.750502625931716,34.61768645551518,724.4149135104184,5.619710776180087,-196826.04273484062,10.5,10499803173.957266,47.655,-122.3035,60.0,7.333333333333333
2026-02-06T21:30:28+00:00,SAT-48460,54.865332138259625,34.25458701311656,730.0195586175275,5.645511059995622,-197729.67780915296,10.5,10499802270.322191,47.655,-122.3035,60.0,7.35
2026-02-06T21:30:29+00:00,SAT-48460,54.9775195138006,33.89645702753187,735.649934841452,5.670716629536607,-198612.48347393176,10.5,10499801387.516525,47.655,-122.3035,60.0,7.366666666666666
2026-02-06T21:30:30+00:00,SAT-48460,55.087157014775656,33.543210112780365,741.3054490622635,5.6953428360036105,-199474.99739315629,10.5,10499800525.002607,47.655,-122.3035,60.0,7.383333333333334
2026-02-06T21:30:31+00:00,SAT-48460,55.19433269324052,33.19476093536583,746.985523470081,5.719404664794067,-200317.7444188329,10.5,10499799682.25558,47.655,-122.3035,60.0,7.4
2026-02-06T21:30:32+00:00,SAT-48460,55.29913062696211,32.851025251668254,752.6895952002468,5.742916664609068,-201141.23410801485,10.5,10499798858.765892,47.655,-122.3035,60.0,7.416666666666667
2026-02-06T21:30:33+00:00,SAT-48460,55.40163113826119,32.51191994457335,758.4171158978005,5.765893057796635,-201945.96458749028,10.5,10499798054.035412,47.655,-122.3035,60.0,7.433333333333334
2026-02-06T21:30:34+00:00,SAT-48460,55.50191100062129,32.17736304879518,764.1675513920027,5.788347701028086,-202732.42117650236,10.5,10499797267.578823,47.655,-122.3035,60.0,7.45
2026-02-06T21:30:35+00:00,SAT-48460,55.60004363113199,31.84727377453737,769.9403813316359,5.810294040221105,-203501.07480796464,10.5,10499796498.925192,47.655,-122.3035,60.0,7.466666666666667
2026-02-06T21:30:36+00:00,SAT-48460,55.696099269602286,31.521572529851667,775.7350987753558,5.831745226926132,-204252.38610480452,10.5,10499795747.613895,47.655,-122.3035,60.0,7.483333333333333
2026-02-06T21:30:37+00:00,SAT-48460,55.790145148459594,31.200180932900967,781.5512098981092,5.852714055856628,-204986.8031920089,10.5,10499795013.196808,47.655,-122.3035,60.0,7.5
2026-02-06T21:30:38+00:00,SAT-48460,55.88224565066754,30.88302182478184,787.3882336352567,5.873212908388373,-205704.75971773083,10.5,10499794295.240282,47.655,-122.3035,60.0,7.516666666666667
2026-02-06T21:30:39+00:00,SAT-48460,55.972462456844944,30.57001928244388,793.245701270341,5.89325397540253,-206406.68265819605,10.5,10499793593.31734,47.655,-122.3035,60.0,7.533333333333333
2026-02-06T21:30:40+00:00,SAT-48460,56.06085468693187,30.26109861708516,799.1231562451046,5.912848965383776,-207092.9820940647,10.5,10499792907.017906,47.655,-122.3035,60.0,7.55
