DopplerPredictor/satellites_20260211_204923/SAT-60018.csv

timestamp,satellite,azimuth_deg,elevation_deg,distance_km,relative_velocity_kms,doppler_shift_hz,tx_freq_ghz,rx_freq_hz,ue_lat,ue_lon,ue_alt_m,time_minutes
2026-02-06T21:29:44+00:00,SAT-60018,309.8590788811743,30.074656427321305,877.767226278128,-5.653327839239185,198003.45448320598,10.5,10500198003.454483,47.655,-122.3035,60.0,6.616666666666666
2026-02-06T21:29:45+00:00,SAT-60018,310.0207659573469,30.347861148788343,872.1290542306664,-5.632840762545974,197285.91039716123,10.5,10500197285.910397,47.655,-122.3035,60.0,6.633333333333334
2026-02-06T21:29:46+00:00,SAT-60018,310.18541365702555,30.624004622993574,866.5113143368728,-5.6119458870363035,196554.08347157683,10.5,10500196554.083471,47.655,-122.3035,60.0,6.65
2026-02-06T21:29:47+00:00,SAT-60018,310.35310354741074,30.903125078549852,860.9144133023109,-5.590634108169398,195807.65482692258,10.5,10500195807.654827,47.655,-122.3035,60.0,6.666666666666667
2026-02-06T21:29:48+00:00,SAT-60018,310.52392011438917,31.185260820652967,855.338766912678,-5.568896152989855,195046.29968507573,10.5,10500195046.299685,47.655,-122.3035,60.0,6.683333333333334
2026-02-06T21:29:49+00:00,SAT-60018,310.69795088984154,31.470450194347055,849.7848002017668,-5.546722512336077,194269.68499497345,10.5,10500194269.684996,47.655,-122.3035,60.0,6.7
2026-02-06T21:29:50+00:00,SAT-60018,310.8752865831883,31.758731541275285,844.2529476870385,-5.5241034859071725,193477.4710110463,10.5,10500193477.47101,47.655,-122.3035,60.0,6.716666666666667
2026-02-06T21:29:51+00:00,SAT-60018,311.05602122100805,32.0501431553527,838.7436535602509,-5.50102917109038,192669.31090190733,10.5,10500192669.310902,47.655,-122.3035,60.0,6.733333333333333
2026-02-06T21:29:52+00:00,SAT-60018,311.24025229337377,32.34472323433138,833.2573718892262,-5.477489484239848,191844.85149562504,10.5,10500191844.851496,47.655,-122.3035,60.0,6.75
2026-02-06T21:29:53+00:00,SAT-60018,311.42808090839543,32.64250982875465,827.7945667984,-5.453474122978669,191003.7319593811,10.5,10500191003.73196,47.655,-122.3035,60.0,6.766666666666667
2026-02-06T21:29:54+00:00,SAT-60018,311.6196119533672,32.94354078487678,822.3557126869654,-5.428972531057897,190145.58256868465,10.5,10500190145.58257,47.655,-122.3035,60.0,6.783333333333333
2026-02-06T21:29:55+00:00,SAT-60018,311.81495426268896,33.24785368122049,816.9412944820652,-5.403974038603864,189270.02961942615,10.5,10500189270.02962,47.655,-122.3035,60.0,6.8
2026-02-06T21:29:56+00:00,SAT-60018,312.0142207997898,33.555485768311335,811.5518077521103,-5.378467679366279,188376.68902713334,10.5,10500188376.689028,47.655,-122.3035,60.0,6.816666666666666
2026-02-06T21:29:57+00:00,SAT-60018,312.21752884136197,33.866473893333676,806.1877590023638,-5.352442343766464,187465.17168736737,10.5,10500187465.171688,47.655,-122.3035,60.0,6.833333333333333
2026-02-06T21:29:58+00:00,SAT-60018,312.42500017705385,34.1808544281149,800.849665817884,-5.325886650449627,186535.0789769404,10.5,10500186535.078978,47.655,-122.3035,60.0,6.85
2026-02-06T21:29:59+00:00,SAT-60018,312.636761314295,34.498663184131665,795.5380571345719,-5.298789088354395,185586.00772979134,10.5,10500185586.00773,47.655,-122.3035,60.0,6.866666666666666
2026-02-06T21:30:00+00:00,SAT-60018,312.8529436995673,34.81993532985602,790.2534733685305,-5.271137881046603,184617.54548538153,10.5,10500184617.545485,47.655,-122.3035,60.0,6.883333333333334
2026-02-06T21:30:01+00:00,SAT-60018,313.0736839454247,35.14470529375503,784.9964666807258,-5.2429210523728935,183629.27278816127,10.5,10500183629.272789,47.655,-122.3035,60.0,6.9
2026-02-06T21:30:02+00:00,SAT-60018,313.2991240719705,35.473006664297635,779.7676011761711,-5.214126468479445,182620.7646592436,10.5,10500182620.76466,47.655,-122.3035,60.0,6.916666666666667
2026-02-06T21:30:03+00:00,SAT-60018,313.5294117628037,35.804872085449254,774.5674530612043,-5.184741733263791,181591.5869346847,10.5,10500181591.586935,47.655,-122.3035,60.0,6.933333333333334
2026-02-06T21:30:04+00:00,SAT-60018,313.76470062940587,36.140333137932416,769.3966109050332,-5.1547543074729525,180541.30043680422,10.5,10500180541.300436,47.655,-122.3035,60.0,6.95
2026-02-06T21:30:05+00:00,SAT-60018,314.0051504947263,36.47942021979791,764.2556757825025,-5.12415141440719,179469.45767153185,10.5,10500179469.457672,47.655,-122.3035,60.0,6.966666666666667
2026-02-06T21:30:06+00:00,SAT-60018,314.2509276868684,36.82216241227397,759.1452615109042,-5.092920129847848,178375.605978061,10.5,10500178375.605978,47.655,-122.3035,60.0,6.983333333333333
2026-02-06T21:30:07+00:00,SAT-60018,314.5022053524188,37.16858734221043,754.0659947971014,-5.061047340667934,177259.28607921585,10.5,10500177259.28608,47.655,-122.3035,60.0,7.0
2026-02-06T21:30:08+00:00,SAT-60018,314.75916378376326,37.5187210320806,749.0185154259293,-5.028519719715385,176120.0312017574,10.5,10500176120.031202,47.655,-122.3035,60.0,7.016666666666667
2026-02-06T21:30:09+00:00,SAT-60018,315.021990761881,37.87258773768893,744.0034764736466,-4.995323791340395,174957.36937142743,10.5,10500174957.369371,47.655,-122.3035,60.0,7.033333333333333
2026-02-06T21:30:10+00:00,SAT-60018,315.2908819199682,38.23020977923723,739.0215444560363,-4.961445943686694,173770.82384344132,10.5,10500173770.823843,47.655,-122.3035,60.0,7.05
2026-02-06T21:30:11+00:00,SAT-60018,315.56604112643794,38.591607361650084,734.0733994642451,-4.926872386239711,172559.91161564502,10.5,10500172559.911615,47.655,-122.3035,60.0,7.066666666666666
2026-02-06T21:30:12+00:00,SAT-60018,315.8476808848417,38.95679837940938,729.1597353429644,-4.891589177719319,171324.14440543682,10.5,10500171324.144405,47.655,-122.3035,60.0,7.083333333333333
2026-02-06T21:30:13+00:00,SAT-60018,316.1360227553982,39.32579821004802,724.2812598407913,-4.855582269548128,170063.03017221112,10.5,10500170063.030172,47.655,-122.3035,60.0,7.1
2026-02-06T21:30:14+00:00,SAT-60018,316.43129780014834,39.69861949688291,719.4386947172375,-4.818837476514497,168776.07208985294,10.5,10500168776.07209,47.655,-122.3035,60.0,7.116666666666666
2026-02-06T21:30:15+00:00,SAT-60018,316.7337470482974,40.07527191472958,714.632775878998,-4.7813405118059045,167462.7697737546,10.5,10500167462.769773,47.655,-122.3035,60.0,7.133333333333334
2026-02-06T21:30:16+00:00,SAT-60018,317.04362198651717,40.455761922519386,709.864253481279,-4.743076999567694,166122.61972067616,10.5,10500166122.61972,47.655,-122.3035,60.0,7.15
2026-02-06T21:30:17+00:00,SAT-60018,317.36118507361033,40.84009250028228,705.1338920166028,-4.704032477205813,164755.11538939728,10.5,10500164755.115389,47.655,-122.3035,60.0,7.166666666666667
2026-02-06T21:30:18+00:00,SAT-60018,317.6867102799004,41.22826286868676,700.4424704013119,-4.664192430508363,163359.74843082213,10.5,10500163359.74843,47.655,-122.3035,60.0,7.183333333333334
2026-02-06T21:30:19+00:00,SAT-60018,318.0204836540842,41.62026819279399,695.790782027051,-4.623542318366421,161936.00955380744,10.5,10500161936.009554,47.655,-122.3035,60.0,7.2
2026-02-06T21:30:20+00:00,SAT-60018,318.36280391810345,42.01609926828425,691.1796347875915,-4.582067551926612,160483.38779499725,10.5,10500160483.387794,47.655,-122.3035,60.0,7.216666666666667
2026-02-06T21:30:21+00:00,SAT-60018,318.7139830868604,42.41574218515758,686.6098511264461,-4.539753569370693,159001.37313792025,10.5,10500159001.373138,47.655,-122.3035,60.0,7.233333333333333
2026-02-06T21:30:22+00:00,SAT-60018,319.07434712081954,42.81917797590562,682.0822680099088,-4.4965858375337255,157489.456569665,10.5,10500157489.45657,47.655,-122.3035,60.0,7.25
2026-02-06T21:30:23+00:00,SAT-60018,319.44423660635493,43.226382240930576,677.5977368984767,-4.452549845566192,155947.12985890065,10.5,10500155947.129858,47.655,-122.3035,60.0,7.266666666666667
2026-02-06T21:30:24+00:00,SAT-60018,319.82400746330467,43.63732474902532,673.1571237245945,-4.407631183468688,154373.88830649375,10.5,10500154373.888306,47.655,-122.3035,60.0,7.283333333333333
2026-02-06T21:30:25+00:00,SAT-60018,320.21403168659555,44.05196901936724,668.7613087920755,-4.361815553217745,152769.23113518197,10.5,10500152769.231134,47.655,-122.3035,60.0,7.3
2026-02-06T21:30:26+00:00,SAT-60018,320.61469811671526,44.470271877872484,664.4111866644256,-4.315088783690719,151132.66201230636,10.5,10500151132.662012,47.655,-122.3035,60.0,7.316666666666666
2026-02-06T21:30:27+00:00,SAT-60018,321.02641323824605,44.89218298678413,660.1076660382815,-4.267436879141953,149463.6907476522,10.5,10500149463.690748,47.655,-122.3035,60.0,7.333333333333333
2026-02-06T21:30:28+00:00,SAT-60018,321.44960200877006,45.317644349350374,655.8516695685062,-4.2188460497925195,147761.8343648307,10.5,10500147761.834364,47.655,-122.3035,60.0,7.35
2026-02-06T21:30:29+00:00,SAT-60018,321.8847087151313,45.74658978664136,651.6441336627727,-4.169302752268514,146026.61851759927,10.5,10500146026.618517,47.655,-122.3035,60.0,7.366666666666666
2026-02-06T21:30:30+00:00,SAT-60018,322.332197856143,46.178944386130844,647.4860082358191,-4.11879371412799,144257.5783488986,10.5,10500144257.578348,47.655,-122.3035,60.0,7.383333333333334
2026-02-06T21:30:31+00:00,SAT-60018,322.7925550472945,46.61462391907952,643.378256439245,-4.067305992582701,142454.2605475364,10.5,10500142454.260548,47.655,-122.3035,60.0,7.4
2026-02-06T21:30:32+00:00,SAT-60018,323.2662879477793,47.05353422890563,639.3218543327401,-4.01482702030802,140616.2249526444,10.5,10500140616.224953,47.655,-122.3035,60.0,7.416666666666667
2026-02-06T21:30:33+00:00,SAT-60018,323.7539272043559,47.49557058808892,635.3177905096275,-3.9613446156773384,138743.0449121307,10.5,10500138743.044912,47.655,-122.3035,60.0,7.433333333333334
2026-02-06T21:30:34+00:00,SAT-60018,324.2560274018186,47.940617018393866,631.3670657121992,-3.906847084990222,136834.3108631416,10.5,10500136834.310863,47.655,-122.3035,60.0,7.45
2026-02-06T21:30:35+00:00,SAT-60018,324.7731680249059,48.388545583348034,627.4706923450987,-3.851323196183848,134889.62941132564,10.5,10500134889.629412,47.655,-122.3035,60.0,7.466666666666667
2026-02-06T21:30:36+00:00,SAT-60018,325.30595440633516,48.83921563763785,623.6296940149214,-3.7947623301382953,132908.62863018422,10.5,10500132908.62863,47.655,-122.3035,60.0,7.483333333333333
2026-02-06T21:30:37+00:00,SAT-60018,325.8550186750272,49.29247305267653,619.845104918913,-3.7371544303744706,130890.95629928068,10.5,10500130890.956299,47.655,-122.3035,60.0,7.5
2026-02-06T21:30:38+00:00,SAT-60018,326.42102066414594,49.74814939450444,616.117969283839,-3.6784901295583987,128836.28433495545,10.5,10500128836.284334,47.655,-122.3035,60.0,7.516666666666667
2026-02-06T21:30:39+00:00,SAT-60018,327.0046487890599,50.20606107397721,612.4493406786863,-3.6187607512752886,126744.3088524613,10.5,10500126744.308853,47.655,-122.3035,60.0,7.533333333333333
2026-02-06T21:30:40+00:00,SAT-60018,327.60662085910604,50.66600845429802,608.8402813255962,-3.557958433196595,124614.75447979498,10.5,10500124614.75448,47.655,-122.3035,60.0,7.55
2026-02-06T21:30:41+00:00,SAT-60018,328.2276848218745,51.12777493100226,605.2918612879608,-3.4960761229906288,122447.3742144694,10.5,10500122447.374214,47.655,-122.3035,60.0,7.566666666666666
2026-02-06T21:30:42+00:00,SAT-60018,328.8686193943315,51.59112596919835,601.8051576625974,-3.4331076731568695,120241.95274501246,10.5,10500120241.952745,47.655,-122.3035,60.0,7.583333333333333
2026-02-06T21:30:43+00:00,SAT-60018,329.5302345685262,52.05580811158763,598.3812536773434,-3.369047880746271,117998.30784214006,10.5,10500117998.307842,47.655,-122.3035,60.0,7.6
2026-02-06T21:30:44+00:00,SAT-60018,330.2133719483614,52.521547952077384,595.0212377490366,-3.3038925784000566,115716.29354731998,10.5,10500115716.293547,47.655,-122.3035,60.0,7.616666666666666
2026-02-06T21:30:45+00:00,SAT-60018,330.91890488866267,52.98805108455136,591.7262024507021,-3.2376386726034285,113395.80151257841,10.5,10500113395.801512,47.655,-122.3035,60.0,7.633333333333334
2026-02-06T21:30:46+00:00,SAT-60018,331.64773838100916,53.45500102333594,588.4972434405859,-3.17028419414213,111036.76276770234,10.5,10500111036.762768,47.655,-122.3035,60.0,7.65
2026-02-06T21:30:47+00:00,SAT-60018,332.4008086359726,53.922058101470945,585.3354583408689,-3.10182841403551,108639.15178070575,10.5,10500108639.151781,47.655,-122.3035,60.0,7.666666666666667
2026-02-06T21:30:48+00:00,SAT-60018,333.1790823186365,54.38885836261442,582.241945500759,-3.0322718359198277,106202.98619106086,10.5,10500106202.98619,47.655,-122.3035,60.0,7.683333333333334
2026-02-06T21:30:49+00:00,SAT-60018,333.98355534116087,54.85501243634196,579.2178027671779,-2.961616325788127,103728.33135373717,10.5,10500103728.331354,47.655,-122.3035,60.0,7.7
2026-02-06T21:30:50+00:00,SAT-60018,334.8152511706427,55.32010442670485,576.2641261260562,-2.889865102592866,101215.30001006594,10.5,10500101215.30001,47.655,-122.3035,60.0,7.716666666666667
2026-02-06T21:30:51+00:00,SAT-60018,335.67521853156813,55.783690804876024,573.3820083530018,-2.817022863030072,98664.05665820905,10.5,10500098664.056658,47.655,-122.3035,60.0,7.733333333333333
2026-02-06T21:30:52+00:00,SAT-60018,336.56452844625056,56.24529934079097,570.5725375395183,-2.743095785868929,96074.81770479948,10.5,10500096074.817705,47.655,-122.3035,60.0,7.75
2026-02-06T21:30:53+00:00,SAT-60018,337.48427047614643,56.70442807218058,567.8367956149041,-2.668091629769535,93447.85489093298,10.5,10500093447.85489,47.655,-122.3035,60.0,7.766666666666667
2026-02-06T21:30:54+00:00,SAT-60018,338.43554808147417,57.160544346303055,565.1758567705973,-2.5920197338336224,90783.49531145656,10.5,10500090783.495312,47.655,-122.3035,60.0,7.783333333333333
2026-02-06T21:30:55+00:00,SAT-60018,339.41947294728834,57.61308394236727,562.5907858839713,-2.5148911335845012,88082.12547707677,10.5,10500088082.125477,47.655,-122.3035,60.0,7.8
2026-02-06T21:30:56+00:00,SAT-60018,340.43715819274087,58.06145032222711,560.082636826461,-2.436718536224699,85344.1904477775,10.5,10500085344.190447,47.655,-122.3035,60.0,7.816666666666666
2026-02-06T21:30:57+00:00,SAT-60018,341.48971028229056,58.50501401771824,557.6524507963646,-2.357516407388434,82570.1968712587,10.5,10500082570.19687,47.655,-122.3035,60.0,7.833333333333333
2026-02-06T21:30:58+00:00,SAT-60018,342.5782195520755,58.943112210932135,555.3012545651272,-2.2773009829647854,79760.71339703364,10.5,10500079760.713398,47.655,-122.3035,60.0,7.85
2026-02-06T21:30:59+00:00,SAT-60018,343.7037491972697,59.375048536460895,553.0300587118303,-2.1960903119956923,76916.37217889841,10.5,10500076916.372179,47.655,-122.3035,60.0,7.866666666666666
2026-02-06T21:31:00+00:00,SAT-60018,344.8673226197883,59.800093158219724,550.8398558149005,-2.1139042803266603,74037.86970327963,10.5,10500074037.869703,47.655,-122.3035,60.0,7.883333333333334
2026-02-06T21:31:01+00:00,SAT-60018,346.06990903331194,60.21748316954332,548.7316186202307,-2.030764621516335,71125.96717133396,10.5,10500071125.96717,47.655,-122.3035,60.0,7.9
2026-02-06T21:31:02+00:00,SAT-60018,347.3124072512369,60.62642337073536,546.7062981984192,-1.946694927861883,68181.4908851035,10.5,10500068181.490885,47.655,-122.3035,60.0,7.916666666666667
2026-02-06T21:31:03+00:00,SAT-60018,348.59562762925344,61.026087484739854,544.7648220910149,-1.861720671647856,65205.33299174087,10.5,10500065205.332993,47.655,-122.3035,60.0,7.933333333333334
2026-02-06T21:31:04+00:00,SAT-60018,349.92027219686025,61.41561987683945,542.9080924355701,-1.77586917937868,62198.45058102209,10.5,10500062198.45058,47.655,-122.3035,60.0,7.95
2026-02-06T21:31:05+00:00,SAT-60018,351.28691304056696,61.79413783395509,541.1369841163915,-1.6891696380332564,59161.86590440908,10.5,10500059161.865904,47.655,-122.3035,60.0,7.966666666666667
2026-02-06T21:31:06+00:00,SAT-60018,352.6959691364339,62.160734474467006,539.4523429090523,-1.60165307555542,56096.66569174302,10.5,10500056096.665691,47.655,-122.3035,60.0,7.983333333333333
2026-02-06T21:31:07+00:00,SAT-60018,354.14768189322484,62.514482344458585,537.8549836443643,-1.5133523205510968,53003.999739668296,10.5,10500053003.99974,47.655,-122.3035,60.0,8.0
2026-02-06T21:31:08+00:00,SAT-60018,355.64208977642966,62.85443775006427,536.345688412542,-1.4243019875544387,49885.08039559023,10.5,10500049885.080395,47.655,-122.3035,60.0,8.016666666666667
2026-02-06T21:31:09+00:00,SAT-60018,357.1790025553702,63.179645875119625,534.9252047820626,-1.3345384137202854,46741.18034037734,10.5,10500046741.18034,47.655,-122.3035,60.0,8.033333333333333
2026-02-06T21:31:10+00:00,SAT-60018,358.7579757782901,63.489146701622204,533.5942440816631,-1.2440996195695246,43573.63121349774,10.5,10500043573.631214,47.655,-122.3035,60.0,8.05
2026-02-06T21:31:11+00:00,SAT-60018,0.37828628501124384,63.78198174620457,532.3534797214878,-1.1530252448057625,40383.8213650475,10.5,10500040383.821365,47.655,-122.3035,60.0,8.066666666666666
2026-02-06T21:31:12+00:00,SAT-60018,2.038909644445264,64.05720158950139,531.2035455782458,-1.0613564799870179,37173.193462604344,10.5,10500037173.193462,47.655,-122.3035,60.0,8.083333333333334
2026-02-06T21:31:13+00:00,SAT-60018,3.7385005313505664,64.31387414943667,530.1450344485145,-0.9691359760377648,33943.24132195657,10.5,10500033943.241322,47.655,-122.3035,60.0,8.1
2026-02-06T21:31:14+00:00,SAT-60018,5.475377095703447,64.55109361046605,529.1784965922877,-0.8764077797428845,30695.507647828443,10.5,10500030695.507648,47.655,-122.3035,60.0,8.116666666666667
2026-02-06T21:31:15+00:00,SAT-60018,7.247510488072621,64.76798989470785,528.3044383408582,-0.7832172266747168,27431.580283732575,10.5,10500027431.580284,47.655,-122.3035,60.0,8.133333333333333
2026-02-06T21:31:16+00:00,SAT-60018,9.052520555766861,64.96373850532763,527.523320811484,-0.6896108355684757,24153.08851255022,10.5,10500024153.088512,47.655,-122.3035,60.0,8.15
2026-02-06T21:31:17+00:00,SAT-60018,10.88767867581868,65.13757054502462,526.8355587273994,-0.5956362151257341,20861.69979239507,10.5,10500020861.699793,47.655,-122.3035,60.0,8.166666666666666
2026-02-06T21:31:18+00:00,SAT-60018,12.74991855092343,65.28878268122358,526.2415193307686,-0.5013419334682019,17559.115184332353,10.5,10500017559.115185,47.655,-122.3035,60.0,8.183333333333334
2026-02-06T21:31:19+00:00,SAT-60018,14.635855402039713,65.41674678988848,525.7415214258389,-0.4067774085078617,14247.065512677267,10.5,10500014247.065514,47.655,-122.3035,60.0,8.2
2026-02-06T21:31:20+00:00,SAT-60018,16.541813803665242,65.52091900709205,525.3358345314278,-0.31199277641441997,10927.306758168712,10.5,10500010927.306759,47.655,-122.3035,60.0,8.216666666666667
2026-02-06T21:31:21+00:00,SAT-60018,18.463863895695724,65.60084790205337,525.0246781645922,-0.21703876256547458,7601.615538098303,10.5,10500007601.615538,47.655,-122.3035,60.0,8.233333333333333
2026-02-06T21:31:22+00:00,SAT-60018,20.39786534990289,65.6561815013814,524.8082212529977,-0.12196655010500145,4271.784502672563,10.5,10500004271.784502,47.655,-122.3035,60.0,8.25
2026-02-06T21:31:23+00:00,SAT-60018,22.33951805853301,65.68667291849296,524.686581678382,-0.0268276387464986,939.6173897017626,10.5,10500000939.61739,47.655,-122.3035,60.0,8.266666666666667
2026-02-06T21:31:24+00:00,SAT-60018,24.284418024975775,65.69218438090292,524.6598259608328,0.06832628967325038,-2393.0756842759833,10.5,10499997606.924316,47.655,-122.3035,60.0,8.283333333333333
2026-02-06T21:31:25+00:00,SAT-60018,26.228116802120038,65.67268950609578,524.7279690771526,0.16344351377377114,-5724.48321773524,10.5,10499994275.516783,47.655,-122.3035,60.0,8.3
2026-02-06T21:31:26+00:00,SAT-60018,28.166182392513342,65.62827373718609,524.890974421421,0.25847241226110346,-9052.797214603665,10.5,10499990947.202785,47.655,-122.3035,60.0,8.316666666666666
2026-02-06T21:31:27+00:00,SAT-60018,30.09425962281554,65.55913292237236,525.1487539048139,0.35336160227589486,-12376.218029797456,10.5,10499987623.781971,47.655,-122.3035,60.0,8.333333333333334
2026-02-06T21:31:28+00:00,SAT-60018,32.008127893358854,65.46557009322747,525.5011681933981,0.4480600799788047,-15692.959293116872,10.5,10499984307.040707,47.655,-122.3035,60.0,8.35
2026-02-06T21:31:29+00:00,SAT-60018,33.90375447967187,65.34799056331062,525.9480270861347,0.5425173528786711,-19001.252543938404,10.5,10499980998.747456,47.655,-122.3035,60.0,8.366666666666667
2026-02-06T21:31:30+00:00,SAT-60018,35.77734173597786,65.20689553053867,526.4890900248578,0.636683574767146,-22299.351957196443,10.5,10499977700.648043,47.655,-122.3035,60.0,8.383333333333333
2026-02-06T21:31:31+00:00,SAT-60018,37.625366996758494,65.04287441091083,527.1240667388231,0.7305096737583138,-25585.538827872362,10.5,10499974414.461172,47.655,-122.3035,60.0,8.4
2026-02-06T21:31:32+00:00,SAT-60018,39.444614317895656,64.8565961663015,527.8526180169565,0.8239474740343242,-28858.125835041537,10.5,10499971141.874165,47.655,-122.3035,60.0,8.416666666666666
2026-02-06T21:31:33+00:00,SAT-60018,41.232197654321354,64.64879990590399,528.6743566015177,0.9169498184372762,-32115.461335559685,10.5,10499967884.538664,47.655,-122.3035,60.0,8.433333333333334
2026-02-06T21:31:34+00:00,SAT-60018,42.985575482100884,64.42028504103904,529.5888482040308,1.0094706765395467,-35355.93314914293,10.5,10499964644.06685,47.655,-122.3035,60.0,8.45
2026-02-06T21:31:35+00:00,SAT-60018,44.70255721323909,64.17190126516063,530.5956126289935,1.1014652491283112,-38577.972217857685,10.5,10499961422.027782,47.655,-122.3035,60.0,8.466666666666667
2026-02-06T21:31:36+00:00,SAT-60018,46.38130207479363,63.90453860506956,531.6941250017911,1.1928900714089705,-41780.05622074118,10.5,10499958219.943779,47.655,-122.3035,60.0,8.483333333333333
2026-02-06T21:31:37+00:00,SAT-60018,48.02031134498849,63.61911775755347,532.8838170995376,1.2837030985643934,-44960.712570448086,10.5,10499955039.28743,47.655,-122.3035,60.0,8.5
2026-02-06T21:31:38+00:00,SAT-60018,49.61841496011539,63.316580893067865,534.1640787672457,1.3738637971545569,-48118.52161445251,10.5,10499951881.478386,47.655,-122.3035,60.0,8.516666666666667
2026-02-06T21:31:39+00:00,SAT-60018,51.174753606429725,62.99788306356288,535.5342594251532,1.4633331990868172,-51252.11852531521,10.5,10499948747.881475,47.655,-122.3035,60.0,8.533333333333333
2026-02-06T21:31:40+00:00,SAT-60018,52.688757363438405,62.66398432311516,536.9936696298732,1.552073997917078,-54360.1966735578,10.5,10499945639.803326,47.655,-122.3035,60.0,8.55
2026-02-06T21:31:41+00:00,SAT-60018,54.16012199918267,62.31584261516272,538.541582731588,1.6400505792530817,-57441.50869251473,10.5,10499942558.491308,47.655,-122.3035,60.0,8.566666666666666
2026-02-06T21:31:42+00:00,SAT-60018,55.58878381115189,61.954407472786045,540.1772365615651,1.7272290845945666,-60494.8687142855,10.5,10499939505.131287,47.655,-122.3035,60.0,8.583333333333334
2026-02-06T21:31:43+00:00,SAT-60018,56.97489389310185,61.58061452761831,541.8998351833415,1.8135774395236424,-63519.15335708094,10.5,10499936480.846643,47.655,-122.3035,60.0,8.6
2026-02-06T21:31:44+00:00,SAT-60018,58.31879250921251,61.19538081604428,543.7085506720235,1.8990654054691996,-66513.30353823175,10.5,10499933486.696463,47.655,-122.3035,60.0,8.616666666666667
2026-02-06T21:31:45+00:00,SAT-60018,59.620984169957715,60.79960084066442,545.6025249452116,1.9836645713934484,-69476.324183016,10.5,10499930523.675817,47.655,-122.3035,60.0,8.633333333333333
2026-02-06T21:31:46+00:00,SAT-60018,60.88211381441477,60.39414335006312,547.5808715856349,2.0673484034214864,-72407.28596289639,10.5,10499927592.714037,47.655,-122.3035,60.0,8.65
2026-02-06T21:31:47+00:00,SAT-60018,62.102944465960725,59.9798487662952,549.6426777132808,2.1500922269431952,-75305.3246686531,10.5,10499924694.675331,47.655,-122.3035,60.0,8.666666666666666
2026-02-06T21:31:48+00:00,SAT-60018,63.2843365363268,59.55752721112942,551.7870058396765,2.2318732320976316,-78169.64140247027,10.5,10499921830.358597,47.655,-122.3035,60.0,8.683333333333334
2026-02-06T21:31:49+00:00,SAT-60018,64.42722892492606,59.1279570609179,554.0128957276372,2.312670486115143,-80999.50301020916,10.5,10499919000.49699,47.655,-122.3035,60.0,8.7
2026-02-06T21:31:50+00:00,SAT-60018,65.53262196861186,58.691883964623884,556.3193662633277,2.3924648670383317,-83794.23976003587,10.5,10499916205.76024,47.655,-122.3035,60.0,8.716666666666667
2026-02-06T21:31:51+00:00,SAT-60018,66.60156219978072,58.250020277732624,558.7054172622175,2.4712391126021247,-86553.24705440825,10.5,10499913446.752945,47.655,-122.3035,60.0,8.733333333333333
2026-02-06T21:31:52+00:00,SAT-60018,67.63512891676498,57.80304483152885,561.1700313237898,2.548977729811757,-89275.98226311433,10.5,10499910724.017736,47.655,-122.3035,60.0,8.75
2026-02-06T21:31:53+00:00,SAT-60018,68.63442241851686,57.351603009804165,563.7121755960668,2.625667012092074,-91961.96532391345,10.5,10499908038.034676,47.655,-122.3035,60.0,8.766666666666667
2026-02-06T21:31:54+00:00,SAT-60018,69.60055384437685,56.89630706351232,566.3308035572416,2.701294951358464,-94610.77566288832,10.5,10499905389.224337,47.655,-122.3035,60.0,8.783333333333333
2026-02-06T21:31:55+00:00,SAT-60018,70.53463645685072,56.43773663800318,569.0248567096143,2.7758512515320057,-97222.05266780281,10.5,10499902777.947332,47.655,-122.3035,60.0,8.8
2026-02-06T21:31:56+00:00,SAT-60018,71.43777827674268,55.97643945551158,571.7932662870084,2.8493272509765575,-99795.4929715205,10.5,10499900204.507029,47.655,-122.3035,60.0,8.816666666666666
2026-02-06T21:31:57+00:00,SAT-60018,72.31107590777881,55.512932134458836,574.634954884832,2.9217158496244267,-102330.84789963755,10.5,10499897669.1521,47.655,-122.3035,60.0,8.833333333333334
2026-02-06T21:31:58+00:00,SAT-60018,73.15560942852657,55.04770111400993,577.5488380174604,2.993011516747874,-104827.92374267359,10.5,10499895172.076258,47.655,-122.3035,60.0,8.85
2026-02-06T21:31:59+00:00,SAT-60018,73.97243825249556,54.58120364513332,580.5338256833675,3.0632101720469342,-107286.57759126418,10.5,10499892713.42241,47.655,-122.3035,60.0,8.866666666666667
2026-02-06T21:32:00+00:00,SAT-60018,74.76259780380678,54.11386884666745,583.5888238116661,3.132309202150483,-109706.71791409799,10.5,10499890293.282085,47.655,-122.3035,60.0,8.883333333333333
2026-02-06T21:32:01+00:00,SAT-60018,75.52709693941713,53.64609878633325,586.7127357251044,3.2003072907122734,-112088.29860716131,10.5,10499887911.701393,47.655,-122.3035,60.0,8.9
2026-02-06T21:32:02+00:00,SAT-60018,76.2669159726656,53.17826959973067,589.9044634336128,3.2672044850175808,-114431.32132658453,10.5,10499885568.678673,47.655,-122.3035,60.0,8.916666666666666
2026-02-06T21:32:03+00:00,SAT-60018,76.98300526770703,52.71073259849425,593.1629089942802,3.333002052874614,-116735.83047637393,10.5,10499883264.169523,47.655,-122.3035,60.0,8.933333333333334
2026-02-06T21:32:04+00:00,SAT-60018,77.67628427384625,52.24381538882173,596.4869757286053,3.397702423329161,-119001.91113198781,10.5,10499880998.088867,47.655,-122.3035,60.0,8.95
2026-02-06T21:32:05+00:00,SAT-60018,78.34764095110324,51.77782297866795,599.8755693806203,3.4613091636305344,-121229.68823358661,10.5,10499878770.311766,47.655,-122.3035,60.0,8.966666666666667
2026-02-06T21:32:06+00:00,SAT-60018,78.99793153030105,51.31303886198662,603.3275992520439,3.5238268748406982,-123419.32292982277,10.5,10499876580.67707,47.655,-122.3035,60.0,8.983333333333333
2026-02-06T21:32:07+00:00,SAT-60018,79.62798053621798,50.849726085992614,606.8419792333212,3.5852611794155314,-125571.01214288412,10.5,10499874428.987858,47.655,-122.3035,60.0,9.0
2026-02-06T21:32:08+00:00,SAT-60018,80.2385810433881,50.38812828473408,610.4176288222808,3.645618600177632,-127684.98432960956,10.5,10499872315.01567,47.655,-122.3035,60.0,9.016666666666667
2026-02-06T21:32:09+00:00,SAT-60018,80.8304951033435,49.92847069035078,614.0534740220868,3.704906544226198,-129761.49891794502,10.5,10499870238.501081,47.655,-122.3035,60.0,9.033333333333333
2026-02-06T21:32:10+00:00,SAT-60018,81.40445432589313,49.47096110583969,617.7484482231449,3.7631332199248,-131800.84339950405,10.5,10499868199.1566,47.655,-122.3035,60.0,9.05
2026-02-06T21:32:11+00:00,SAT-60018,81.96116057169407,49.015790846653,621.5014930022195,3.8203076161309437,-133803.33260209937,10.5,10499866196.667398,47.655,-122.3035,60.0,9.066666666666666
2026-02-06T21:32:12+00:00,SAT-60018,82.50128673939265,48.56313564250353,625.311558900834,3.8764393653629767,-135769.303897269,10.5,10499864230.696102,47.655,-122.3035,60.0,9.083333333333334
2026-02-06T21:32:13+00:00,SAT-60018,83.02547760826275,48.11315651293661,629.1776060672073,3.9315387850469574,-137699.1186449162,10.5,10499862300.881355,47.655,-122.3035,60.0,9.1
2026-02-06T21:32:14+00:00,SAT-60018,83.5343507424194,47.66600059528367,633.0986049393238,3.985616759878512,-139593.15807312395,10.5,10499860406.841927,47.655,-122.3035,60.0,9.116666666666667
2026-02-06T21:32:15+00:00,SAT-60018,84.02849741817833,47.22180194443875,637.0735368106842,4.0386847117325395,-141451.82222426578,10.5,10499858548.177776,47.655,-122.3035,60.0,9.133333333333333
2026-02-06T21:32:16+00:00,SAT-60018,84.50848357359715,46.780682294537925,641.1013943660431,4.090754548299095,-143275.52815601684,10.5,10499856724.471844,47.655,-122.3035,60.0,9.15
2026-02-06T21:32:17+00:00,SAT-60018,84.97485076571645,46.34275178593607,645.1811821659223,4.141838612269668,-145064.70816164263,10.5,10499854935.291838,47.655,-122.3035,60.0,9.166666666666666
2026-02-06T21:32:18+00:00,SAT-60018,85.42811712696893,45.9081096583464,649.3119170804462,4.191949634810678,-146819.80814044402,10.5,10499853180.19186,47.655,-122.3035,60.0,9.183333333333334
2026-02-06T21:32:19+00:00,SAT-60018,85.86877831313808,45.476844910746394,653.4926286767752,4.241100707992055,-148541.28663208924,10.5,10499851458.713367,47.655,-122.3035,60.0,9.2
2026-02-06T21:32:20+00:00,SAT-60018,86.29730843914525,45.04903692731356,657.722359579041,4.289305206603325,-150229.6120782829,10.5,10499849770.387922,47.655,-122.3035,60.0,9.216666666666667
2026-02-06T21:32:21+00:00,SAT-60018,86.71416099262917,44.62475607579698,662.0001657503094,4.33657678527177,-151885.26272183133,10.5,10499848114.737278,47.655,-122.3035,60.0,9.233333333333333
2026-02-06T21:32:22+00:00,SAT-60018,87.11976972891804,44.20406427187638,666.3251167716674,4.382929321702145,-153508.72461865775,10.5,10499846491.275381,47.655,-122.3035,60.0,9.25
2026-02-06T21:32:23+00:00,SAT-60018,87.51454953918069,43.787015516373785,670.6962960647024,4.4283768887422585,-155100.4906594205,10.5,10499844899.50934,47.655,-122.3035,60.0,9.266666666666667
2026-02-06T21:32:24+00:00,SAT-60018,87.89889729224173,43.37365640370712,675.112801086122,4.472933693166878,-156661.05842546653,10.5,10499843338.941574,47.655,-122.3035,60.0,9.283333333333333
2026-02-06T21:32:25+00:00,SAT-60018,88.27319264578911,42.96402660600121,679.5737434613221,4.516614121016529,-158190.9317767879,10.5,10499841809.068224,47.655,-122.3035,60.0,9.3
2026-02-06T21:32:26+00:00,SAT-60018,88.63779883433723,42.55815932434629,684.0782491631732,4.559432596264372,-159690.61590193812,10.5,10499840309.384098,47.655,-122.3035,60.0,9.316666666666666
2026-02-06T21:32:27+00:00,SAT-60018,88.9930634183987,42.15608172568689,688.6254585498488,4.601403628235647,-161160.61897886137,10.5,10499838839.381021,47.655,-122.3035,60.0,9.333333333333334
2026-02-06T21:32:28+00:00,SAT-60018,89.33931900984717,41.75781534909398,693.2145264499507,4.642541779227721,-162601.45104080994,10.5,10499837398.54896,47.655,-122.3035,60.0,9.35
2026-02-06T21:32:29+00:00,SAT-60018,89.67688396656074,41.363376490246964,697.8446222153393,4.682861623609832,-164013.62254384413,10.5,10499835986.377457,47.655,-122.3035,60.0,9.366666666666667
2026-02-06T21:32:30+00:00,SAT-60018,90.00606305628048,40.97277656591789,702.5149297331709,4.722377732973289,-165397.64384672925,10.5,10499834602.356153,47.655,-122.3035,60.0,9.383333333333333
2026-02-06T21:32:31+00:00,SAT-60018,90.3271480919438,40.586022457312076,707.2246474231302,4.761104602786466,-166754.02264208358,10.5,10499833245.977358,47.655,-122.3035,60.0,9.4
2026-02-06T21:32:32+00:00,SAT-60018,90.6404185352631,40.203116838120344,711.9729881615092,4.799056772623333,-168083.2681672899,10.5,10499831916.731833,47.655,-122.3035,60.0,9.416666666666666
2026-02-06T21:32:33+00:00,SAT-60018,90.94614208165014,39.824058472679,716.759179325195,4.836248628121019,-169385.88426821164,10.5,10499830614.115732,47.655,-122.3035,60.0,9.433333333333334
2026-02-06T21:32:34+00:00,SAT-60018,91.24457520668108,39.44884251111971,721.5824626381462,4.872694536070715,-170662.37413064778,10.5,10499829337.62587,47.655,-122.3035,60.0,9.45
2026-02-06T21:32:35+00:00,SAT-60018,91.53596369628616,39.0774607555755,726.4420941525977,4.9084086958774975,-171913.2350778275,10.5,10499828086.764923,47.655,-122.3035,60.0,9.466666666666667
2026-02-06T21:32:36+00:00,SAT-60018,91.82054314383615,38.70990192089276,731.3373440821218,4.943405273057329,-173138.9632460399,10.5,10499826861.036755,47.655,-122.3035,60.0,9.483333333333333
2026-02-06T21:32:37+00:00,SAT-60018,92.09853943174011,38.34615186895238,736.2674967678321,4.97769826659539,-174340.0489389616,10.5,10499825659.951061,47.655,-122.3035,60.0,9.5
2026-02-06T21:32:38+00:00,SAT-60018,92.37016918305261,37.986193837877224,741.231850512297,5.011301526156171,-175516.97723042715,10.5,10499824483.02277,47.655,-122.3035,60.0,9.516666666666667
2026-02-06T21:32:39+00:00,SAT-60018,92.6356401927652,37.63000865532246,746.2297174306212,5.044228766152527,-176670.22845718663,10.5,10499823329.771544,47.655,-122.3035,60.0,9.533333333333333
2026-02-06T21:32:40+00:00,SAT-60018,92.89515183926684,37.277574937123674,751.2604233155554,5.076493583411778,-177800.2788376473,10.5,10499822199.721163,47.655,-122.3035,60.0,9.55
2026-02-06T21:32:41+00:00,SAT-60018,93.14889547670467,36.92886927201833,756.3233075202262,5.1081093452836255,-178907.59655293953,10.5,10499821092.403446,47.655,-122.3035,60.0,9.566666666666666
2026-02-06T21:32:42+00:00,SAT-60018,93.39705480308163,36.58386640204095,761.4177227292741,5.139089289725908,-179992.64525234333,10.5,10499820007.354748,47.655,-122.3035,60.0,9.583333333333334
2026-02-06T21:32:43+00:00,SAT-60018,93.63980621520669,36.24253938449248,766.5430348298084,5.169446443626951,-181055.88119259154,10.5,10499818944.118807,47.655,-122.3035,60.0,9.6
2026-02-06T21:32:44+00:00,SAT-60018,93.87731914269382,35.904859748755236,771.6986227009037,5.199193699222124,-182097.75591430088,10.5,10499817902.244085,47.655,-122.3035,60.0,9.616666666666667
2026-02-06T21:32:45+00:00,SAT-60018,94.10975636874079,35.57079763791942,776.883878079307,5.228343694657749,-183118.7120588149,10.5,10499816881.287941,47.655,-122.3035,60.0,9.633333333333333
2026-02-06T21:32:46+00:00,SAT-60018,94.33727433037919,35.24032194869214,782.0982053060309,5.256908919872338,-184119.1870766127,10.5,10499815880.812923,47.655,-122.3035,60.0,9.65
2026-02-06T21:32:47+00:00,SAT-60018,94.5600234081587,34.913400455420565,787.3410211785426,5.284901661377625,-185099.61129330698,10.5,10499814900.388706,47.655,-122.3035,60.0,9.666666666666666
2026-02-06T21:32:48+00:00,SAT-60018,94.77814819946613,34.58999992931847,792.6117547478824,5.3123339826588145,-186060.40722317822,10.5,10499813939.592777,47.655,-122.3035,60.0,9.683333333333334
2026-02-06T21:32:49+00:00,SAT-60018,94.99178777758844,34.27008625090098,797.9098470962356,5.339217761631524,-187001.9908810748,10.5,10499812998.009119,47.655,-122.3035,60.0,9.7
2026-02-06T21:32:50+00:00,SAT-60018,95.20107593950479,33.95362451264227,803.2347511518606,5.365564671337057,-187924.77110628012,10.5,10499812075.228893,47.655,-122.3035,60.0,9.716666666666667
2026-02-06T21:32:51+00:00,SAT-60018,95.4061414407087,33.64057911584965,808.5859314847614,5.391386154878652,-188829.14868467386,10.5,10499811170.851315,47.655,-122.3035,60.0,9.733333333333333
2026-02-06T21:32:52+00:00,SAT-60018,95.60710821766595,33.330913862396,813.9628640773701,5.416693494434302,-189715.5187658529,10.5,10499810284.481234,47.655,-122.3035,60.0,9.75
2026-02-06T21:32:53+00:00,SAT-60018,95.80409560167172,33.02459203627968,819.3650361640498,5.441497718100192,-190584.26760039444,10.5,10499809415.732399,47.655,-122.3035,60.0,9.766666666666667
2026-02-06T21:32:54+00:00,SAT-60018,95.99721851907083,32.72157648478651,824.7919459776944,5.465809668886873,-191435.77495639387,10.5,10499808564.225044,47.655,-122.3035,60.0,9.783333333333333
2026-02-06T21:32:55+00:00,SAT-60018,96.18658768401195,32.421829690224214,830.2431025651409,5.489639973485217,-192270.4130255164,10.5,10499807729.586975,47.655,-122.3035,60.0,9.8
2026-02-06T21:32:56+00:00,SAT-60018,96.37230978069978,32.12531383835158,835.7180255714273,5.512999073860411,-193088.5475295523,10.5,10499806911.45247,47.655,-122.3035,60.0,9.816666666666666
2026-02-06T21:32:57+00:00,SAT-60018,96.55448763783122,31.831990880320788,841.2162450555646,5.53589716075139,-193890.53539128593,10.5,10499806109.46461,47.655,-122.3035,60.0,9.833333333333334
2026-02-06T21:32:58+00:00,SAT-60018,96.73322039236648,31.54182259371256,846.7373012399819,5.558344265218765,-194676.72794089114,10.5,10499805323.272058,47.655,-122.3035,60.0,9.85
2026-02-06T21:32:59+00:00,SAT-60018,96.90860364830156,31.25477063447487,852.2807443512772,5.58035019317848,-195447.4686230233,10.5,10499804552.531378,47.655,-122.3035,60.0,9.866666666666667
2026-02-06T21:33:00+00:00,SAT-60018,97.08072962560827,30.97079658845438,857.8461343956759,5.601924552572393,-196203.0939484479,10.5,10499803796.906052,47.655,-122.3035,60.0,9.883333333333333
2026-02-06T21:33:01+00:00,SAT-60018,97.2496873029404,30.68986201780536,863.4330409615885,5.623076757005984,-196943.93362144832,10.5,10499803056.066378,47.655,-122.3035,60.0,9.9
2026-02-06T21:33:02+00:00,SAT-60018,97.41556255346954,30.411928503801548,869.0410430257936,5.643815997458175,-197670.30954898417,10.5,10499802329.69045,47.655,-122.3035,60.0,9.916666666666666
2026-02-06T21:33:03+00:00,SAT-60018,97.57843827354715,30.136957687829774,874.6697287314091,5.664151319196704,-198382.53853459313,10.5,10499801617.461466,47.655,-122.3035,60.0,9.933333333333334
