DopplerPredictor/satellites_20260211_204923/SAT-57634.csv

timestamp,satellite,azimuth_deg,elevation_deg,distance_km,relative_velocity_kms,doppler_shift_hz,tx_freq_ghz,rx_freq_hz,ue_lat,ue_lon,ue_alt_m,time_minutes
2026-02-06T21:23:49+00:00,SAT-57634,229.5277349571966,30.098484163078872,1009.9211777808047,-4.493894960232929,157395.2106641914,10.5,10500157395.210665,47.655,-122.3035,60.0,0.7
2026-02-06T21:23:50+00:00,SAT-57634,229.231773243191,30.293451950769388,1005.4393303328023,-4.466084555023973,156421.17263587634,10.5,10500156421.172636,47.655,-122.3035,60.0,0.7166666666666667
2026-02-06T21:23:51+00:00,SAT-57634,228.93194055625608,30.489125944359802,1000.985218734151,-4.437896352410373,155433.90254436925,10.5,10500155433.902544,47.655,-122.3035,60.0,0.7333333333333333
2026-02-06T21:23:52+00:00,SAT-57634,228.62817774467638,30.685487666522857,996.5592197694317,-4.409326058144856,154433.24998696594,10.5,10500154433.249987,47.655,-122.3035,60.0,0.75
2026-02-06T21:23:53+00:00,SAT-57634,228.3204249927296,30.882517603984958,992.1617145059616,-4.380369371515337,153419.0643345372,10.5,10500153419.064335,47.655,-122.3035,60.0,0.7666666666666667
2026-02-06T21:23:54+00:00,SAT-57634,228.00862183855764,31.080195173990536,987.7930883002405,-4.351021989054672,152391.19486146,10.5,10500152391.194862,47.655,-122.3035,60.0,0.7833333333333333
2026-02-06T21:23:55+00:00,SAT-57634,227.6927071942707,31.278498690265042,983.4537308006976,-4.321279658833268,151349.4926471743,10.5,10500151349.492647,47.655,-122.3035,60.0,0.8
2026-02-06T21:23:56+00:00,SAT-57634,227.37261936457756,31.477405330842927,979.1440358962928,-4.291138149098237,150293.80947779375,10.5,10500150293.809477,47.655,-122.3035,60.0,0.8166666666666667
2026-02-06T21:23:57+00:00,SAT-57634,227.0482960702066,31.676891103950148,974.8644016963954,-4.260593237910415,149223.99748315001,10.5,10500149223.997482,47.655,-122.3035,60.0,0.8333333333333334
2026-02-06T21:23:58+00:00,SAT-57634,226.71967447496425,31.876930812854773,970.615230520994,-4.229640748222962,148139.91036539382,10.5,10500148139.910366,47.655,-122.3035,60.0,0.85
2026-02-06T21:23:59+00:00,SAT-57634,226.3866912130854,32.07749802184452,966.3969288559263,-4.198276554791621,147041.40364102164,10.5,10500147041.40364,47.655,-122.3035,60.0,0.8666666666666667
2026-02-06T21:24:00+00:00,SAT-57634,226.04928241904193,32.27856502211524,962.2099073012162,-4.166496534776909,145928.33291075504,10.5,10500145928.33291,47.655,-122.3035,60.0,0.8833333333333333
2026-02-06T21:24:01+00:00,SAT-57634,225.70738376461946,32.480102794900944,958.0545805686723,-4.134296664061031,144800.5572329669,10.5,10500144800.557234,47.655,-122.3035,60.0,0.9
2026-02-06T21:24:02+00:00,SAT-57634,225.36093049163298,32.68208097885993,953.9313673834346,-4.101672930443817,143657.9360834357,10.5,10500143657.936083,47.655,-122.3035,60.0,0.9166666666666666
2026-02-06T21:24:03+00:00,SAT-57634,225.0098574553598,32.884467833013986,949.8406904720867,-4.0686213973649705,142500.33158716818,10.5,10500142500.331587,47.655,-122.3035,60.0,0.9333333333333333
2026-02-06T21:24:04+00:00,SAT-57634,224.6540991665582,33.08723020253101,945.7829764872181,-4.035138185620101,141327.60787801762,10.5,10500141327.607878,47.655,-122.3035,60.0,0.95
2026-02-06T21:24:05+00:00,SAT-57634,224.29358983896452,33.29033348347198,941.7586559502246,-4.001219500784767,140139.63205918964,10.5,10500140139.63206,47.655,-122.3035,60.0,0.9666666666666667
2026-02-06T21:24:06+00:00,SAT-57634,223.92826343860241,33.4937415888356,937.7681631667531,-3.9668615860929783,138936.27255284812,10.5,10500138936.272552,47.655,-122.3035,60.0,0.9833333333333333
2026-02-06T21:24:07+00:00,SAT-57634,223.55805374177552,33.69741691221358,933.8119361891454,-3.9320608133799433,137717.402285315,10.5,10500137717.402285,47.655,-122.3035,60.0,1.0
2026-02-06T21:24:08+00:00,SAT-57634,223.18289438935335,33.901320296157095,929.890416688182,-3.8968136069812456,136482.89602169738,10.5,10500136482.89602,47.655,-122.3035,60.0,1.0166666666666666
2026-02-06T21:24:09+00:00,SAT-57634,222.80271895287902,34.105410996863135,926.0040499007207,-3.861116481443508,135232.63168667452,10.5,10500135232.631687,47.655,-122.3035,60.0,1.0333333333333334
2026-02-06T21:24:10+00:00,SAT-57634,222.4174610023681,34.309646651040175,922.1532845397301,-3.8249660949847977,133966.49223690736,10.5,10500133966.492237,47.655,-122.3035,60.0,1.05
2026-02-06T21:24:11+00:00,SAT-57634,222.02705417387534,34.51398324602505,918.3385726510003,-3.7883591586945524,132684.362480836,10.5,10500132684.36248,47.655,-122.3035,60.0,1.0666666666666667
2026-02-06T21:24:12+00:00,SAT-57634,221.631432251646,34.71837508562428,914.5603695604168,-3.751292530137882,131386.13235709805,10.5,10500131386.132357,47.655,-122.3035,60.0,1.0833333333333333
2026-02-06T21:24:13+00:00,SAT-57634,221.23052924656605,34.92277476154473,910.8191337278739,-3.7137631685158454,130071.69536405207,10.5,10500130071.695364,47.655,-122.3035,60.0,1.1
2026-02-06T21:24:14+00:00,SAT-57634,220.82427948505182,35.127133123219025,907.1153266459137,-3.6757681765383126,128740.95002634217,10.5,10500128740.950026,47.655,-122.3035,60.0,1.1166666666666667
2026-02-06T21:24:15+00:00,SAT-57634,220.41261769964348,35.33139925081894,903.4494126966006,-3.637304791906075,127393.79959656553,10.5,10500127393.799597,47.655,-122.3035,60.0,1.1333333333333333
2026-02-06T21:24:16+00:00,SAT-57634,219.9954791266954,35.535520428898266,899.8218590168934,-3.5983703820101134,126030.15186961838,10.5,10500126030.151869,47.655,-122.3035,60.0,1.15
2026-02-06T21:24:17+00:00,SAT-57634,219.5727996112899,35.739442120956554,896.2331353693025,-3.5589624624723406,124649.91983207122,10.5,10500124649.919832,47.655,-122.3035,60.0,1.1666666666666667
2026-02-06T21:24:18+00:00,SAT-57634,219.14451571683995,35.94310794641238,892.6837139940551,-3.5190787338367886,123253.02294724934,10.5,10500123253.022947,47.655,-122.3035,60.0,1.1833333333333333
2026-02-06T21:24:19+00:00,SAT-57634,218.71056483712906,36.14645966126084,889.1740694246707,-3.4787170325819186,121839.38543947674,10.5,10500121839.385439,47.655,-122.3035,60.0,1.2
2026-02-06T21:24:20+00:00,SAT-57634,218.27088532127428,36.34943713769977,885.7046783523903,-3.43787538700904,120408.93825152506,10.5,10500120408.938251,47.655,-122.3035,60.0,1.2166666666666666
2026-02-06T21:24:21+00:00,SAT-57634,217.82541659920147,36.5519783489015,882.2760194348672,-3.3965519927813186,118961.61818788598,10.5,10500118961.618187,47.655,-122.3035,60.0,1.2333333333333334
2026-02-06T21:24:22+00:00,SAT-57634,217.37409931753334,36.75401935452562,878.8885731292543,-3.35474525360422,117497.36933957261,10.5,10500117497.369339,47.655,-122.3035,60.0,1.25
2026-02-06T21:24:23+00:00,SAT-57634,216.91687547772003,36.955494290985676,875.5428214847202,-3.3124537600380886,116016.14234204628,10.5,10500116016.142342,47.655,-122.3035,60.0,1.2666666666666666
2026-02-06T21:24:24+00:00,SAT-57634,216.45368858451113,37.15633536305441,872.239247956094,-3.2696763122454207,114517.8951719223,10.5,10500114517.895172,47.655,-122.3035,60.0,1.2833333333333334
2026-02-06T21:24:25+00:00,SAT-57634,215.9844837991536,37.35647283961691,868.9783371948263,-3.22641192831564,113002.59343853881,10.5,10500113002.59344,47.655,-122.3035,60.0,1.3
2026-02-06T21:24:26+00:00,SAT-57634,215.50920809912122,37.55583505297398,865.7605748316456,-3.1826598366444645,111470.21011704997,10.5,10500111470.210117,47.655,-122.3035,60.0,1.3166666666666667
2026-02-06T21:24:27+00:00,SAT-57634,215.02781044682524,37.75434840093292,862.5864472668161,-3.1384195244976096,109920.72724933227,10.5,10500109920.72725,47.655,-122.3035,60.0,1.3333333333333333
2026-02-06T21:24:28+00:00,SAT-57634,214.54024195887098,37.951937355425855,859.456441411962,-3.093690695333922,108354.13444926018,10.5,10500108354.134449,47.655,-122.3035,60.0,1.35
2026-02-06T21:24:29+00:00,SAT-57634,214.04645608938864,38.14852447224586,856.3710444744529,-3.0484733035223823,106770.43011864231,10.5,10500106770.430119,47.655,-122.3035,60.0,1.3666666666666667
2026-02-06T21:24:30+00:00,SAT-57634,213.54640881599298,38.34403040692908,853.330743707168,-3.002767572172612,105169.62207172145,10.5,10500105169.622072,47.655,-122.3035,60.0,1.3833333333333333
2026-02-06T21:24:31+00:00,SAT-57634,213.04005883020585,38.53837393605838,850.3360261404746,-2.956573993270696,103551.72753993134,10.5,10500103551.72754,47.655,-122.3035,60.0,1.4
2026-02-06T21:24:32+00:00,SAT-57634,212.5273677350666,38.73147198312016,847.3873783140724,-2.9098932970844817,101916.77210034103,10.5,10500101916.7721,47.655,-122.3035,60.0,1.4166666666666667
2026-02-06T21:24:33+00:00,SAT-57634,212.00830025539656,38.923239647107415,844.4852860393521,-2.8627265459186875,100264.7929593553,10.5,10500100264.79296,47.655,-122.3035,60.0,1.4333333333333333
2026-02-06T21:24:34+00:00,SAT-57634,211.48282443856053,39.11359024227522,841.630234068247,-2.815075053041274,98595.83611317325,10.5,10500098595.836113,47.655,-122.3035,60.0,1.45
2026-02-06T21:24:35+00:00,SAT-57634,210.95091187591623,39.30243533787423,838.8227058429424,-2.766940446096183,96909.95856877069,10.5,10500096909.958569,47.655,-122.3035,60.0,1.4666666666666666
2026-02-06T21:24:36+00:00,SAT-57634,210.41253791913113,39.48968480756583,836.0631831823443,-2.718324644785377,95207.2275622306,10.5,10500095207.227562,47.655,-122.3035,60.0,1.4833333333333334
2026-02-06T21:24:37+00:00,SAT-57634,209.8676819062433,39.675246883116806,833.352145990803,-2.669229897206931,93487.72183145708,10.5,10500093487.721832,47.655,-122.3035,60.0,1.5
2026-02-06T21:24:38+00:00,SAT-57634,209.3163273857253,39.85902821653677,830.6900719305967,-2.619658750884093,91751.53060149023,10.5,10500091751.530602,47.655,-122.3035,60.0,1.5166666666666666
2026-02-06T21:24:39+00:00,SAT-57634,208.7584623508373,40.04093394645264,828.0774361233108,-2.569614097227778,89998.755141771,10.5,10500089998.755142,47.655,-122.3035,60.0,1.5333333333333334
2026-02-06T21:24:40+00:00,SAT-57634,208.19407946866298,40.220867773936504,825.5147108068709,-2.519099140479262,88229.5076783828,10.5,10500088229.507679,47.655,-122.3035,60.0,1.55
2026-02-06T21:24:41+00:00,SAT-57634,207.62317631876545,40.398732042791686,823.0023650235515,-2.468117438965808,86443.91283899805,10.5,10500086443.91284,47.655,-122.3035,60.0,1.5666666666666667
2026-02-06T21:24:42+00:00,SAT-57634,207.04575562500895,40.57442782948199,820.5408642668394,-2.4166728844828254,84642.10693075431,10.5,10500084642.106932,47.655,-122.3035,60.0,1.5833333333333333
2026-02-06T21:24:43+00:00,SAT-57634,206.46182549319906,40.74785503854097,818.1306701488593,-2.3647697204312172,82824.23857550073,10.5,10500082824.238575,47.655,-122.3035,60.0,1.6
2026-02-06T21:24:44+00:00,SAT-57634,205.87139964479496,40.918912506307436,815.7722400497103,-2.312412542778932,80990.46874347582,10.5,10500080990.468744,47.655,-122.3035,60.0,1.6166666666666667
2026-02-06T21:24:45+00:00,SAT-57634,205.27449764954025,41.087498111879,813.4660267658454,-2.2596063080872817,79140.97103442295,10.5,10500079140.971035,47.655,-122.3035,60.0,1.6333333333333333
2026-02-06T21:24:46+00:00,SAT-57634,204.67114515389935,41.25350889586551,811.2124781504446,-2.2063563278836718,77275.9314804996,10.5,10500077275.93148,47.655,-122.3035,60.0,1.65
2026-02-06T21:24:47+00:00,SAT-57634,204.0613741077716,41.416841185985355,809.0120367593988,-2.1526682816835945,75395.54900236263,10.5,10500075395.549002,47.655,-122.3035,60.0,1.6666666666666667
2026-02-06T21:24:48+00:00,SAT-57634,203.44522298309874,41.57739073086895,806.8651394843101,-2.098548229224749,73500.03583765894,10.5,10500073500.035837,47.655,-122.3035,60.0,1.6833333333333333
2026-02-06T21:24:49+00:00,SAT-57634,202.82273698260317,41.735052842018554,804.7722171732885,-2.0440025768225083,71589.61636265158,10.5,10500071589.616364,47.655,-122.3035,60.0,1.7
2026-02-06T21:24:50+00:00,SAT-57634,202.19396825070706,41.889722540400314,802.7336942853019,-1.9890381243097353,69664.52873625066,10.5,10500069664.528736,47.655,-122.3035,60.0,1.7166666666666666
2026-02-06T21:24:51+00:00,SAT-57634,201.55897606152448,42.04129471359082,800.7499884977165,-1.9336620302638765,67725.02368211912,10.5,10500067725.023682,47.655,-122.3035,60.0,1.7333333333333334
2026-02-06T21:24:52+00:00,SAT-57634,200.91782700633678,42.18966427717903,798.8215103485102,-1.877881832102989,65771.36519252058,10.5,10500065771.365192,47.655,-122.3035,60.0,1.75
2026-02-06T21:24:53+00:00,SAT-57634,200.2705951624287,42.33472634436248,796.9486628584511,-1.8217054449397059,63803.83048818029,10.5,10500063803.830488,47.655,-122.3035,60.0,1.7666666666666666
2026-02-06T21:24:54+00:00,SAT-57634,199.61736224763513,42.4763764018683,795.1318411544141,-1.7651411462415072,61822.709481023114,10.5,10500061822.70948,47.655,-122.3035,60.0,1.7833333333333334
2026-02-06T21:24:55+00:00,SAT-57634,198.95821776418492,42.61451049079723,793.3714321079962,-1.7081975863126317,59828.30514129422,10.5,10500059828.305141,47.655,-122.3035,60.0,1.8
2026-02-06T21:24:56+00:00,SAT-57634,198.29325912122385,42.749025394009166,791.6678139636813,-1.650883797910735,57820.93383437524,10.5,10500057820.933834,47.655,-122.3035,60.0,1.8166666666666667
2026-02-06T21:24:57+00:00,SAT-57634,197.62259173328528,42.87981882961534,790.0213559574108,-1.5932091592871154,55800.9240262966,10.5,10500055800.924026,47.655,-122.3035,60.0,1.8333333333333333
2026-02-06T21:24:58+00:00,SAT-57634,196.94632911155338,43.00678964643093,788.4324179720168,-1.5351834125152795,53768.61692568142,10.5,10500053768.616926,47.655,-122.3035,60.0,1.85
2026-02-06T21:24:59+00:00,SAT-57634,196.2645929252171,43.12983802520008,786.9013501743751,-1.476816668127684,51724.366646143855,10.5,10500051724.366646,47.655,-122.3035,60.0,1.8666666666666667
2026-02-06T21:25:00+00:00,SAT-57634,195.5775130348824,43.24886568399685,785.4284926479341,-1.4181193830282526,49668.53943269197,10.5,10500049668.539433,47.655,-122.3035,60.0,1.8833333333333333
2026-02-06T21:25:01+00:00,SAT-57634,194.88522750811424,43.36377608503075,784.0141750472711,-1.3591023516198724,47601.513350975154,10.5,10500047601.513351,47.655,-122.3035,60.0,1.9
2026-02-06T21:25:02+00:00,SAT-57634,194.18788261100696,43.47447464322443,782.6587162614999,-1.299776710532746,45523.67845289101,10.5,10500045523.678453,47.655,-122.3035,60.0,1.9166666666666667
2026-02-06T21:25:03+00:00,SAT-57634,193.4856327672934,43.58086893695353,781.3624240729592,-1.2401539288096501,43435.436432831564,10.5,10500043435.436432,47.655,-122.3035,60.0,1.9333333333333333
2026-02-06T21:25:04+00:00,SAT-57634,192.77864048994275,43.68286891902545,780.1255948256912,-1.180245800208313,41337.20035808001,10.5,10500041337.200357,47.655,-122.3035,60.0,1.95
2026-02-06T21:25:05+00:00,SAT-57634,192.0670762827348,43.780387127271545,778.9485131015994,-1.1200644237353246,39229.39398702587,10.5,10500039229.393988,47.655,-122.3035,60.0,1.9666666666666666
2026-02-06T21:25:06+00:00,SAT-57634,191.35111851815694,43.87333889294185,777.831451416015,-1.0596221997597826,37112.45163304848,10.5,10500037112.451633,47.655,-122.3035,60.0,1.9833333333333334
2026-02-06T21:25:07+00:00,SAT-57634,190.63095328206103,43.961642547321354,776.774669917145,-0.9989318261410368,34986.81802889413,10.5,10500034986.81803,47.655,-122.3035,60.0,2.0
2026-02-06T21:25:08+00:00,SAT-57634,189.906774182892,44.04521962568887,775.7784160893775,-0.9380062834307291,32852.94780838901,10.5,10500032852.94781,47.655,-122.3035,60.0,2.0166666666666666
2026-02-06T21:25:09+00:00,SAT-57634,189.17878213096319,44.12399506682724,774.8429244713476,-0.8768588065648234,30711.304514974312,10.5,10500030711.304516,47.655,-122.3035,60.0,2.033333333333333
2026-02-06T21:25:10+00:00,SAT-57634,188.44718509980368,44.19789740600706,773.9684164022367,-0.8155029002250574,28562.36113972922,10.5,10500028562.36114,47.655,-122.3035,60.0,2.05
2026-02-06T21:25:11+00:00,SAT-57634,187.71219783514866,44.266858964203884,773.1550997527478,-0.7539523007317349,26406.59878669535,10.5,10500026406.598787,47.655,-122.3035,60.0,2.066666666666667
2026-02-06T21:25:12+00:00,SAT-57634,186.97404155292745,44.33081602813772,772.4031686940889,-0.6922209746926229,24244.50662555541,10.5,10500024244.506626,47.655,-122.3035,60.0,2.0833333333333335
2026-02-06T21:25:13+00:00,SAT-57634,186.23294359774602,44.38970902332827,771.712803468303,-0.6303231019830541,22076.581295524345,10.5,10500022076.581295,47.655,-122.3035,60.0,2.1
2026-02-06T21:25:14+00:00,SAT-57634,185.48913707400544,44.443482677957405,771.0841701755718,-0.5682730581888379,19903.326290425885,10.5,10500019903.32629,47.655,-122.3035,60.0,2.1166666666666667
2026-02-06T21:25:15+00:00,SAT-57634,184.74286045187398,44.49208617663632,770.5174205790302,-0.5060853966239219,17725.251328874925,10.5,10500017725.25133,47.655,-122.3035,60.0,2.1333333333333333
2026-02-06T21:25:16+00:00,SAT-57634,183.99435715119543,44.53547330322132,770.012691927515,-0.4437748407865041,15542.872090058692,10.5,10500015542.87209,47.655,-122.3035,60.0,2.15
2026-02-06T21:25:17+00:00,SAT-57634,183.2438750889877,44.57360257279302,769.5701067858357,-0.38135625829828496,13356.70930097912,10.5,10500013356.709301,47.655,-122.3035,60.0,2.1666666666666665
2026-02-06T21:25:18+00:00,SAT-57634,182.49166621610604,44.60643735048667,769.1897728910386,-0.31884464541532764,11167.288193957636,10.5,10500011167.288195,47.655,-122.3035,60.0,2.183333333333333
2026-02-06T21:25:19+00:00,SAT-57634,181.73798603401963,44.63394595741696,768.871783024117,-0.25625511484958674,8975.138080093599,10.5,10500008975.13808,47.655,-122.3035,60.0,2.2
2026-02-06T21:25:20+00:00,SAT-57634,180.9830930814092,44.65610176337709,768.6162148938676,-0.19360287136699064,6780.791494605918,10.5,10500006780.791494,47.655,-122.3035,60.0,2.216666666666667
2026-02-06T21:25:21+00:00,SAT-57634,180.2272484172585,44.67288326473307,768.4231310450812,-0.1309031955083999,4584.783626672152,10.5,10500004584.783627,47.655,-122.3035,60.0,2.2333333333333334
2026-02-06T21:25:22+00:00,SAT-57634,179.4707150908029,44.68427414776022,768.2925787829753,-0.06817142759504174,2387.6517592311757,10.5,10500002387.65176,47.655,-122.3035,60.0,2.25
2026-02-06T21:25:23+00:00,SAT-57634,178.713757588741,44.69026333708059,768.2245901135701,-0.005422945470898326,189.93448942745727,10.5,10500000189.93449,47.655,-122.3035,60.0,2.2666666666666666
2026-02-06T21:25:24+00:00,SAT-57634,177.95664128982273,44.690845028369026,768.2191817062676,0.05732685169667142,-2007.8288387596792,10.5,10499997992.171162,47.655,-122.3035,60.0,2.283333333333333
2026-02-06T21:25:25+00:00,SAT-57634,177.1996319093057,44.68601870567118,768.2763548725861,0.12006256382779996,-4205.098849391,10.5,10499995794.90115,47.655,-122.3035,60.0,2.3
2026-02-06T21:25:26+00:00,SAT-57634,176.4429949319125,44.67578914285456,768.3960955652489,0.18276880742024038,-6401.336747145667,10.5,10499993598.663254,47.655,-122.3035,60.0,2.316666666666667
2026-02-06T21:25:27+00:00,SAT-57634,175.68699506548273,44.66016638944532,768.5783743947186,0.24543023546052747,-8596.005014694327,10.5,10499991403.994986,47.655,-122.3035,60.0,2.3333333333333335
2026-02-06T21:25:28+00:00,SAT-57634,174.9318956813642,44.63916574071941,768.8231466655873,0.30803155430373524,-10788.568003899616,10.5,10499989211.431995,47.655,-122.3035,60.0,2.35
2026-02-06T21:25:29+00:00,SAT-57634,174.17795827300054,44.61280769248933,769.1303524298021,0.37055754579056543,-12978.492710450164,10.5,10499987021.50729,47.655,-122.3035,60.0,2.3666666666666667
2026-02-06T21:25:30+00:00,SAT-57634,173.42544191329105,44.581117880402985,769.4999165619494,0.4329930804284091,-15165.249235517113,10.5,10499984834.750765,47.655,-122.3035,60.0,2.3833333333333333
2026-02-06T21:25:31+00:00,SAT-57634,172.6746027378851,44.54412700486554,769.9317488476823,0.49532314176213577,-17348.311639322248,10.5,10499982651.68836,47.655,-122.3035,60.0,2.4
2026-02-06T21:25:32+00:00,SAT-57634,171.92569342962096,44.501870741078086,770.425744096456,0.5575328334419059,-19527.158188682686,10.5,10499980472.841812,47.655,-122.3035,60.0,2.4166666666666665
2026-02-06T21:25:33+00:00,SAT-57634,171.17896273838156,44.45438963616777,770.9817822613109,0.6196074142466271,-21701.27258368049,10.5,10499978298.727417,47.655,-122.3035,60.0,2.433333333333333
2026-02-06T21:25:34+00:00,SAT-57634,170.43465499438167,44.40172899162852,771.5997285935858,0.6815322950759307,-23870.143852308895,10.5,10499976129.856148,47.655,-122.3035,60.0,2.45
2026-02-06T21:25:35+00:00,SAT-57634,169.69300967231788,44.34393873495935,772.2794337946302,0.7432930698837276,-26033.267433896348,10.5,10499973966.732567,47.655,-122.3035,60.0,2.466666666666667
2026-02-06T21:25:36+00:00,SAT-57634,168.9542609590502,44.28107327832859,773.0207341983679,0.8048755226675022,-28190.145423901136,10.5,10499971809.854576,47.655,-122.3035,60.0,2.4833333333333334
2026-02-06T21:25:37+00:00,SAT-57634,168.21863735789415,44.21319136706232,773.8234519608319,0.8662656535032675,-30340.2874857656,10.5,10499969659.712515,47.655,-122.3035,60.0,2.5
2026-02-06T21:25:38+00:00,SAT-57634,167.48636130952494,44.14035591716748,774.6873952756629,0.9274496803743932,-32483.210914969477,10.5,10499967516.789085,47.655,-122.3035,60.0,2.5166666666666666
2026-02-06T21:25:39+00:00,SAT-57634,166.75764885353976,44.06263384477136,775.6123585914321,0.9884140633765897,-34618.44148679081,10.5,10499965381.558514,47.655,-122.3035,60.0,2.533333333333333
2026-02-06T21:25:40+00:00,SAT-57634,166.0327093098897,43.9800958864811,776.598122853106,1.0491455145990967,-36745.513802386966,10.5,10499963254.486198,47.655,-122.3035,60.0,2.55
2026-02-06T21:25:41+00:00,SAT-57634,165.3117449939712,43.892816412759615,777.6444557533626,1.1096310096301447,-38863.97169176457,10.5,10499961136.028309,47.655,-122.3035,60.0,2.566666666666667
2026-02-06T21:25:42+00:00,SAT-57634,164.5949509630209,43.80087323510116,778.751111995385,1.1698578108974558,-40973.36903126257,10.5,10499959026.630968,47.655,-122.3035,60.0,2.5833333333333335
2026-02-06T21:25:43+00:00,SAT-57634,163.88251478641874,43.70434740694256,779.9178335789319,1.2298134549147215,-43073.26929686995,10.5,10499956926.730703,47.655,-122.3035,60.0,2.6
2026-02-06T21:25:44+00:00,SAT-57634,163.17461636232719,43.60332302221064,781.1443500736882,1.2894857921655487,-45163.24696113023,10.5,10499954836.753038,47.655,-122.3035,60.0,2.6166666666666667
2026-02-06T21:25:45+00:00,SAT-57634,162.47142774675308,43.49788700806586,782.4303789323942,1.3488629769318203,-47242.8871368876,10.5,10499952757.112864,47.655,-122.3035,60.0,2.6333333333333333
2026-02-06T21:25:46+00:00,SAT-57634,161.77311302577203,43.388128916859806,783.7756257938279,1.407933490484273,-49311.78638951907,10.5,10499950688.21361,47.655,-122.3035,60.0,2.65
2026-02-06T21:25:47+00:00,SAT-57634,161.07982820987212,43.27414071543862,785.179784808919,1.466686131124311,-51369.55238815669,10.5,10499948630.447613,47.655,-122.3035,60.0,2.6666666666666665
2026-02-06T21:25:48+00:00,SAT-57634,160.3917211669861,43.15601657532443,786.6425389569284,1.525110045370658,-53415.804997976,10.5,10499946584.195002,47.655,-122.3035,60.0,2.683333333333333
2026-02-06T21:25:49+00:00,SAT-57634,159.70893157208647,43.03385266124501,788.1635603927326,1.5831947166623952,-55450.17588452859,10.5,10499944549.824116,47.655,-122.3035,60.0,2.7
2026-02-06T21:25:50+00:00,SAT-57634,159.0315908932797,42.90774692222047,789.7425107828407,1.6409299861844084,-57472.309243137424,10.5,10499942527.690758,47.655,-122.3035,60.0,2.716666666666667
2026-02-06T21:25:51+00:00,SAT-57634,158.3598223974484,42.777798883342584,791.3790416621804,1.6983060370399008,-59481.86124455125,10.5,10499940518.138756,47.655,-122.3035,60.0,2.7333333333333334
2026-02-06T21:25:52+00:00,SAT-57634,157.693741189823,42.64410944184754,793.0727947751013,1.7553134281226037,-61478.501221292696,10.5,10499938521.49878,47.655,-122.3035,60.0,2.75
2026-02-06T21:25:53+00:00,SAT-57634,157.03345426507087,42.506780664167756,794.8234024501562,1.8119430680600983,-63461.91075504318,10.5,10499936538.089245,47.655,-122.3035,60.0,2.7666666666666666
2026-02-06T21:25:54+00:00,SAT-57634,156.3790605926635,42.36591558928636,796.630487948899,1.8681862515854482,-65431.784950531364,10.5,10499934568.21505,47.655,-122.3035,60.0,2.783333333333333
2026-02-06T21:25:55+00:00,SAT-57634,155.7306512103896,42.22161803401672,798.4936658509537,1.9240346215707729,-67387.83110578825,10.5,10499932612.168894,47.655,-122.3035,60.0,2.8
2026-02-06T21:25:56+00:00,SAT-57634,155.08830935181155,42.07399240647769,800.412542401221,1.9794802102686435,-69329.77015659533,10.5,10499930670.229843,47.655,-122.3035,60.0,2.816666666666667
2026-02-06T21:25:57+00:00,SAT-57634,154.4521105772134,41.92314352204111,802.3867158982141,2.034515414755287,-71257.33581640173,10.5,10499928742.664183,47.655,-122.3035,60.0,2.8333333333333335
2026-02-06T21:25:58+00:00,SAT-57634,153.82212292973958,41.76917642721435,804.4157770579055,2.089133007541704,-73170.27494797048,10.5,10499926829.725052,47.655,-122.3035,60.0,2.85
2026-02-06T21:25:59+00:00,SAT-57634,153.19840710248047,41.61219622906065,806.4993093881544,2.1433261334810285,-75068.34745506107,10.5,10499924931.652544,47.655,-122.3035,60.0,2.8666666666666667
2026-02-06T21:26:00+00:00,SAT-57634,152.58101661949712,41.45230793147663,808.6368895600503,2.1970883122289435,-76951.32636860367,10.5,10499923048.673632,47.655,-122.3035,60.0,2.8833333333333333
2026-02-06T21:26:01+00:00,SAT-57634,151.96999802733822,41.28961627812392,810.8280877817126,2.250413427433974,-78818.9974680975,10.5,10499921181.002531,47.655,-122.3035,60.0,2.9
2026-02-06T21:26:02+00:00,SAT-57634,151.3653910991834,41.12422560317899,813.0724681613046,2.303295731528604,-80671.15944941597,10.5,10499919328.840551,47.655,-122.3035,60.0,2.9166666666666665
2026-02-06T21:26:03+00:00,SAT-57634,150.7672290453785,40.95623968884386,815.3695890748319,2.3557298641448705,-82507.62456979869,10.5,10499917492.375431,47.655,-122.3035,60.0,2.933333333333333
2026-02-06T21:26:04+00:00,SAT-57634,150.1755387259943,40.785761628757655,817.7190035523018,2.4077107894464227,-84328.21645295505,10.5,10499915671.783546,47.655,-122.3035,60.0,2.95
2026-02-06T21:26:05+00:00,SAT-57634,149.59034088448533,40.61289370322154,820.1202596013857,2.4592338622845027,-86132.77240612663,10.5,10499913867.227594,47.655,-122.3035,60.0,2.966666666666667
2026-02-06T21:26:06+00:00,SAT-57634,149.0116503678951,40.437737256869646,822.5729005970599,2.510294770802656,-87921.14140986124,10.5,10499912078.858591,47.655,-122.3035,60.0,2.9833333333333334
2026-02-06T21:26:07+00:00,SAT-57634,148.43947636388884,40.26039258772715,825.0764656140025,2.5608895678868944,-89693.18521953074,10.5,10499910306.814781,47.655,-122.3035,60.0,3.0
2026-02-06T21:26:08+00:00,SAT-57634,147.8738226312083,40.0809588411662,827.6304897903608,2.611014644079744,-91448.77741666642,10.5,10499908551.222584,47.655,-122.3035,60.0,3.0166666666666666
2026-02-06T21:26:09+00:00,SAT-57634,147.31468773661805,39.89953391287482,830.2345046644998,2.6606667236571675,-93187.80327155614,10.5,10499906812.196728,47.655,-122.3035,60.0,3.033333333333333
2026-02-06T21:26:10+00:00,SAT-57634,146.76206529143548,39.71621435902311,832.8880385078429,2.709842865857567,-94910.15978628941,10.5,10499905089.840214,47.655,-122.3035,60.0,3.05
2026-02-06T21:26:11+00:00,SAT-57634,146.21594418576518,39.53109531314445,835.5906166589358,2.758540470240075,-96615.75588242713,10.5,10499903384.244118,47.655,-122.3035,60.0,3.066666666666667
2026-02-06T21:26:12+00:00,SAT-57634,145.67630881905077,39.34427040930665,838.3417618628534,2.8067572398586917,-98304.51111120434,10.5,10499901695.48889,47.655,-122.3035,60.0,3.0833333333333335
2026-02-06T21:26:13+00:00,SAT-57634,145.14313933448207,39.155831714256436,841.1409945738844,2.854491180073179,-99976.3556118826,10.5,10499900023.644388,47.655,-122.3035,60.0,3.1
2026-02-06T21:26:14+00:00,SAT-57634,144.6164118488252,38.96586966584305,843.9878332570237,2.901740636091766,-101631.23142665433,10.5,10499898368.768574,47.655,-122.3035,60.0,3.1166666666666667
2026-02-06T21:26:15+00:00,SAT-57634,144.09609867043116,38.77447301498322,846.8817947269104,2.948504229788629,-103269.09028772365,10.5,10499896730.909712,47.655,-122.3035,60.0,3.1333333333333333
2026-02-06T21:26:16+00:00,SAT-57634,143.58216852376674,38.58172877767758,849.8223944237524,2.9947808647482272,-104889.89379398058,10.5,10499895110.106207,47.655,-122.3035,60.0,3.15
2026-02-06T21:26:17+00:00,SAT-57634,143.07458676653403,38.38772219220332,852.8091466942823,3.040569740547295,-106493.61391121653,10.5,10499893506.38609,47.655,-122.3035,60.0,3.1666666666666665
2026-02-06T21:26:18+00:00,SAT-57634,142.57331559789375,38.19253668070225,855.8415650869537,3.0858703336060116,-108080.23230145143,10.5,10499891919.767698,47.655,-122.3035,60.0,3.183333333333333
2026-02-06T21:26:19+00:00,SAT-57634,142.07831426344634,37.996253817118166,858.9191626280455,3.130682382479865,-109649.73980779258,10.5,10499890350.260193,47.655,-122.3035,60.0,3.2
2026-02-06T21:26:20+00:00,SAT-57634,141.5895392555383,37.79895330089704,862.0414520830919,3.1750058807453376,-111202.13620526118,10.5,10499888797.863794,47.655,-122.3035,60.0,3.216666666666667
2026-02-06T21:26:21+00:00,SAT-57634,141.10694450733104,37.600712935700365,865.2079462112218,3.2188410668412306,-112737.4298449927,10.5,10499887262.570154,47.655,-122.3035,60.0,3.2333333333333334
2026-02-06T21:26:22+00:00,SAT-57634,140.63048158086235,37.401608613055664,868.4181580093631,3.262188436971981,-114255.63810616544,10.5,10499885744.361895,47.655,-122.3035,60.0,3.25
2026-02-06T21:26:23+00:00,SAT-57634,140.1600998456368,37.20171429928135,871.6716009693174,3.3050487306237786,-115756.78688871377,10.5,10499884243.213112,47.655,-122.3035,60.0,3.2666666666666666
2026-02-06T21:26:24+00:00,SAT-57634,139.69574665195123,37.00110202716274,874.9677893203911,3.347422860082999,-117240.90814476556,10.5,10499882759.091856,47.655,-122.3035,60.0,3.283333333333333
2026-02-06T21:26:25+00:00,SAT-57634,139.23736750631292,36.79984189545763,878.3062382017305,3.389312011981433,-118708.04343518558,10.5,10499881291.956564,47.655,-122.3035,60.0,3.3
2026-02-06T21:26:26+00:00,SAT-57634,138.78490622461956,36.59800206553654,881.6864639359334,3.430717555251209,-120158.2407057675,10.5,10499879841.759295,47.655,-122.3035,60.0,3.316666666666667
2026-02-06T21:26:27+00:00,SAT-57634,138.3383050907476,36.39564876671978,885.1079842108578,3.4716410528259174,-121591.5546970569,10.5,10499878408.445303,47.655,-122.3035,60.0,3.3333333333333335
2026-02-06T21:26:28+00:00,SAT-57634,137.89750500549357,36.192846303706595,888.5703182731074,3.512084277177904,-123008.04748853286,10.5,10499876991.95251,47.655,-122.3035,60.0,3.35
2026-02-06T21:26:29+00:00,SAT-57634,137.46244562596655,35.98965706573001,892.0729871370058,3.5520491753563097,-124407.7872740923,10.5,10499875592.212727,47.655,-122.3035,60.0,3.3666666666666667
2026-02-06T21:26:30+00:00,SAT-57634,137.0330655020398,35.78614154018243,895.615513758706,3.5915378636403417,-125790.84817478493,10.5,10499874209.151825,47.655,-122.3035,60.0,3.3833333333333333
2026-02-06T21:26:31+00:00,SAT-57634,136.60930220594136,35.58235832872362,899.197423204966,3.6305526315877548,-127157.31038060812,10.5,10499872842.68962,47.655,-122.3035,60.0,3.4
2026-02-06T21:26:32+00:00,SAT-57634,136.19109245408367,35.37836416514486,902.8182428259645,3.6690959379795096,-128507.26000847177,10.5,10499871492.739992,47.655,-122.3035,60.0,3.4166666666666665
2026-02-06T21:26:33+00:00,SAT-57634,135.77837222241826,35.17421393528736,906.4775024240698,3.707170370863029,-129840.78770274403,10.5,10499870159.212297,47.655,-122.3035,60.0,3.433333333333333
2026-02-06T21:26:34+00:00,SAT-57634,135.3710768594413,34.96996070081257,910.174734382758,3.7447786846233955,-131157.9899336415,10.5,10499868842.010067,47.655,-122.3035,60.0,3.45
2026-02-06T21:26:35+00:00,SAT-57634,134.96914118820786,34.76565572232351,913.9094738325076,3.781923763724161,-132458.96772727917,10.5,10499867541.032272,47.655,-122.3035,60.0,3.466666666666667
2026-02-06T21:26:36+00:00,SAT-57634,134.57249960598114,34.56134848579217,917.681258780527,3.818608598742245,-133743.82582631073,10.5,10499866256.174173,47.655,-122.3035,60.0,3.4833333333333334
2026-02-06T21:26:37+00:00,SAT-57634,134.18108617991552,34.35708673135195,921.4896302165836,3.8548363411987436,-135012.67461033593,10.5,10499864987.32539,47.655,-122.3035,60.0,3.5
2026-02-06T21:26:38+00:00,SAT-57634,133.7948347308821,34.15291648009044,925.3341322735192,3.890610238215084,-136265.62780728255,10.5,10499863734.372192,47.655,-122.3035,60.0,3.5166666666666666
2026-02-06T21:26:39+00:00,SAT-57634,133.41367891830072,33.94888206519455,929.2143123225896,3.9259336201327946,-137502.80205979812,10.5,10499862497.19794,47.655,-122.3035,60.0,3.533333333333333
2026-02-06T21:26:40+00:00,SAT-57634,133.03755232022252,33.745026164355664,933.1297210564658,3.9608099767144465,-138724.31959412963,10.5,10499861275.680407,47.655,-122.3035,60.0,3.55
2026-02-06T21:26:41+00:00,SAT-57634,132.66638850053445,33.5413898287567,937.0799126482244,3.995242833717402,-139930.30389721386,10.5,10499860069.696102,47.655,-122.3035,60.0,3.566666666666667
2026-02-06T21:26:42+00:00,SAT-57634,132.3001210829024,33.338012518920856,941.064444787248,4.029235835793355,-141120.88262016993,10.5,10499858879.11738,47.655,-122.3035,60.0,3.5833333333333335
2026-02-06T21:26:43+00:00,SAT-57634,131.93868381155932,33.134932136549565,945.0828787978002,4.062792699223764,-142296.18592289445,10.5,10499857703.814077,47.655,-122.3035,60.0,3.6
2026-02-06T21:26:44+00:00,SAT-57634,131.58201061176422,32.9321850590167,949.1347797104628,4.09591722975392,-143456.3470986857,10.5,10499856543.6529,47.655,-122.3035,60.0,3.6166666666666667
2026-02-06T21:26:45+00:00,SAT-57634,131.23003564400545,32.729806173074905,953.2197163513604,4.1286132785471885,-144601.50103157523,10.5,10499855398.498968,47.655,-122.3035,60.0,3.6333333333333333
2026-02-06T21:26:46+00:00,SAT-57634,130.88269335761544,32.527828910775156,957.3372613874562,4.16088479658943,-145731.7861018005,10.5,10499854268.213898,47.655,-122.3035,60.0,3.65
2026-02-06T21:26:47+00:00,SAT-57634,130.53991853545935,32.326285282641656,961.4869914261083,4.192735732050584,-146847.34059097353,10.5,10499853152.659409,47.655,-122.3035,60.0,3.6666666666666665
2026-02-06T21:26:48+00:00,SAT-57634,130.2016463432136,32.12520591571037,965.6684870122589,4.224170169772577,-147948.30756753747,10.5,10499852051.692432,47.655,-122.3035,60.0,3.683333333333333
2026-02-06T21:26:49+00:00,SAT-57634,129.86781236323324,31.924620084604562,969.8813327647416,4.255192181139933,-149034.82962860024,10.5,10499850965.170372,47.655,-122.3035,60.0,3.7
2026-02-06T21:26:50+00:00,SAT-57634,129.53835263717045,31.724555749599645,974.1251173628605,4.2858058961737875,-150107.05142497204,10.5,10499849892.948576,47.655,-122.3035,60.0,3.716666666666667
2026-02-06T21:26:51+00:00,SAT-57634,129.21320369910515,31.525039590848962,978.3994336048678,4.316015485088477,-151165.1190151989,10.5,10499848834.880985,47.655,-122.3035,60.0,3.7333333333333334
2026-02-06T21:26:52+00:00,SAT-57634,128.89230260690505,31.32609704311729,982.7038784480513,4.345825164865101,-152209.18009579665,10.5,10499847790.819904,47.655,-122.3035,60.0,3.75
2026-02-06T21:26:53+00:00,SAT-57634,128.5755869700271,31.127752329794994,987.038053055373,4.375239158876635,-153239.3825871519,10.5,10499846760.617413,47.655,-122.3035,60.0,3.7666666666666666
2026-02-06T21:26:54+00:00,SAT-57634,128.2629949773636,30.93002849828396,991.4015628018477,4.404261730554706,-154255.8758126744,10.5,10499845744.124187,47.655,-122.3035,60.0,3.783333333333333
2026-02-06T21:26:55+00:00,SAT-57634,127.95446541976618,30.73294745331452,995.7940173144909,4.43289716116589,-155258.80972042948,10.5,10499844741.190279,47.655,-122.3035,60.0,3.8
2026-02-06T21:26:56+00:00,SAT-57634,127.64993771158693,30.53652999073202,1000.2150304901074,4.461149744771584,-156248.33470661103,10.5,10499843751.665293,47.655,-122.3035,60.0,3.816666666666667
2026-02-06T21:26:57+00:00,SAT-57634,127.349351910065,30.340795830918758,1004.6642205080523,4.489023805024275,-157224.60220381824,10.5,10499842775.397797,47.655,-122.3035,60.0,3.8333333333333335
2026-02-06T21:26:58+00:00,SAT-57634,127.05264873122854,30.1457636508699,1009.1412098597403,4.516523651607018,-158187.7631553816,10.5,10499841812.236845,47.655,-122.3035,60.0,3.85
