DopplerPredictor/satellites_20260211_204923/SAT-52098.csv

timestamp,satellite,azimuth_deg,elevation_deg,distance_km,relative_velocity_kms,doppler_shift_hz,tx_freq_ghz,rx_freq_hz,ue_lat,ue_lon,ue_alt_m,time_minutes
2026-02-06T21:25:10+00:00,SAT-52098,319.7644392739014,30.01636354806546,988.6197064159215,-4.7825839504295065,167506.32025409333,10.5,10500167506.320253,47.655,-122.3035,60.0,2.05
2026-02-06T21:25:11+00:00,SAT-52098,320.04419545163415,30.226464818088793,983.8499439130665,-4.756504074297242,166592.89267417474,10.5,10500166592.892673,47.655,-122.3035,60.0,2.066666666666667
2026-02-06T21:25:12+00:00,SAT-52098,320.32783529437245,30.437661696313715,979.106191369795,-4.730037823426417,165665.9326165483,10.5,10500165665.932617,47.655,-122.3035,60.0,2.0833333333333335
2026-02-06T21:25:13+00:00,SAT-52098,320.6154281856207,30.649943174107182,974.3888341250279,-4.703179874475295,164725.25363526857,10.5,10500164725.253635,47.655,-122.3035,60.0,2.1
2026-02-06T21:25:14+00:00,SAT-52098,320.90704471917877,30.86329722799266,969.6982628267572,-4.675924869468613,163770.6680713777,10.5,10500163770.668072,47.655,-122.3035,60.0,2.1166666666666667
2026-02-06T21:25:15+00:00,SAT-52098,321.2027567039938,31.07771077719698,965.0348734665861,-4.648267460160974,162801.98860669878,10.5,10500162801.988607,47.655,-122.3035,60.0,2.1333333333333333
2026-02-06T21:25:16+00:00,SAT-52098,321.5026371701883,31.29316964191504,960.3990673700245,-4.620202261982865,161819.0266508308,10.5,10500161819.026651,47.655,-122.3035,60.0,2.15
2026-02-06T21:25:17+00:00,SAT-52098,321.80676037034834,31.509658498180208,955.7912512327182,-4.591723859489656,160821.59253199556,10.5,10500160821.592531,47.655,-122.3035,60.0,2.1666666666666665
2026-02-06T21:25:18+00:00,SAT-52098,322.11520177905425,31.72716083161237,951.211837151238,-4.562826883815571,159809.49820980316,10.5,10500159809.498209,47.655,-122.3035,60.0,2.183333333333333
2026-02-06T21:25:19+00:00,SAT-52098,322.42803809546876,31.945658893507233,946.661242576628,-4.533505918869526,158782.55398983395,10.5,10500158782.55399,47.655,-122.3035,60.0,2.2
2026-02-06T21:25:20+00:00,SAT-52098,322.74534723733257,32.165133651213814,942.1398903615029,-4.503755564164436,157740.57072418605,10.5,10500157740.570724,47.655,-122.3035,60.0,2.216666666666667
2026-02-06T21:25:21+00:00,SAT-52098,323.0672083365845,32.385564740143536,937.6482087444878,-4.47357040860451,156683.358893396,10.5,10500156683.358894,47.655,-122.3035,60.0,2.2333333333333334
2026-02-06T21:25:22+00:00,SAT-52098,323.3937017303952,32.60693041322345,933.186631360796,-4.442945073313693,155610.73010647178,10.5,10500155610.730106,47.655,-122.3035,60.0,2.25
2026-02-06T21:25:23+00:00,SAT-52098,323.7249089522947,32.829207491154676,928.7555972100972,-4.411874179088127,154522.49596094017,10.5,10500154522.49596,47.655,-122.3035,60.0,2.2666666666666666
2026-02-06T21:25:24+00:00,SAT-52098,324.0609127177599,33.052371309817026,924.3555506568446,-4.380352369098203,153418.468837969,10.5,10500153418.468838,47.655,-122.3035,60.0,2.283333333333333
2026-02-06T21:25:25+00:00,SAT-52098,324.40179690790643,33.27639566754368,919.9869414079596,-4.348374316041247,152298.46215288408,10.5,10500152298.462152,47.655,-122.3035,60.0,2.3
2026-02-06T21:25:26+00:00,SAT-52098,324.747646550072,33.501252771556835,915.6502244833839,-4.315934704398545,151162.2897337355,10.5,10500151162.289734,47.655,-122.3035,60.0,2.316666666666667
2026-02-06T21:25:27+00:00,SAT-52098,325.0985477928715,33.72691318231025,911.3458602043287,-4.283028296339769,150009.76812954905,10.5,10500150009.76813,47.655,-122.3035,60.0,2.3333333333333335
2026-02-06T21:25:28+00:00,SAT-52098,325.45458788232764,33.9533457601296,907.0743141157936,-4.249649845446941,148840.71358857493,10.5,10500148840.713589,47.655,-122.3035,60.0,2.35
2026-02-06T21:25:29+00:00,SAT-52098,325.8158551262642,34.18051760628248,902.8360569951307,-4.215794194870485,147654.94549612748,10.5,10500147654.945496,47.655,-122.3035,60.0,2.3666666666666667
2026-02-06T21:25:30+00:00,SAT-52098,326.18243886184644,34.40839400818049,898.6315647627168,-4.181456230273281,146452.28472648718,10.5,10500146452.284727,47.655,-122.3035,60.0,2.3833333333333333
2026-02-06T21:25:31+00:00,SAT-52098,326.55442941400355,34.63693838118711,894.4613184395561,-4.146630889101228,145232.5539675948,10.5,10500145232.553968,47.655,-122.3035,60.0,2.4
2026-02-06T21:25:32+00:00,SAT-52098,326.93191804878086,34.86611221002918,890.3258040956332,-4.111313201944079,143995.57916968287,10.5,10500143995.57917,47.655,-122.3035,60.0,2.4166666666666665
2026-02-06T21:25:33+00:00,SAT-52098,327.3149969244931,35.09587499171209,886.2255127570223,-4.075498262741558,142741.188501768,10.5,10500142741.188501,47.655,-122.3035,60.0,2.433333333333333
2026-02-06T21:25:34+00:00,SAT-52098,327.70375903370956,35.326184176146946,882.1609403427045,-4.039181253068394,141469.21320221518,10.5,10500141469.213202,47.655,-122.3035,60.0,2.45
2026-02-06T21:25:35+00:00,SAT-52098,328.0982981406855,35.55699510756449,878.1325875771685,-4.002357468607234,140179.4885059315,10.5,10500140179.488506,47.655,-122.3035,60.0,2.466666666666667
2026-02-06T21:25:36+00:00,SAT-52098,328.49870871413117,35.78826096703348,874.1409598766093,-3.9650222578504732,138871.85149744485,10.5,10500138871.851498,47.655,-122.3035,60.0,2.4833333333333334
2026-02-06T21:25:37+00:00,SAT-52098,328.9050858461806,36.01993271116233,870.1865672962589,-3.927171145449138,137546.14543110336,10.5,10500137546.145432,47.655,-122.3035,60.0,2.5
2026-02-06T21:25:38+00:00,SAT-52098,329.3175251756325,36.251959017792124,866.2699243547012,-3.888799739791462,136202.21649408655,10.5,10500136202.216494,47.655,-122.3035,60.0,2.5166666666666666
2026-02-06T21:25:39+00:00,SAT-52098,329.7361227933892,36.48428622642116,862.3915499503578,-3.84990377957895,134839.91543769583,10.5,10500134839.915438,47.655,-122.3035,60.0,2.533333333333333
2026-02-06T21:25:40+00:00,SAT-52098,330.1609751434158,36.71685828152032,858.5519672315252,-3.8104791538349803,133459.09827814047,10.5,10500133459.098278,47.655,-122.3035,60.0,2.55
2026-02-06T21:25:41+00:00,SAT-52098,330.59217891645596,36.94961667749625,854.7517034464554,-3.7705218945504924,132059.6260389585,10.5,10500132059.62604,47.655,-122.3035,60.0,2.566666666666667
2026-02-06T21:25:42+00:00,SAT-52098,331.02983093290806,37.182500403862676,850.9912898007722,-3.730028203310503,130641.36568358995,10.5,10500130641.365685,47.655,-122.3035,60.0,2.5833333333333335
2026-02-06T21:25:43+00:00,SAT-52098,331.4740280182469,37.415445892922534,847.2712612883306,-3.688994449126425,129204.19003945542,10.5,10500129204.190039,47.655,-122.3035,60.0,2.6
2026-02-06T21:25:44+00:00,SAT-52098,331.92486686728984,37.64838696846628,843.5921565242411,-3.647417159250759,127747.97747624782,10.5,10500127747.977476,47.655,-122.3035,60.0,2.6166666666666667
2026-02-06T21:25:45+00:00,SAT-52098,332.38244389552244,37.881254795252765,839.9545175870509,-3.6052930910669367,126272.61442381861,10.5,10500126272.614424,47.655,-122.3035,60.0,2.6333333333333333
2026-02-06T21:25:46+00:00,SAT-52098,332.8468550874678,38.1139778347415,836.3588897892305,-3.562619185230314,124777.99373097737,10.5,10500124777.99373,47.655,-122.3035,60.0,2.65
2026-02-06T21:25:47+00:00,SAT-52098,333.3181958267716,38.346481799885886,832.8058214943944,-3.519392584968203,123264.01534146043,10.5,10500123264.01534,47.655,-122.3035,60.0,2.6666666666666665
2026-02-06T21:25:48+00:00,SAT-52098,333.79656071555223,38.5786896134475,829.2958639152704,-3.475610667852875,121730.58740675586,10.5,10500121730.587406,47.655,-122.3035,60.0,2.683333333333333
2026-02-06T21:25:49+00:00,SAT-52098,334.2820433843575,38.8105213710422,825.8295708799835,-3.4312710729566396,120177.62723718927,10.5,10500120177.627237,47.655,-122.3035,60.0,2.7
2026-02-06T21:25:50+00:00,SAT-52098,334.77473629242843,39.04189430910195,822.4074985712581,-3.3863716543393116,118605.059672858,10.5,10500118605.059673,47.655,-122.3035,60.0,2.716666666666667
2026-02-06T21:25:51+00:00,SAT-52098,335.27473050685325,39.272722773170486,819.0302053120047,-3.3409105365722427,117012.81902831774,10.5,10500117012.819029,47.655,-122.3035,60.0,2.7333333333333334
2026-02-06T21:25:52+00:00,SAT-52098,335.7821154748243,39.50291819372569,815.6982512955354,-3.29488611676052,115400.84916340845,10.5,10500115400.849163,47.655,-122.3035,60.0,2.75
2026-02-06T21:25:53+00:00,SAT-52098,336.29697878111585,39.73238906643448,812.4121983137597,-3.248297096352704,113769.1045973658,10.5,10500113769.104597,47.655,-122.3035,60.0,2.7666666666666666
2026-02-06T21:25:54+00:00,SAT-52098,336.81940589533053,39.96104093936502,809.1726094536572,-3.2011424367671393,112117.54895466703,10.5,10500112117.548954,47.655,-122.3035,60.0,2.783333333333333
2026-02-06T21:25:55+00:00,SAT-52098,337.34947989622344,40.18877640227939,805.9800488380054,-3.1534214419990123,110446.1578582795,10.5,10500110446.157858,47.655,-122.3035,60.0,2.8
2026-02-06T21:25:56+00:00,SAT-52098,337.8872811934922,40.415495087363546,802.8350812837201,-3.1051337119863613,108754.91729634105,10.5,10500108754.917295,47.655,-122.3035,60.0,2.816666666666667
2026-02-06T21:25:57+00:00,SAT-52098,338.43288722589483,40.64109367286412,799.7382720067071,-3.0562791985258126,107043.8255805656,10.5,10500107043.82558,47.655,-122.3035,60.0,2.8333333333333335
2026-02-06T21:25:58+00:00,SAT-52098,338.98637215279234,40.865465897372886,796.6901862709461,-3.0068581902442655,105312.89281988805,10.5,10500105312.89282,47.655,-122.3035,60.0,2.85
2026-02-06T21:25:59+00:00,SAT-52098,339.5478065272602,41.08850258026488,793.6913890525633,-2.956871324450327,103562.14133555166,10.5,10500103562.141336,47.655,-122.3035,60.0,2.8666666666666667
2026-02-06T21:26:00+00:00,SAT-52098,340.1172569550687,41.31009165068655,790.7424446920854,-2.9063196202635027,101791.60682143237,10.5,10500101791.606821,47.655,-122.3035,60.0,2.8833333333333333
2026-02-06T21:26:01+00:00,SAT-52098,340.6947857444887,41.530118187271924,787.8439165136521,-2.855204475505547,100001.33823516083,10.5,10500100001.338236,47.655,-122.3035,60.0,2.9
2026-02-06T21:26:02+00:00,SAT-52098,341.28045054029513,41.74846446647148,784.9963664473271,-2.803527672123039,98191.39798804381,10.5,10500098191.397987,47.655,-122.3035,60.0,2.9166666666666665
2026-02-06T21:26:03+00:00,SAT-52098,341.8743039441413,41.965010020615296,782.2003546460061,-2.7512913844150804,96361.86223323317,10.5,10500096361.862234,47.655,-122.3035,60.0,2.933333333333333
2026-02-06T21:26:04+00:00,SAT-52098,342.4763931219841,42.179631706452,779.4564390941146,-2.698498227957324,94512.82257925216,10.5,10500094512.822578,47.655,-122.3035,60.0,2.95
2026-02-06T21:26:05+00:00,SAT-52098,343.08675940918886,42.39220378790946,776.7651751675133,-2.6451512082717805,92644.38429219488,10.5,10500092644.384293,47.655,-122.3035,60.0,2.966666666666667
2026-02-06T21:26:06+00:00,SAT-52098,343.70543789183085,42.602598025787,774.1271152446001,-2.591253799921945,90756.66906597238,10.5,10500090756.669065,47.655,-122.3035,60.0,2.9833333333333334
2026-02-06T21:26:07+00:00,SAT-52098,344.3324569949562,42.810683785087456,771.5428082385226,-2.536809883507528,88849.8128156014,10.5,10500088849.812815,47.655,-122.3035,60.0,3.0
2026-02-06T21:26:08+00:00,SAT-52098,344.9678380462883,43.01632814925724,769.0127991922332,-2.4818238127682637,86923.96802746375,10.5,10500086923.968027,47.655,-122.3035,60.0,3.0166666666666666
2026-02-06T21:26:09+00:00,SAT-52098,345.6115948475976,43.219396052098304,766.5376288066153,-2.4263003875933786,84979.30281398365,10.5,10500084979.302814,47.655,-122.3035,60.0,3.033333333333333
2026-02-06T21:26:10+00:00,SAT-52098,346.2637332330293,43.41975042027021,764.1178329955314,-2.370244885508216,83016.00201642254,10.5,10500083016.002016,47.655,-122.3035,60.0,3.05
2026-02-06T21:26:11+00:00,SAT-52098,346.92425063115155,43.617252331459596,761.7539424094674,-2.313663057225793,81034.26704907576,10.5,10500081034.26705,47.655,-122.3035,60.0,3.066666666666667
2026-02-06T21:26:12+00:00,SAT-52098,347.5931356237109,43.81176118562007,759.4464819636124,-2.2565611218262056,79034.31573043496,10.5,10500079034.315731,47.655,-122.3035,60.0,3.0833333333333335
2026-02-06T21:26:13+00:00,SAT-52098,348.27036750285293,44.003134889458835,757.1959703707485,-2.198945799717223,77016.38343760748,10.5,10500077016.383438,47.655,-122.3035,60.0,3.1
2026-02-06T21:26:14+00:00,SAT-52098,348.95591584082473,44.19123005754418,755.0029196412659,-2.14082428820467,74980.72225068798,10.5,10500074980.72225,47.655,-122.3035,60.0,3.1166666666666667
2026-02-06T21:26:15+00:00,SAT-52098,349.649740058004,44.375902225328836,752.867834607544,-2.0822042848828652,72927.60177199014,10.5,10500072927.601772,47.655,-122.3035,60.0,3.1333333333333333
2026-02-06T21:26:16+00:00,SAT-52098,350.3517890068108,44.55700607815053,750.7912124250045,-2.023093989516425,70857.30919195594,10.5,10500070857.309193,47.655,-122.3035,60.0,3.15
2026-02-06T21:26:17+00:00,SAT-52098,351.06200056862787,44.73439569436647,748.7735420712872,-1.96350209248907,68770.14888458347,10.5,10500068770.148884,47.655,-122.3035,60.0,3.1666666666666665
2026-02-06T21:26:18+00:00,SAT-52098,351.7803012624261,44.90792480127341,746.8153038569446,-1.903437783362677,66666.4427072015,10.5,10500066666.442707,47.655,-122.3035,60.0,3.183333333333333
2026-02-06T21:26:19+00:00,SAT-52098,352.50660587507616,45.077447045296786,744.9169689276047,-1.8429107667820184,64546.530557520535,10.5,10500064546.530558,47.655,-122.3035,60.0,3.2
2026-02-06T21:26:20+00:00,SAT-52098,353.2408171215371,45.242816276784495,743.0789987502668,-1.7819312304476398,62410.76925190766,10.5,10500062410.769253,47.655,-122.3035,60.0,3.216666666666667
2026-02-06T21:26:21+00:00,SAT-52098,353.9828253196882,45.40388684465897,741.3018446315415,-1.7205098648726531,60259.53321735285,10.5,10500060259.533216,47.655,-122.3035,60.0,3.2333333333333334
2026-02-06T21:26:22+00:00,SAT-52098,354.73250810404363,45.560513904901406,739.5859472161862,-1.658657864378336,58093.21452633918,10.5,10500058093.214527,47.655,-122.3035,60.0,3.25
2026-02-06T21:26:23+00:00,SAT-52098,355.48973017622626,45.71255374055097,737.9317359846474,-1.5963868946232094,55912.221759573746,10.5,10500055912.22176,47.655,-122.3035,60.0,3.2666666666666666
2026-02-06T21:26:24+00:00,SAT-52098,356.25434308067986,45.85986408924777,736.3396287829873,-1.5337091223991999,53716.981049575304,10.5,10500053716.98105,47.655,-122.3035,60.0,3.283333333333333
2026-02-06T21:26:25+00:00,SAT-52098,357.026185038178,46.00230448306139,734.8100313230934,-1.4706371812082644,51507.93487502202,10.5,10500051507.934875,47.655,-122.3035,60.0,3.3
2026-02-06T21:26:26+00:00,SAT-52098,357.8050808117318,46.139736593596204,733.3433367172198,-1.407184178460813,49285.542312870784,10.5,10500049285.542313,47.655,-122.3035,60.0,3.316666666666667
2026-02-06T21:26:27+00:00,SAT-52098,358.5908416283704,46.2720245849668,731.9399250053501,-1.3433636833173148,47050.27861251868,10.5,10500047050.278612,47.655,-122.3035,60.0,3.3333333333333335
2026-02-06T21:26:28+00:00,SAT-52098,359.38326515191693,46.39903547149771,730.6001626946837,-1.2791897169954034,44802.63485631695,10.5,10500044802.634857,47.655,-122.3035,60.0,3.35
2026-02-06T21:26:29+00:00,SAT-52098,0.18213551154934293,46.52063947890117,729.3244023087913,-1.2146767308606485,42543.11719221706,10.5,10500042543.117191,47.655,-122.3035,60.0,3.3666666666666667
2026-02-06T21:26:30+00:00,SAT-52098,0.9872233813708593,46.63671040616734,728.1129819586207,-1.1498396092917735,40272.24693412274,10.5,10500040272.246935,47.655,-122.3035,60.0,3.3833333333333333
2026-02-06T21:26:31+00:00,SAT-52098,1.798286129987194,46.74712598882181,726.9662249106433,-1.0846936502718683,37990.55988211223,10.5,10500037990.559881,47.655,-122.3035,60.0,3.4
2026-02-06T21:26:32+00:00,SAT-52098,2.615068029787262,46.851768259681904,725.8844391743601,-1.019254540846203,35698.605462867024,10.5,10500035698.605463,47.655,-122.3035,60.0,3.4166666666666665
2026-02-06T21:26:33+00:00,SAT-52098,3.437300522399986,46.95052390469436,724.8679171142809,-0.953538362602871,33396.946921627175,10.5,10500033396.946922,47.655,-122.3035,60.0,3.433333333333333
2026-02-06T21:26:34+00:00,SAT-52098,4.2647025668688245,47.04328461488148,723.91693505644,-0.8875615440556434,31086.159654437524,10.5,10500031086.159655,47.655,-122.3035,60.0,3.45
2026-02-06T21:26:35+00:00,SAT-52098,5.096981027847278,47.12994742723114,723.0317529424004,-0.821340872586755,28766.831626434472,10.5,10500028766.831627,47.655,-122.3035,60.0,3.466666666666667
2026-02-06T21:26:36+00:00,SAT-52098,5.933831155674113,47.2104150583348,722.2126139713478,-0.754893450554122,26439.561834535147,10.5,10500026439.561834,47.655,-122.3035,60.0,3.4833333333333334
2026-02-06T21:26:37+00:00,SAT-52098,6.774937108526231,47.28459622333635,721.4597442859596,-0.688236696892742,24104.96036352519,10.5,10500024104.960363,47.655,-122.3035,60.0,3.5
2026-02-06T21:26:38+00:00,SAT-52098,7.619972561225528,47.352405942605586,720.7733526566743,-0.6213883048221698,21763.646904795656,10.5,10500021763.646904,47.655,-122.3035,60.0,3.5166666666666666
2026-02-06T21:26:39+00:00,SAT-52098,8.468601352744638,47.41376582991489,720.1536302081457,-0.5543662354996145,19416.25053404763,10.5,10500019416.250534,47.655,-122.3035,60.0,3.533333333333333
2026-02-06T21:26:40+00:00,SAT-52098,9.32047821169025,47.468604363698404,719.6007501520209,-0.4871886833696441,17063.408497692304,10.5,10500017063.408497,47.655,-122.3035,60.0,3.55
2026-02-06T21:26:41+00:00,SAT-52098,10.175249521886155,47.51685713680921,719.1148675542794,-0.4198740622592914,14705.765725842775,10.5,10500014705.765726,47.655,-122.3035,60.0,3.566666666666667
2026-02-06T21:26:42+00:00,SAT-52098,11.032554155443458,47.5584670850902,718.6961191164385,-0.35244097371812183,12343.973723449304,10.5,10500012343.973724,47.655,-122.3035,60.0,3.5833333333333335
2026-02-06T21:26:43+00:00,SAT-52098,11.892024342014665,47.593384691387385,718.344622988334,-0.28490818587896094,9978.689829912566,10.5,10500009978.68983,47.655,-122.3035,60.0,3.6
2026-02-06T21:26:44+00:00,SAT-52098,12.753286589779218,47.62156816460892,718.060478601984,-0.2172946040458176,7610.576188948306,10.5,10500007610.576189,47.655,-122.3035,60.0,3.6166666666666667
2026-02-06T21:26:45+00:00,SAT-52098,13.615962631103594,47.64298359169234,717.8437665347849,-0.1496192494472487,5240.299004440303,10.5,10500005240.299004,47.655,-122.3035,60.0,3.6333333333333333
2026-02-06T21:26:46+00:00,SAT-52098,14.479670418446485,47.657605062193625,717.6945483938978,-0.08190122819086512,2868.5274530958477,10.5,10500002868.527452,47.655,-122.3035,60.0,3.65
2026-02-06T21:26:47+00:00,SAT-52098,15.344025126727315,47.66541476359062,717.6128667315976,-0.014159707197982369,495.93284157540376,10.5,10500000495.932842,47.655,-122.3035,60.0,3.6666666666666665
2026-02-06T21:26:48+00:00,SAT-52098,16.208640186264155,47.66640304728842,717.5987449846203,0.05358611342295205,-1876.8123611068181,10.5,10499998123.18764,47.655,-122.3035,60.0,3.683333333333333
2026-02-06T21:26:49+00:00,SAT-52098,17.073128321413822,47.66056846447641,717.6521874410681,0.12131702863236128,-4249.035513227599,10.5,10499995750.964487,47.655,-122.3035,60.0,3.7
2026-02-06T21:26:50+00:00,SAT-52098,17.937102602287137,47.64791777150243,717.7731792354883,0.18901385379708976,-6620.064687782914,10.5,10499993379.935312,47.655,-122.3035,60.0,3.716666666666667
2026-02-06T21:26:51+00:00,SAT-52098,18.800177480590275,47.628465905025564,717.9616863692276,0.2566574510438852,-8989.229595498344,10.5,10499991010.770405,47.655,-122.3035,60.0,3.7333333333333334
2026-02-06T21:26:52+00:00,SAT-52098,19.66196982297653,47.60223592701895,718.2176557570638,0.32422876120113797,-11355.862703563906,10.5,10499988644.137297,47.655,-122.3035,60.0,3.75
2026-02-06T21:26:53+00:00,SAT-52098,20.522099939297018,47.569258939480974,718.5410153056997,0.39170882231968035,-13719.299884310778,10.5,10499986280.700115,47.655,-122.3035,60.0,3.7666666666666666
2026-02-06T21:26:54+00:00,SAT-52098,21.380192564864103,47.52957397084875,718.9316740107225,0.4590788070918644,-16078.881725785697,10.5,10499983921.118275,47.655,-122.3035,60.0,3.783333333333333
2026-02-06T21:26:55+00:00,SAT-52098,22.23587784001909,47.48322783304705,719.3895220908856,0.526320033215052,-18433.953894724214,10.5,10499981566.046104,47.655,-122.3035,60.0,3.8
2026-02-06T21:26:56+00:00,SAT-52098,23.088792223366184,47.43027495295445,719.9144311327236,0.593414004007904,-20783.868559104958,10.5,10499979216.131441,47.655,-122.3035,60.0,3.816666666666667
2026-02-06T21:26:57+00:00,SAT-52098,23.938579393377196,47.37077717645538,720.506254275678,0.6603424259767428,-23127.985003397913,10.5,10499976872.014997,47.655,-122.3035,60.0,3.8333333333333335
2026-02-06T21:26:58+00:00,SAT-52098,24.78489108844924,47.30480354883084,721.1648264147377,0.7270872338994998,-25465.670507110448,10.5,10499974534.329493,47.655,-122.3035,60.0,3.85
2026-02-06T21:26:59+00:00,SAT-52098,25.62738789899609,47.232430072252605,721.8899644281015,0.7936306078246518,-27796.30094016189,10.5,10499972203.69906,47.655,-122.3035,60.0,3.8666666666666667
2026-02-06T21:27:00+00:00,SAT-52098,26.465739998412356,47.15373944288953,722.6814674217874,0.8599550169568869,-30119.262299945225,10.5,10499969880.7377,47.655,-122.3035,60.0,3.8833333333333333
2026-02-06T21:27:01+00:00,SAT-52098,27.299627837458555,47.068820766739464,723.5391170180177,0.9260432099560779,-32433.950371556108,10.5,10499967566.04963,47.655,-122.3035,60.0,3.9
2026-02-06T21:27:02+00:00,SAT-52098,28.128742745866838,46.97776926139103,724.4626776339217,0.9918782610497145,-34739.77234284527,10.5,10499965260.227657,47.655,-122.3035,60.0,3.9166666666666665
2026-02-06T21:27:03+00:00,SAT-52098,28.952787496321747,46.88068594011918,725.4518968062328,1.0574435812536331,-37036.14719741597,10.5,10499962963.852802,47.655,-122.3035,60.0,3.933333333333333
2026-02-06T21:27:04+00:00,SAT-52098,29.77147679488608,46.77767728376649,726.5065055271722,1.1227229354069073,-39322.50631125792,10.5,10499960677.493689,47.655,-122.3035,60.0,3.95
2026-02-06T21:27:05+00:00,SAT-52098,30.58453770432181,46.66885490183813,727.6262185973251,1.187700462013766,-41598.29414769514,10.5,10499958401.705853,47.655,-122.3035,60.0,3.966666666666667
2026-02-06T21:27:06+00:00,SAT-52098,31.39171000422584,46.55433518453259,728.8107349983029,1.2523606911591008,-43862.968884862865,10.5,10499956137.031115,47.655,-122.3035,60.0,3.9833333333333334
2026-02-06T21:27:07+00:00,SAT-52098,32.19274648608278,46.43423894790415,730.0597382832749,1.316688553832902,-46116.0027422887,10.5,10499953883.997257,47.655,-122.3035,60.0,4.0
2026-02-06T21:27:08+00:00,SAT-52098,32.98741318038827,46.308691074898846,731.3728969767976,1.380669409531674,-48356.88294761097,10.5,10499951643.117052,47.655,-122.3035,60.0,4.016666666666667
2026-02-06T21:27:09+00:00,SAT-52098,33.775489528447636,46.177820152444,732.7498650021748,1.444289039815733,-50585.11151092799,10.5,10499949414.888489,47.655,-122.3035,60.0,4.033333333333333
2026-02-06T21:27:10+00:00,SAT-52098,34.556768481976185,46.04175810960952,734.1902821023866,1.507533686051895,-52800.206546706715,10.5,10499947199.793453,47.655,-122.3035,60.0,4.05
2026-02-06T21:27:11+00:00,SAT-52098,35.331056557671786,45.90063985441128,735.6937742986661,1.5703900325198688,-55001.7016820971,10.5,10499944998.298317,47.655,-122.3035,60.0,4.066666666666666
2026-02-06T21:27:12+00:00,SAT-52098,36.09817382118846,45.754602916038095,737.2599543322224,1.6328452345249396,-57189.14704155721,10.5,10499942810.852959,47.655,-122.3035,60.0,4.083333333333333
2026-02-06T21:27:13+00:00,SAT-52098,36.85795382758587,45.60378708976447,738.8884221340063,1.6948869292582467,-59362.10962722614,10.5,10499940637.890373,47.655,-122.3035,60.0,4.1
2026-02-06T21:27:14+00:00,SAT-52098,37.610243512182954,45.44833408762845,740.5787653053015,1.756503212701878,-61520.17251004266,10.5,10499938479.82749,47.655,-122.3035,60.0,4.116666666666666
2026-02-06T21:27:15+00:00,SAT-52098,38.35490302195303,45.288387199234464,742.3305595752875,1.817682697208645,-63662.936846432516,10.5,10499936337.063154,47.655,-122.3035,60.0,4.133333333333334
2026-02-06T21:27:16+00:00,SAT-52098,39.09180552598518,45.12409095644309,744.1433693160252,1.8784144709776562,-65790.02045897162,10.5,10499934209.979542,47.655,-122.3035,60.0,4.15
2026-02-06T21:27:17+00:00,SAT-52098,39.820836967110374,44.95559081199004,746.0167480170272,1.938688119655307,-67901.05859294407,10.5,10499932098.941406,47.655,-122.3035,60.0,4.166666666666667
2026-02-06T21:27:18+00:00,SAT-52098,40.54189578586596,44.78303282720247,747.9502387813728,1.9984937234673985,-69995.7038158968,10.5,10499930004.296185,47.655,-122.3035,60.0,4.183333333333334
2026-02-06T21:27:19+00:00,SAT-52098,41.25489261069153,44.606563371828564,749.9433748189598,2.057821877140205,-72073.6267153597,10.5,10499927926.373285,47.655,-122.3035,60.0,4.2
2026-02-06T21:27:20+00:00,SAT-52098,41.95974992619087,44.42632883461188,751.9956799596268,2.1166636650980815,-74134.51503016082,10.5,10499925865.48497,47.655,-122.3035,60.0,4.216666666666667
2026-02-06T21:27:21+00:00,SAT-52098,42.65640170812146,44.24247534909525,754.1066691415382,2.1750106704129606,-76178.07396387565,10.5,10499923821.926037,47.655,-122.3035,60.0,4.233333333333333
2026-02-06T21:27:22+00:00,SAT-52098,43.344793040936544,44.05514853203843,756.2758489084954,2.2328549768442154,-78204.0262562718,10.5,10499921795.973743,47.655,-122.3035,60.0,4.25
2026-02-06T21:27:23+00:00,SAT-52098,44.02487971932613,43.86449323537889,758.5027179092806,2.2901891707899744,-80212.11225165222,10.5,10499919787.887749,47.655,-122.3035,60.0,4.266666666666667
2026-02-06T21:27:24+00:00,SAT-52098,44.696627836361024,43.670653311956215,760.7867673989498,2.347006320894291,-82202.08918461202,10.5,10499917797.910816,47.655,-122.3035,60.0,4.283333333333333
2026-02-06T21:27:25+00:00,SAT-52098,45.36001335581956,43.473771396971095,763.1274817197846,2.403299980420406,-84173.73126316027,10.5,10499915826.268738,47.655,-122.3035,60.0,4.3
2026-02-06T21:27:26+00:00,SAT-52098,46.01502167883012,43.273988703213554,765.5243387846128,2.459064202644721,-86126.83020788193,10.5,10499913873.169792,47.655,-122.3035,60.0,4.316666666666666
2026-02-06T21:27:27+00:00,SAT-52098,46.66164721034848,43.07144482893009,767.9768105754813,2.51429350513937,-88061.19400096245,10.5,10499911938.806,47.655,-122.3035,60.0,4.333333333333333
2026-02-06T21:27:28+00:00,SAT-52098,47.29989291486453,42.86627758243768,770.4843636067059,2.568982870260491,-89976.64690328919,10.5,10499910023.353096,47.655,-122.3035,60.0,4.35
2026-02-06T21:27:29+00:00,SAT-52098,47.929769874120005,42.658622820170756,773.0464593884108,2.623127758615413,-91873.02992612921,10.5,10499908126.970074,47.655,-122.3035,60.0,4.366666666666666
2026-02-06T21:27:30+00:00,SAT-52098,48.55129685149537,42.44861429687986,775.6625549034969,2.6767240678100768,-93750.19938628945,10.5,10499906249.800613,47.655,-122.3035,60.0,4.383333333333334
2026-02-06T21:27:31+00:00,SAT-52098,49.16449985212124,42.23638353205919,778.3321030434691,2.7297681561153073,-95608.02773500969,10.5,10499904391.972265,47.655,-122.3035,60.0,4.4
2026-02-06T21:27:32+00:00,SAT-52098,49.769411696331304,42.02205968694966,781.0545530678659,2.7822568108740917,-97446.4024514518,10.5,10499902553.59755,47.655,-122.3035,60.0,4.416666666666667
2026-02-06T21:27:33+00:00,SAT-52098,50.36607159466724,41.80576945615255,783.8293510321816,2.834187249892704,-99265.22609142284,10.5,10499900734.773909,47.655,-122.3035,60.0,4.433333333333334
2026-02-06T21:27:34+00:00,SAT-52098,50.954524734202046,41.58763697070793,786.6559402171752,2.8855570993947666,-101064.41551523305,10.5,10499898935.584484,47.655,-122.3035,60.0,4.45
2026-02-06T21:27:35+00:00,SAT-52098,51.53482187180657,41.36778371401042,789.5337615361931,2.936364408608558,-102843.90239860489,10.5,10499897156.0976,47.655,-122.3035,60.0,4.466666666666667
2026-02-06T21:27:36+00:00,SAT-52098,52.107018943375024,41.146328447215055,792.4622539570407,2.9866076028722985,-104603.63159022211,10.5,10499895396.36841,47.655,-122.3035,60.0,4.483333333333333
2026-02-06T21:27:37+00:00,SAT-52098,52.67117667735467,40.9233871482964,795.4408548770814,3.0362855074694113,-106343.56194654109,10.5,10499893656.438053,47.655,-122.3035,60.0,4.5
2026-02-06T21:27:38+00:00,SAT-52098,53.22736022743056,40.69907295885644,798.4690005221129,3.0853973240701142,-108063.66550667596,10.5,10499891936.334494,47.655,-122.3035,60.0,4.516666666666667
2026-02-06T21:27:39+00:00,SAT-52098,53.77563881551853,40.473496141731744,801.5461263217418,3.1339425942864763,-109763.92621594238,10.5,10499890236.073784,47.655,-122.3035,60.0,4.533333333333333
2026-02-06T21:27:40+00:00,SAT-52098,54.316085383920175,40.24676404973757,804.6716672484172,3.1819212288663405,-111444.34094835227,10.5,10499888555.659052,47.655,-122.3035,60.0,4.55
2026-02-06T21:27:41+00:00,SAT-52098,54.8487762682631,40.01898110018662,807.8450581855739,3.2293334651201318,-113104.91801552054,10.5,10499886895.081984,47.655,-122.3035,60.0,4.566666666666666
2026-02-06T21:27:42+00:00,SAT-52098,55.37379087906492,39.79024875990966,811.065734253322,3.2761798867678578,-114745.67786179099,10.5,10499885254.322138,47.655,-122.3035,60.0,4.583333333333333
2026-02-06T21:27:43+00:00,SAT-52098,55.89121140232081,39.5606655357433,814.3331311539264,3.3224613662028015,-116366.65104206662,10.5,10499883633.348957,47.655,-122.3035,60.0,4.6
2026-02-06T21:27:44+00:00,SAT-52098,56.40112250690835,39.33032697546081,817.6466854597062,3.3681790880936298,-117967.87904845527,10.5,10499882032.12095,47.655,-122.3035,60.0,4.616666666666666
2026-02-06T21:27:45+00:00,SAT-52098,56.90361107176156,39.099325672865625,821.0058349244731,3.4133345404220603,-119549.41399637089,10.5,10499880450.586004,47.655,-122.3035,60.0,4.633333333333334
2026-02-06T21:27:46+00:00,SAT-52098,57.39876592687665,38.86775127892205,824.4100187860327,3.4579294608749573,-121111.31674695783,10.5,10499878888.683252,47.655,-122.3035,60.0,4.65
2026-02-06T21:27:47+00:00,SAT-52098,57.88667760228383,38.63569052144579,827.8586780152174,3.501965868721015,-122653.65802354726,10.5,10499877346.341976,47.655,-122.3035,60.0,4.666666666666667
2026-02-06T21:27:48+00:00,SAT-52098,58.3674380966253,38.40322722703167,831.3512555967155,3.5454460486665207,-124176.5178462177,10.5,10499875823.482153,47.655,-122.3035,60.0,4.683333333333334
2026-02-06T21:27:49+00:00,SAT-52098,58.841140658139665,38.170442348140284,834.8871967937971,3.588372513686198,-125679.98422997378,10.5,10499874320.01577,47.655,-122.3035,60.0,4.7
2026-02-06T21:27:50+00:00,SAT-52098,59.307879574914615,37.93741399624288,838.4659493759697,3.630748002682215,-127164.15310275504,10.5,10499872835.846897,47.655,-122.3035,60.0,4.716666666666667
2026-02-06T21:27:51+00:00,SAT-52098,59.76774997918276,37.70421747828036,842.0869638443,3.6725754838766793,-128629.12842425519,10.5,10499871370.871576,47.655,-122.3035,60.0,4.733333333333333
2026-02-06T21:27:52+00:00,SAT-52098,60.220847665394125,37.47092533572925,845.7496936601195,3.7138581261465213,-130075.02118194873,10.5,10499869924.978819,47.655,-122.3035,60.0,4.75
2026-02-06T21:27:53+00:00,SAT-52098,60.66726891788741,37.23760738798073,849.4535954451425,3.7545993053076288,-131501.94961118768,10.5,10499868498.050388,47.655,-122.3035,60.0,4.766666666666667
2026-02-06T21:27:54+00:00,SAT-52098,61.107110351812366,37.00433077746182,853.1981291878471,3.7948025792008977,-132910.0383226099,10.5,10499867089.961678,47.655,-122.3035,60.0,4.783333333333333
2026-02-06T21:27:55+00:00,SAT-52098,61.54046876326501,36.77116001813703,856.9827584250161,3.8344716609577127,-134299.41736578304,10.5,10499865700.582634,47.655,-122.3035,60.0,4.8
2026-02-06T21:27:56+00:00,SAT-52098,61.96744098810877,36.53815704715585,860.8069503966077,3.8736104545918497,-135670.22347578345,10.5,10499864329.776524,47.655,-122.3035,60.0,4.816666666666666
2026-02-06T21:27:57+00:00,SAT-52098,62.38812377588746,36.305381275539055,864.670176236129,3.912223015172704,-137022.59867829428,10.5,10499862977.401321,47.655,-122.3035,60.0,4.833333333333333
2026-02-06T21:27:58+00:00,SAT-52098,62.80261366983333,36.07288964232299,868.5719111212848,3.9503135248565036,-138356.68945011715,10.5,10499861643.31055,47.655,-122.3035,60.0,4.85
2026-02-06T21:27:59+00:00,SAT-52098,63.211006894631176,35.840736670843064,872.5116344007245,3.987886310495365,-139672.64733591574,10.5,10499860327.352665,47.655,-122.3035,60.0,4.866666666666666
2026-02-06T21:28:00+00:00,SAT-52098,63.613399255687426,35.608974524457246,876.48882973835,4.024945831476602,-140970.628522297,10.5,10499859029.371477,47.655,-122.3035,60.0,4.883333333333334
2026-02-06T21:28:01+00:00,SAT-52098,64.0098860461965,35.37765306332697,880.5029852454944,4.061496659048101,-142250.79311369825,10.5,10499857749.206886,47.655,-122.3035,60.0,4.9
2026-02-06T21:28:02+00:00,SAT-52098,64.40056196090136,35.14681990252546,884.5535935924865,4.097543447220323,-143513.3041132522,10.5,10499856486.695887,47.655,-122.3035,60.0,4.916666666666667
2026-02-06T21:28:03+00:00,SAT-52098,64.78552101538503,34.91652047170643,888.6401520911858,4.133090990102127,-144758.3294309303,10.5,10499855241.670568,47.655,-122.3035,60.0,4.933333333333334
2026-02-06T21:28:04+00:00,SAT-52098,65.16485647853324,34.68679807131041,892.76216283471,4.168144140539238,-145986.03903391724,10.5,10499854013.960966,47.655,-122.3035,60.0,4.95
2026-02-06T21:28:05+00:00,SAT-52098,65.53866080469842,34.45769393301826,896.9191327560122,4.202707858150798,-147196.60662905462,10.5,10499852803.393372,47.655,-122.3035,60.0,4.966666666666667
2026-02-06T21:28:06+00:00,SAT-52098,65.90702557723182,34.22924727700921,901.1105737343689,4.236787140559858,-148390.20725424157,10.5,10499851609.792746,47.655,-122.3035,60.0,4.983333333333333
2026-02-06T21:28:07+00:00,SAT-52098,66.2700414525159,34.00149537237681,905.336002633282,4.270387091803579,-149567.01967444952,10.5,10499850432.980326,47.655,-122.3035,60.0,5.0
2026-02-06T21:28:08+00:00,SAT-52098,66.62779811603647,33.774473593086995,909.5949414066056,4.303512839474721,-150727.22347966666,10.5,10499849272.77652,47.655,-122.3035,60.0,5.016666666666667
2026-02-06T21:28:09+00:00,SAT-52098,66.98038423714247,33.548215477597104,913.8869171220424,4.336169610845986,-151871.00175109427,10.5,10499848128.99825,47.655,-122.3035,60.0,5.033333333333333
2026-02-06T21:28:10+00:00,SAT-52098,67.3278874355295,33.32275278351903,918.2114620605532,4.3683626086048175,-152998.53670885402,10.5,10499847001.463291,47.655,-122.3035,60.0,5.05
2026-02-06T21:28:11+00:00,SAT-52098,67.67039424279868,33.09811554782747,922.5681136918386,4.400097161597862,-154110.01499169652,10.5,10499845889.985008,47.655,-122.3035,60.0,5.066666666666666
2026-02-06T21:28:12+00:00,SAT-52098,68.0079900805469,32.87433213816091,926.9564148001595,4.431378540700407,-155205.62120797005,10.5,10499844794.378792,47.655,-122.3035,60.0,5.083333333333333
2026-02-06T21:28:13+00:00,SAT-52098,68.34075922874784,32.65142931253696,931.3759134265226,4.462212132598069,-156285.5440221906,10.5,10499843714.455978,47.655,-122.3035,60.0,5.1
2026-02-06T21:28:14+00:00,SAT-52098,68.6687848112953,32.42943226901173,935.8261629841784,4.492603272034114,-157349.97027963327,10.5,10499842650.02972,47.655,-122.3035,60.0,5.116666666666666
2026-02-06T21:28:15+00:00,SAT-52098,68.9921487730189,32.20836470265807,940.3067222068194,4.522557350206387,-158399.08880285127,10.5,10499841600.911198,47.655,-122.3035,60.0,5.133333333333334
2026-02-06T21:28:16+00:00,SAT-52098,69.31093186811397,31.988248855828026,944.8171552048827,4.552079788503146,-159433.08947179397,10.5,10499840566.910528,47.655,-122.3035,60.0,5.15
2026-02-06T21:28:17+00:00,SAT-52098,69.6252136498909,31.769105568552263,949.35703149566,4.5811759367567015,-160452.15966021857,10.5,10499839547.84034,47.655,-122.3035,60.0,5.166666666666667
2026-02-06T21:28:18+00:00,SAT-52098,69.93507245672222,31.550954332544034,953.9259259319325,4.609851241536079,-161456.4901300113,10.5,10499838543.50987,47.655,-122.3035,60.0,5.183333333333334
2026-02-06T21:28:19+00:00,SAT-52098,70.24058541216246,31.333813335781105,958.5234187984495,4.638111084126801,-162446.26935655402,10.5,10499837553.730644,47.655,-122.3035,60.0,5.2
2026-02-06T21:28:20+00:00,SAT-52098,70.54182841680576,31.1176995135882,963.1490957468192,4.665960866466922,-163421.68653856756,10.5,10499836578.313461,47.655,-122.3035,60.0,5.216666666666667
2026-02-06T21:28:21+00:00,SAT-52098,70.8388761483272,30.90262859427455,967.8025478161057,4.693405953084181,-164382.92956450526,10.5,10499835617.070435,47.655,-122.3035,60.0,5.233333333333333
2026-02-06T21:28:22+00:00,SAT-52098,71.13180205995162,30.688615146174033,972.4833713955197,4.720451750083526,-165330.18777903018,10.5,10499834669.812222,47.655,-122.3035,60.0,5.25
2026-02-06T21:28:23+00:00,SAT-52098,71.42067838589071,30.47567261975139,977.1911682658836,4.747103582431471,-166263.64768499427,10.5,10499833736.352316,47.655,-122.3035,60.0,5.266666666666667
2026-02-06T21:28:24+00:00,SAT-52098,71.70557614107516,30.263813394003655,981.9255455187109,4.773366789280092,-167183.4962820878,10.5,10499832816.503717,47.655,-122.3035,60.0,5.283333333333333
2026-02-06T21:28:25+00:00,SAT-52098,71.98656512852365,30.05304881719443,986.6861155703536,4.799246679606803,-168089.91951315675,10.5,10499831910.080486,47.655,-122.3035,60.0,5.3
