DopplerPredictor/satellites_20260211_204923/SAT-53421.csv

timestamp,satellite,azimuth_deg,elevation_deg,distance_km,relative_velocity_kms,doppler_shift_hz,tx_freq_ghz,rx_freq_hz,ue_lat,ue_lon,ue_alt_m,time_minutes
2026-02-06T21:27:50+00:00,SAT-53421,317.0027959389954,30.02841956465646,987.2132708585585,-3.5571098016367757,124585.03181286216,10.5,10500124585.031813,47.655,-122.3035,60.0,4.716666666666667
2026-02-06T21:27:51+00:00,SAT-53421,317.39089173297367,30.185030532980857,983.6656971774187,-3.5207960017794226,123313.16893463656,10.5,10500123313.168934,47.655,-122.3035,60.0,4.733333333333333
2026-02-06T21:27:52+00:00,SAT-53421,317.78299097621874,30.34127701102446,980.1543399438499,-3.4840867524813337,122027.45574424694,10.5,10500122027.455744,47.655,-122.3035,60.0,4.75
2026-02-06T21:27:53+00:00,SAT-53421,318.17912099988564,30.497120698472965,976.6795935471483,-3.4469805740465502,120727.84041648166,10.5,10500120727.840416,47.655,-122.3035,60.0,4.766666666666667
2026-02-06T21:27:54+00:00,SAT-53421,318.5793082075386,30.652522335671282,973.2418538523372,-3.4094761193554826,119414.27576951442,10.5,10500119414.27577,47.655,-122.3035,60.0,4.783333333333333
2026-02-06T21:27:55+00:00,SAT-53421,318.9835780132611,30.80744170327905,969.8415180679502,-3.371572146926467,118086.71832140589,10.5,10500118086.71832,47.655,-122.3035,60.0,4.8
2026-02-06T21:27:56+00:00,SAT-53421,319.3919547741813,30.961837621853498,966.4789846406725,-3.3332675851354305,116745.13053934807,10.5,10500116745.130539,47.655,-122.3035,60.0,4.816666666666666
2026-02-06T21:27:57+00:00,SAT-53421,319.8044617281172,31.1156679555745,963.154653085942,-3.2945614633476685,115389.47842760781,10.5,10500115389.478428,47.655,-122.3035,60.0,4.833333333333333
2026-02-06T21:27:58+00:00,SAT-53421,320.2211209207117,31.268889614124955,959.8689238872281,-3.255452976245504,114019.7337805536,10.5,10500114019.73378,47.655,-122.3035,60.0,4.85
2026-02-06T21:27:59+00:00,SAT-53421,320.6419531378381,31.42145855887919,956.6221983311591,-3.2159414739201666,112635.87383563115,10.5,10500112635.873837,47.655,-122.3035,60.0,4.866666666666666
2026-02-06T21:28:00+00:00,SAT-53421,321.06697783468667,31.573329810114462,953.4148783525309,-3.1760264419545283,111237.88057577668,10.5,10500111237.880575,47.655,-122.3035,60.0,4.883333333333334
2026-02-06T21:28:01+00:00,SAT-53421,321.4962130599809,31.724457454797182,950.2473663991752,-3.1357075453161425,109825.74226673674,10.5,10500109825.742268,47.655,-122.3035,60.0,4.9
2026-02-06T21:28:02+00:00,SAT-53421,321.92967538368714,31.874794658038205,947.1200652530604,-3.0949846091640674,108399.45278484192,10.5,10500108399.452785,47.655,-122.3035,60.0,4.916666666666667
2026-02-06T21:28:03+00:00,SAT-53421,322.3673798201685,32.0242936753281,944.0333778705257,-3.053857609796331,106959.01129994896,10.5,10500106959.0113,47.655,-122.3035,60.0,4.933333333333334
2026-02-06T21:28:04+00:00,SAT-53421,322.8093397479242,32.17290586606369,940.9877072315489,-3.0123267322372005,105504.42429239031,10.5,10500105504.424292,47.655,-122.3035,60.0,4.95
2026-02-06T21:28:05+00:00,SAT-53421,323.2555668354137,32.32058171168883,937.9834561315795,-2.9703923176028955,104035.70370949895,10.5,10500104035.703709,47.655,-122.3035,60.0,4.966666666666667
2026-02-06T21:28:06+00:00,SAT-53421,323.7060709577759,32.46727083318701,935.0210270258661,-2.9280549115279424,102552.86866170393,10.5,10500102552.868662,47.655,-122.3035,60.0,4.983333333333333
2026-02-06T21:28:07+00:00,SAT-53421,324.16086011876524,32.61292201290502,932.1008218254843,-2.8853152291982576,101055.94419784137,10.5,10500101055.944199,47.655,-122.3035,60.0,5.0
2026-02-06T21:28:08+00:00,SAT-53421,324.6199403659963,32.75748321668872,929.223241728242,-2.8421741904155158,99544.96253325664,10.5,10500099544.962534,47.655,-122.3035,60.0,5.016666666666667
2026-02-06T21:28:09+00:00,SAT-53421,325.08331570991135,32.900901619847495,926.388687014611,-2.798632921805619,98019.96312715445,10.5,10500098019.963127,47.655,-122.3035,60.0,5.033333333333333
2026-02-06T21:28:10+00:00,SAT-53421,325.5509880421332,33.0431236354136,923.5975568414573,-2.754692753239433,96480.99255723787,10.5,10500096480.992558,47.655,-122.3035,60.0,5.05
2026-02-06T21:28:11+00:00,SAT-53421,326.0229570521942,33.18409494444869,920.8502490393417,-2.71035522134471,94928.10464271072,10.5,10500094928.104643,47.655,-122.3035,60.0,5.066666666666666
2026-02-06T21:28:12+00:00,SAT-53421,326.4992201440308,33.323760528809025,918.1471599063165,-2.665622067843327,93361.36038604057,10.5,10500093361.360386,47.655,-122.3035,60.0,5.083333333333333
2026-02-06T21:28:13+00:00,SAT-53421,326.97977235141605,33.46206470613774,915.4886840033812,-2.6204952807900055,91780.82941731327,10.5,10500091780.829418,47.655,-122.3035,60.0,5.1
2026-02-06T21:28:14+00:00,SAT-53421,327.46460626035207,33.59895116937691,912.8752139088105,-2.5749770288276164,90186.58769157552,10.5,10500090186.587692,47.655,-122.3035,60.0,5.116666666666666
2026-02-06T21:28:15+00:00,SAT-53421,327.9537119196493,33.7343630252758,910.3071400380503,-2.5290697469246113,88578.72049172237,10.5,10500088578.720491,47.655,-122.3035,60.0,5.133333333333334
2026-02-06T21:28:16+00:00,SAT-53421,328.4470767670251,33.868242839813796,907.7848503781053,-2.482776078679881,86957.32040776941,10.5,10500086957.320408,47.655,-122.3035,60.0,5.15
2026-02-06T21:28:17+00:00,SAT-53421,328.9446855453524,34.00053268308703,905.3087302794695,-2.436098910935574,85322.48854913998,10.5,10500085322.488548,47.655,-122.3035,60.0,5.166666666666667
2026-02-06T21:28:18+00:00,SAT-53421,329.44652022598893,34.1311741785059,902.8791622135324,-2.3890413481535426,83674.33364722002,10.5,10500083674.333647,47.655,-122.3035,60.0,5.183333333333334
2026-02-06T21:28:19+00:00,SAT-53421,329.9525599281002,34.2601085531241,900.4965255555455,-2.3416067712477533,82012.97411591792,10.5,10500082012.974115,47.655,-122.3035,60.0,5.2
2026-02-06T21:28:20+00:00,SAT-53421,330.46278085140904,34.38727669362914,898.1611963089098,-2.2937987657356094,80338.53553521982,10.5,10500080338.535536,47.655,-122.3035,60.0,5.216666666666667
2026-02-06T21:28:21+00:00,SAT-53421,330.97715619598995,34.512619200970626,895.8735469011208,-2.2456211903640018,78651.15305476438,10.5,10500078651.153055,47.655,-122.3035,60.0,5.233333333333333
2026-02-06T21:28:22+00:00,SAT-53421,331.4956560984584,34.6360764511654,893.6339459112725,-2.1970781345229193,76950.96990228705,10.5,10500076950.969902,47.655,-122.3035,60.0,5.25
2026-02-06T21:28:23+00:00,SAT-53421,332.0182475617396,34.757588656252615,891.4427578400315,-2.1481739445117567,75238.1383035775,10.5,10500075238.138304,47.655,-122.3035,60.0,5.266666666666667
2026-02-06T21:28:24+00:00,SAT-53421,332.5448943933421,34.87709592908551,889.300342853417,-2.098913220825052,73512.81938741449,10.5,10500073512.819387,47.655,-122.3035,60.0,5.283333333333333
2026-02-06T21:28:25+00:00,SAT-53421,333.07555714668433,34.99453835035562,887.2070565292868,-2.0493008101062147,71775.18290375154,10.5,10500071775.182903,47.655,-122.3035,60.0,5.3
2026-02-06T21:28:26+00:00,SAT-53421,333.6101930640794,35.10985603746526,885.1632496118488,-1.9993418209863285,70025.40777845868,10.5,10500070025.407778,47.655,-122.3035,60.0,5.316666666666666
2026-02-06T21:28:27+00:00,SAT-53421,334.148756027981,35.22298921652077,883.1692677503754,-1.949041608421577,68263.6815647529,10.5,10500068263.681564,47.655,-122.3035,60.0,5.333333333333333
2026-02-06T21:28:28+00:00,SAT-53421,334.6911965127864,35.33387829559205,881.2254512535379,-1.898405783354122,66490.20078156296,10.5,10500066490.20078,47.655,-122.3035,60.0,5.35
2026-02-06T21:28:29+00:00,SAT-53421,335.2374615442271,35.44246394056065,879.3321348341093,-1.8474402136303285,64705.17094568953,10.5,10500064705.170946,47.655,-122.3035,60.0,5.366666666666666
2026-02-06T21:28:30+00:00,SAT-53421,335.78749466454803,35.54868715296658,877.4896473527448,-1.7961510244643875,62908.80658804322,10.5,10500062908.806587,47.655,-122.3035,60.0,5.383333333333334
2026-02-06T21:28:31+00:00,SAT-53421,336.34123590401094,35.65248934969994,875.6983115613082,-1.744544589106006,61101.33092678757,10.5,10500061101.330927,47.655,-122.3035,60.0,5.4
2026-02-06T21:28:32+00:00,SAT-53421,336.89862175617736,35.753812443843024,873.9584438554983,-1.692627536336392,59282.97612988022,10.5,10500059282.97613,47.655,-122.3035,60.0,5.416666666666667
2026-02-06T21:28:33+00:00,SAT-53421,337.45958516226744,35.85259892748002,872.2703540200044,-1.6404067392091553,57453.98292073154,10.5,10500057453.982922,47.655,-122.3035,60.0,5.433333333333334
2026-02-06T21:28:34+00:00,SAT-53421,338.0240554993912,35.94879195522232,870.6343449848869,-1.5878893310767614,55614.60113951897,10.5,10500055614.60114,47.655,-122.3035,60.0,5.45
2026-02-06T21:28:35+00:00,SAT-53421,338.59195858194335,36.04233542988815,869.0507125659777,-1.5350826733521235,53765.08861406145,10.5,10500053765.088614,47.655,-122.3035,60.0,5.466666666666667
2026-02-06T21:28:36+00:00,SAT-53421,339.16321666049964,36.133174087303004,867.5197452374315,-1.4819943879471213,51905.712295953665,10.5,10500051905.712296,47.655,-122.3035,60.0,5.483333333333333
2026-02-06T21:28:37+00:00,SAT-53421,339.73774844051314,36.221253583842724,866.0417238719232,-1.4286323306501472,50036.74732813507,10.5,10500050036.747328,47.655,-122.3035,60.0,5.5
2026-02-06T21:28:38+00:00,SAT-53421,340.3154691013744,36.30652058303276,864.6169215074002,-1.3750045823171317,48158.47673636234,10.5,10500048158.476736,47.655,-122.3035,60.0,5.516666666666667
2026-02-06T21:28:39+00:00,SAT-53421,340.89629032096076,36.38892284202331,863.2456031226177,-1.321119473169913,46271.19228024104,10.5,10500046271.19228,47.655,-122.3035,60.0,5.533333333333333
2026-02-06T21:28:40+00:00,SAT-53421,341.48012032021325,36.46840929970018,861.9280253884406,-1.2669855424818282,44375.193041244536,10.5,10500044375.19304,47.655,-122.3035,60.0,5.55
2026-02-06T21:28:41+00:00,SAT-53421,342.0668639016799,36.544930162335184,860.6644364593541,-1.2126115644928588,42470.786330371986,10.5,10500042470.786331,47.655,-122.3035,60.0,5.566666666666666
2026-02-06T21:28:42+00:00,SAT-53421,342.656422509897,36.618436990506254,859.4550757391255,-1.1580065186147372,40558.28664460512,10.5,10500040558.286644,47.655,-122.3035,60.0,5.583333333333333
2026-02-06T21:28:43+00:00,SAT-53421,343.2486942897836,36.68888278368573,858.3001736761821,-1.103179606472064,38638.016263760284,10.5,10500038638.016264,47.655,-122.3035,60.0,5.6
2026-02-06T21:28:44+00:00,SAT-53421,343.84357416485534,36.75622206507964,857.199951541996,-1.0481402197377128,36710.304123948255,10.5,10500036710.304125,47.655,-122.3035,60.0,5.616666666666666
2026-02-06T21:28:45+00:00,SAT-53421,344.44095391160226,36.820410963471325,856.1546212415442,-0.9928979541466114,34775.486308396125,10.5,10500034775.48631,47.655,-122.3035,60.0,5.633333333333334
2026-02-06T21:28:46+00:00,SAT-53421,345.0407222529302,36.88140729462384,855.1643851097925,-0.9374625943972937,32833.90551863577,10.5,10500032833.90552,47.655,-122.3035,60.0,5.65
2026-02-06T21:28:47+00:00,SAT-53421,345.64276495670885,36.939170640202626,854.2294357232414,-0.881844109074148,30885.910896659563,10.5,10500030885.910896,47.655,-122.3035,60.0,5.666666666666667
2026-02-06T21:28:48+00:00,SAT-53421,346.24696494468884,36.99366242458596,853.3499557165288,-0.8260526290272419,28931.857267690302,10.5,10500028931.857267,47.655,-122.3035,60.0,5.683333333333334
2026-02-06T21:28:49+00:00,SAT-53421,346.8532024007384,37.044845988264896,852.5261176206047,-0.7700984664214139,26972.10580736106,10.5,10500026972.105808,47.655,-122.3035,60.0,5.7
2026-02-06T21:28:50+00:00,SAT-53421,347.4613549054747,37.09268666010502,851.7580836818981,-0.7139920783444356,25007.022767119022,10.5,10500025007.022768,47.655,-122.3035,60.0,5.716666666666667
2026-02-06T21:28:51+00:00,SAT-53421,348.07129756082105,37.13715182479479,851.0460057177849,-0.657744072216883,23036.97966370212,10.5,10500023036.979664,47.655,-122.3035,60.0,5.733333333333333
2026-02-06T21:28:52+00:00,SAT-53421,348.6829031315208,37.17821098781564,850.3900249666569,-0.6013651941378966,21062.352870958195,10.5,10500021062.35287,47.655,-122.3035,60.0,5.75
2026-02-06T21:28:53+00:00,SAT-53421,349.29604219320447,37.21583583665039,849.7902719496159,-0.5448663170218053,19083.523204339435,10.5,10500019083.523205,47.655,-122.3035,60.0,5.766666666666667
2026-02-06T21:28:54+00:00,SAT-53421,349.9105832852467,37.250000297991726,849.2468663439986,-0.4882584348196694,17100.875718516334,10.5,10500017100.87572,47.655,-122.3035,60.0,5.783333333333333
2026-02-06T21:28:55+00:00,SAT-53421,350.52639307515483,37.280680591117395,848.759916862663,-0.4315526447784707,15114.79908601951,10.5,10500015114.799086,47.655,-122.3035,60.0,5.8
2026-02-06T21:28:56+00:00,SAT-53421,351.14333652088413,37.30785527648076,848.3295211509708,-0.3747601441603006,13125.68548233177,10.5,10500013125.685482,47.655,-122.3035,60.0,5.816666666666666
2026-02-06T21:28:57+00:00,SAT-53421,351.7612770467253,37.331505300240984,847.9557656870401,-0.3178922146814328,11133.930040878628,10.5,10500011133.93004,47.655,-122.3035,60.0,5.833333333333333
2026-02-06T21:28:58+00:00,SAT-53421,352.38007671845736,37.35161403379177,847.6387256975171,-0.2609602153935619,9139.930603699177,10.5,10500009139.930603,47.655,-122.3035,60.0,5.85
2026-02-06T21:28:59+00:00,SAT-53421,352.99959642889337,37.36816730865796,847.3784650804484,-0.20397556838910613,7144.087220785303,10.5,10500007144.087221,47.655,-122.3035,60.0,5.866666666666666
2026-02-06T21:29:00+00:00,SAT-53421,353.6196960827951,37.3811534461886,847.1750363424094,-0.14694974798286015,5146.801771177417,10.5,10500005146.801771,47.655,-122.3035,60.0,5.883333333333334
2026-02-06T21:29:01+00:00,SAT-53421,354.2402347843583,37.39056328212912,847.0284805464216,-0.08989427164814946,3148.477645510246,10.5,10500003148.477646,47.655,-122.3035,60.0,5.9
2026-02-06T21:29:02+00:00,SAT-53421,354.8610710351192,37.39639018610297,846.9388272689106,-0.032820685162837315,1149.5192257631504,10.5,10500001149.519226,47.655,-122.3035,60.0,5.916666666666667
2026-02-06T21:29:03+00:00,SAT-53421,355.4820629238236,37.39863007554875,846.9060945714754,0.024259446848899364,-849.6684460068816,10.5,10499999150.331554,47.655,-122.3035,60.0,5.933333333333334
2026-02-06T21:29:04+00:00,SAT-53421,356.10306832280094,37.397281424401626,846.9302889820952,0.08133455297332169,-2848.680089943683,10.5,10499997151.31991,47.655,-122.3035,60.0,5.95
2026-02-06T21:29:05+00:00,SAT-53421,356.72394508812613,37.39234526632409,847.0114054883561,0.13839306690366415,-4847.110605058896,10.5,10499995152.889395,47.655,-122.3035,60.0,5.966666666666667
2026-02-06T21:29:06+00:00,SAT-53421,357.3445512519748,37.3838251924754,847.1494275425454,0.19542343918471233,-6844.555480576764,10.5,10499993155.444519,47.655,-122.3035,60.0,5.983333333333333
2026-02-06T21:29:07+00:00,SAT-53421,357.96474522272507,37.37172734384727,847.3443270784583,0.25241414853276295,-8840.61119240702,10.5,10499991159.388807,47.655,-122.3035,60.0,6.0
2026-02-06T21:29:08+00:00,SAT-53421,358.584385977628,37.35606039821353,847.5960645394917,0.30935371322978406,-10834.875602216558,10.5,10499989165.124397,47.655,-122.3035,60.0,6.016666666666667
2026-02-06T21:29:09+00:00,SAT-53421,359.20333325582504,37.336835551749616,847.904588918107,0.3662307042429811,-12826.948416932162,10.5,10499987173.051582,47.655,-122.3035,60.0,6.033333333333333
2026-02-06T21:29:10+00:00,SAT-53421,359.8214477512869,37.31406649528213,848.2698378083719,0.42303375275280264,-14816.431452403074,10.5,10499985183.568548,47.655,-122.3035,60.0,6.05
2026-02-06T21:29:11+00:00,SAT-53421,0.4385912951417762,37.28776938561241,848.6917374660121,0.47975156464787616,-16802.929141074987,10.5,10499983197.070858,47.655,-122.3035,60.0,6.066666666666666
2026-02-06T21:29:12+00:00,SAT-53421,1.0546270414746806,37.257962811595135,849.1702028829212,0.5363729325285234,-18786.048952403915,10.5,10499981213.951048,47.655,-122.3035,60.0,6.083333333333333
2026-02-06T21:29:13+00:00,SAT-53421,1.6694196482978292,37.224667755254806,849.7051378736368,0.5928867440392778,-20765.401684696208,10.5,10499979234.598316,47.655,-122.3035,60.0,6.1
2026-02-06T21:29:14+00:00,SAT-53421,2.2828354494830534,37.1879075483275,850.2964351701336,0.649281988156072,-22740.60168531243,10.5,10499977259.398315,47.655,-122.3035,60.0,6.116666666666666
2026-02-06T21:29:15+00:00,SAT-53421,2.894742618241625,37.14770782451032,850.94397652288,0.7055477771952016,-24711.267621514402,10.5,10499975288.732378,47.655,-122.3035,60.0,6.133333333333334
2026-02-06T21:29:16+00:00,SAT-53421,3.505011336536389,37.104096466639966,851.6476328238505,0.7616733488894042,-26677.022553178253,10.5,10499973322.977448,47.655,-122.3035,60.0,6.15
2026-02-06T21:29:17+00:00,SAT-53421,4.11351394844564,37.057103550220624,852.4072642316021,0.8176480729812482,-28637.49416372278,10.5,10499971362.505836,47.655,-122.3035,60.0,6.166666666666667
2026-02-06T21:29:18+00:00,SAT-53421,4.720125105089402,37.00676128324298,853.2227203029352,0.8734614693033047,-30592.315393353554,10.5,10499969407.684607,47.655,-122.3035,60.0,6.183333333333334
2026-02-06T21:29:19+00:00,SAT-53421,5.324721909498009,36.953103941796385,854.0938401425769,0.9291032092603715,-32541.12449097669,10.5,10499967458.87551,47.655,-122.3035,60.0,6.2
2026-02-06T21:29:20+00:00,SAT-53421,5.9271840475001465,36.896167802738184,855.0204525543495,0.9845631369894555,-34483.565755310905,10.5,10499965516.434244,47.655,-122.3035,60.0,6.216666666666667
2026-02-06T21:29:21+00:00,SAT-53421,6.527393918966771,36.835991072449175,856.0023762134385,1.0398312592135488,-36419.28917952386,10.5,10499963580.710821,47.655,-122.3035,60.0,6.233333333333333
2026-02-06T21:29:22+00:00,SAT-53421,7.125236748378048,36.77261381384111,857.0394198285427,1.0948977619679003,-38347.951037056955,10.5,10499961652.048964,47.655,-122.3035,60.0,6.25
2026-02-06T21:29:23+00:00,SAT-53421,7.720600693644542,36.70607787022159,858.1313823207066,1.149753033502181,-40269.21468375599,10.5,10499959730.785316,47.655,-122.3035,60.0,6.266666666666667
2026-02-06T21:29:24+00:00,SAT-53421,8.313376954112202,36.63642678590204,859.278053024992,1.2043876410566159,-42182.74974447311,10.5,10499957817.250256,47.655,-122.3035,60.0,6.283333333333333
2026-02-06T21:29:25+00:00,SAT-53421,8.903459852747432,36.5637057266185,860.4792118689882,1.258792363512692,-44088.23325663272,10.5,10499955911.766743,47.655,-122.3035,60.0,6.3
2026-02-06T21:29:26+00:00,SAT-53421,9.490746923985347,36.48796139661841,861.7346295838876,1.3129581925916678,-45985.34971220828,10.5,10499954014.650288,47.655,-122.3035,60.0,6.316666666666666
2026-02-06T21:29:27+00:00,SAT-53421,10.075138989008689,36.40924195459369,863.0440679167534,1.366876324443407,-47873.790763127785,10.5,10499952126.209236,47.655,-122.3035,60.0,6.333333333333333
2026-02-06T21:29:28+00:00,SAT-53421,10.656540215709427,36.327596929289676,864.4072798343997,1.4205381808475313,-49753.255963827745,10.5,10499950246.744036,47.655,-122.3035,60.0,6.35
2026-02-06T21:29:29+00:00,SAT-53421,11.234858177380424,36.24307713324879,865.8240097484187,1.4739354095804797,-51623.45278410919,10.5,10499948376.547216,47.655,-122.3035,60.0,6.366666666666666
2026-02-06T21:29:30+00:00,SAT-53421,11.810003900219305,36.15573457620598,867.293993740569,1.527059891664757,-53484.09686303699,10.5,10499946515.903137,47.655,-122.3035,60.0,6.383333333333334
2026-02-06T21:29:31+00:00,SAT-53421,12.381891903145162,36.06562237795783,868.8169597953986,1.5799037369359858,-55334.91185367929,10.5,10499944665.088146,47.655,-122.3035,60.0,6.4
2026-02-06T21:29:32+00:00,SAT-53421,12.950440225857442,35.97279468163591,870.3926280284425,1.6324593089042552,-57175.63029385709,10.5,10499942824.369705,47.655,-122.3035,60.0,6.416666666666667
2026-02-06T21:29:33+00:00,SAT-53421,13.51557045632593,35.8773065658781,872.0207109392188,1.6847191859144433,-59005.99224581444,10.5,10499940994.007753,47.655,-122.3035,60.0,6.433333333333334
2026-02-06T21:29:34+00:00,SAT-53421,14.077207735157058,35.77921395986515,873.7009136254875,1.7366762193959489,-60825.7473363705,10.5,10499939174.252665,47.655,-122.3035,60.0,6.45
2026-02-06T21:29:35+00:00,SAT-53421,14.635280771774248,35.678573555729336,875.4329340556,1.7883234932222682,-62634.65333351987,10.5,10499937365.346666,47.655,-122.3035,60.0,6.466666666666667
2026-02-06T21:29:36+00:00,SAT-53421,15.189721837788586,35.57544272433032,877.2164633003257,1.8396543537185714,-64432.477197425025,10.5,10499935567.522802,47.655,-122.3035,60.0,6.483333333333333
2026-02-06T21:29:37+00:00,SAT-53421,15.740466762442033,35.46987943045983,879.0511857945942,1.8906623753754217,-66218.9938795656,10.5,10499933781.00612,47.655,-122.3035,60.0,6.5
2026-02-06T21:29:38+00:00,SAT-53421,16.287454910041017,35.36194215136094,880.9367795650526,1.9413414175568262,-67993.98830889427,10.5,10499932006.011692,47.655,-122.3035,60.0,6.516666666666667
2026-02-06T21:29:39+00:00,SAT-53421,16.830629167457616,35.2516897935011,882.8729165141741,1.9916855698550462,-69757.25347793101,10.5,10499930242.746523,47.655,-122.3035,60.0,6.533333333333333
2026-02-06T21:29:40+00:00,SAT-53421,17.369935908657972,35.13918161413623,884.8592626498692,2.0416891843469287,-71508.5915725163,10.5,10499928491.408428,47.655,-122.3035,60.0,6.55
2026-02-06T21:29:41+00:00,SAT-53421,17.905324962835934,35.02447714281545,886.8954783472657,2.0913468750546818,-73247.81395292525,10.5,10499926752.186047,47.655,-122.3035,60.0,6.566666666666666
2026-02-06T21:29:42+00:00,SAT-53421,18.436749576320402,34.90763610485122,888.9812186099543,2.1406534911936954,-74974.740216893,10.5,10499925025.259783,47.655,-122.3035,60.0,6.583333333333333
2026-02-06T21:29:43+00:00,SAT-53421,18.96416636247927,34.78871834831035,891.1161333045484,2.1896041624997755,-76689.19978716625,10.5,10499923310.800213,47.655,-122.3035,60.0,6.6
2026-02-06T21:29:44+00:00,SAT-53421,19.487535258434573,34.66778377060874,893.2998674404538,2.238194242821192,-78391.02993585821,10.5,10499921608.970064,47.655,-122.3035,60.0,6.616666666666666
2026-02-06T21:29:45+00:00,SAT-53421,20.006819463408963,34.54489225045428,895.5320613933807,2.2864193652715805,-80080.07771613653,10.5,10499919919.922283,47.655,-122.3035,60.0,6.633333333333334
2026-02-06T21:29:46+00:00,SAT-53421,20.52198538665451,34.42010357903274,897.8123511838598,2.33427539442857,-81756.19828801692,10.5,10499918243.801712,47.655,-122.3035,60.0,6.65
2026-02-06T21:29:47+00:00,SAT-53421,21.03300258050309,34.29347739618095,900.1403687080857,2.381758446564867,-83419.25562694143,10.5,10499916580.744373,47.655,-122.3035,60.0,6.666666666666667
2026-02-06T21:29:48+00:00,SAT-53421,21.539843675340542,34.16507312785032,902.515741988938,2.4288648834029964,-85069.12230504298,10.5,10499914930.877695,47.655,-122.3035,60.0,6.683333333333334
2026-02-06T21:29:49+00:00,SAT-53421,22.04248431051246,34.03494992635511,904.9380954207721,2.4755913207824842,-86705.6797947068,10.5,10499913294.320206,47.655,-122.3035,60.0,6.7
2026-02-06T21:29:50+00:00,SAT-53421,22.54090306471169,33.90316661263275,907.4070500228548,2.5219346048674187,-88328.81763525851,10.5,10499911671.182365,47.655,-122.3035,60.0,6.716666666666667
2026-02-06T21:29:51+00:00,SAT-53421,23.035081379503172,33.769781622287454,909.922223669074,2.567891816882552,-89938.43359884256,10.5,10499910061.5664,47.655,-122.3035,60.0,6.733333333333333
2026-02-06T21:29:52+00:00,SAT-53421,23.52500348255889,33.63485295386259,912.4832313223643,2.613460280849422,-91534.4339613738,10.5,10499908465.566038,47.655,-122.3035,60.0,6.75
2026-02-06T21:29:53+00:00,SAT-53421,24.010656311186658,33.498438119215685,915.0896852768584,2.658637538508755,-93116.73262421407,10.5,10499906883.267376,47.655,-122.3035,60.0,6.766666666666667
2026-02-06T21:29:54+00:00,SAT-53421,24.49202943025305,33.36059409770273,917.7411953750183,2.703421382965631,-94685.2522925681,10.5,10499905314.747707,47.655,-122.3035,60.0,6.783333333333333
2026-02-06T21:29:55+00:00,SAT-53421,24.969114955772355,33.22137729109431,920.4373692583283,2.7478097966505897,-96239.92230261907,10.5,10499903760.077698,47.655,-122.3035,60.0,6.8
2026-02-06T21:29:56+00:00,SAT-53421,25.44190746703531,33.08084348415586,923.1778125561117,2.791801012944578,-97780.68077989496,10.5,10499902219.31922,47.655,-122.3035,60.0,6.816666666666666
2026-02-06T21:29:57+00:00,SAT-53421,25.910403929845142,32.939047804468004,925.962129135809,2.83539346657213,-99307.47290182784,10.5,10499900692.527098,47.655,-122.3035,60.0,6.833333333333333
2026-02-06T21:29:58+00:00,SAT-53421,26.374603611183392,32.7960446871937,928.7899213037817,2.8785857923660085,-100820.25085448644,10.5,10499899179.749146,47.655,-122.3035,60.0,6.85
2026-02-06T21:29:59+00:00,SAT-53421,26.834507994535493,32.651887842220894,931.6607900048832,2.9213768431636598,-102318.9744593856,10.5,10499897681.025541,47.655,-122.3035,60.0,6.866666666666666
2026-02-06T21:30:00+00:00,SAT-53421,27.290120698940733,32.50663022269377,934.5743350398803,2.963765672902041,-103803.61058139573,10.5,10499896196.38942,47.655,-122.3035,60.0,6.883333333333334
2026-02-06T21:30:01+00:00,SAT-53421,27.741447396152335,32.360323996640034,937.5301552660128,3.0057515346256563,-105274.13305897573,10.5,10499894725.866941,47.655,-122.3035,60.0,6.9
2026-02-06T21:30:02+00:00,SAT-53421,28.18849572865,32.213020520879304,940.5278487955678,3.0473338601379436,-106730.52199147856,10.5,10499893269.478008,47.655,-122.3035,60.0,6.916666666666667
2026-02-06T21:30:03+00:00,SAT-53421,28.631275225988666,32.06477031804231,943.5670131741589,3.088512277883877,-108172.7643654755,10.5,10499891827.235634,47.655,-122.3035,60.0,6.933333333333334
2026-02-06T21:30:04+00:00,SAT-53421,29.069797225384793,31.91562305475788,946.6472455768406,3.1292865954101594,-109600.85344043802,10.5,10499890399.146559,47.655,-122.3035,60.0,6.95
2026-02-06T21:30:05+00:00,SAT-53421,29.5040747913135,31.765627522686348,949.7681429867299,3.1696567961151563,-111014.78863490668,10.5,10499888985.211365,47.655,-122.3035,60.0,6.966666666666667
2026-02-06T21:30:06+00:00,SAT-53421,29.93412263646382,31.61483162161593,952.929302370387,3.2096230356072493,-112414.57539894522,10.5,10499887585.4246,47.655,-122.3035,60.0,6.983333333333333
2026-02-06T21:30:07+00:00,SAT-53421,30.359957044090404,31.463282344577134,956.130320849564,3.249185631777013,-113800.22486642622,10.5,10499886199.775133,47.655,-122.3035,60.0,7.0
2026-02-06T21:30:08+00:00,SAT-53421,30.78159579104819,31.31102576518805,959.3707958630495,3.2883450756581296,-115171.7542354263,10.5,10499884828.245764,47.655,-122.3035,60.0,7.016666666666667
2026-02-06T21:30:09+00:00,SAT-53421,31.199058074308226,31.15810702618598,962.6503253393516,3.3271019965920976,-116529.18554814687,10.5,10499883470.814451,47.655,-122.3035,60.0,7.033333333333333
2026-02-06T21:30:10+00:00,SAT-53421,31.61236443513378,31.004570331206946,965.9685078346309,3.3654571859228373,-117872.54652079937,10.5,10499882127.45348,47.655,-122.3035,60.0,7.05
2026-02-06T21:30:11+00:00,SAT-53421,32.02153668859099,30.85045893698939,969.3249426942716,3.403411577389948,-119201.86985689431,10.5,10499880798.130142,47.655,-122.3035,60.0,7.066666666666666
2026-02-06T21:30:12+00:00,SAT-53421,32.426597852826085,30.695815147957376,972.7192301948933,3.4409662452148884,-120517.19318021112,10.5,10499879482.80682,47.655,-122.3035,60.0,7.083333333333333
2026-02-06T21:30:13+00:00,SAT-53421,32.82757208047006,30.540680312278166,976.1509716844579,3.478122395379027,-121818.55872931861,10.5,10499878181.44127,47.655,-122.3035,60.0,7.1
2026-02-06T21:30:14+00:00,SAT-53421,33.22448459139368,30.38509481962381,979.6197697136757,3.514881375745861,-123106.01371209792,10.5,10499876893.986288,47.655,-122.3035,60.0,7.116666666666666
2026-02-06T21:30:15+00:00,SAT-53421,33.61736160899142,30.229098099721494,983.1252281775071,3.551244638513483,-124379.60899066903,10.5,10499875620.39101,47.655,-122.3035,60.0,7.133333333333334
2026-02-06T21:30:16+00:00,SAT-53421,34.006230294609104,30.072728623747306,986.6669524192162,3.58721378212683,-125639.4005493351,10.5,10499874360.599451,47.655,-122.3035,60.0,7.15
