DopplerPredictor/satellites_20260211_204923/SAT-63496.csv

timestamp,satellite,azimuth_deg,elevation_deg,distance_km,relative_velocity_kms,doppler_shift_hz,tx_freq_ghz,rx_freq_hz,ue_lat,ue_lon,ue_alt_m,time_minutes
2026-02-06T21:25:29+00:00,SAT-63496,241.6642669245595,30.18625473796811,842.4187421530354,-5.9210564369646015,207380.44246639562,10.5,10500207380.442467,47.655,-122.3035,60.0,2.3666666666666667
2026-02-06T21:25:30+00:00,SAT-63496,241.67238206332914,30.48424821359734,836.5135592512725,-5.902782181423012,206740.40073730482,10.5,10500206740.400738,47.655,-122.3035,60.0,2.3833333333333333
2026-02-06T21:25:31+00:00,SAT-63496,241.68060287480318,30.786034661364123,830.6266016142943,-5.884109973948886,206086.42104820162,10.5,10500206086.42105,47.655,-122.3035,60.0,2.4
2026-02-06T21:25:32+00:00,SAT-63496,241.688932617014,31.091683182986195,824.7582661271782,-5.865029749876093,205418.1508919046,10.5,10500205418.150892,47.655,-122.3035,60.0,2.4166666666666665
2026-02-06T21:25:33+00:00,SAT-63496,241.69737468461025,31.401264157310347,818.9089597126874,-5.84553112420504,204735.22654179952,10.5,10500204735.226542,47.655,-122.3035,60.0,2.433333333333333
2026-02-06T21:25:34+00:00,SAT-63496,241.70593261625282,31.714849248435172,813.079099650743,-5.825603503142557,204037.27695843787,10.5,10500204037.276958,47.655,-122.3035,60.0,2.45
2026-02-06T21:25:35+00:00,SAT-63496,241.7146101021203,32.03251141885429,807.269113786659,-5.805235969998422,203323.91979315048,10.5,10500203323.919794,47.655,-122.3035,60.0,2.466666666666667
2026-02-06T21:25:36+00:00,SAT-63496,241.72341099230167,32.35432493559639,801.4794408531735,-5.784417332988772,202594.76306232528,10.5,10500202594.763062,47.655,-122.3035,60.0,2.4833333333333334
2026-02-06T21:25:37+00:00,SAT-63496,241.7323393053944,32.680365377762406,795.7105307448049,-5.7631361057016575,201849.4044632284,10.5,10500201849.404463,47.655,-122.3035,60.0,2.5
2026-02-06T21:25:38+00:00,SAT-63496,241.74139923795508,33.010709641745464,789.96284481169,-5.741380504380608,201087.43127886287,10.5,10500201087.431278,47.655,-122.3035,60.0,2.5166666666666666
2026-02-06T21:25:39+00:00,SAT-63496,241.7505951743683,33.3454359448773,784.236856156131,-5.719138435515175,200308.4199433374,10.5,10500200308.419943,47.655,-122.3035,60.0,2.533333333333333
2026-02-06T21:25:40+00:00,SAT-63496,241.75993169753542,33.68462382677001,778.5330499415206,-5.696397511038228,199511.93657413957,10.5,10500199511.936575,47.655,-122.3035,60.0,2.55
2026-02-06T21:25:41+00:00,SAT-63496,241.76941360017037,34.028354149794,772.8519236861063,-5.673145012901643,198697.53573142673,10.5,10500198697.535732,47.655,-122.3035,60.0,2.566666666666667
2026-02-06T21:25:42+00:00,SAT-63496,241.77904589700282,34.37670909551366,767.1939875920906,-5.649367907661948,197864.7609288772,10.5,10500197864.76093,47.655,-122.3035,60.0,2.5833333333333335
2026-02-06T21:25:43+00:00,SAT-63496,241.78883383778734,34.72977215978961,761.5597648601762,-5.625052833378932,197013.14417482374,10.5,10500197013.144175,47.655,-122.3035,60.0,2.6
2026-02-06T21:25:44+00:00,SAT-63496,241.79878292114904,35.08762814469102,755.949792017186,-5.600186116068877,196142.20654851565,10.5,10500196142.206549,47.655,-122.3035,60.0,2.6166666666666667
2026-02-06T21:25:45+00:00,SAT-63496,241.80889890960464,35.4503631488427,750.3646192272691,-5.574753715669105,195251.45630756862,10.5,10500195251.456308,47.655,-122.3035,60.0,2.6333333333333333
2026-02-06T21:25:46+00:00,SAT-63496,241.81918784554776,35.818064551418544,744.8048106569955,-5.54874128706908,194340.3910255319,10.5,10500194340.391026,47.655,-122.3035,60.0,2.65
2026-02-06T21:25:47+00:00,SAT-63496,241.8296560684553,36.19082099689269,739.270944779591,-5.522134130718681,193408.4958619811,10.5,10500193408.495861,47.655,-122.3035,60.0,2.6666666666666665
2026-02-06T21:25:48+00:00,SAT-63496,241.84031023330337,36.568722373171,733.7636147284221,-5.494917187389984,192455.24337905398,10.5,10500192455.24338,47.655,-122.3035,60.0,2.683333333333333
2026-02-06T21:25:49+00:00,SAT-63496,241.8511573305957,36.951859785498016,728.2834286557131,-5.467075076535913,191480.09488493233,10.5,10500191480.094885,47.655,-122.3035,60.0,2.7
2026-02-06T21:25:50+00:00,SAT-63496,241.86220470757922,37.34032552889621,722.8310100530009,-5.438592062524629,190482.49925122733,10.5,10500190482.49925,47.655,-122.3035,60.0,2.716666666666667
2026-02-06T21:25:51+00:00,SAT-63496,241.87346009145818,37.73421305389058,717.4069981052702,-5.409452056474446,189461.89297724658,10.5,10500189461.892977,47.655,-122.3035,60.0,2.7333333333333334
2026-02-06T21:25:52+00:00,SAT-63496,241.88493161417162,38.13361692748672,712.0120480432549,-5.379638604918004,188417.6997929649,10.5,10500188417.699793,47.655,-122.3035,60.0,2.75
2026-02-06T21:25:53+00:00,SAT-63496,241.89662783932522,38.53863278802967,706.6468315070464,-5.349134932488272,187349.33215406927,10.5,10500187349.332153,47.655,-122.3035,60.0,2.7666666666666666
2026-02-06T21:25:54+00:00,SAT-63496,241.90855779112817,38.949357297583596,701.3120368671316,-5.3179238917033915,186256.18948321114,10.5,10500186256.189484,47.655,-122.3035,60.0,2.783333333333333
2026-02-06T21:25:55+00:00,SAT-63496,241.92073098586164,39.3658880844793,696.0083695955085,-5.285988016058612,185137.66002951088,10.5,10500185137.66003,47.655,-122.3035,60.0,2.8
2026-02-06T21:25:56+00:00,SAT-63496,241.93315746579168,39.78832368334299,690.7365525838546,-5.2533094460275915,183993.1182768104,10.5,10500183993.118277,47.655,-122.3035,60.0,2.816666666666667
2026-02-06T21:25:57+00:00,SAT-63496,241.94584783612495,40.21676346219984,685.497326535495,-5.219870041237804,182821.92887253,10.5,10500182821.928873,47.655,-122.3035,60.0,2.8333333333333335
2026-02-06T21:25:58+00:00,SAT-63496,241.95881330493813,40.651307550884894,680.2914502454956,-5.185651284430476,181623.44326393958,10.5,10500181623.443264,47.655,-122.3035,60.0,2.85
2026-02-06T21:25:59+00:00,SAT-63496,241.97206572660687,41.09205675360892,675.1197009765389,-5.150634383440082,180397.00326991166,10.5,10500180397.00327,47.655,-122.3035,60.0,2.8666666666666667
2026-02-06T21:26:00+00:00,SAT-63496,241.98561764913597,41.53911246122839,669.9828747330934,-5.114800138176599,179141.93642207733,10.5,10500179141.936422,47.655,-122.3035,60.0,2.8833333333333333
2026-02-06T21:26:01+00:00,SAT-63496,241.99948236561787,41.992576542766905,664.8817866682448,-5.07812914008448,177857.56295072316,10.5,10500177857.56295,47.655,-122.3035,60.0,2.9
2026-02-06T21:26:02+00:00,SAT-63496,242.01367397038044,42.45255124411663,659.817271291603,-5.04060163843956,176543.19110194358,10.5,10500176543.191101,47.655,-122.3035,60.0,2.9166666666666665
2026-02-06T21:26:03+00:00,SAT-63496,242.02820742016283,42.919139064652974,654.790182810553,-5.002197574096127,175198.11831960542,10.5,10500175198.11832,47.655,-122.3035,60.0,2.933333333333333
2026-02-06T21:26:04+00:00,SAT-63496,242.04309860130923,43.39244262509574,649.8013954378499,-4.962896687052515,173821.63501275078,10.5,10500173821.635014,47.655,-122.3035,60.0,2.95
2026-02-06T21:26:05+00:00,SAT-63496,242.0583644029063,43.872564533374195,644.8518035919357,-4.922678421919312,172413.02124469317,10.5,10500172413.021244,47.655,-122.3035,60.0,2.966666666666667
2026-02-06T21:26:06+00:00,SAT-63496,242.07402279729118,44.35960722894343,639.9423221915357,-4.8815220167190745,170971.54984315945,10.5,10500170971.549843,47.655,-122.3035,60.0,2.9833333333333334
2026-02-06T21:26:07+00:00,SAT-63496,242.09009292829137,44.85367282183845,635.0738868616936,-4.839406472370272,169496.48533148842,10.5,10500169496.48533,47.655,-122.3035,60.0,3.0
2026-02-06T21:26:08+00:00,SAT-63496,242.1065952082131,45.35486291428599,630.2474541702378,-4.796310659493096,167987.08766942198,10.5,10500167987.08767,47.655,-122.3035,60.0,3.0166666666666666
2026-02-06T21:26:09+00:00,SAT-63496,242.12355142465375,45.86327841791262,625.4640017577319,-4.752213264156371,166442.61035293256,10.5,10500166442.610353,47.655,-122.3035,60.0,3.033333333333333
2026-02-06T21:26:10+00:00,SAT-63496,242.140984858384,46.37901934949385,620.7245285215313,-4.7070928612667755,164862.30298462394,10.5,10500164862.302984,47.655,-122.3035,60.0,3.05
2026-02-06T21:26:11+00:00,SAT-63496,242.1589204133864,46.90218461732163,616.0300547266469,-4.660927939342139,163245.41214139704,10.5,10500163245.412142,47.655,-122.3035,60.0,3.066666666666667
2026-02-06T21:26:12+00:00,SAT-63496,242.177384760888,47.43287179256878,611.3816220919019,-4.613696927136059,161591.18230695656,10.5,10500161591.182306,47.655,-122.3035,60.0,3.0833333333333335
2026-02-06T21:26:13+00:00,SAT-63496,242.1964064989248,47.971176864854364,606.7802938495375,-4.565378296668535,159898.85948037964,10.5,10500159898.85948,47.655,-122.3035,60.0,3.1
2026-02-06T21:26:14+00:00,SAT-63496,242.21601632943924,48.51719399025624,602.2271547020603,-4.515950467259208,158167.68781495394,10.5,10500158167.687815,47.655,-122.3035,60.0,3.1166666666666667
2026-02-06T21:26:15+00:00,SAT-63496,242.2362472555239,49.07101520757615,597.7233108748023,-4.465392029386738,156396.91745867988,10.5,10500156396.91746,47.655,-122.3035,60.0,3.1333333333333333
2026-02-06T21:26:16+00:00,SAT-63496,242.25713480092148,49.63273015979652,593.2698899452224,-4.4136816487737525,154585.80119491997,10.5,10500154585.801195,47.655,-122.3035,60.0,3.15
2026-02-06T21:26:17+00:00,SAT-63496,242.27871725554297,50.20242578207758,588.8680407678609,-4.360798249668935,152733.6008617129,10.5,10500152733.600863,47.655,-122.3035,60.0,3.1666666666666665
2026-02-06T21:26:18+00:00,SAT-63496,242.30103594978368,50.78018598965836,584.5189332165093,-4.306720927123733,150839.5842793323,10.5,10500150839.58428,47.655,-122.3035,60.0,3.183333333333333
2026-02-06T21:26:19+00:00,SAT-63496,242.32413556265323,51.36609133072676,580.2237580138636,-4.251429176751634,148903.0332974292,10.5,10500148903.033297,47.655,-122.3035,60.0,3.2
2026-02-06T21:26:20+00:00,SAT-63496,242.34806446764293,51.96021864490078,575.9837263320376,-4.194902828732411,146923.241483581,10.5,10500146923.241484,47.655,-122.3035,60.0,3.216666666666667
2026-02-06T21:26:21+00:00,SAT-63496,242.37287512279397,52.562640688025176,571.8000694588925,-4.137122185510141,144899.5189460586,10.5,10500144899.518946,47.655,-122.3035,60.0,3.2333333333333334
2026-02-06T21:26:22+00:00,SAT-63496,242.39862451091497,53.17342574973321,567.6740383270389,-4.078068086846787,142831.19461227825,10.5,10500142831.194613,47.655,-122.3035,60.0,3.25
2026-02-06T21:26:23+00:00,SAT-63496,242.42537463825752,53.79263725399347,563.6069029779596,-4.017722003342583,140717.61950428094,10.5,10500140717.619505,47.655,-122.3035,60.0,3.2666666666666666
2026-02-06T21:26:24+00:00,SAT-63496,242.45319310035225,54.42033334655853,559.5999519328622,-3.9560661208177965,138558.16969413843,10.5,10500138558.169695,47.655,-122.3035,60.0,3.283333333333333
2026-02-06T21:26:25+00:00,SAT-63496,242.4821537263074,55.05656646809079,555.6544914793774,-3.8930833785419026,136352.24764290094,10.5,10500136352.247643,47.655,-122.3035,60.0,3.3
2026-02-06T21:26:26+00:00,SAT-63496,242.51233731417477,55.70138290521362,551.7718449201277,-3.8287576385053295,134099.28812920957,10.5,10500134099.28813,47.655,-122.3035,60.0,3.316666666666667
2026-02-06T21:26:27+00:00,SAT-63496,242.54383247301948,56.35482234053266,547.9533516524826,-3.763073766443982,131798.76108711786,10.5,10500131798.761087,47.655,-122.3035,60.0,3.3333333333333335
2026-02-06T21:26:28+00:00,SAT-63496,242.57673658997223,57.01691738880999,544.2003661675025,-3.696017692626461,129450.17373511723,10.5,10500129450.173735,47.655,-122.3035,60.0,3.35
2026-02-06T21:26:29+00:00,SAT-63496,242.61115694469456,57.68769311554665,540.5142569882594,-3.627576564205632,127053.07591213363,10.5,10500127053.075912,47.655,-122.3035,60.0,3.3666666666666667
2026-02-06T21:26:30+00:00,SAT-63496,242.64721199799223,58.36716655449407,536.8964054562169,-3.5577388328023094,124607.06314507835,10.5,10500124607.063145,47.655,-122.3035,60.0,3.3833333333333333
2026-02-06T21:26:31+00:00,SAT-63496,242.68503288715957,59.055346214135334,533.3482044302574,-3.4864943795337964,122111.7810278765,10.5,10500122111.781029,47.655,-122.3035,60.0,3.4
2026-02-06T21:26:32+00:00,SAT-63496,242.72476516792455,59.75223158105545,529.8710568610188,-3.413834627080914,119566.9291465284,10.5,10500119566.929146,47.655,-122.3035,60.0,3.4166666666666665
2026-02-06T21:26:33+00:00,SAT-63496,242.76657085162617,60.457812619465734,526.466374253464,-3.3397526367897425,116972.26448002337,10.5,10500116972.26448,47.655,-122.3035,60.0,3.433333333333333
2026-02-06T21:26:34+00:00,SAT-63496,242.81063079781362,61.172069265214034,523.1355750326077,-3.264243265641971,114327.60689810514,10.5,10500114327.606897,47.655,-122.3035,60.0,3.45
2026-02-06T21:26:35+00:00,SAT-63496,242.85714753668444,61.89497092864066,519.8800827526954,-3.1873032534964696,111632.84221684099,10.5,10500111632.842216,47.655,-122.3035,60.0,3.466666666666667
2026-02-06T21:26:36+00:00,SAT-63496,242.9063486142745,62.626475994249574,516.7013242193735,-3.1089313630002233,108887.92709889436,10.5,10500108887.9271,47.655,-122.3035,60.0,3.4833333333333334
2026-02-06T21:26:37+00:00,SAT-63496,242.9584905767528,63.366531330606925,513.600727472325,-3.0291284713928377,106092.89226890689,10.5,10500106092.89227,47.655,-122.3035,60.0,3.5
2026-02-06T21:26:38+00:00,SAT-63496,243.01386374119352,64.11507180219999,510.5797196763444,-2.9478977257702748,103247.84795149145,10.5,10500103247.847952,47.655,-122.3035,60.0,3.5166666666666666
2026-02-06T21:26:39+00:00,SAT-63496,243.07279793980237,64.87201980088174,507.639724857567,-2.865244637648043,100352.98718323477,10.5,10500100352.987183,47.655,-122.3035,60.0,3.533333333333333
2026-02-06T21:26:40+00:00,SAT-63496,243.13566947769536,65.63728478583727,504.78216154538876,-2.781177194761917,97408.5897284318,10.5,10500097408.58973,47.655,-122.3035,60.0,3.55
2026-02-06T21:26:41+00:00,SAT-63496,243.20290961373308,66.41076283848948,502.0084403028834,-2.6957059490747066,94415.02516145492,10.5,10500094415.025162,47.655,-122.3035,60.0,3.566666666666667
2026-02-06T21:26:42+00:00,SAT-63496,243.27501496826778,67.19233622808429,499.3199611694508,-2.6088441629236163,91372.75798545261,10.5,10500091372.757986,47.655,-122.3035,60.0,3.5833333333333335
2026-02-06T21:26:43+00:00,SAT-63496,243.35256038863508,67.98187300654301,496.71811095770755,-2.520607852041621,88282.34913914018,10.5,10500088282.349138,47.655,-122.3035,60.0,3.6
2026-02-06T21:26:44+00:00,SAT-63496,243.43621497618633,68.77922660497418,494.2042605074734,-2.4310159286989617,85144.46101022026,10.5,10500085144.46101,47.655,-122.3035,60.0,3.6166666666666667
2026-02-06T21:26:45+00:00,SAT-63496,243.5267622210064,69.5842354613685,491.7797617969991,-2.3400902118489904,81959.85779073334,10.5,10500081959.85779,47.655,-122.3035,60.0,3.6333333333333333
2026-02-06T21:26:46+00:00,SAT-63496,243.62512552446145,70.39672263689664,489.4459450440756,-2.2478555433781695,78729.40954862439,10.5,10500078729.409548,47.655,-122.3035,60.0,3.65
2026-02-06T21:26:47+00:00,SAT-63496,243.73240087152038,71.21649544883931,487.2041156912052,-2.1543398397521893,75454.09403660844,10.5,10500075454.094036,47.655,-122.3035,60.0,3.6666666666666665
2026-02-06T21:26:48+00:00,SAT-63496,243.84989910139606,72.04334509222319,485.05555133926435,-2.0595740893901895,72134.99660020463,10.5,10500072134.996601,47.655,-122.3035,60.0,3.683333333333333
2026-02-06T21:26:49+00:00,SAT-63496,243.97920123204082,72.87704621287529,483.0014986837866,-1.9635924427652607,68773.31333343695,10.5,10500068773.313334,47.655,-122.3035,60.0,3.7
2026-02-06T21:26:50+00:00,SAT-63496,244.1222317961559,73.71735644111502,481.0431703613847,-1.8664321817892884,65370.35000656197,10.5,10500065370.350006,47.655,-122.3035,60.0,3.716666666666667
2026-02-06T21:26:51+00:00,SAT-63496,244.28135741309802,74.56401579991828,479.18174182670714,-1.7681337365836935,61927.52265345108,10.5,10500061927.522654,47.655,-122.3035,60.0,3.7333333333333334
2026-02-06T21:26:52+00:00,SAT-63496,244.45952133620833,75.41674593998641,477.41834821266883,-1.6687406472073736,58446.35623114115,10.5,10500058446.356232,47.655,-122.3035,60.0,3.75
2026-02-06T21:26:53+00:00,SAT-63496,244.6604302662595,76.27524907458063,475.75408122885034,-1.5682995484266262,54928.48408641279,10.5,10500054928.484087,47.655,-122.3035,60.0,3.7666666666666666
2026-02-06T21:26:54+00:00,SAT-63496,244.88881872963256,77.13920645911116,474.1899860750878,-1.4668601028338724,51375.645613325134,10.5,10500051375.645613,47.655,-122.3035,60.0,3.783333333333333
2026-02-06T21:26:55+00:00,SAT-63496,245.15083132603382,78.00827612175627,472.7270584217629,-1.3644749354492374,47789.683962686584,10.5,10500047789.683962,47.655,-122.3035,60.0,3.8
2026-02-06T21:26:56+00:00,SAT-63496,245.45458896707615,78.88208939634097,471.366241455318,-1.2611995149837683,44172.54188339043,10.5,10500044172.541883,47.655,-122.3035,60.0,3.816666666666667
2026-02-06T21:26:57+00:00,SAT-63496,245.81105121108476,79.76024545516586,470.1084230421884,-1.157092082836497,40526.25923559164,10.5,10500040526.259235,47.655,-122.3035,60.0,3.8333333333333335
2026-02-06T21:26:58+00:00,SAT-63496,246.23537211906364,80.64230250604858,468.9544329635472,-1.0522134867792643,36852.967165645896,10.5,10500036852.967165,47.655,-122.3035,60.0,3.85
2026-02-06T21:26:59+00:00,SAT-63496,246.74911280540837,81.52776306514822,467.90504031592064,-0.9466270546709701,33154.88368304844,10.5,10500033154.883682,47.655,-122.3035,60.0,3.8666666666666667
2026-02-06T21:27:00+00:00,SAT-63496,247.3840139357051,82.4160484122116,466.9609510377487,-0.8403984201774519,29434.30755640706,10.5,10500029434.307556,47.655,-122.3035,60.0,3.8833333333333333
2026-02-06T21:27:01+00:00,SAT-63496,248.18877517096033,83.30645202399036,466.12280560976063,-0.7335953331490362,25693.611672061747,10.5,10500025693.611671,47.655,-122.3035,60.0,3.9
2026-02-06T21:27:02+00:00,SAT-63496,249.24204528482383,84.19804931653188,465.3911769444636,-0.626287474141604,21935.236537827917,10.5,10500021935.236538,47.655,-122.3035,60.0,3.9166666666666665
2026-02-06T21:27:03+00:00,SAT-63496,250.6793852815968,85.08950838111248,464.76656846061263,-0.5185462309458152,18161.682456104547,10.5,10500018161.682457,47.655,-122.3035,60.0,3.933333333333333
2026-02-06T21:27:04+00:00,SAT-63496,252.75527267715574,85.97864971958633,464.24941238055254,-0.41044447246196575,14375.501604015135,10.5,10500014375.501604,47.655,-122.3035,60.0,3.95
2026-02-06T21:27:05+00:00,SAT-63496,256.00637010801864,86.86126767333607,463.84006825308,-0.30205631269822697,10579.289767627788,10.5,10500010579.289768,47.655,-122.3035,60.0,3.966666666666667
2026-02-06T21:27:06+00:00,SAT-63496,261.7686850694788,87.72728042019546,463.53882171167226,-0.19345685808161747,6775.677491716564,10.5,10500006775.677492,47.655,-122.3035,60.0,3.9833333333333334
2026-02-06T21:27:07+00:00,SAT-63496,274.2721434965113,88.54384778041835,463.3458834847301,-0.0847219540262106,2967.3212035080996,10.5,10500002967.321203,47.655,-122.3035,60.0,4.0
2026-02-06T21:27:08+00:00,SAT-63496,309.6557944583649,89.15008619674474,463.26138865857104,0.024072079510953515,-843.1060492689643,10.5,10499999156.893951,47.655,-122.3035,60.0,4.016666666666667
2026-02-06T21:27:09+00:00,SAT-63496,8.36996086337376,89.01331662902157,463.28539620415864,0.13284871492383016,-4652.923946139487,10.5,10499995347.076054,47.655,-122.3035,60.0,4.033333333333333
2026-02-06T21:27:10+00:00,SAT-63496,33.737561941003925,88.30490850151021,463.417888770011,0.2415314862114408,-8459.45432429834,10.5,10499991540.545675,47.655,-122.3035,60.0,4.05
2026-02-06T21:27:11+00:00,SAT-63496,43.33962417462213,87.4665969091942,463.65877274363925,0.35004425176580056,-12260.030382555207,10.5,10499987739.969618,47.655,-122.3035,60.0,4.066666666666666
2026-02-06T21:27:12+00:00,SAT-63496,48.09901165879459,86.59392070829301,464.0078785750722,0.4583114706715665,-16052.006358517025,10.5,10499983947.99364,47.655,-122.3035,60.0,4.083333333333333
2026-02-06T21:27:13+00:00,SAT-63496,50.904884124353444,85.70889424697695,464.4649613759377,0.56625844776186,-19832.766111479465,10.5,10499980167.233889,47.655,-122.3035,60.0,4.1
2026-02-06T21:27:14+00:00,SAT-63496,52.74754675831346,84.81903367853025,465.0297017629448,0.6738116038701003,-23599.73258778929,10.5,10499976400.267412,47.655,-122.3035,60.0,4.116666666666666
2026-02-06T21:27:15+00:00,SAT-63496,54.04826552845338,83.92771212858347,465.70170697089094,0.7808987054978838,-27350.37586478503,10.5,10499972649.624136,47.655,-122.3035,60.0,4.133333333333334
2026-02-06T21:27:16+00:00,SAT-63496,55.01487671023691,83.03677552010807,466.4805121947233,0.8874491113765349,-31082.221786425383,10.5,10499968917.778214,47.655,-122.3035,60.0,4.15
2026-02-06T21:27:17+00:00,SAT-63496,55.761316123849035,82.14740031149306,467.36558217750036,0.9933939814235703,-34792.859281828525,10.5,10499965207.140718,47.655,-122.3035,60.0,4.166666666666667
2026-02-06T21:27:18+00:00,SAT-63496,56.35513098009155,81.26042959526819,468.356313006748,1.0986664923955916,-38479.947918348604,10.5,10499961520.052082,47.655,-122.3035,60.0,4.183333333333334
2026-02-06T21:27:19+00:00,SAT-63496,56.83885795509061,80.37652269965093,469.4520341258934,1.2032020366904554,-42141.224864468684,10.5,10499957858.775135,47.655,-122.3035,60.0,4.2
2026-02-06T21:27:20+00:00,SAT-63496,57.24059790274048,79.49622842099437,470.65201054396533,1.3069383790720857,-45774.510378966566,10.5,10499954225.48962,47.655,-122.3035,60.0,4.216666666666667
2026-02-06T21:27:21+00:00,SAT-63496,57.57965173105607,78.62002360237635,471.95544520160075,1.4098158327803116,-49377.71397902636,10.5,10499950622.28602,47.655,-122.3035,60.0,4.233333333333333
2026-02-06T21:27:22+00:00,SAT-63496,57.86971059522704,77.74833463600379,473.3614815126879,1.5117773857984513,-52948.83886266325,10.5,10499947051.161137,47.655,-122.3035,60.0,4.25
2026-02-06T21:27:23+00:00,SAT-63496,58.120753645841674,76.8815500210681,474.8692060319402,1.612768841336754,-56485.98682904797,10.5,10499943514.01317,47.655,-122.3035,60.0,4.266666666666667
2026-02-06T21:27:24+00:00,SAT-63496,58.340224965564786,76.02002796028187,476.4776512625755,1.712738899901379,-59987.361152909594,10.5,10499940012.638847,47.655,-122.3035,60.0,4.283333333333333
2026-02-06T21:27:25+00:00,SAT-63496,58.53378980026705,75.16410111655239,478.1857985458442,1.8116392644592334,-63451.27026785293,10.5,10499936548.729733,47.655,-122.3035,60.0,4.3
2026-02-06T21:27:26+00:00,SAT-63496,58.70583553676751,74.31407965905453,479.9925810554416,1.9094246739579874,-66876.12894037136,10.5,10499933123.87106,47.655,-122.3035,60.0,4.316666666666666
2026-02-06T21:27:27+00:00,SAT-63496,58.85981251335535,73.47025328746062,481.8968868253493,2.006052995512758,-70260.46149861436,10.5,10499929739.538502,47.655,-122.3035,60.0,4.333333333333333
2026-02-06T21:27:28+00:00,SAT-63496,58.99847135190053,72.63289259018201,483.8975618696163,2.1014852159464725,-73602.90153609522,10.5,10499926397.098463,47.655,-122.3035,60.0,4.35
2026-02-06T21:27:29+00:00,SAT-63496,59.1240316724232,71.80225001680232,485.9934132937038,2.195685470509176,-76902.19291756282,10.5,10499923097.807083,47.655,-122.3035,60.0,4.366666666666666
2026-02-06T21:27:30+00:00,SAT-63496,59.23830426397594,70.9785605896051,488.1832124344713,2.288621031877744,-80157.18939372488,10.5,10499919842.810606,47.655,-122.3035,60.0,4.383333333333334
2026-02-06T21:27:31+00:00,SAT-63496,59.34278102469801,70.16204246162921,490.4656979891921,2.3802623048795426,-83366.85441644833,10.5,10499916633.145584,47.655,-122.3035,60.0,4.4
2026-02-06T21:27:32+00:00,SAT-63496,59.4387021697679,69.35289737615234,492.8395791393084,2.470582777061387,-86530.25940747502,10.5,10499913469.740593,47.655,-122.3035,60.0,4.416666666666667
2026-02-06T21:27:33+00:00,SAT-63496,59.52710713611087,68.55131107975775,495.3035386248848,2.559558954847226,-89646.58152239399,10.5,10499910353.418478,47.655,-122.3035,60.0,4.433333333333334
2026-02-06T21:27:34+00:00,SAT-63496,59.60887361564422,67.75745371460778,497.8562357553934,2.6471703509630746,-92715.10321020913,10.5,10499907284.89679,47.655,-122.3035,60.0,4.45
2026-02-06T21:27:35+00:00,SAT-63496,59.68474782905686,66.97148018769295,500.49630940795504,2.733399384793281,-95735.20872339442,10.5,10499904264.791277,47.655,-122.3035,60.0,4.466666666666667
2026-02-06T21:27:36+00:00,SAT-63496,59.75536824573695,66.19353055380527,503.22238092620677,2.8182312776587968,-98706.3804500958,10.5,10499901293.61955,47.655,-122.3035,60.0,4.483333333333333
2026-02-06T21:27:37+00:00,SAT-63496,59.82128434818571,65.42373041502198,506.033056914726,2.901654015123914,-101628.1975939538,10.5,10499898371.802406,47.655,-122.3035,60.0,4.5
2026-02-06T21:27:38+00:00,SAT-63496,59.88297160985473,64.66219131933435,508.9269319958637,2.983658195954491,-104500.3308839816,10.5,10499895499.669115,47.655,-122.3035,60.0,4.516666666666667
2026-02-06T21:27:39+00:00,SAT-63496,59.94084354539211,63.909011190185566,511.9025914159395,3.0642369921520003,-107322.54117478833,10.5,10499892677.458826,47.655,-122.3035,60.0,4.533333333333333
2026-02-06T21:27:40+00:00,SAT-63496,59.99526148310532,63.164274755313045,514.9586136115802,3.143385960401573,-110094.67284269212,10.5,10499889905.327158,47.655,-122.3035,60.0,4.55
2026-02-06T21:27:41+00:00,SAT-63496,60.046542542716665,62.428054011168086,518.0935725880091,3.221103001720565,-112816.65237244204,10.5,10499887183.347628,47.655,-122.3035,60.0,4.566666666666666
2026-02-06T21:27:42+00:00,SAT-63496,60.09496619507886,61.70040868267469,521.3060402570944,3.29738820553399,-115488.48289608037,10.5,10499884511.517103,47.655,-122.3035,60.0,4.583333333333333
2026-02-06T21:27:43+00:00,SAT-63496,60.14077968695921,60.98138670478862,524.5945886198888,3.372243729804036,-118110.2399945711,10.5,10499881889.760006,47.655,-122.3035,60.0,4.6
2026-02-06T21:27:44+00:00,SAT-63496,60.18420255423734,60.271024713391895,527.9577918296229,3.445673723717317,-120682.06898998049,10.5,10499879317.93101,47.655,-122.3035,60.0,4.616666666666666
2026-02-06T21:27:45+00:00,SAT-63496,60.22543039810965,59.569348534386314,531.3942281775899,3.5176841352869745,-123204.17820688883,10.5,10499876795.821793,47.655,-122.3035,60.0,4.633333333333334
2026-02-06T21:27:46+00:00,SAT-63496,60.26463805916731,58.87637369278005,534.9024818871505,3.5882826735966504,-125676.83765001463,10.5,10499874323.16235,47.655,-122.3035,60.0,4.65
2026-02-06T21:27:47+00:00,SAT-63496,60.30198230062789,58.192105907062036,538.4811448700823,3.6574786317468178,-128100.37280304625,10.5,10499871899.627197,47.655,-122.3035,60.0,4.666666666666667
2026-02-06T21:27:48+00:00,SAT-63496,60.337604085273895,57.516541595686704,542.1288183063493,3.7252827820126657,-130475.16095662751,10.5,10499869524.839043,47.655,-122.3035,60.0,4.683333333333334
2026-02-06T21:27:49+00:00,SAT-63496,60.371630516664446,56.84966837849898,545.8441141193125,3.791707288457301,-132801.6281477023,10.5,10499867198.371853,47.655,-122.3035,60.0,4.7
2026-02-06T21:27:50+00:00,SAT-63496,60.40417650173845,56.19146556898045,549.625656363785,3.85676555606632,-135080.2438755693,10.5,10499864919.756124,47.655,-122.3035,60.0,4.716666666666667
2026-02-06T21:27:51+00:00,SAT-63496,60.435346178879946,55.541904667401845,553.4720824636291,3.920472171975508,-137311.51904342716,10.5,10499862688.480957,47.655,-122.3035,60.0,4.733333333333333
2026-02-06T21:27:52+00:00,SAT-63496,60.46523415085549,54.9009498373965,557.3820443907367,3.9828427274717466,-139495.9997240936,10.5,10499860504.000277,47.655,-122.3035,60.0,4.75
2026-02-06T21:27:53+00:00,SAT-63496,60.49392655105715,54.26855838531077,561.3542096664884,4.043893796284539,-141634.26639968262,10.5,10499858365.7336,47.655,-122.3035,60.0,4.766666666666667
2026-02-06T21:27:54+00:00,SAT-63496,60.521501970932924,53.64468121539198,565.3872623415624,4.103642783948336,-143726.928685636,10.5,10499856273.071314,47.655,-122.3035,60.0,4.783333333333333
2026-02-06T21:27:55+00:00,SAT-63496,60.54803226743646,53.029263281806415,569.4799038255096,4.162107858697792,-145774.62291038292,10.5,10499854225.37709,47.655,-122.3035,60.0,4.8
2026-02-06T21:27:56+00:00,SAT-63496,60.573583269280434,52.4222440236991,573.6308536474091,4.219307834132789,-147778.00800577275,10.5,10499852221.991995,47.655,-122.3035,60.0,4.816666666666666
2026-02-06T21:27:57+00:00,SAT-63496,60.598215395811565,51.823557790513966,577.838850099503,4.275262155878618,-149737.76503985794,10.5,10499850262.23496,47.655,-122.3035,60.0,4.833333333333333
2026-02-06T21:27:58+00:00,SAT-63496,60.62198420189643,51.23313424254474,582.102650867528,4.329990711026616,-151654.59054269962,10.5,10499848345.409458,47.655,-122.3035,60.0,4.85
2026-02-06T21:27:59+00:00,SAT-63496,60.644940857156456,50.650898752127375,586.4210334709969,4.383513856547803,-153529.19750153265,10.5,10499846470.802498,47.655,-122.3035,60.0,4.866666666666666
2026-02-06T21:28:00+00:00,SAT-63496,60.66713257067347,50.07677277454365,590.7927957318202,4.435852287085199,-155362.31073029392,10.5,10499844637.68927,47.655,-122.3035,60.0,4.883333333333334
2026-02-06T21:28:01+00:00,SAT-63496,60.68860296672964,49.51067421169801,595.2167561110712,4.4870269889778704,-157154.66525934963,10.5,10499842845.334742,47.655,-122.3035,60.0,4.9
2026-02-06T21:28:02+00:00,SAT-63496,60.70939241866606,48.952517756923406,599.6917539999014,4.537059171478841,-158907.00392645577,10.5,10499841092.996073,47.655,-122.3035,60.0,4.916666666666667
2026-02-06T21:28:03+00:00,SAT-63496,60.72953834619421,48.40221522455913,604.2166499418558,4.5859702222505385,-160620.07581802027,10.5,10499839379.924183,47.655,-122.3035,60.0,4.933333333333334
2026-02-06T21:28:04+00:00,SAT-63496,60.74907548063727,47.85967586188379,608.7903258108043,4.633781631594567,-162294.6336153091,10.5,10499837705.366385,47.655,-122.3035,60.0,4.95
2026-02-06T21:28:05+00:00,SAT-63496,60.768036102055696,47.32480664782286,613.4116849133063,4.680514956192384,-163931.43232449173,10.5,10499836068.567675,47.655,-122.3035,60.0,4.966666666666667
2026-02-06T21:28:06+00:00,SAT-63496,60.786450251721604,46.79751257425711,618.0796520548122,4.726191769635572,-165531.22754400148,10.5,10499834468.772455,47.655,-122.3035,60.0,4.983333333333333
2026-02-06T21:28:07+00:00,SAT-63496,60.80434592292593,46.2776969122979,622.7931735565279,4.770833614498043,-167094.77378590175,10.5,10499832905.226213,47.655,-122.3035,60.0,5.0
2026-02-06T21:28:08+00:00,SAT-63496,60.82174923247691,45.765261464042275,627.5512172244804,4.814461980769099,-168622.8237205205,10.5,10499831377.17628,47.655,-122.3035,60.0,5.016666666666667
2026-02-06T21:28:09+00:00,SAT-63496,60.8386845755082,45.26010679769626,632.3527722970747,4.857098243315722,-170116.125986115,10.5,10499829883.874014,47.655,-122.3035,60.0,5.033333333333333
2026-02-06T21:28:10+00:00,SAT-63496,60.855174764835674,44.76213247127703,637.1968493302797,4.898763647440104,-171575.42468303553,10.5,10499828424.575317,47.655,-122.3035,60.0,5.05
2026-02-06T21:28:11+00:00,SAT-63496,60.871241157312,44.27123724042304,642.0824800684106,4.939479277885999,-173001.4582881968,10.5,10499826998.541712,47.655,-122.3035,60.0,5.066666666666666
2026-02-06T21:28:12+00:00,SAT-63496,60.886903768131674,43.78731925299181,647.0087172840006,4.979266007409166,-174394.9578537971,10.5,10499825605.042147,47.655,-122.3035,60.0,5.083333333333333
2026-02-06T21:28:13+00:00,SAT-63496,60.902181374445036,43.310276233095216,651.9746345663826,5.01814453513373,-175756.64835072056,10.5,10499824243.351648,47.655,-122.3035,60.0,5.1
2026-02-06T21:28:14+00:00,SAT-63496,60.917091609857515,42.840005646645665,656.9793261485216,5.056135280859372,-177087.24496672762,10.5,10499822912.755033,47.655,-122.3035,60.0,5.116666666666666
2026-02-06T21:28:15+00:00,SAT-63496,60.931651049904055,42.37640486311701,662.0219066284395,5.0932584169195945,-178387.45422226647,10.5,10499821612.545778,47.655,-122.3035,60.0,5.133333333333334
2026-02-06T21:28:16+00:00,SAT-63496,60.945875290349264,41.919371300836026,667.101510722413,5.129533888773254,-179657.9746916754,10.5,10499820342.025309,47.655,-122.3035,60.0,5.15
2026-02-06T21:28:17+00:00,SAT-63496,60.95977901868805,41.46880255822067,672.2172930387061,5.1649812725617466,-180899.4920142332,10.5,10499819100.507986,47.655,-122.3035,60.0,5.166666666666667
2026-02-06T21:28:18+00:00,SAT-63496,60.97337607894878,41.02459654598769,677.3684277092435,5.199619907385022,-182112.68352702435,10.5,10499817887.316473,47.655,-122.3035,60.0,5.183333333333334
2026-02-06T21:28:19+00:00,SAT-63496,60.986679531670624,40.586651596488046,682.5541081532044,5.233468785758746,-183298.2144282857,10.5,10499816701.785572,47.655,-122.3035,60.0,5.2
2026-02-06T21:28:20+00:00,SAT-63496,60.999701708419586,40.15486657237016,687.7735467313671,5.266546612991899,-184456.73985706118,10.5,10499815543.260143,47.655,-122.3035,60.0,5.216666666666667
2026-02-06T21:28:21+00:00,SAT-63496,61.01245426205997,39.72914096049327,693.0259744596732,5.298871730660581,-185588.90221293058,10.5,10499814411.097788,47.655,-122.3035,60.0,5.233333333333333
2026-02-06T21:28:22+00:00,SAT-63496,61.024948212724134,39.30937496313562,698.310640646468,5.330462151441382,-186695.33237602163,10.5,10499813304.667624,47.655,-122.3035,60.0,5.25
2026-02-06T21:28:23+00:00,SAT-63496,61.037193990125786,38.89546957774875,703.6268125644851,5.361335543775982,-187776.64916989944,10.5,10499812223.35083,47.655,-122.3035,60.0,5.266666666666667
2026-02-06T21:28:24+00:00,SAT-63496,61.04920147264992,38.48732667005514,708.9737751075327,5.391509275005544,-188833.46087231525,10.5,10499811166.539127,47.655,-122.3035,60.0,5.283333333333333
2026-02-06T21:28:25+00:00,SAT-63496,61.060980023414665,38.08484903657831,714.3508304902,5.421000298306042,-189866.36125520358,10.5,10499810133.638744,47.655,-122.3035,60.0,5.3
2026-02-06T21:28:26+00:00,SAT-63496,61.07253852323054,37.68794046891774,719.7572978348043,5.449825247194778,-190875.9328947,10.5,10499809124.067106,47.655,-122.3035,60.0,5.316666666666666
2026-02-06T21:28:27+00:00,SAT-63496,61.08388540129706,37.29650580436452,725.1925128525874,5.478000430062066,-191862.74697961778,10.5,10499808137.253021,47.655,-122.3035,60.0,5.333333333333333
2026-02-06T21:28:28+00:00,SAT-63496,61.09502866374786,36.91045097126731,730.6558275194602,5.505541757242324,-192827.36075716888,10.5,10499807172.639242,47.655,-122.3035,60.0,5.35
2026-02-06T21:28:29+00:00,SAT-63496,61.10597591958357,36.52968303411605,736.1466096790164,5.532464836998757,-193770.3208947536,10.5,10499806229.679106,47.655,-122.3035,60.0,5.366666666666666
2026-02-06T21:28:30+00:00,SAT-63496,61.116734405225294,36.154110226749346,741.6642427412672,5.5587848738239956,-194692.15991801885,10.5,10499805307.840082,47.655,-122.3035,60.0,5.383333333333334
2026-02-06T21:28:31+00:00,SAT-63496,61.12731100682721,35.78364198796398,747.2081252799569,5.5845167819298975,-195593.4001857509,10.5,10499804406.599813,47.655,-122.3035,60.0,5.4
2026-02-06T21:28:32+00:00,SAT-63496,61.13771228139431,35.41818898504927,752.7776707430576,5.609675119626595,-196474.5515915522,10.5,10499803525.448408,47.655,-122.3035,60.0,5.416666666666667
2026-02-06T21:28:33+00:00,SAT-63496,61.14794447620009,35.0576631379427,758.3723070978236,5.634274062092325,-197336.11061012553,10.5,10499802663.889389,47.655,-122.3035,60.0,5.433333333333334
2026-02-06T21:28:34+00:00,SAT-63496,61.158013546676614,34.70197764135181,763.9914764486854,5.658327515910795,-198178.56430885714,10.5,10499801821.435692,47.655,-122.3035,60.0,5.45
2026-02-06T21:28:35+00:00,SAT-63496,61.167925173542834,34.35104697620396,769.6346347693749,5.681848992160327,-199002.3859028616,10.5,10499800997.614098,47.655,-122.3035,60.0,5.466666666666667
2026-02-06T21:28:36+00:00,SAT-63496,61.177684778165656,34.00478692616025,775.3012515084826,5.70485174330157,-199808.0395493688,10.5,10499800191.960451,47.655,-122.3035,60.0,5.483333333333333
2026-02-06T21:28:37+00:00,SAT-63496,61.18729753751606,33.6631145828023,780.9908093315298,5.727348605746021,-200595.97483380724,10.5,10499799404.025166,47.655,-122.3035,60.0,5.5
2026-02-06T21:28:38+00:00,SAT-63496,61.19676839739209,33.325948357897715,786.7028037060381,5.749352205944339,-201366.6339878889,10.5,10499798633.366013,47.655,-122.3035,60.0,5.516666666666667
2026-02-06T21:28:39+00:00,SAT-63496,61.2061020856125,32.99320798096602,792.4367426921289,5.770874763934001,-202120.4450090169,10.5,10499797879.55499,47.655,-122.3035,60.0,5.533333333333333
2026-02-06T21:28:40+00:00,SAT-63496,61.21530312351182,32.6648145064806,798.1921465372012,5.791928247742692,-202857.82706814545,10.5,10499797142.172932,47.655,-122.3035,60.0,5.55
2026-02-06T21:28:41+00:00,SAT-63496,61.22437583734854,32.34069031006627,803.9685474245978,5.8125243171391725,-203579.18853969738,10.5,10499796420.81146,47.655,-122.3035,60.0,5.566666666666666
2026-02-06T21:28:42+00:00,SAT-63496,61.233324368619854,32.020759086382014,809.765489166171,5.832674302693486,-204284.92626816386,10.5,10499795715.073732,47.655,-122.3035,60.0,5.583333333333333
2026-02-06T21:28:43+00:00,SAT-63496,61.24215268376657,31.70494584656272,815.582526873968,5.852389303189091,-204975.42897988934,10.5,10499795024.57102,47.655,-122.3035,60.0,5.6
2026-02-06T21:28:44+00:00,SAT-63496,61.250864583480904,31.393176908971665,821.4192267290649,5.871680063876653,-205651.07301900454,10.5,10499794348.926981,47.655,-122.3035,60.0,5.616666666666666
2026-02-06T21:28:45+00:00,SAT-63496,61.2594637110662,31.08537989537782,827.2751656289826,5.890557101162719,-206312.22671455113,10.5,10499793687.773285,47.655,-122.3035,60.0,5.633333333333334
2026-02-06T21:28:46+00:00,SAT-63496,61.26795356066103,30.781483719322168,833.1499309594537,5.909030648688363,-206959.24849192775,10.5,10499793040.751509,47.655,-122.3035,60.0,5.65
2026-02-06T21:28:47+00:00,SAT-63496,61.276337484747216,30.481418576509647,839.0431203124193,5.927110674510313,-207592.48747464584,10.5,10499792407.512526,47.655,-122.3035,60.0,5.666666666666667
2026-02-06T21:28:48+00:00,SAT-63496,61.28461870129652,30.185115933469206,844.9543412211525,5.944806849028353,-208212.2823610116,10.5,10499791787.71764,47.655,-122.3035,60.0,5.683333333333334
