DopplerPredictor/satellites_20260211_204923/SAT-54847.csv

timestamp,satellite,azimuth_deg,elevation_deg,distance_km,relative_velocity_kms,doppler_shift_hz,tx_freq_ghz,rx_freq_hz,ue_lat,ue_lon,ue_alt_m,time_minutes
2026-02-06T21:32:42+00:00,SAT-54847,162.71562317871252,30.002197171226285,1011.5199745611006,-0.10950911207720321,3835.4723280284584,10.5,10500003835.472328,47.655,-122.3035,60.0,9.583333333333334
2026-02-06T21:32:43+00:00,SAT-54847,162.24359438306504,30.00728487205201,1011.4107590278406,-0.06188227252655322,2167.3789456331447,10.5,10500002167.378946,47.655,-122.3035,60.0,9.6
2026-02-06T21:32:44+00:00,SAT-54847,161.77144648167072,30.010326468941415,1011.349042653147,-0.014246573521315819,498.97526766272455,10.5,10500000498.975267,47.655,-122.3035,60.0,9.616666666666667
2026-02-06T21:32:45+00:00,SAT-54847,161.2992436536768,30.01132067968951,1011.3348342727235,0.0333912209704612,-1169.5018031102122,10.5,10499998830.498198,47.655,-122.3035,60.0,9.633333333333333
2026-02-06T21:32:46+00:00,SAT-54847,160.82705012570605,30.01026714683261,1011.3681359764383,0.08102434574169025,-2837.8153205166614,10.5,10499997162.184679,47.655,-122.3035,60.0,9.65
2026-02-06T21:32:47+00:00,SAT-54847,160.3549301176666,30.00716643809679,1011.4489431070906,0.1286460384757838,-4505.728439625154,10.5,10499995494.27156,47.655,-122.3035,60.0,9.666666666666666
2026-02-06T21:32:48+00:00,SAT-54847,159.88294779008416,30.002020045624658,1011.5772442632904,0.17624954585126276,-6173.004630550975,10.5,10499993826.995369,47.655,-122.3035,60.0,9.683333333333334
