DopplerPredictor/satellites_20260211_204923/SAT-60941.csv

timestamp,satellite,azimuth_deg,elevation_deg,distance_km,relative_velocity_kms,doppler_shift_hz,tx_freq_ghz,rx_freq_hz,ue_lat,ue_lon,ue_alt_m,time_minutes
2026-02-06T21:23:51+00:00,SAT-60941,269.7302409210744,30.005772259659025,876.2980580295792,-5.4597987283181615,191225.24639142424,10.5,10500191225.246391,47.655,-122.3035,60.0,0.7333333333333333
2026-02-06T21:23:52+00:00,SAT-60941,269.9430189600377,30.270217219306996,870.8528962681994,-5.436803249444017,190419.84745047247,10.5,10500190419.84745,47.655,-122.3035,60.0,0.75
2026-02-06T21:23:53+00:00,SAT-60941,270.1595825275882,30.537225120130174,865.4306683379883,-5.413366874925293,189599.00647906086,10.5,10500189599.00648,47.655,-122.3035,60.0,0.7666666666666667
2026-02-06T21:23:54+00:00,SAT-60941,270.3800294608584,30.806818982612082,860.0318139526098,-5.389480447732533,188762.40275928355,10.5,10500188762.40276,47.655,-122.3035,60.0,0.7833333333333333
2026-02-06T21:23:55+00:00,SAT-60941,270.6044607609476,31.079021289361258,854.6567819582095,-5.365134594001898,187909.7079787775,10.5,10500187909.70798,47.655,-122.3035,60.0,0.8
2026-02-06T21:23:56+00:00,SAT-60941,270.83298070770275,31.353853920585724,849.3060305496655,-5.340319842345225,187040.5904094654,10.5,10500187040.59041,47.655,-122.3035,60.0,0.8166666666666667
2026-02-06T21:23:57+00:00,SAT-60941,271.0656969836412,31.631338091644892,843.9800273678535,-5.315026485854516,186154.71007436892,10.5,10500186154.710073,47.655,-122.3035,60.0,0.8333333333333334
2026-02-06T21:23:58+00:00,SAT-60941,271.30272079697704,31.911494279410945,838.6792497345339,-5.289244698614867,185251.7228283845,10.5,10500185251.722828,47.655,-122.3035,60.0,0.85
2026-02-06T21:23:59+00:00,SAT-60941,271.54416701394405,32.194342150186806,833.40418477104,-5.262964493562253,184331.27888228482,10.5,10500184331.278883,47.655,-122.3035,60.0,0.8666666666666667
2026-02-06T21:24:00+00:00,SAT-60941,271.79015429438556,32.4799004808816,828.1553295589962,-5.236175652938743,183393.02036696603,10.5,10500183393.020367,47.655,-122.3035,60.0,0.8833333333333333
2026-02-06T21:24:01+00:00,SAT-60941,272.0408052290545,32.76818707144459,822.9331913703907,-5.20886791040326,182436.587711737,10.5,10500182436.587711,47.655,-122.3035,60.0,0.9
2026-02-06T21:24:02+00:00,SAT-60941,272.29624649000726,33.05921866203497,817.7382877160314,-5.1810307267899045,181461.61179042733,10.5,10500181461.61179,47.655,-122.3035,60.0,0.9166666666666666
2026-02-06T21:24:03+00:00,SAT-60941,272.55660897616417,33.353010832491485,812.5711466176381,-5.152653477329636,180467.72047868255,10.5,10500180467.720478,47.655,-122.3035,60.0,0.9333333333333333
2026-02-06T21:24:04+00:00,SAT-60941,272.8220279724739,33.649577906334976,807.4323066932147,-5.123725362376519,179454.53552721947,10.5,10500179454.535526,47.655,-122.3035,60.0,0.95
2026-02-06T21:24:05+00:00,SAT-60941,273.09264331021853,33.94893284382966,802.3223173314608,-5.0942354120966815,178421.67272605354,10.5,10500178421.672726,47.655,-122.3035,60.0,0.9666666666666667
2026-02-06T21:24:06+00:00,SAT-60941,273.3685995329397,34.25108712884494,797.2417388614991,-5.064172560115711,177368.7444839422,10.5,10500177368.744484,47.655,-122.3035,60.0,0.9833333333333333
2026-02-06T21:24:07+00:00,SAT-60941,273.65004607123973,34.55605065338734,792.1911426491612,-5.033525539978797,176295.3562019808,10.5,10500176295.356201,47.655,-122.3035,60.0,1.0
2026-02-06T21:24:08+00:00,SAT-60941,273.9371374178534,34.863831588984965,787.1711112965289,-5.002282984073659,175201.10973830242,10.5,10500175201.109737,47.655,-122.3035,60.0,1.0166666666666666
2026-02-06T21:24:09+00:00,SAT-60941,274.2300333130165,35.17443625655666,782.1822387428206,-4.970433372091363,174085.60160295732,10.5,10500174085.601603,47.655,-122.3035,60.0,1.0333333333333334
2026-02-06T21:24:10+00:00,SAT-60941,274.5288989324831,35.48786898544826,777.2251304166798,-4.9379651106948375,172948.42574824145,10.5,10500172948.425749,47.655,-122.3035,60.0,1.05
2026-02-06T21:24:11+00:00,SAT-60941,274.83390508523416,35.80413196936398,772.3004033090075,-4.904866408717261,171789.16919761617,10.5,10500171789.169197,47.655,-122.3035,60.0,1.0666666666666667
2026-02-06T21:24:12+00:00,SAT-60941,275.1452284091032,36.12322510591193,767.4086861702605,-4.871125433181204,170607.41751015847,10.5,10500170607.417511,47.655,-122.3035,60.0,1.0833333333333333
2026-02-06T21:24:13+00:00,SAT-60941,275.46305158034284,36.44514583714897,762.5506195521505,-4.8367302100086285,169402.75130300506,10.5,10500169402.751303,47.655,-122.3035,60.0,1.1
2026-02-06T21:24:14+00:00,SAT-60941,275.78756352194466,36.769888974510515,757.7268559483663,-4.801668702949568,168174.74901576896,10.5,10500168174.749016,47.655,-122.3035,60.0,1.1166666666666667
2026-02-06T21:24:15+00:00,SAT-60941,276.1189596212395,37.09744651919862,752.9380598565789,-4.7659287875839045,166922.98599997137,10.5,10500166922.986,47.655,-122.3035,60.0,1.1333333333333333
2026-02-06T21:24:16+00:00,SAT-60941,276.4574419498854,37.427807470792985,748.1849078663762,-4.729498242276321,165647.03420224594,10.5,10500165647.034203,47.655,-122.3035,60.0,1.15
2026-02-06T21:24:17+00:00,SAT-60941,276.8032194866416,37.76095762461868,743.4680887562171,-4.692364835743959,164346.4652313287,10.5,10500164346.46523,47.655,-122.3035,60.0,1.1666666666666667
2026-02-06T21:24:18+00:00,SAT-60941,277.1565083489556,38.09687936424473,738.788303503051,-4.654516283923815,163020.84884737182,10.5,10500163020.848846,47.655,-122.3035,60.0,1.1833333333333333
2026-02-06T21:24:19+00:00,SAT-60941,277.5175320243222,38.43555143973346,734.146265334961,-4.615940228704759,161669.7522170487,10.5,10500161669.752216,47.655,-122.3035,60.0,1.2
2026-02-06T21:24:20+00:00,SAT-60941,277.88652160108194,38.7769487323987,729.5426998050099,-4.576624363081476,160292.74429697462,10.5,10500160292.744297,47.655,-122.3035,60.0,1.2166666666666666
2026-02-06T21:24:21+00:00,SAT-60941,278.2637160092283,39.12104201646546,724.9783447402717,-4.536556356975347,158889.39323564016,10.5,10500158889.393236,47.655,-122.3035,60.0,1.2333333333333334
2026-02-06T21:24:22+00:00,SAT-60941,278.64936225529556,39.46779770280369,720.4539502648446,-4.495723879767262,157459.2671626057,10.5,10500157459.267162,47.655,-122.3035,60.0,1.25
2026-02-06T21:24:23+00:00,SAT-60941,279.0437156569385,39.8171775711687,715.9702788003891,-4.454114694209263,156001.93747768417,10.5,10500156001.937477,47.655,-122.3035,60.0,1.2666666666666666
2026-02-06T21:24:24+00:00,SAT-60941,279.44704008194924,40.169138496291914,711.5281049730072,-4.411716578828913,154516.97613321408,10.5,10500154516.976133,47.655,-122.3035,60.0,1.2833333333333334
2026-02-06T21:24:25+00:00,SAT-60941,279.85960817608526,40.52363215428266,707.1282155975091,-4.368517431262451,153003.95925322358,10.5,10500153003.959253,47.655,-122.3035,60.0,1.3
2026-02-06T21:24:26+00:00,SAT-60941,280.28170159276317,40.88060472304353,702.7714095586244,-4.3245052277266725,151462.46571396422,10.5,10500151462.465714,47.655,-122.3035,60.0,1.3166666666666667
2026-02-06T21:24:27+00:00,SAT-60941,280.71361121010153,41.23999656514066,698.4584977326315,-4.279668109205127,149892.0801625164,10.5,10500149892.080162,47.655,-122.3035,60.0,1.3333333333333333
2026-02-06T21:24:28+00:00,SAT-60941,281.15563734448756,41.601741903100155,694.1903028230331,-4.233994328803286,148292.39117294442,10.5,10500148292.391172,47.655,-122.3035,60.0,1.35
2026-02-06T21:24:29+00:00,SAT-60941,281.6080899443944,41.96576847554927,689.967659248734,-4.187472393760139,146662.99622014325,10.5,10500146662.99622,47.655,-122.3035,60.0,1.3666666666666667
2026-02-06T21:24:30+00:00,SAT-60941,282.07128878084666,42.331997190465074,685.7914128905905,-4.140090954768087,145003.49780335338,10.5,10500145003.497803,47.655,-122.3035,60.0,1.3833333333333333
2026-02-06T21:24:31+00:00,SAT-60941,282.5455636051488,42.70034175404042,681.6624209483398,-4.091838939492701,143313.5081225871,10.5,10500143313.508123,47.655,-122.3035,60.0,1.4
2026-02-06T21:24:32+00:00,SAT-60941,283.03125429494276,43.070708296058314,677.58155166437,-4.042705581954552,141592.65010770483,10.5,10500141592.650108,47.655,-122.3035,60.0,1.4166666666666667
2026-02-06T21:24:33+00:00,SAT-60941,283.5287109738028,43.442994983372145,673.5496840181871,-3.992680375876678,139840.55578444578,10.5,10500139840.555784,47.655,-122.3035,60.0,1.4333333333333333
2026-02-06T21:24:34+00:00,SAT-60941,284.03829409039355,43.81709161461337,669.5677074674084,-3.9417531753073867,138056.86979866438,10.5,10500138056.869799,47.655,-122.3035,60.0,1.45
2026-02-06T21:24:35+00:00,SAT-60941,284.5603744676746,44.19287920981012,665.636521588402,-3.889914242323803,136241.25108711017,10.5,10500136241.251087,47.655,-122.3035,60.0,1.4666666666666666
2026-02-06T21:24:36+00:00,SAT-60941,285.09533331102523,44.570229591095696,661.7570356693537,-3.8371542234744838,134393.37205234857,10.5,10500134393.372053,47.655,-122.3035,60.0,1.4833333333333334
2026-02-06T21:24:37+00:00,SAT-60941,285.64356215871123,44.949004948326234,657.9301683268252,-3.783464240190185,132512.9217293283,10.5,10500132512.92173,47.655,-122.3035,60.0,1.5
2026-02-06T21:24:38+00:00,SAT-60941,286.205462781287,45.329057401422155,654.1568470321448,-3.728835904854162,130599.60634823142,10.5,10500130599.606348,47.655,-122.3035,60.0,1.5166666666666666
2026-02-06T21:24:39+00:00,SAT-60941,286.7814470121107,45.71022855360597,650.4380076217719,-3.6732613820989273,128653.15148134492,10.5,10500128653.151482,47.655,-122.3035,60.0,1.5333333333333334
2026-02-06T21:24:40+00:00,SAT-60941,287.371936505673,46.092349041450454,646.7745937465284,-3.616733404240634,126673.30258363823,10.5,10500126673.302584,47.655,-122.3035,60.0,1.55
2026-02-06T21:24:41+00:00,SAT-60941,287.97736240695406,46.475238078887195,643.1675563054355,-3.5592453152809997,124659.82653389666,10.5,10500124659.826534,47.655,-122.3035,60.0,1.5666666666666667
2026-02-06T21:24:42+00:00,SAT-60941,288.59816492387023,46.8587030000056,639.6178528356687,-3.5007911742196196,122612.5152531556,10.5,10500122612.515253,47.655,-122.3035,60.0,1.5833333333333333
2026-02-06T21:24:43+00:00,SAT-60941,289.23479280169244,47.24253880965852,636.1264467994781,-3.441365710424893,120531.18414160164,10.5,10500120531.184141,47.655,-122.3035,60.0,1.6
2026-02-06T21:24:44+00:00,SAT-60941,289.88770266111334,47.626527728884945,632.6943069156146,-3.380964446736296,118415.6763901349,10.5,10500118415.67639,47.655,-122.3035,60.0,1.6166666666666667
2026-02-06T21:24:45+00:00,SAT-60941,290.55735821437474,48.010438756421166,629.3224063679868,-3.3195836833788412,116265.86241698526,10.5,10500116265.862417,47.655,-122.3035,60.0,1.6333333333333333
2026-02-06T21:24:46+00:00,SAT-60941,291.24422931955894,48.394027234912514,626.0117220303604,-3.257220603969968,114081.64358052217,10.5,10500114081.643581,47.655,-122.3035,60.0,1.65
2026-02-06T21:24:47+00:00,SAT-60941,291.9487908800641,48.77703443974219,622.7632335853333,-3.1938732786569153,111862.95228913867,10.5,10500111862.95229,47.655,-122.3035,60.0,1.6666666666666667
2026-02-06T21:24:48+00:00,SAT-60941,292.6715215524814,49.15918718375022,619.577922640182,-3.1295407459850786,109609.75486862757,10.5,10500109609.75487,47.655,-122.3035,60.0,1.6833333333333333
2026-02-06T21:24:49+00:00,SAT-60941,293.4129022614317,49.540197452370755,616.4567717610603,-3.0642230047976216,107322.05127847154,10.5,10500107322.05128,47.655,-122.3035,60.0,1.7
2026-02-06T21:24:50+00:00,SAT-60941,294.1734144831774,49.9197620645738,613.4007635152757,-2.997921140775087,104999.87954379563,10.5,10500104999.879543,47.655,-122.3035,60.0,1.7166666666666666
2026-02-06T21:24:51+00:00,SAT-60941,294.9535383104147,50.297562382724294,610.4108793873659,-2.9306373054992783,102643.31502209579,10.5,10500102643.315022,47.655,-122.3035,60.0,1.7333333333333334
2026-02-06T21:24:52+00:00,SAT-60941,295.75375024619916,50.67326406102765,607.4880987160549,-2.8623747912003217,100252.47302119715,10.5,10500100252.47302,47.655,-122.3035,60.0,1.75
2026-02-06T21:24:53+00:00,SAT-60941,296.5745207306517,51.04651685242202,604.6333975566616,-2.793138071350338,97827.51022101614,10.5,10500097827.510221,47.655,-122.3035,60.0,1.7666666666666666
2026-02-06T21:24:54+00:00,SAT-60941,297.41631137564286,51.41695447883902,601.8477475030277,-2.722932831129054,95368.62574059509,10.5,10500095368.62574,47.655,-122.3035,60.0,1.7833333333333334
2026-02-06T21:24:55+00:00,SAT-60941,298.27957188815776,51.78419457321871,599.1321144790544,-2.651766037113573,92876.06357893272,10.5,10500092876.06358,47.655,-122.3035,60.0,1.8
2026-02-06T21:24:56+00:00,SAT-60941,299.1647366801311,52.147838709062846,596.4874574607425,-2.5796459274838264,90350.11227193773,10.5,10500090350.112272,47.655,-122.3035,60.0,1.8166666666666667
2026-02-06T21:24:57+00:00,SAT-60941,300.072221129804,52.50747251807407,593.914727207999,-2.506582105032644,87791.1081500348,10.5,10500087791.10815,47.655,-122.3035,60.0,1.8333333333333333
2026-02-06T21:24:58+00:00,SAT-60941,301.00241751876405,52.86266592170073,591.4148649036815,-2.4325855323583743,85199.4351697898,10.5,10500085199.43517,47.655,-122.3035,60.0,1.85
2026-02-06T21:24:59+00:00,SAT-60941,301.9556906118083,53.21297347576084,588.9888007974386,-2.357668566320784,82575.52612070125,10.5,10500082575.526121,47.655,-122.3035,60.0,1.8666666666666667
2026-02-06T21:25:00+00:00,SAT-60941,302.93237289417567,53.55793484619149,586.6374528151858,-2.2818449827147504,79919.8634893773,10.5,10500079919.86349,47.655,-122.3035,60.0,1.8833333333333333
2026-02-06T21:25:01+00:00,SAT-60941,303.9327594721863,53.89707542766193,584.3617251439753,-2.205130028800615,77232.98129937096,10.5,10500077232.981298,47.655,-122.3035,60.0,1.9
2026-02-06T21:25:02+00:00,SAT-60941,304.9571026684169,54.22990712240866,582.1625067644737,-2.1275404029230516,74515.46439734666,10.5,10500074515.464397,47.655,-122.3035,60.0,1.9166666666666667
2026-02-06T21:25:03+00:00,SAT-60941,306.0056063095406,54.555929281446026,580.0406700037704,-2.049094292724995,71767.94979149358,10.5,10500071767.949791,47.655,-122.3035,60.0,1.9333333333333333
2026-02-06T21:25:04+00:00,SAT-60941,307.0784197691586,54.874629829091255,577.9970690500691,-1.9698113642362929,68991.12626936423,10.5,10500068991.12627,47.655,-122.3035,60.0,1.95
2026-02-06T21:25:05+00:00,SAT-60941,308.1756317940905,55.185486574819414,576.0325384782665,-1.8897128018807627,66185.73579909075,10.5,10500066185.7358,47.655,-122.3035,60.0,1.9666666666666666
2026-02-06T21:25:06+00:00,SAT-60941,309.2972642048855,55.48796873045218,574.147891735627,-1.8088212672753265,63352.57208635625,10.5,10500063352.572086,47.655,-122.3035,60.0,1.9833333333333334
2026-02-06T21:25:07+00:00,SAT-60941,310.44326550614954,55.78153862824476,572.3439196685518,-1.7271609172129225,60492.48120423259,10.5,10500060492.481205,47.655,-122.3035,60.0,2.0
2026-02-06T21:25:08+00:00,SAT-60941,311.6135045302655,56.065653654972635,570.6213890314099,-1.6447573971463625,57606.361364957374,10.5,10500057606.361364,47.655,-122.3035,60.0,2.0166666666666666
2026-02-06T21:25:09+00:00,SAT-60941,312.80776421130224,56.339768401317116,568.9810410018687,-1.5616377931204004,54695.16123639175,10.5,10500054695.161236,47.655,-122.3035,60.0,2.033333333333333
2026-02-06T21:25:10+00:00,SAT-60941,314.0257355829364,56.6033370191402,567.4235897441656,-1.4778306472221212,51759.880483158355,10.5,10500051759.880484,47.655,-122.3035,60.0,2.05
2026-02-06T21:25:11+00:00,SAT-60941,315.2670121779836,56.85581579265402,565.949720956968,-1.3933658909744198,48801.56743379917,10.5,10500048801.567434,47.655,-122.3035,60.0,2.066666666666667
2026-02-06T21:25:12+00:00,SAT-60941,316.5310849197531,57.09666590076022,564.5600904876629,-1.30827484409658,45821.31903736581,10.5,10500045821.319036,47.655,-122.3035,60.0,2.0833333333333335
2026-02-06T21:25:13+00:00,SAT-60941,317.8173377097554,57.32535636744298,563.2553229478814,-1.2225901460977675,42820.27846753423,10.5,10500042820.278467,47.655,-122.3035,60.0,2.1
2026-02-06T21:25:14+00:00,SAT-60941,319.12504382053436,57.54136716929208,562.0360103972477,-1.1363457183497947,39799.633794232555,10.5,10500039799.633795,47.655,-122.3035,60.0,2.1166666666666667
2026-02-06T21:25:15+00:00,SAT-60941,320.45336327914464,57.7441924800869,560.9027110649531,-1.0495767034042194,36760.61585826921,10.5,10500036760.615858,47.655,-122.3035,60.0,2.1333333333333333
2026-02-06T21:25:16+00:00,SAT-60941,321.80134137785024,57.9333440175659,559.8559481318491,-0.9623194233830588,33704.49681399963,10.5,10500033704.496815,47.655,-122.3035,60.0,2.15
2026-02-06T21:25:17+00:00,SAT-60941,323.16790848416696,58.10835445922472,558.89620855404,-0.8746112899921897,30632.586977615003,10.5,10500030632.586977,47.655,-122.3035,60.0,2.1666666666666665
2026-02-06T21:25:18+00:00,SAT-60941,324.5518812263415,58.26878087663031,558.02394197622,-0.7864907438910481,27546.232703612597,10.5,10500027546.232704,47.655,-122.3035,60.0,2.183333333333333
2026-02-06T21:25:19+00:00,SAT-60941,325.95196519468345,58.41420814690594,557.2395597054775,-0.6979971766634884,24446.813651885226,10.5,10500024446.813652,47.655,-122.3035,60.0,2.2
2026-02-06T21:25:20+00:00,SAT-60941,327.36675921745444,58.54425228795131,556.543433762921,-0.609170851266333,21335.74000149295,10.5,10500021335.740002,47.655,-122.3035,60.0,2.216666666666667
2026-02-06T21:25:21+00:00,SAT-60941,328.7947612558564,58.65856366402544,555.9358960146413,-0.5200528115113661,18214.449280339613,10.5,10500018214.44928,47.655,-122.3035,60.0,2.2333333333333334
2026-02-06T21:25:22+00:00,SAT-60941,330.2343759033207,58.75683000527172,555.4172373929504,-0.43068479195390347,15084.403209089358,10.5,10500015084.40321,47.655,-122.3035,60.0,2.25
2026-02-06T21:25:23+00:00,SAT-60941,331.68392344949723,58.83877918698333,554.987707207489,-0.3411091196629318,11947.084260741422,10.5,10500011947.08426,47.655,-122.3035,60.0,2.2666666666666666
2026-02-06T21:25:24+00:00,SAT-60941,333.1416503992006,58.904181714695255,554.6475125543028,-0.251368626784057,8803.992598214725,10.5,10500008803.992598,47.655,-122.3035,60.0,2.283333333333333
2026-02-06T21:25:25+00:00,SAT-60941,334.60574135696976,58.95285286835664,554.3968178121185,-0.16150653838277151,5656.642146144653,10.5,10500005656.642147,47.655,-122.3035,60.0,2.3
2026-02-06T21:25:26+00:00,SAT-60941,336.0743320274608,58.98465445734576,554.2357442504771,-0.0715663728880758,2506.557103997579,10.5,10500002506.557104,47.655,-122.3035,60.0,2.316666666666667
2026-02-06T21:25:27+00:00,SAT-60941,337.5455231423241,58.99949615206564,554.1643697371584,0.018408158292804736,-644.731569846396,10.5,10499999355.26843,47.655,-122.3035,60.0,2.3333333333333335
2026-02-06T21:25:28+00:00,SAT-60941,339.0173950948288,58.99733636359762,554.1827285457192,0.10837326264235791,-3795.69007618183,10.5,10499996204.309923,47.655,-122.3035,60.0,2.35
2026-02-06T21:25:29+00:00,SAT-60941,340.4880229371305,58.9781826501713,554.2908112746,0.19828516897756565,-6944.785363027509,10.5,10499993055.214638,47.655,-122.3035,60.0,2.3666666666666667
2026-02-06T21:25:30+00:00,SAT-60941,341.9554914816892,58.94209164336428,554.4885648684027,0.28810023558680997,-10090.488913038314,10.5,10499989909.511087,47.655,-122.3035,60.0,2.3833333333333333
2026-02-06T21:25:31+00:00,SAT-60941,343.4179102485428,58.889168494573,554.7758927470157,0.3777750532120962,-13231.280350378294,10.5,10499986768.71965,47.655,-122.3035,60.0,2.4
2026-02-06T21:25:32+00:00,SAT-60941,344.8734278820691,58.81956585467359,555.1526550374431,0.467266553126561,-16365.65122605216,10.5,10499983634.348774,47.655,-122.3035,60.0,2.4166666666666665
2026-02-06T21:25:33+00:00,SAT-60941,346.32024586234127,58.73348240792672,555.6186689134234,0.5565321052371501,-19492.108453876037,10.5,10499980507.891546,47.655,-122.3035,60.0,2.433333333333333
2026-02-06T21:25:34+00:00,SAT-60941,347.75663118756876,58.63116099299174,556.1737090328879,0.6455296185183109,-22609.177828090207,10.5,10499977390.822172,47.655,-122.3035,60.0,2.45
2026-02-06T21:25:35+00:00,SAT-60941,349.1809278650554,58.51288634950609,556.8175080755819,0.7342176413538231,-25715.407537754476,10.5,10499974284.592463,47.655,-122.3035,60.0,2.466666666666667
2026-02-06T21:25:36+00:00,SAT-60941,350.5915670299966,58.378982535607236,557.5497573807613,0.8225554508719868,-28809.37129564434,10.5,10499971190.628704,47.655,-122.3035,60.0,2.4833333333333334
2026-02-06T21:25:37+00:00,SAT-60941,351.9870755539531,58.229810068494636,558.370107673982,0.9105031406155667,-31889.67140882327,10.5,10499968110.32859,47.655,-122.3035,60.0,2.5
2026-02-06T21:25:38+00:00,SAT-60941,353.36608307022385,58.06576284149967,559.2781698813271,0.9980217166451324,-34954.94214458821,10.5,10499965045.057856,47.655,-122.3035,60.0,2.5166666666666666
2026-02-06T21:25:39+00:00,SAT-60941,354.7273274034551,57.887264870650796,560.2735160394769,1.0850731557934965,-38003.851770786416,10.5,10499961996.14823,47.655,-122.3035,60.0,2.533333333333333
2026-02-06T21:25:40+00:00,SAT-60941,356.06965835695564,57.69476693174047,561.3556802638799,1.1716205059874694,-41035.10606950769,10.5,10499958964.89393,47.655,-122.3035,60.0,2.55
2026-02-06T21:25:41+00:00,SAT-60941,357.3920399815803,57.488743132747004,562.5241598169742,1.2576279427634245,-44047.45031649848,10.5,10499955952.549683,47.655,-122.3035,60.0,2.566666666666667
2026-02-06T21:25:42+00:00,SAT-60941,358.69355134486585,57.26968747884228,563.778416232776,1.3430608214821125,-47039.67110994561,10.5,10499952960.32889,47.655,-122.3035,60.0,2.5833333333333335
2026-02-06T21:25:43+00:00,SAT-60941,359.9733859232715,57.038110475855895,565.1178764935379,1.4278857625184935,-50010.599354184495,10.5,10499949989.400646,47.655,-122.3035,60.0,2.6
2026-02-06T21:25:44+00:00,SAT-60941,1.2308497882992415,56.79453580682096,566.5419342913752,1.5120706879112427,-52959.11154331991,10.5,10499947040.888456,47.655,-122.3035,60.0,2.6166666666666667
2026-02-06T21:25:45+00:00,SAT-60941,2.4653586813839445,56.53949712505115,568.0499513264381,1.5955848445625374,-55884.13057378062,10.5,10499944115.869427,47.655,-122.3035,60.0,2.6333333333333333
2026-02-06T21:25:46+00:00,SAT-60941,3.676434136366496,56.27353499507615,569.6412586282229,1.6783989046408128,-58784.62926084863,10.5,10499941215.370739,47.655,-122.3035,60.0,2.65
2026-02-06T21:25:47+00:00,SAT-60941,4.863698872928296,55.997193991977284,571.3151579770195,1.7604849301322403,-61659.62909710198,10.5,10499938340.370903,47.655,-122.3035,60.0,2.6666666666666665
2026-02-06T21:25:48+00:00,SAT-60941,6.026871508144851,55.71101999987445,573.0709232900009,1.841816440805594,-64508.20263283186,10.5,10499935491.797367,47.655,-122.3035,60.0,2.683333333333333
2026-02-06T21:25:49+00:00,SAT-60941,7.165760826916945,55.41555770465378,574.9078020750992,1.9223684235515506,-67329.47380314444,10.5,10499932670.526197,47.655,-122.3035,60.0,2.7
2026-02-06T21:25:50+00:00,SAT-60941,8.280259707498256,55.11134829844869,576.825016894194,2.0021173605134166,-70122.61891321787,10.5,10499929877.381086,47.655,-122.3035,60.0,2.716666666666667
2026-02-06T21:25:51+00:00,SAT-60941,9.370338845916184,54.79892739604933,578.8217668543559,2.0810412097565436,-72886.86596126347,10.5,10499927113.134039,47.655,-122.3035,60.0,2.7333333333333334
2026-02-06T21:25:52+00:00,SAT-60941,10.436040370570625,54.47882317009065,580.8972290798131,2.1591194317336195,-75621.49556545216,10.5,10499924378.504435,47.655,-122.3035,60.0,2.75
2026-02-06T21:25:53+00:00,SAT-60941,11.477471477787455,54.15155469378769,583.0505602103085,2.236332987464734,-78325.84090017268,10.5,10499921674.1591,47.655,-122.3035,60.0,2.7666666666666666
2026-02-06T21:25:54+00:00,SAT-60941,12.494798158795476,53.81763048912934,585.2808978976476,2.312664322973526,-80999.28715091967,10.5,10499919000.712849,47.655,-122.3035,60.0,2.783333333333333
2026-02-06T21:25:55+00:00,SAT-60941,13.488239085790088,53.477547273720944,587.587362286719,2.388097371104838,-83641.27157795544,10.5,10499916358.728422,47.655,-122.3035,60.0,2.8
2026-02-06T21:25:56+00:00,SAT-60941,14.458059725974834,53.13178889313077,589.9690574983294,2.462617491176154,-86251.28140264827,10.5,10499913748.718597,47.655,-122.3035,60.0,2.816666666666667
2026-02-06T21:25:57+00:00,SAT-60941,15.404566703993025,52.780825436031385,592.4250730518528,2.536211527850412,-88828.85586944729,10.5,10499911171.14413,47.655,-122.3035,60.0,2.8333333333333335
2026-02-06T21:25:58+00:00,SAT-60941,16.328102498297067,52.4251125023101,594.9544853465943,2.6088677095170882,-91373.582686758,10.5,10499908626.417313,47.655,-122.3035,60.0,2.85
2026-02-06T21:25:59+00:00,SAT-60941,17.229040429065194,52.06509063440365,597.5563590418059,2.6805756612385787,-93885.09848037963,10.5,10499906114.90152,47.655,-122.3035,60.0,2.8666666666666667
2026-02-06T21:26:00+00:00,SAT-60941,18.107780001307145,51.701184882081165,600.2297484496161,2.7513263713081986,-96363.08762222459,10.5,10499903636.912378,47.655,-122.3035,60.0,2.8833333333333333
2026-02-06T21:26:01+00:00,SAT-60941,18.96474259150348,51.33380449442776,602.9736988946058,2.8211121332318134,-98807.28019826984,10.5,10499901192.7198,47.655,-122.3035,60.0,2.9
2026-02-06T21:26:02+00:00,SAT-60941,19.8003674712043,50.963342729485994,605.7872480155218,2.889926543845012,-101217.45194261233,10.5,10499898782.548058,47.655,-122.3035,60.0,2.9166666666666665
2026-02-06T21:26:03+00:00,SAT-60941,20.615108182551577,50.59017676172856,608.6694270651126,2.9577644332472612,-103593.42178346677,10.5,10499896406.578217,47.655,-122.3035,60.0,2.933333333333333
2026-02-06T21:26:04+00:00,SAT-60941,21.40942923419837,50.21466768479075,611.6192621400858,3.0246218199835284,-105935.05027343633,10.5,10499894064.949726,47.655,-122.3035,60.0,2.95
2026-02-06T21:26:05+00:00,SAT-60941,22.18380311583362,49.83716059486507,614.6357753663677,3.090495930948835,-108242.24028665446,10.5,10499891757.759714,47.655,-122.3035,60.0,2.966666666666667
2026-02-06T21:26:06+00:00,SAT-60941,22.938707632198753,49.45798473652089,617.7179861042139,3.155385064553389,-110514.93222624897,10.5,10499889485.067774,47.655,-122.3035,60.0,2.9833333333333334
2026-02-06T21:26:07+00:00,SAT-60941,23.674623498565502,49.07745372105378,620.8649120168525,3.2192885885856497,-112753.10394949737,10.5,10499887246.896051,47.655,-122.3035,60.0,3.0
2026-02-06T21:26:08+00:00,SAT-60941,24.392032217741335,48.6958657913976,624.0755701369941,3.282206943537349,-114956.77088428344,10.5,10499885043.229116,47.655,-122.3035,60.0,3.0166666666666666
2026-02-06T21:26:09+00:00,SAT-60941,25.091414217732208,48.3135041255489,627.3489779366604,3.3441414938337233,-117125.98081855045,10.5,10499882874.019182,47.655,-122.3035,60.0,3.033333333333333
2026-02-06T21:26:10+00:00,SAT-60941,25.773247197352063,47.93063718916346,630.6841542486404,3.4050945610839136,-119260.81506487096,10.5,10499880739.184935,47.655,-122.3035,60.0,3.05
2026-02-06T21:26:11+00:00,SAT-60941,26.43800470401961,47.54751910898292,634.0801202211092,3.465069347124046,-121361.38576508981,10.5,10499878638.614235,47.655,-122.3035,60.0,3.066666666666667
2026-02-06T21:26:12+00:00,SAT-60941,27.08615489960566,47.16439007438105,637.535900195493,3.5240698747142067,-123427.8338132815,10.5,10499876572.166187,47.655,-122.3035,60.0,3.0833333333333335
2026-02-06T21:26:13+00:00,SAT-60941,27.718159502260715,46.78147675941965,641.0505225251949,3.582100987634243,-125460.32885910542,10.5,10499874539.67114,47.655,-122.3035,60.0,3.1
2026-02-06T21:26:14+00:00,SAT-60941,28.33447289840941,46.398992754283405,644.6230203944111,3.639168230121072,-127459.06508519057,10.5,10499872540.934916,47.655,-122.3035,60.0,3.1166666666666667
2026-02-06T21:26:15+00:00,SAT-60941,28.935541386687138,46.01713901511996,648.2524325167122,3.6952778723494295,-129424.26209957893,10.5,10499870575.7379,47.655,-122.3035,60.0,3.1333333333333333
2026-02-06T21:26:16+00:00,SAT-60941,29.521802566102473,45.636104312766456,651.9378038590344,3.7504368357973723,-131356.16232170994,10.5,10499868643.837679,47.655,-122.3035,60.0,3.15
2026-02-06T21:26:17+00:00,SAT-60941,30.093684835625414,45.25606568816926,655.6781862912351,3.8046526177532916,-133255.02833833653,10.5,10499866744.971663,47.655,-122.3035,60.0,3.1666666666666665
2026-02-06T21:26:18+00:00,SAT-60941,30.651606993925892,44.877188911470945,659.4726391603623,3.8579333259404085,-135121.14411622152,10.5,10499864878.855885,47.655,-122.3035,60.0,3.183333333333333
2026-02-06T21:26:19+00:00,SAT-60941,31.195977943942577,44.49962893134991,663.3202298994505,3.9102875422025827,-136954.81022783808,10.5,10499863045.189772,47.655,-122.3035,60.0,3.2
2026-02-06T21:26:20+00:00,SAT-60941,31.727196465188385,44.12353032984847,667.2200345003721,3.9617243638623436,-138756.3452999028,10.5,10499861243.6547,47.655,-122.3035,60.0,3.216666666666667
2026-02-06T21:26:21+00:00,SAT-60941,32.24565107056696,43.74902776323395,671.171138027933,4.012253320345026,-140526.08309320037,10.5,10499859473.916906,47.655,-122.3035,60.0,3.2333333333333334
2026-02-06T21:26:22+00:00,SAT-60941,32.75171991994678,43.3762463999354,675.1726350508172,4.061884319305187,-142264.37061570262,10.5,10499857735.629385,47.655,-122.3035,60.0,3.25
2026-02-06T21:26:23+00:00,SAT-60941,33.24577078715655,43.00530235123119,679.2236300188023,4.110627675100759,-143971.56911985413,10.5,10499856028.43088,47.655,-122.3035,60.0,3.2666666666666666
2026-02-06T21:26:24+00:00,SAT-60941,33.728161083344155,42.636303086252006,683.3232376683727,4.1584940014782585,-145648.050343954,10.5,10499854351.949656,47.655,-122.3035,60.0,3.283333333333333
2026-02-06T21:26:25+00:00,SAT-60941,34.1992379121832,42.26934784316546,687.4705833213052,4.2054942364204075,-147294.19738242473,10.5,10499852705.802618,47.655,-122.3035,60.0,3.3
2026-02-06T21:26:26+00:00,SAT-60941,34.65933816777005,41.90452802383705,691.6648032080358,4.251639535209708,-148910.4009404464,10.5,10499851089.59906,47.655,-122.3035,60.0,3.316666666666667
2026-02-06T21:26:27+00:00,SAT-60941,35.10878865386349,41.54192758332935,695.905044684378,4.29694132416036,-150497.06121587552,10.5,10499849502.938784,47.655,-122.3035,60.0,3.3333333333333335
2026-02-06T21:26:28+00:00,SAT-60941,35.54790623826911,41.181623399843026,700.1904665018261,4.341411239860717,-152054.58577125886,10.5,10499847945.414228,47.655,-122.3035,60.0,3.35
2026-02-06T21:26:29+00:00,SAT-60941,35.97699802429986,40.82368563516461,704.5202390172673,4.385061053161006,-153583.38687156216,10.5,10499846416.613129,47.655,-122.3035,60.0,3.3666666666666667
2026-02-06T21:26:30+00:00,SAT-60941,36.39636153484025,40.468178086471326,708.8935443268834,4.427902707501365,-155083.88282657973,10.5,10499844916.117174,47.655,-122.3035,60.0,3.3833333333333333
2026-02-06T21:26:31+00:00,SAT-60941,36.806284917366085,40.115158520028956,713.3095764382764,4.469948275987346,-156556.49648753717,10.5,10499843443.503513,47.655,-122.3035,60.0,3.4
2026-02-06T21:26:32+00:00,SAT-60941,37.20704715800576,39.764678993833314,717.7675413997885,4.51120990348958,-158001.6532191767,10.5,10499841998.34678,47.655,-122.3035,60.0,3.4166666666666665
2026-02-06T21:26:33+00:00,SAT-60941,37.59891830111496,39.416786170323924,722.266657372074,4.551699840157436,-159419.7820735473,10.5,10499840580.217926,47.655,-122.3035,60.0,3.433333333333333
2026-02-06T21:26:34+00:00,SAT-60941,37.98215968042126,39.07152161222838,726.8061547330943,4.591430355757316,-160811.31278976944,10.5,10499839188.68721,47.655,-122.3035,60.0,3.45
2026-02-06T21:26:35+00:00,SAT-60941,38.357024148787225,38.72892207110814,731.3852760976853,4.63041380394212,-162176.67804502358,10.5,10499837823.321955,47.655,-122.3035,60.0,3.466666666666667
2026-02-06T21:26:36+00:00,SAT-60941,38.72375631797205,38.389019757438376,736.0032764012161,4.668662487709593,-163516.30874233242,10.5,10499836483.691257,47.655,-122.3035,60.0,3.4833333333333334
2026-02-06T21:26:37+00:00,SAT-60941,39.082592789930594,38.05184260750387,740.6594228490716,4.7061887576917805,-164830.63745307326,10.5,10499835169.362547,47.655,-122.3035,60.0,3.5
2026-02-06T21:26:38+00:00,SAT-60941,39.433762397761356,37.71741453010252,745.3529949641581,4.743004934520004,-166120.0956978712,10.5,10499833879.904303,47.655,-122.3035,60.0,3.5166666666666666
2026-02-06T21:26:39+00:00,SAT-60941,39.77748644042125,37.38575564656962,750.0832845569831,4.779123304545396,-167385.1137967142,10.5,10499832614.886204,47.655,-122.3035,60.0,3.533333333333333
2026-02-06T21:26:40+00:00,SAT-60941,40.11397891633522,37.05688251901267,754.849595691468,4.814556077829591,-168626.1193976091,10.5,10499831373.880602,47.655,-122.3035,60.0,3.55
2026-02-06T21:26:41+00:00,SAT-60941,40.443446752350155,36.73080836977016,759.6512446088617,4.849315455254881,-169843.53982706345,10.5,10499830156.460173,47.655,-122.3035,60.0,3.566666666666667
2026-02-06T21:26:42+00:00,SAT-60941,40.76609003496912,36.40754328507654,764.4875597185866,4.883413515787224,-171037.79814155912,10.5,10499828962.201859,47.655,-122.3035,60.0,3.5833333333333335
2026-02-06T21:26:43+00:00,SAT-60941,41.08210223042978,36.08709441563711,769.3578814766493,4.916862290842144,-172209.31573216064,10.5,10499827790.684267,47.655,-122.3035,60.0,3.6
2026-02-06T21:26:44+00:00,SAT-60941,41.39167040639771,35.769466161797375,774.2615623382163,4.949673692016888,-173358.50979338953,10.5,10499826641.490206,47.655,-122.3035,60.0,3.6166666666666667
2026-02-06T21:26:45+00:00,SAT-60941,41.6949754446078,35.45466035356241,779.1979666381199,4.9818595185189505,-174485.7935834029,10.5,10499825514.206417,47.655,-122.3035,60.0,3.6333333333333333
2026-02-06T21:26:46+00:00,SAT-60941,41.992192249782754,35.14267642049448,784.1664704787664,5.013431515735609,-175591.57847534606,10.5,10499824408.421524,47.655,-122.3035,60.0,3.65
2026-02-06T21:26:47+00:00,SAT-60941,42.283489957302564,34.83351154885898,789.166461676462,5.0444012203451765,-176676.26853249373,10.5,10499823323.731468,47.655,-122.3035,60.0,3.6666666666666665
2026-02-06T21:26:48+00:00,SAT-60941,42.56903212645428,34.52716083971997,794.1973395532625,5.074780126255974,-177740.26632013445,10.5,10499822259.73368,47.655,-122.3035,60.0,3.683333333333333
2026-02-06T21:26:49+00:00,SAT-60941,42.84897693865661,34.223617448354965,799.2585148943195,5.10457952604798,-178783.96735218665,10.5,10499821216.032648,47.655,-122.3035,60.0,3.7
2026-02-06T21:26:50+00:00,SAT-60941,43.123477381042385,33.922872725443355,804.3494097470904,5.133810615587587,-179807.76375524982,10.5,10499820192.236244,47.655,-122.3035,60.0,3.716666666666667
2026-02-06T21:26:51+00:00,SAT-60941,43.39268143084556,33.62491634427695,809.4694573248833,5.162484447186255,-180812.0426280226,10.5,10499819187.957373,47.655,-122.3035,60.0,3.7333333333333334
2026-02-06T21:26:52+00:00,SAT-60941,43.65673223166587,33.32973642360728,814.6181018636897,5.190611885622732,-181797.18450101465,10.5,10499818202.815498,47.655,-122.3035,60.0,3.75
2026-02-06T21:26:53+00:00,SAT-60941,43.91576826213286,33.037319646064354,819.7947984351514,5.218203682478452,-182763.56594008696,10.5,10499817236.43406,47.655,-122.3035,60.0,3.7666666666666666
2026-02-06T21:26:54+00:00,SAT-60941,44.16992350319161,32.7476513657159,824.9990128336692,5.245270434029241,-183711.5580716411,10.5,10499816288.441929,47.655,-122.3035,60.0,3.783333333333333
2026-02-06T21:26:55+00:00,SAT-60941,44.419327597747376,32.46071571187185,830.2302214215122,5.271822543267954,-184641.52525249158,10.5,10499815358.474747,47.655,-122.3035,60.0,3.8
2026-02-06T21:26:56+00:00,SAT-60941,44.664106003293895,32.17649568898191,835.4879109360529,5.297870269455029,-185553.82680533544,10.5,10499814446.173195,47.655,-122.3035,60.0,3.816666666666667
2026-02-06T21:26:57+00:00,SAT-60941,44.90438014185704,31.894973268121134,840.7715783464217,5.32342375491956,-186448.81795743966,10.5,10499813551.182043,47.655,-122.3035,60.0,3.8333333333333335
2026-02-06T21:26:58+00:00,SAT-60941,45.14026754597841,31.616129471815736,846.0807307368866,5.348492892255012,-187326.845189273,10.5,10499812673.15481,47.655,-122.3035,60.0,3.85
2026-02-06T21:26:59+00:00,SAT-60941,45.3718819935269,31.33994446080476,851.4148850577899,5.373087481123181,-188188.25172644405,10.5,10499811811.748274,47.655,-122.3035,60.0,3.8666666666666667
2026-02-06T21:27:00+00:00,SAT-60941,45.59933364495785,31.06639760767922,856.773568032862,5.39721710990823,-189033.373394725,10.5,10499810966.626606,47.655,-122.3035,60.0,3.8833333333333333
2026-02-06T21:27:01+00:00,SAT-60941,45.8227291703492,30.795467572179383,862.1563159485145,5.420891227590657,-189862.5411373821,10.5,10499810137.458862,47.655,-122.3035,60.0,3.9
2026-02-06T21:27:02+00:00,SAT-60941,46.04217187501447,30.527132368445624,867.562674514807,5.444119117231052,-190676.0800864645,10.5,10499809323.919914,47.655,-122.3035,60.0,3.9166666666666665
2026-02-06T21:27:03+00:00,SAT-60941,46.25776181939414,30.26136942957616,872.9921986999731,5.466909885282878,-191474.30918849274,10.5,10499808525.690811,47.655,-122.3035,60.0,3.933333333333333
