DopplerPredictor/satellites_20260211_204923/SAT-48580.csv

timestamp,satellite,azimuth_deg,elevation_deg,distance_km,relative_velocity_kms,doppler_shift_hz,tx_freq_ghz,rx_freq_hz,ue_lat,ue_lon,ue_alt_m,time_minutes
2026-02-06T21:28:27+00:00,SAT-48580,322.3955666354776,30.07931107333092,994.354840322075,-3.648839581137279,127797.79670755236,10.5,10500127797.796707,47.655,-122.3035,60.0,5.333333333333333
2026-02-06T21:28:28+00:00,SAT-48580,322.77444725793026,30.239238395445938,990.7157827763149,-3.613545614866809,126561.65271543119,10.5,10500126561.652716,47.655,-122.3035,60.0,5.35
2026-02-06T21:28:29+00:00,SAT-48580,323.1573149507713,30.39890297649065,987.1119245785723,-3.5778596730063215,125311.78008009253,10.5,10500125311.78008,47.655,-122.3035,60.0,5.366666666666666
2026-02-06T21:28:30+00:00,SAT-48580,323.54420057488517,30.558268337214173,983.5436566536047,-3.5417799981801386,124048.1172508064,10.5,10500124048.11725,47.655,-122.3035,60.0,5.383333333333334
2026-02-06T21:28:31+00:00,SAT-48580,323.9351342298464,30.717297018997836,980.0113716788338,-3.5053048937605995,122770.60480449544,10.5,10500122770.604805,47.655,-122.3035,60.0,5.4
2026-02-06T21:28:32+00:00,SAT-48580,324.3301451888954,30.875950577078175,976.5154640237614,-3.468432783732031,121479.18754242417,10.5,10500121479.187542,47.655,-122.3035,60.0,5.416666666666667
2026-02-06T21:28:33+00:00,SAT-48580,324.72926183755493,31.03418957738782,973.0563296296788,-3.43116224326791,120173.81556114081,10.5,10500120173.815561,47.655,-122.3035,60.0,5.433333333333334
2026-02-06T21:28:34+00:00,SAT-48580,325.1325116133247,31.191973595865836,969.6343658588847,-3.3934919355887603,118854.4420409735,10.5,10500118854.442041,47.655,-122.3035,60.0,5.45
2026-02-06T21:28:35+00:00,SAT-48580,325.53992093560134,31.349261216026818,966.2499714068732,-3.3554206786476968,117521.02558164026,10.5,10500117521.025581,47.655,-122.3035,60.0,5.466666666666667
2026-02-06T21:28:36+00:00,SAT-48580,325.95151514066805,31.50601003077178,962.9035461480169,-3.316947419624014,116173.52930890658,10.5,10500116173.529308,47.655,-122.3035,60.0,5.483333333333333
2026-02-06T21:28:37+00:00,SAT-48580,326.3673184112198,31.662176644327726,959.5954910066861,-3.2780712609168567,114811.92178499365,10.5,10500114811.921785,47.655,-122.3035,60.0,5.5
2026-02-06T21:28:38+00:00,SAT-48580,326.7873537065954,31.817716676763787,956.326207802446,-3.238791419118539,113436.1755716505,10.5,10500113436.175571,47.655,-122.3035,60.0,5.516666666666667
2026-02-06T21:28:39+00:00,SAT-48580,327.2116426852771,31.97258476800692,953.0960991361688,-3.1991073159961734,112046.27041671549,10.5,10500112046.270416,47.655,-122.3035,60.0,5.533333333333333
2026-02-06T21:28:40+00:00,SAT-48580,327.6402056366239,32.12673458769943,949.9055681854101,-3.1590184732169995,110642.189566952,10.5,10500110642.189568,47.655,-122.3035,60.0,5.55
2026-02-06T21:28:41+00:00,SAT-48580,328.0730613965783,32.2801188416415,946.755018604775,-3.118524619030444,109223.92350450545,10.5,10500109223.923504,47.655,-122.3035,60.0,5.566666666666666
2026-02-06T21:28:42+00:00,SAT-48580,328.5102272750327,32.43268928502145,943.6448543198919,-3.077625625800924,107791.46775903781,10.5,10500107791.467758,47.655,-122.3035,60.0,5.583333333333333
2026-02-06T21:28:43+00:00,SAT-48580,328.95171897268,32.58439673440409,940.5754793836813,-3.0363215446590317,106344.82412135876,10.5,10500106344.824121,47.655,-122.3035,60.0,5.6
2026-02-06T21:28:44+00:00,SAT-48580,329.3975505003546,32.73519108323538,937.547297798071,-2.994612620961837,104884.0011849107,10.5,10500104884.001184,47.655,-122.3035,60.0,5.616666666666666
2026-02-06T21:28:45+00:00,SAT-48580,329.84773409871246,32.88502132004438,934.5607133202894,-2.9524992652587976,103409.01332887226,10.5,10500103409.013329,47.655,-122.3035,60.0,5.633333333333334
2026-02-06T21:28:46+00:00,SAT-48580,330.3022801517793,33.03383554720295,931.616129298116,-2.9099820718809153,101919.88136922914,10.5,10500101919.881369,47.655,-122.3035,60.0,5.65
2026-02-06T21:28:47+00:00,SAT-48580,330.76119710122833,33.181581002657005,928.7139484865925,-2.8670618449307113,100416.633469053,10.5,10500100416.633469,47.655,-122.3035,60.0,5.666666666666667
2026-02-06T21:28:48+00:00,SAT-48580,331.22449136307057,33.328204085119275,925.8545728388132,-2.823739597928509,98899.30512611277,10.5,10500098899.305126,47.655,-122.3035,60.0,5.683333333333334
2026-02-06T21:28:49+00:00,SAT-48580,331.69216724316385,33.47365038148383,923.0384032970707,-2.7800165020693055,97367.93736061135,10.5,10500097367.93736,47.655,-122.3035,60.0,5.7
2026-02-06T21:28:50+00:00,SAT-48580,332.1642268427791,33.61786469384531,920.2658396356012,-2.7358939825996638,95822.58009071219,10.5,10500095822.580091,47.655,-122.3035,60.0,5.716666666666667
2026-02-06T21:28:51+00:00,SAT-48580,332.6406699788356,33.76079107380585,917.5372802072153,-2.6913736676844513,94263.29034163608,10.5,10500094263.290342,47.655,-122.3035,60.0,5.733333333333333
2026-02-06T21:28:52+00:00,SAT-48580,333.12149409516326,33.90237285657547,914.8531217409245,-2.6464573736683406,92690.13172945657,10.5,10500092690.13173,47.655,-122.3035,60.0,5.75
2026-02-06T21:28:53+00:00,SAT-48580,333.60669417015845,34.04255269671548,912.2137591542636,-2.601147174446027,91103.17689073847,10.5,10500091103.176891,47.655,-122.3035,60.0,5.766666666666667
2026-02-06T21:28:54+00:00,SAT-48580,334.096262636329,34.181272610019754,909.6195852964339,-2.5554453606331244,89502.50605252986,10.5,10500089502.506052,47.655,-122.3035,60.0,5.783333333333333
2026-02-06T21:28:55+00:00,SAT-48580,334.590189292825,34.31847401581593,907.0709907321614,-2.509354425973319,87888.20655628317,10.5,10500087888.206556,47.655,-122.3035,60.0,5.8
2026-02-06T21:28:56+00:00,SAT-48580,335.0884612151179,34.45409778107197,904.5683635391132,-2.4628771370706954,86260.37530017617,10.5,10500086260.3753,47.655,-122.3035,60.0,5.816666666666666
2026-02-06T21:28:57+00:00,SAT-48580,335.5910626786826,34.58808427085062,902.1120890357695,-2.4160164599072558,84619.11616544465,10.5,10500084619.116165,47.655,-122.3035,60.0,5.833333333333333
2026-02-06T21:28:58+00:00,SAT-48580,336.0979750692037,34.7203733974248,899.7025495825811,-2.3687756299318927,82964.54247119476,10.5,10500082964.54247,47.655,-122.3035,60.0,5.85
2026-02-06T21:28:59+00:00,SAT-48580,336.609176807936,34.8509046758108,897.3401243132222,-2.3211581146233913,81296.775663201,10.5,10500081296.775663,47.655,-122.3035,60.0,5.866666666666666
2026-02-06T21:29:00+00:00,SAT-48580,337.12464327122717,34.97961727990669,895.0251889031841,-2.27316760858103,79615.94514195823,10.5,10500079615.945143,47.655,-122.3035,60.0,5.883333333333334
2026-02-06T21:29:01+00:00,SAT-48580,337.64434671042244,35.10645010094718,892.7581153432644,-2.2248080828616654,77922.18999067509,10.5,10500077922.189991,47.655,-122.3035,60.0,5.9
2026-02-06T21:29:02+00:00,SAT-48580,338.1682561850609,35.231341811293454,890.5392716638494,-2.1760837502430372,76215.65775864811,10.5,10500076215.657759,47.655,-122.3035,60.0,5.916666666666667
2026-02-06T21:29:03+00:00,SAT-48580,338.69633749141457,35.35423092887756,888.3690216938411,-2.126999061661023,74496.50433647915,10.5,10500074496.504337,47.655,-122.3035,60.0,5.933333333333334
2026-02-06T21:29:04+00:00,SAT-48580,339.2285530929533,35.475055883950574,886.2477248231387,-2.0775587357572767,72764.89499095874,10.5,10500072764.89499,47.655,-122.3035,60.0,5.95
2026-02-06T21:29:05+00:00,SAT-48580,339.76486206146194,35.5937550899621,884.1757357356487,-2.0277677396457863,71021.0036914296,10.5,10500071021.00369,47.655,-122.3035,60.0,5.966666666666667
2026-02-06T21:29:06+00:00,SAT-48580,340.3052200176949,35.710267015764735,882.1534041614809,-1.9776313035780528,69265.01362342329,10.5,10500069265.013624,47.655,-122.3035,60.0,5.983333333333333
2026-02-06T21:29:07+00:00,SAT-48580,340.8495790803176,35.8245302609758,880.181074614515,-1.9271549013855336,67497.11650367168,10.5,10500067497.116503,47.655,-122.3035,60.0,6.0
2026-02-06T21:29:08+00:00,SAT-48580,341.3978878146373,35.936483632451065,878.2590861494724,-1.8763442787511395,65717.51357029457,10.5,10500065717.51357,47.655,-122.3035,60.0,6.016666666666667
2026-02-06T21:29:09+00:00,SAT-48580,341.9500911945444,36.046066224510795,876.3877720907971,-1.82520541896145,63926.41438329722,10.5,10500063926.414383,47.655,-122.3035,60.0,6.033333333333333
2026-02-06T21:29:10+00:00,SAT-48580,342.5061305608,36.15321749919078,874.5674597956855,-1.7737445758572685,62124.03797863828,10.5,10500062124.03798,47.655,-122.3035,60.0,6.05
2026-02-06T21:29:11+00:00,SAT-48580,343.0659435952234,36.25787737028704,872.7984703842592,-1.7219682568043218,60310.61227179164,10.5,10500060310.612272,47.655,-122.3035,60.0,6.066666666666666
2026-02-06T21:29:12+00:00,SAT-48580,343.62946429720716,36.35998628814289,871.0811184867198,-1.6698832103827799,58486.37362658133,10.5,10500058486.373627,47.655,-122.3035,60.0,6.083333333333333
2026-02-06T21:29:13+00:00,SAT-48580,344.1966229634979,36.45948532527631,869.4157120027801,-1.617496446631935,56651.567564235775,10.5,10500056651.567564,47.655,-122.3035,60.0,6.1
2026-02-06T21:29:14+00:00,SAT-48580,344.767346182376,36.5563162646007,867.802551840907,-1.564815218941698,54806.448129151504,10.5,10500054806.44813,47.655,-122.3035,60.0,6.116666666666666
2026-02-06T21:29:15+00:00,SAT-48580,345.3415568304285,36.650421687791585,866.2419316756227,-1.5118470386116953,52951.27839881416,10.5,10500052951.278399,47.655,-122.3035,60.0,6.133333333333334
2026-02-06T21:29:16+00:00,SAT-48580,345.9191740835953,36.741745065546255,864.7341376902867,-1.4585996384731532,51086.32920968314,10.5,10500051086.32921,47.655,-122.3035,60.0,6.15
2026-02-06T21:29:17+00:00,SAT-48580,346.5001134241183,36.830230846463245,863.2794483561576,-1.405081009538022,49211.88044079892,10.5,10500049211.880442,47.655,-122.3035,60.0,6.166666666666667
2026-02-06T21:29:18+00:00,SAT-48580,347.0842866710059,36.915824548719314,861.8781341749049,-1.351299371159108,47328.21996866456,10.5,10500047328.219969,47.655,-122.3035,60.0,6.183333333333334
2026-02-06T21:29:19+00:00,SAT-48580,347.6716020097562,36.99847285031185,860.5304574508805,-1.2972631690584326,45435.64359819066,10.5,10500045435.643599,47.655,-122.3035,60.0,6.2
2026-02-06T21:29:20+00:00,SAT-48580,348.26196403147895,37.078123679288325,859.2366720653557,-1.2429810873001295,43534.455482036705,10.5,10500043534.455482,47.655,-122.3035,60.0,6.216666666666667
2026-02-06T21:29:21+00:00,SAT-48580,348.8552737888245,37.154726304594064,857.9970232388195,-1.1884620148846508,41624.96695059898,10.5,10500041624.966951,47.655,-122.3035,60.0,6.233333333333333
2026-02-06T21:29:22+00:00,SAT-48580,349.45142884846655,37.22823142448055,856.8117473265888,-1.133715069424184,39707.49734122375,10.5,10500039707.497341,47.655,-122.3035,60.0,6.25
2026-02-06T21:29:23+00:00,SAT-48580,350.05032336662384,37.298591255726286,855.6810715908133,-1.0787495630024828,37782.37280247413,10.5,10500037782.372803,47.655,-122.3035,60.0,6.266666666666667
2026-02-06T21:29:24+00:00,SAT-48580,350.6518481602142,37.36575961984069,854.6052140065214,-1.0235750259216863,35849.927125844195,10.5,10500035849.927126,47.655,-122.3035,60.0,6.283333333333333
2026-02-06T21:29:25+00:00,SAT-48580,351.2558908033462,37.42969202955766,853.584383043991,-0.9682011713720292,33910.500508342695,10.5,10500033910.50051,47.655,-122.3035,60.0,6.3
2026-02-06T21:29:26+00:00,SAT-48580,351.8623357181953,37.49034577167827,852.6187774863474,-0.9126378988881128,31964.43967354637,10.5,10500031964.439674,47.655,-122.3035,60.0,6.316666666666666
2026-02-06T21:29:27+00:00,SAT-48580,352.4710642802284,37.54767998840093,851.7085862437225,-0.8568952972099309,30012.097971805128,10.5,10500030012.097971,47.655,-122.3035,60.0,6.333333333333333
2026-02-06T21:29:28+00:00,SAT-48580,353.0819549400304,37.60165575682774,850.8539881645527,-0.8009836177238114,28053.834450031496,10.5,10500028053.83445,47.655,-122.3035,60.0,6.35
2026-02-06T21:29:29+00:00,SAT-48580,353.69488334242624,37.65223616454228,850.0551518733721,-0.7449132750053239,26090.01387071552,10.5,10500026090.01387,47.655,-122.3035,60.0,6.366666666666666
2026-02-06T21:29:30+00:00,SAT-48580,354.3097224596353,37.699386382679904,849.3122356080589,-0.6886948439638445,24121.006611915393,10.5,10500024121.006613,47.655,-122.3035,60.0,6.383333333333334
2026-02-06T21:29:31+00:00,SAT-48580,354.92634273864064,37.74307373602767,848.6253870599321,-0.6323390324237206,22147.187706933797,10.5,10500022147.187706,47.655,-122.3035,60.0,6.4
2026-02-06T21:29:32+00:00,SAT-48580,355.54461224141414,37.783267768343435,847.9947432411913,-0.5758566919827652,20168.937224628364,10.5,10500020168.937225,47.655,-122.3035,60.0,6.416666666666667
2026-02-06T21:29:33+00:00,SAT-48580,356.1643968102224,37.81994030507553,847.4204303415315,-0.519258799183987,18186.639609965983,10.5,10500018186.63961,47.655,-122.3035,60.0,6.433333333333334
2026-02-06T21:29:34+00:00,SAT-48580,356.78556023457975,37.85306551136715,846.9025636035307,-0.46255643074038316,16200.682816290273,10.5,10500016200.682816,47.655,-122.3035,60.0,6.45
2026-02-06T21:29:35+00:00,SAT-48580,357.40796440570676,37.88261994474475,846.441247222748,-0.4057607877479281,14211.459153362843,10.5,10500014211.459154,47.655,-122.3035,60.0,6.466666666666667
2026-02-06T21:29:36+00:00,SAT-48580,358.03146951966124,37.908582605405435,846.036574223677,-0.3488831483243184,12219.363628571813,10.5,10500012219.363628,47.655,-122.3035,60.0,6.483333333333333
2026-02-06T21:29:37+00:00,SAT-48580,358.65593424127115,37.93093497935325,845.6886263829273,-0.2919348790670415,10224.794348241861,10.5,10500010224.794348,47.655,-122.3035,60.0,6.5
2026-02-06T21:29:38+00:00,SAT-48580,359.2812159010797,37.94966107795622,845.3974741409842,-0.23492741716531113,8228.15189111851,10.5,10500008228.151892,47.655,-122.3035,60.0,6.516666666666667
2026-02-06T21:29:39+00:00,SAT-48580,359.90717068973845,37.964747471905724,845.1631765318043,-0.17787225770143314,6229.838863608264,10.5,10500006229.838863,47.655,-122.3035,60.0,6.533333333333333
2026-02-06T21:29:40+00:00,SAT-48580,0.5336538519608066,37.97618331976414,844.9857811250791,-0.12078094493534551,4230.259594526317,10.5,10500004230.259594,47.655,-122.3035,60.0,6.55
2026-02-06T21:29:41+00:00,SAT-48580,1.160519889782968,37.98396039124852,844.8653239771895,-0.06366505933929632,2229.8196809961487,10.5,10500002229.819681,47.655,-122.3035,60.0,6.566666666666666
2026-02-06T21:29:42+00:00,SAT-48580,1.7876227659172652,37.988073084879765,844.8018295950885,-0.006536205986800797,228.92558178167502,10.5,10500000228.925581,47.655,-122.3035,60.0,6.583333333333333
2026-02-06T21:29:43+00:00,SAT-48580,2.414816108149054,37.98851844001562,844.795310911768,0.05059399649986784,-1772.015769818373,10.5,10499998227.98423,47.655,-122.3035,60.0,6.6
2026-02-06T21:29:44+00:00,SAT-48580,3.0419534146086376,37.98529614325223,844.8457692727452,0.1077139284725948,-3772.597404575953,10.5,10499996227.402596,47.655,-122.3035,60.0,6.616666666666666
2026-02-06T21:29:45+00:00,SAT-48580,3.6688882653145183,37.978408529074436,844.9531944350401,0.164811980786008,-5772.412721113497,10.5,10499994227.587278,47.655,-122.3035,60.0,6.633333333333334
2026-02-06T21:29:46+00:00,SAT-48580,4.295474525438324,37.967860574816584,845.1175645776495,0.22187656597716937,-7771.055877463997,10.5,10499992228.944122,47.655,-122.3035,60.0,6.65
2026-02-06T21:29:47+00:00,SAT-48580,4.921566550567009,37.953659889977615,845.3388463231722,0.2788961307097172,-9768.122226917498,10.5,10499990231.877773,47.655,-122.3035,60.0,6.666666666666667
2026-02-06T21:29:48+00:00,SAT-48580,5.547019392302739,37.935816699848125,845.616994771843,0.33585916757663486,-11763.208731403998,10.5,10499988236.79127,47.655,-122.3035,60.0,6.683333333333334
2026-02-06T21:29:49+00:00,SAT-48580,6.171689000285235,37.914343823565886,845.9519535473399,0.392754223194286,-13755.914244980782,10.5,10499986244.085754,47.655,-122.3035,60.0,6.7
2026-02-06T21:29:50+00:00,SAT-48580,6.795432415782423,37.88925664691329,846.3436548506619,0.44956991786086326,-15745.840202354471,10.5,10499984254.159798,47.655,-122.3035,60.0,6.716666666666667
2026-02-06T21:29:51+00:00,SAT-48580,7.4181079754237,37.86057308923914,846.7920195336139,0.5062949452476448,-17732.5906080675,10.5,10499982267.409391,47.655,-122.3035,60.0,6.733333333333333
2026-02-06T21:29:52+00:00,SAT-48580,8.039575491613595,37.82831356590381,847.2969571719818,0.5629180937040754,-19715.77278269219,10.5,10499980284.227217,47.655,-122.3035,60.0,6.75
2026-02-06T21:29:53+00:00,SAT-48580,8.659696444019596,37.792500945022105,847.8583661599595,0.6194282516572202,-21694.997551942455,10.5,10499978305.002447,47.655,-122.3035,60.0,6.766666666666667
2026-02-06T21:29:54+00:00,SAT-48580,9.278334156893095,37.75316049968291,848.476133809955,0.6758144178377813,-23669.879604832167,10.5,10499976330.120396,47.655,-122.3035,60.0,6.783333333333333
2026-02-06T21:29:55+00:00,SAT-48580,9.895353970977933,37.71031985553117,849.1501364626008,0.7320657135308632,-25640.037922748757,10.5,10499974359.962078,47.655,-122.3035,60.0,6.8
2026-02-06T21:29:56+00:00,SAT-48580,10.510623410645449,37.66400893377858,849.8802396089789,0.7881713981724747,-27605.096325708717,10.5,10499972394.903675,47.655,-122.3035,60.0,6.816666666666666
2026-02-06T21:29:57+00:00,SAT-48580,11.124012347736118,37.61425988965474,850.6662980284002,0.8441208598129116,-29564.683138344903,10.5,10499970435.316862,47.655,-122.3035,60.0,6.833333333333333
2026-02-06T21:29:58+00:00,SAT-48580,11.735393142561014,37.56110704811605,851.5081559166767,0.899903650249863,-31518.432420416528,10.5,10499968481.56758,47.655,-122.3035,60.0,6.85
2026-02-06T21:29:59+00:00,SAT-48580,12.344640797469687,37.5045868342265,852.405647049427,0.9555094791616484,-33465.98376133034,10.5,10499966534.01624,47.655,-122.3035,60.0,6.866666666666666
2026-02-06T21:30:00+00:00,SAT-48580,12.95163308939425,37.44473770106071,853.3585949395352,1.0109282193434073,-35406.98246353408,10.5,10499964593.017536,47.655,-122.3035,60.0,6.883333333333334
2026-02-06T21:30:01+00:00,SAT-48580,13.556250692622344,37.38160005467742,854.3668129998308,1.0661499255681504,-37341.08020311031,10.5,10499962658.919796,47.655,-122.3035,60.0,6.9
2026-02-06T21:30:02+00:00,SAT-48580,14.158377299576424,37.31521617557209,855.4301047245771,1.121164840389358,-39267.935233007964,10.5,10499960732.064768,47.655,-122.3035,60.0,6.916666666666667
2026-02-06T21:30:03+00:00,SAT-48580,14.757899730370944,37.24563013771122,856.5482638767502,1.175963393741013,-41187.21236903377,10.5,10499958812.78763,47.655,-122.3035,60.0,6.933333333333334
2026-02-06T21:30:04+00:00,SAT-48580,15.354708028950967,37.172887725795015,857.7210746749156,1.2305362205977284,-43098.58360838466,10.5,10499956901.416391,47.655,-122.3035,60.0,6.95
2026-02-06T21:30:05+00:00,SAT-48580,15.94869555564021,37.09703634990114,858.9483119977197,1.2848741550854959,-45001.72792338127,10.5,10499954998.272078,47.655,-122.3035,60.0,6.966666666666667
2026-02-06T21:30:06+00:00,SAT-48580,16.53975906399723,37.01812495925,860.2297415825076,1.3389682605986641,-46896.33231629187,10.5,10499953103.667685,47.655,-122.3035,60.0,6.983333333333333
2026-02-06T21:30:07+00:00,SAT-48580,17.12779877926891,36.93620395313576,861.5651202539776,1.3928098027053442,-48782.0908703651,10.5,10499951217.90913,47.655,-122.3035,60.0,7.0
2026-02-06T21:30:08+00:00,SAT-48580,17.712718452324737,36.851325092818136,862.9541961258095,1.4463902771664543,-50658.70573117543,10.5,10499949341.29427,47.655,-122.3035,60.0,7.016666666666667
2026-02-06T21:30:09+00:00,SAT-48580,18.294425414897532,36.76354141124589,864.3967088302448,1.499701412880982,-52525.88720977867,10.5,10499947474.112791,47.655,-122.3035,60.0,7.033333333333333
2026-02-06T21:30:10+00:00,SAT-48580,18.872830624323214,36.672907122417975,865.8923897505964,1.5527351750242395,-54383.35389262699,10.5,10499945616.646107,47.655,-122.3035,60.0,7.05
2026-02-06T21:30:11+00:00,SAT-48580,19.447848698375545,36.5794775306217,867.4409622568942,1.6054837563593394,-56230.83233726001,10.5,10499943769.167664,47.655,-122.3035,60.0,7.066666666666666
2026-02-06T21:30:12+00:00,SAT-48580,20.01939793675654,36.48330894049614,869.0421419328593,1.657939601101798,-58068.05790814417,10.5,10499941931.942091,47.655,-122.3035,60.0,7.083333333333333
2026-02-06T21:30:13+00:00,SAT-48580,20.58740034154687,36.38445856619025,870.695636826686,1.710095394634436,-59894.774416445056,10.5,10499940105.225584,47.655,-122.3035,60.0,7.1
2026-02-06T21:30:14+00:00,SAT-48580,21.151781624237483,36.28298444190492,872.4011476915607,1.7619440749048443,-61710.734519214835,10.5,10499938289.26548,47.655,-122.3035,60.0,7.116666666666666
2026-02-06T21:30:15+00:00,SAT-48580,21.712471207659814,36.1789453327216,874.1583682375491,1.813478829722796,-63515.699624736255,10.5,10499936484.300375,47.655,-122.3035,60.0,7.133333333333334
2026-02-06T21:30:16+00:00,SAT-48580,22.269402218292555,36.07240064676715,875.9669853807894,1.8646930908082322,-65309.43968405782,10.5,10499934690.560316,47.655,-122.3035,60.0,7.15
2026-02-06T21:30:17+00:00,SAT-48580,22.82251146898482,35.96341034908306,877.8266794867491,1.9155805488287223,-67091.7337176694,10.5,10499932908.266283,47.655,-122.3035,60.0,7.166666666666667
2026-02-06T21:30:18+00:00,SAT-48580,23.371739438762013,35.852034876130496,879.7371246284763,1.96613516791384,-68862.37032385691,10.5,10499931137.629677,47.655,-122.3035,60.0,7.183333333333334
2026-02-06T21:30:19+00:00,SAT-48580,23.917030249244927,35.73833505117,881.6979888593314,2.016351131769635,-70621.14579140335,10.5,10499929378.854208,47.655,-122.3035,60.0,7.2
2026-02-06T21:30:20+00:00,SAT-48580,24.45833161940489,35.622372004601786,883.7089344319734,2.066222908228265,-72367.86636038983,10.5,10499927632.13364,47.655,-122.3035,60.0,7.216666666666667
2026-02-06T21:30:21+00:00,SAT-48580,24.99559483250895,35.50420709253363,885.7696180817235,2.115745213629918,-74102.34697469986,10.5,10499925897.653025,47.655,-122.3035,60.0,7.233333333333333
2026-02-06T21:30:22+00:00,SAT-48580,25.528774687219364,35.383901819527566,887.8796912744085,2.1649130289051746,-75824.41184529176,10.5,10499924175.588154,47.655,-122.3035,60.0,7.25
2026-02-06T21:30:23+00:00,SAT-48580,26.057829447850125,35.26151776262729,890.038800470241,2.2137215567154382,-77533.89294907512,10.5,10499922466.107052,47.655,-122.3035,60.0,7.266666666666667
2026-02-06T21:30:24+00:00,SAT-48580,26.582720779586822,35.13711650011326,892.2465873449563,2.26216630589568,-79230.63298645306,10.5,10499920769.367014,47.655,-122.3035,60.0,7.283333333333333
2026-02-06T21:30:25+00:00,SAT-48580,27.103413699901477,35.01075953787272,894.502689095165,2.310242986322574,-80914.48169915944,10.5,10499919085.518301,47.655,-122.3035,60.0,7.3
2026-02-06T21:30:26+00:00,SAT-48580,27.619876501105015,34.88250824415377,896.8067386388549,2.3579475992909655,-82585.29903562531,10.5,10499917414.700964,47.655,-122.3035,60.0,7.316666666666666
2026-02-06T21:30:27+00:00,SAT-48580,28.132080690766298,34.75242378175655,899.1583649060286,2.405276362634293,-84242.95252837907,10.5,10499915757.047472,47.655,-122.3035,60.0,7.333333333333333
2026-02-06T21:30:28+00:00,SAT-48580,28.640000912263755,34.620567046959884,901.557193054663,2.45222576241791,-85887.31910456551,10.5,10499914112.680895,47.655,-122.3035,60.0,7.35
2026-02-06T21:30:29+00:00,SAT-48580,29.14361487436409,34.486998608169195,904.002844738219,2.4987925201697077,-87518.28393822345,10.5,10499912481.716063,47.655,-122.3035,60.0,7.366666666666666
2026-02-06T21:30:30+00:00,SAT-48580,29.642903271551205,34.35177864899533,906.4949383404754,2.5449735909514226,-89135.74038273483,10.5,10499910864.259617,47.655,-122.3035,60.0,7.383333333333334
2026-02-06T21:30:31+00:00,SAT-48580,30.13784970257293,34.214966914047416,909.0330892084357,2.5907661824455905,-90739.59063933056,10.5,10499909260.40936,47.655,-122.3035,60.0,7.4
2026-02-06T21:30:32+00:00,SAT-48580,30.628440591378208,34.07662265632424,911.6169099042721,2.6361677184884926,-92329.74447986003,10.5,10499907670.25552,47.655,-122.3035,60.0,7.416666666666667
2026-02-06T21:30:33+00:00,SAT-48580,31.11466510003455,33.936804589194715,914.2460104208981,2.681175870725132,-93906.12035548234,10.5,10499906093.879644,47.655,-122.3035,60.0,7.433333333333334
2026-02-06T21:30:34+00:00,SAT-48580,31.596515047088925,33.79557083927954,916.9199984291164,2.725788521761139,-95468.64410609008,10.5,10499904531.355894,47.655,-122.3035,60.0,7.45
2026-02-06T21:30:35+00:00,SAT-48580,32.07398481874712,33.652978903879465,919.6384794880094,2.770003784632164,-97017.2496422099,10.5,10499902982.750359,47.655,-122.3035,60.0,7.466666666666667
2026-02-06T21:30:36+00:00,SAT-48580,32.547071283738916,33.50908560991336,922.4010572747555,2.8138199888231323,-98551.87845533756,10.5,10499901448.121544,47.655,-122.3035,60.0,7.483333333333333
2026-02-06T21:30:37+00:00,SAT-48580,33.01577370586656,33.36394707610078,925.2073338004957,2.8572356796456737,-100072.47959613305,10.5,10499899927.520405,47.655,-122.3035,60.0,7.5
2026-02-06T21:30:38+00:00,SAT-48580,33.480093657026785,33.21761867764649,928.0569096255828,2.900249599154726,-101579.00900603918,10.5,10499898420.990993,47.655,-122.3035,60.0,7.516666666666667
2026-02-06T21:30:39+00:00,SAT-48580,33.940034927956006,33.070155014306096,930.9493840557965,2.942860721209472,-103071.43074526396,10.5,10499896928.569254,47.655,-122.3035,60.0,7.533333333333333
2026-02-06T21:30:40+00:00,SAT-48580,34.39560344553308,32.92160987902356,933.8843553735273,2.9850681844932785,-104549.71464685553,10.5,10499895450.285353,47.655,-122.3035,60.0,7.55
2026-02-06T21:30:41+00:00,SAT-48580,34.84680718073017,32.77203623227273,936.8614210021576,3.0268713551423803,-106013.8385102236,10.5,10499893986.16149,47.655,-122.3035,60.0,7.566666666666666
2026-02-06T21:30:42+00:00,SAT-48580,35.29365606774725,32.62148617544883,939.880177732905,3.0682697584632517,-107463.78570959294,10.5,10499892536.21429,47.655,-122.3035,60.0,7.583333333333333
2026-02-06T21:30:43+00:00,SAT-48580,35.736161914339945,32.47001092985661,942.9402218835668,3.109263127699593,-108899.54690202956,10.5,10499891100.453098,47.655,-122.3035,60.0,7.6
2026-02-06T21:30:44+00:00,SAT-48580,36.17433832119284,32.31766081534539,946.0411495058994,3.1498513711962572,-110321.11887738251,10.5,10499889678.881123,47.655,-122.3035,60.0,7.616666666666666
2026-02-06T21:30:45+00:00,SAT-48580,36.608200598228954,32.1644852326026,949.1825565602488,3.1900345744889185,-111728.5046314729,10.5,10499888271.495369,47.655,-122.3035,60.0,7.633333333333334
2026-02-06T21:30:46+00:00,SAT-48580,37.0377656832642,32.01053264728204,952.3640390922684,3.2298129592955656,-113121.71192980258,10.5,10499886878.28807,47.655,-122.3035,60.0,7.65
2026-02-06T21:30:47+00:00,SAT-48580,37.46305205738718,31.855850577958805,955.5851933687345,3.269186978237232,-114500.75662507472,10.5,10499885499.243376,47.655,-122.3035,60.0,7.666666666666667
2026-02-06T21:30:48+00:00,SAT-48580,37.88407967501269,31.700485581313824,958.8456161078304,3.308157175855391,-115865.65778943514,10.5,10499884134.34221,47.655,-122.3035,60.0,7.683333333333334
2026-02-06T21:30:49+00:00,SAT-48580,38.30086987792518,31.544483245703017,962.1449045708232,3.346724284087009,-117216.44105841246,10.5,10499882783.55894,47.655,-122.3035,60.0,7.7
2026-02-06T21:30:50+00:00,SAT-48580,38.713445324256654,31.38788818175135,965.4826567489524,3.3848891892776543,-118553.13747557775,10.5,10499881446.862524,47.655,-122.3035,60.0,7.716666666666667
2026-02-06T21:30:51+00:00,SAT-48580,39.12182991540857,31.230744016101035,968.8584715174284,3.4226528861505052,-119875.78188034438,10.5,10499880124.21812,47.655,-122.3035,60.0,7.733333333333333
2026-02-06T21:30:52+00:00,SAT-48580,39.526048719985006,31.073093388744883,972.2719487435172,3.4600165602592914,-121184.41579581886,10.5,10499878815.584204,47.655,-122.3035,60.0,7.75
2026-02-06T21:30:53+00:00,SAT-48580,39.92612791004377,30.914977947922925,975.722689476861,3.4969814802732766,-122479.08365616525,10.5,10499877520.916344,47.655,-122.3035,60.0,7.766666666666667
2026-02-06T21:30:54+00:00,SAT-48580,40.322094687118096,30.756438351305736,979.2102960323689,3.5335490685772375,-123759.8352793151,10.5,10499876240.16472,47.655,-122.3035,60.0,7.783333333333333
2026-02-06T21:30:55+00:00,SAT-48580,40.713977219144915,30.59751426513947,982.7343721435229,3.5697208618512737,-125026.72448630571,10.5,10499874973.275515,47.655,-122.3035,60.0,7.8
2026-02-06T21:30:56+00:00,SAT-48580,41.1018045753165,30.438244366356166,986.2945230763651,3.605498532658206,-126279.80985736194,10.5,10499873720.190144,47.655,-122.3035,60.0,7.816666666666666
2026-02-06T21:30:57+00:00,SAT-48580,41.48560666584242,30.278666344795127,989.890355765016,3.640883819655089,-127519.15228760835,10.5,10499872480.847712,47.655,-122.3035,60.0,7.833333333333333
2026-02-06T21:30:58+00:00,SAT-48580,41.86541417684607,30.118816909522707,993.5214788775925,3.675878638060367,-128744.8188560963,10.5,10499871255.181145,47.655,-122.3035,60.0,7.85
