DopplerPredictor/satellites_20260211_204923/SAT-57998.csv

timestamp,satellite,azimuth_deg,elevation_deg,distance_km,relative_velocity_kms,doppler_shift_hz,tx_freq_ghz,rx_freq_hz,ue_lat,ue_lon,ue_alt_m,time_minutes
2026-02-06T21:23:07+00:00,SAT-57998,190.17627694997805,42.29631778739497,797.9550230193664,-0.24389117083029077,8542.100461106507,10.5,10500008542.100462,47.655,-122.3035,60.0,0.0
2026-02-06T21:23:08+00:00,SAT-57998,189.4763842522201,42.31507330841976,797.7117856871081,-0.18352293833513622,6427.749601755926,10.5,10500006427.749601,47.655,-122.3035,60.0,0.016666666666666666
2026-02-06T21:23:09+00:00,SAT-57998,188.77574873704762,42.32917274975741,797.5287547484446,-0.12311296772344306,4311.936897012106,10.5,10500004311.936897,47.655,-122.3035,60.0,0.03333333333333333
2026-02-06T21:23:10+00:00,SAT-57998,188.07458007700382,42.3386038492496,797.4059718295979,-0.062674987630978,2195.143181771667,10.5,10500002195.14318,47.655,-122.3035,60.0,0.05
2026-02-06T21:23:11+00:00,SAT-57998,187.37308890151095,42.34335837987028,797.3434648649594,-0.0022227576828432586,77.85037630884702,10.5,10500000077.850376,47.655,-122.3035,60.0,0.06666666666666667
2026-02-06T21:23:12+00:00,SAT-57998,186.67148642018756,42.343432171203055,797.3412480661833,0.05822994673202506,-2039.4590469859759,10.5,10499997960.540953,47.655,-122.3035,60.0,0.08333333333333333
2026-02-06T21:23:13+00:00,SAT-57998,185.96998404250064,42.33882512035181,797.399321906464,0.11866934901068099,-4156.30257320266,10.5,10499995843.697428,47.655,-122.3035,60.0,0.1
2026-02-06T21:23:14+00:00,SAT-57998,185.2687930004271,42.329541192278555,797.5176731193264,0.179081688264969,-6272.198237829501,10.5,10499993727.801762,47.655,-122.3035,60.0,0.11666666666666667
2026-02-06T21:23:15+00:00,SAT-57998,184.56812396013441,42.31558840937858,797.6962747142984,0.23945323344342692,-8386.665121362,10.5,10499991613.334879,47.655,-122.3035,60.0,0.13333333333333333
2026-02-06T21:23:16+00:00,SAT-57998,183.86818665107853,42.296978830571334,797.9350860066675,0.2997703010202557,-10499.223968845425,10.5,10499989500.776031,47.655,-122.3035,60.0,0.15
2026-02-06T21:23:17+00:00,SAT-57998,183.16918948620506,42.273728519728834,798.2340526648791,0.3600192667499352,-12609.397601571149,10.5,10499987390.602398,47.655,-122.3035,60.0,0.16666666666666666
2026-02-06T21:23:18+00:00,SAT-57998,182.47133920050643,42.245857504069434,798.5931067696573,0.42018658496280314,-14716.71159288948,10.5,10499985283.288406,47.655,-122.3035,60.0,0.18333333333333332
2026-02-06T21:23:19+00:00,SAT-57998,181.7748404853323,42.21338972213759,799.0121668923719,0.48025880154117717,-16820.69472268832,10.5,10499983179.305277,47.655,-122.3035,60.0,0.2
2026-02-06T21:23:20+00:00,SAT-57998,181.07989563785804,42.17635296212032,799.4911381863418,0.5402225687591179,-18920.879497144444,10.5,10499981079.120502,47.655,-122.3035,60.0,0.21666666666666667
2026-02-06T21:23:21+00:00,SAT-57998,180.38670422093125,42.13477879067115,800.0299124929445,0.6000646587746462,-21016.802621278035,10.5,10499978983.197378,47.655,-122.3035,60.0,0.23333333333333334
2026-02-06T21:23:22+00:00,SAT-57998,179.69546273509079,42.08870247268262,800.628368461178,0.6597719801698847,-23108.005578258377,10.5,10499976891.994421,47.655,-122.3035,60.0,0.25
2026-02-06T21:23:23+00:00,SAT-57998,179.00636430094656,42.038162882179286,801.2863716837177,0.7193315901597652,-25194.035057004454,10.5,10499974805.964943,47.655,-122.3035,60.0,0.26666666666666666
2026-02-06T21:23:24+00:00,SAT-57998,178.31959835806356,41.98320240508461,802.003774845152,0.7787307084239932,-27274.443436638852,10.5,10499972725.556562,47.655,-122.3035,60.0,0.2833333333333333
2026-02-06T21:23:25+00:00,SAT-57998,177.6353503790475,41.92386683420639,802.7804178840116,0.8379567293909729,-29348.789216722773,10.5,10499970651.210783,47.655,-122.3035,60.0,0.3
2026-02-06T21:23:26+00:00,SAT-57998,176.95380160034026,41.86020525704378,803.616128167049,0.8969972392982377,-31416.63761478448,10.5,10499968583.362385,47.655,-122.3035,60.0,0.31666666666666665
2026-02-06T21:23:27+00:00,SAT-57998,176.27512876666893,41.79226993658126,804.5107206805344,0.955840016407807,-33477.560573861985,10.5,10499966522.439426,47.655,-122.3035,60.0,0.3333333333333333
2026-02-06T21:23:28+00:00,SAT-57998,175.59950390315305,41.72011618687537,805.4639982217641,1.0144730605984273,-35531.137798948526,10.5,10499964468.862202,47.655,-122.3035,60.0,0.35
2026-02-06T21:23:29+00:00,SAT-57998,174.9270940914543,41.643802241770494,806.4757516200845,1.0728845897446317,-37576.95663017191,10.5,10499962423.04337,47.655,-122.3035,60.0,0.36666666666666664
2026-02-06T21:23:30+00:00,SAT-57998,174.25806127684746,41.56338911982386,807.5457599543021,1.1310630519685227,-39614.61247190378,10.5,10499960385.387527,47.655,-122.3035,60.0,0.38333333333333336
2026-02-06T21:23:31+00:00,SAT-57998,173.5925620923098,41.478940484804546,808.6737907823149,1.188997151539158,-41643.709699865634,10.5,10499958356.2903,47.655,-122.3035,60.0,0.4
2026-02-06T21:23:32+00:00,SAT-57998,172.93074769251558,41.39052250133603,809.8596003965725,1.246675826271383,-43663.86086954037,10.5,10499956336.13913,47.655,-122.3035,60.0,0.4166666666666667
2026-02-06T21:23:33+00:00,SAT-57998,172.27276362678344,41.29820368987804,811.1029340569949,1.3040882901211277,-45674.68820803972,10.5,10499954325.311792,47.655,-122.3035,60.0,0.43333333333333335
2026-02-06T21:23:34+00:00,SAT-57998,171.61874971119914,41.20205477674924,812.4035262663745,1.3612240282669823,-47675.82344184027,10.5,10499952324.176558,47.655,-122.3035,60.0,0.45
2026-02-06T21:23:35+00:00,SAT-57998,170.96883992877383,41.10214854331262,813.7611010408706,1.4180727934812536,-49666.90766968248,10.5,10499950333.09233,47.655,-122.3035,60.0,0.4666666666666667
2026-02-06T21:23:36+00:00,SAT-57998,170.32316235399998,40.99855967475352,815.1753721768865,1.474624633888929,-51647.59233480702,10.5,10499948352.407665,47.655,-122.3035,60.0,0.48333333333333334
2026-02-06T21:23:37+00:00,SAT-57998,169.68183908558936,40.89136460667736,816.64604354563,1.5308698788893547,-53617.53873187237,10.5,10499946382.461267,47.655,-122.3035,60.0,0.5
2026-02-06T21:23:38+00:00,SAT-57998,169.04498620761288,40.78064137311476,818.1728093736342,1.5867991681279359,-55576.41902166641,10.5,10499944423.580978,47.655,-122.3035,60.0,0.5166666666666667
2026-02-06T21:23:39+00:00,SAT-57998,168.41271375773528,40.66646945329337,819.7553545521707,1.6424034217158607,-57523.915188075,10.5,10499942476.084812,47.655,-122.3035,60.0,0.5333333333333333
2026-02-06T21:23:40+00:00,SAT-57998,167.78512572761872,40.548929621898054,821.3933549169645,1.6976738939275797,-59459.72091879505,10.5,10499940540.279081,47.655,-122.3035,60.0,0.55
2026-02-06T21:23:41+00:00,SAT-57998,167.16232005942405,40.42810379724822,823.0864775814616,1.7526021275777932,-61383.54000742349,10.5,10499938616.459993,47.655,-122.3035,60.0,0.5666666666666667
2026-02-06T21:23:42+00:00,SAT-57998,166.5443886782114,40.30407489495614,824.8343812245945,1.8071799954521603,-63295.087804536044,10.5,10499936704.912195,47.655,-122.3035,60.0,0.5833333333333334
2026-02-06T21:23:43+00:00,SAT-57998,165.93141752431367,40.176926681211555,826.6367164198696,1.8613996687976753,-65194.09011408682,10.5,10499934805.909885,47.655,-122.3035,60.0,0.6
2026-02-06T21:23:44+00:00,SAT-57998,165.3234866123863,40.0467436312508,828.4931259330285,1.9152536592801461,-67080.28466293683,10.5,10499932919.715338,47.655,-122.3035,60.0,0.6166666666666667
2026-02-06T21:23:45+00:00,SAT-57998,164.7206700897377,39.91361078813965,830.4032450615534,1.968734780203342,-68953.41974258434,10.5,10499931046.580257,47.655,-122.3035,60.0,0.6333333333333333
2026-02-06T21:23:46+00:00,SAT-57998,164.12303632085525,39.777613627860546,832.3667019354965,2.0218361824633835,-70813.25546843986,10.5,10499929186.744532,47.655,-122.3035,60.0,0.65
2026-02-06T21:23:47+00:00,SAT-57998,163.53064797187736,39.6388379257281,834.3831178541678,2.074551320151157,-72659.56257507701,10.5,10499927340.437426,47.655,-122.3035,60.0,0.6666666666666666
2026-02-06T21:23:48+00:00,SAT-57998,162.9435621165014,39.497369629261456,836.4521075885178,2.1268739841376365,-74492.12359253275,10.5,10499925507.876408,47.655,-122.3035,60.0,0.6833333333333333
2026-02-06T21:23:49+00:00,SAT-57998,162.3618303412114,39.353294733018764,838.5732797170124,2.1787982871046516,-76310.73232202139,10.5,10499923689.267677,47.655,-122.3035,60.0,0.7
2026-02-06T21:23:50+00:00,SAT-57998,161.7854988639017,39.20669915893463,840.7462369465837,2.230318646397299,-78115.19323535362,10.5,10499921884.806765,47.655,-122.3035,60.0,0.7166666666666667
2026-02-06T21:23:51+00:00,SAT-57998,161.2146086645357,39.057668642405076,842.9705764164739,2.281429802585272,-79905.32212503278,10.5,10499920094.677876,47.655,-122.3035,60.0,0.7333333333333333
2026-02-06T21:23:52+00:00,SAT-57998,160.6491956168673,38.90628862182078,845.2458900205957,2.332126838112493,-81680.9467574437,10.5,10499918319.053242,47.655,-122.3035,60.0,0.75
2026-02-06T21:23:53+00:00,SAT-57998,160.08929062162585,38.75264413169971,847.5717647484885,2.382405112006119,-83441.90458608618,10.5,10499916558.095413,47.655,-122.3035,60.0,0.7666666666666667
2026-02-06T21:23:54+00:00,SAT-57998,159.53491976074565,38.596819705024515,849.9477829611615,2.4322603002894168,-85188.04416700461,10.5,10499914811.955833,47.655,-122.3035,60.0,0.7833333333333333
2026-02-06T21:23:55+00:00,SAT-57998,158.98610444458456,38.438899277770965,852.3735227072377,2.4816884135045436,-86919.22577250995,10.5,10499913080.774227,47.655,-122.3035,60.0,0.8
2026-02-06T21:23:56+00:00,SAT-57998,158.4428615585226,38.278966097259726,854.8485580565787,2.530685736498288,-88635.31928222167,10.5,10499911364.680717,47.655,-122.3035,60.0,0.8166666666666667
2026-02-06T21:23:57+00:00,SAT-57998,157.90520362566545,38.11710263934352,857.372459373852,2.579248867870854,-90336.20556473095,10.5,10499909663.794436,47.655,-122.3035,60.0,0.8333333333333334
2026-02-06T21:23:58+00:00,SAT-57998,157.37313896159475,37.953390527910905,859.9447936314447,2.6273746901123536,-92021.7754316545,10.5,10499907978.224567,47.655,-122.3035,60.0,0.85
2026-02-06T21:23:59+00:00,SAT-57998,156.84667183632234,37.7879104611565,862.5651246925906,2.675060384081992,-93691.93014475674,10.5,10499906308.069855,47.655,-122.3035,60.0,0.8666666666666667
2026-02-06T21:24:00+00:00,SAT-57998,156.32580263306497,37.62074214169895,865.233013608941,2.722303425348249,-95346.58128776748,10.5,10499904653.418713,47.655,-122.3035,60.0,0.8833333333333333
2026-02-06T21:24:01+00:00,SAT-57998,155.8105280073553,37.45196421165645,867.948018914484,2.7691015436141373,-96985.64934528287,10.5,10499903014.350655,47.655,-122.3035,60.0,0.9
2026-02-06T21:24:02+00:00,SAT-57998,155.3008410527669,37.281654194846816,870.7096968789954,2.815452763096787,-98609.06511702928,10.5,10499901390.934883,47.655,-122.3035,60.0,0.9166666666666666
2026-02-06T21:24:03+00:00,SAT-57998,154.79673145688486,37.10988844096594,873.5176018017672,2.861355359099433,-100216.76819683051,10.5,10499899783.231804,47.655,-122.3035,60.0,0.9333333333333333
2026-02-06T21:24:04+00:00,SAT-57998,154.2981856633075,36.936742076825205,876.3712862620158,2.9068078917408147,-101808.70815395414,10.5,10499898191.291845,47.655,-122.3035,60.0,0.95
2026-02-06T21:24:05+00:00,SAT-57998,153.80518702469266,36.76228895978436,879.2703014029382,2.951809166828864,-103384.8431627425,10.5,10499896615.156837,47.655,-122.3035,60.0,0.9666666666666667
2026-02-06T21:24:06+00:00,SAT-57998,153.3177159600389,36.586601637692,882.2141971767409,2.996358214607968,-104945.139258252,10.5,10499895054.860743,47.655,-122.3035,60.0,0.9833333333333333
2026-02-06T21:24:07+00:00,SAT-57998,152.83575011158098,36.40975131401798,885.2025225684725,3.040454353747906,-106489.57257741626,10.5,10499893510.427423,47.655,-122.3035,60.0,1.0
2026-02-06T21:24:08+00:00,SAT-57998,152.35926448739303,36.231807813016616,888.2348258836811,3.084097114463284,-108018.12666636358,10.5,10499891981.873333,47.655,-122.3035,60.0,1.0166666666666666
2026-02-06T21:24:09+00:00,SAT-57998,151.8882316128985,36.052839553133,891.3106549593857,3.1272862454384094,-109530.79272295536,10.5,10499890469.207277,47.655,-122.3035,60.0,1.0333333333333334
2026-02-06T21:24:10+00:00,SAT-57998,151.4226216765507,35.87291352345767,894.4295573819659,3.170021745022585,-111027.5706893772,10.5,10499888972.42931,47.655,-122.3035,60.0,1.05
2026-02-06T21:24:11+00:00,SAT-57998,150.96240266629036,35.69209526173103,897.5910807361524,3.2123038006806763,-112508.46713144165,10.5,10499887491.53287,47.655,-122.3035,60.0,1.0666666666666667
2026-02-06T21:24:12+00:00,SAT-57998,150.50754051064493,35.51044883902244,900.7947727936416,3.2541328388338453,-113973.49698422158,10.5,10499886026.503016,47.655,-122.3035,60.0,1.0833333333333333
2026-02-06T21:24:13+00:00,SAT-57998,150.05799920765025,35.32803684458325,904.0401817514054,3.295509461092325,-115422.68131865215,10.5,10499884577.318682,47.655,-122.3035,60.0,1.1
2026-02-06T21:24:14+00:00,SAT-57998,149.61374095814224,35.14492037717588,907.3268564064125,3.336434474748478,-116856.04840952675,10.5,10499883143.95159,47.655,-122.3035,60.0,1.1166666666666667
2026-02-06T21:24:15+00:00,SAT-57998,149.17472628963736,34.96115903735619,910.6543463607625,3.3769088842576376,-118273.63343712,10.5,10499881726.366564,47.655,-122.3035,60.0,1.1333333333333333
2026-02-06T21:24:16+00:00,SAT-57998,148.74091417651613,34.776810922792485,914.0222022183145,3.416933863921805,-119675.47753045526,10.5,10499880324.52247,47.655,-122.3035,60.0,1.15
2026-02-06T21:24:17+00:00,SAT-57998,148.31226215884624,34.59193262746503,917.4299757540844,3.4565107447334835,-121061.6273065201,10.5,10499878938.372694,47.655,-122.3035,60.0,1.1666666666666667
2026-02-06T21:24:18+00:00,SAT-57998,147.88872645756072,34.406579243763794,920.8772200705098,3.495641080932785,-122432.13720137764,10.5,10499877567.862799,47.655,-122.3035,60.0,1.1833333333333333
2026-02-06T21:24:19+00:00,SAT-57998,147.47026207639843,34.220804363087346,924.3634898201027,3.534326528838299,-123787.06522631113,10.5,10499876212.934774,47.655,-122.3035,60.0,1.2
2026-02-06T21:24:20+00:00,SAT-57998,147.05682291397906,34.03466008488372,927.8883413072544,3.5725689340276268,-125126.47602125494,10.5,10499874873.52398,47.655,-122.3035,60.0,1.2166666666666666
2026-02-06T21:24:21+00:00,SAT-57998,146.64836186000556,33.84819702277208,931.4513326769844,3.6103702557025854,-126450.43820574415,10.5,10499873549.561794,47.655,-122.3035,60.0,1.2333333333333334
2026-02-06T21:24:22+00:00,SAT-57998,146.2448308956216,33.66146431630268,935.0520240282626,3.647732643068545,-127759.02705404192,10.5,10499872240.972946,47.655,-122.3035,60.0,1.25
2026-02-06T21:24:23+00:00,SAT-57998,145.84618118004713,33.47450964022698,938.6899776035018,3.6846583362488494,-129052.32102474346,10.5,10499870947.678976,47.655,-122.3035,60.0,1.2666666666666666
2026-02-06T21:24:24+00:00,SAT-57998,145.45236314385693,33.287379220288415,942.3647578792343,3.721149721410402,-130330.4036915072,10.5,10499869669.596308,47.655,-122.3035,60.0,1.2833333333333334
2026-02-06T21:24:25+00:00,SAT-57998,145.06332657119194,33.10011784737757,946.0759317117604,3.757209302794802,-131593.36276346692,10.5,10499868406.637236,47.655,-122.3035,60.0,1.3
2026-02-06T21:24:26+00:00,SAT-57998,144.67902068054767,32.91276889424901,949.8230684549089,3.7928397036767243,-132841.29011879812,10.5,10499867158.70988,47.655,-122.3035,60.0,1.3166666666666667
2026-02-06T21:24:27+00:00,SAT-57998,144.2993942009337,32.72537433319134,953.6057400787523,3.8280436455098825,-134074.28107432165,10.5,10499865925.718925,47.655,-122.3035,60.0,1.3333333333333333
2026-02-06T21:24:28+00:00,SAT-57998,143.92439544587558,32.53797475561707,957.4235212675184,3.8628239569134974,-135292.43470024763,10.5,10499864707.5653,47.655,-122.3035,60.0,1.35
2026-02-06T21:24:29+00:00,SAT-57998,143.55397238208175,32.3506093919825,961.2759895264733,3.8971835827480854,-136495.85413804805,10.5,10499863504.145863,47.655,-122.3035,60.0,1.3666666666666667
2026-02-06T21:24:30+00:00,SAT-57998,143.18807269329258,32.16331613196719,965.1627252978476,3.9311255236717377,-137684.64448346212,10.5,10499862315.355516,47.655,-122.3035,60.0,1.3833333333333333
2026-02-06T21:24:31+00:00,SAT-57998,142.8266438458792,31.976131548169587,969.0833120164858,3.964652912402947,-138858.91545754278,10.5,10499861141.084543,47.655,-122.3035,60.0,1.4
2026-02-06T21:24:32+00:00,SAT-57998,142.4696331433243,31.789090916619422,973.0373362415525,3.997768905275777,-140018.77760846025,10.5,10499859981.222391,47.655,-122.3035,60.0,1.4166666666666667
2026-02-06T21:24:33+00:00,SAT-57998,142.1169877870516,31.602228242878176,977.0243876800852,4.030476784311361,-141164.34588647753,10.5,10499858835.654114,47.655,-122.3035,60.0,1.4333333333333333
2026-02-06T21:24:34+00:00,SAT-57998,141.7686549241911,31.41557628361933,981.0440593123438,4.06277986382655,-142295.73637299033,10.5,10499857704.263626,47.655,-122.3035,60.0,1.45
2026-02-06T21:24:35+00:00,SAT-57998,141.42458170034783,31.2291665728618,985.0959474240186,4.094681568620214,-143413.0690189419,10.5,10499856586.93098,47.655,-122.3035,60.0,1.4666666666666666
2026-02-06T21:24:36+00:00,SAT-57998,141.08471530209206,31.043029444758865,989.1796517164198,4.126185316413248,-144516.463527375,10.5,10499855483.536472,47.655,-122.3035,60.0,1.4833333333333334
2026-02-06T21:24:37+00:00,SAT-57998,140.74900300634118,30.85719406188996,993.2947752994131,4.157294658616042,-145606.0442837039,10.5,10499854393.955717,47.655,-122.3035,60.0,1.5
2026-02-06T21:24:38+00:00,SAT-57998,140.4173922146257,30.671688437190898,997.4409248247563,4.188013125948982,-146681.93494869143,10.5,10499853318.065052,47.655,-122.3035,60.0,1.5166666666666666
2026-02-06T21:24:39+00:00,SAT-57998,140.0898304973524,30.486539462871942,1001.6177104654604,4.218344353220305,-147744.2628286973,10.5,10499852255.737171,47.655,-122.3035,60.0,1.5333333333333334
2026-02-06T21:24:40+00:00,SAT-57998,139.76626562485745,30.301772933664505,1005.8247460196012,4.2482919769280825,-148793.15528926637,10.5,10499851206.844711,47.655,-122.3035,60.0,1.55
2026-02-06T21:24:41+00:00,SAT-57998,139.44664560408657,30.11741357453036,1010.0616489120034,4.277859687025701,-149828.74156817468,10.5,10499850171.258432,47.655,-122.3035,60.0,1.5666666666666667
