DopplerPredictor/satellites_20260211_204923/SAT-52094.csv

timestamp,satellite,azimuth_deg,elevation_deg,distance_km,relative_velocity_kms,doppler_shift_hz,tx_freq_ghz,rx_freq_hz,ue_lat,ue_lon,ue_alt_m,time_minutes
2026-02-06T21:26:11+00:00,SAT-52094,319.50006266892655,30.00499386046397,988.4963190206868,-4.813043776166959,168573.15219635403,10.5,10500168573.152197,47.655,-122.3035,60.0,3.066666666666667
2026-02-06T21:26:12+00:00,SAT-52094,319.7761735028034,30.2163851875983,983.6961783506836,-4.787252294715018,167669.82541804868,10.5,10500167669.825418,47.655,-122.3035,60.0,3.0833333333333335
2026-02-06T21:26:13+00:00,SAT-52094,320.05614126746485,30.428913572600276,978.9217600187299,-4.761076079933339,166753.02365111554,10.5,10500166753.023651,47.655,-122.3035,60.0,3.1
2026-02-06T21:26:14+00:00,SAT-52094,320.3400358261686,30.64256910498249,974.1734477267381,-4.734509763791403,165822.55888441906,10.5,10500165822.558884,47.655,-122.3035,60.0,3.1166666666666667
2026-02-06T21:26:15+00:00,SAT-52094,320.62792830542554,30.857340880438944,969.451630530261,-4.707547923546546,164878.241190573,10.5,10500164878.24119,47.655,-122.3035,60.0,3.1333333333333333
2026-02-06T21:26:16+00:00,SAT-52094,320.9198911019689,31.073216957397605,964.7567028930561,-4.680185120857059,163919.8800958466,10.5,10500163919.880096,47.655,-122.3035,60.0,3.15
2026-02-06T21:26:17+00:00,SAT-52094,321.215997890492,31.29018431394241,960.0890647026423,-4.652415902364997,162947.2846005768,10.5,10500162947.284601,47.655,-122.3035,60.0,3.1666666666666665
2026-02-06T21:26:18+00:00,SAT-52094,321.5163236298408,31.508228803405565,955.4491212852781,-4.624234781467339,161960.26254071764,10.5,10500161960.26254,47.655,-122.3035,60.0,3.183333333333333
2026-02-06T21:26:19+00:00,SAT-52094,321.8209445661268,31.727335107718517,950.8372834391154,-4.595636283527608,160958.6221713419,10.5,10500160958.622171,47.655,-122.3035,60.0,3.2
2026-02-06T21:26:20+00:00,SAT-52094,322.12993823684064,31.947486691485878,946.2539674222661,-4.566614908400637,159942.17085410026,10.5,10500159942.170855,47.655,-122.3035,60.0,3.216666666666667
2026-02-06T21:26:21+00:00,SAT-52094,322.4433834702916,32.16866575291092,941.6995949782423,-4.537165152026945,158910.71581354763,10.5,10500158910.715813,47.655,-122.3035,60.0,3.2333333333333334
2026-02-06T21:26:22+00:00,SAT-52094,322.76136038408964,32.39085317432278,937.174593339859,-4.5072815363709555,157864.06518570601,10.5,10500157864.065186,47.655,-122.3035,60.0,3.25
2026-02-06T21:26:23+00:00,SAT-52094,323.0839503831792,32.61402847279914,932.6793952032822,-4.476958518531353,156802.02483472484,10.5,10500156802.024836,47.655,-122.3035,60.0,3.2666666666666666
2026-02-06T21:26:24+00:00,SAT-52094,323.411236148503,32.838169744903354,928.2144387927186,-4.446190649486952,155724.4039128329,10.5,10500155724.403913,47.655,-122.3035,60.0,3.283333333333333
2026-02-06T21:26:25+00:00,SAT-52094,323.743301634063,33.06325361789101,923.7801677667886,-4.414972440584831,154631.0101841879,10.5,10500154631.010183,47.655,-122.3035,60.0,3.3
2026-02-06T21:26:26+00:00,SAT-52094,324.0802320510433,33.28925519296517,919.3770312580508,-4.38329845282933,153521.6531521549,10.5,10500153521.653152,47.655,-122.3035,60.0,3.316666666666667
2026-02-06T21:26:27+00:00,SAT-52094,324.42211385493385,33.51614799166003,915.0054838234784,-4.3511632349669105,152396.1418907762,10.5,10500152396.141891,47.655,-122.3035,60.0,3.3333333333333335
2026-02-06T21:26:28+00:00,SAT-52094,324.7690347240359,33.74390389775572,910.665985456684,-4.3185614080161905,151254.2880053707,10.5,10500151254.288006,47.655,-122.3035,60.0,3.35
2026-02-06T21:26:29+00:00,SAT-52094,325.1210835404547,33.97249310229614,906.3590015158411,-4.285487596447104,150095.90322213707,10.5,10500150095.903223,47.655,-122.3035,60.0,3.3666666666666667
2026-02-06T21:26:30+00:00,SAT-52094,325.4783503611611,34.20188404381979,902.0850027202428,-4.251936501736826,148920.80196439323,10.5,10500148920.801964,47.655,-122.3035,60.0,3.3833333333333333
2026-02-06T21:26:31+00:00,SAT-52094,325.84092639029757,34.4320433513005,897.8444650734999,-4.217902824407334,147728.79862200204,10.5,10500147728.798622,47.655,-122.3035,60.0,3.4
2026-02-06T21:26:32+00:00,SAT-52094,326.2089039397135,34.66293578181085,893.637869864494,-4.183381402365108,146519.71239661286,10.5,10500146519.712397,47.655,-122.3035,60.0,3.4166666666666665
2026-02-06T21:26:33+00:00,SAT-52094,326.5823763960347,34.8945241646596,889.4657035303621,-4.148367054592947,145293.36182708753,10.5,10500145293.361828,47.655,-122.3035,60.0,3.433333333333333
2026-02-06T21:26:34+00:00,SAT-52094,326.96143816813185,35.12676933607255,885.3284576753679,-4.112854715971126,144049.56951150793,10.5,10500144049.569511,47.655,-122.3035,60.0,3.45
2026-02-06T21:26:35+00:00,SAT-52094,327.34618464016904,35.35963008037384,881.2266289553163,-4.076839400970829,142788.16083556612,10.5,10500142788.160835,47.655,-122.3035,60.0,3.466666666666667
2026-02-06T21:26:36+00:00,SAT-52094,327.73671211489585,35.593063068484966,877.1607189981753,-4.040316201901027,141508.9639111628,10.5,10500141508.963911,47.655,-122.3035,60.0,3.4833333333333334
2026-02-06T21:26:37+00:00,SAT-52094,328.133117749612,35.82702279568499,873.1312343264483,-4.003280314482625,140211.8104721219,10.5,10500140211.810472,47.655,-122.3035,60.0,3.5
2026-02-06T21:26:38+00:00,SAT-52094,328.535499486975,36.061461520321615,869.138686254036,-3.9657270297752434,138896.53559143256,10.5,10500138896.535591,47.655,-122.3035,60.0,3.5166666666666666
2026-02-06T21:26:39+00:00,SAT-52094,328.9439559769895,36.296329201713924,865.1835907911574,-3.927651760101904,137562.9785892412,10.5,10500137562.97859,47.655,-122.3035,60.0,3.533333333333333
2026-02-06T21:26:40+00:00,SAT-52094,329.35858649304424,36.531573439362674,861.2664685234082,-3.8890500484978467,136210.98336378892,10.5,10500136210.983364,47.655,-122.3035,60.0,3.55
2026-02-06T21:26:41+00:00,SAT-52094,329.7794908400601,36.76713941274358,857.3878444814013,-3.84991756096958,134840.39812029092,10.5,10500134840.39812,47.655,-122.3035,60.0,3.566666666666667
2026-02-06T21:26:42+00:00,SAT-52094,330.2067692522496,37.00296982081186,853.5482480181242,-3.8102501103833712,133451.07620761226,10.5,10500133451.076208,47.655,-122.3035,60.0,3.5833333333333335
2026-02-06T21:26:43+00:00,SAT-52094,330.6405222834016,37.23900482332336,849.7482126624723,-3.770043666385442,132042.8764657153,10.5,10500132042.876465,47.655,-122.3035,60.0,3.6
2026-02-06T21:26:44+00:00,SAT-52094,331.08085068777285,37.47518198339704,845.9882759628899,-3.729294349414374,130615.66301594862,10.5,10500130615.663015,47.655,-122.3035,60.0,3.6166666666666667
2026-02-06T21:26:45+00:00,SAT-52094,331.5278552890761,37.711436210553366,842.2689793369839,-3.6879984741162977,129169.30678163066,10.5,10500129169.306782,47.655,-122.3035,60.0,3.6333333333333333
2026-02-06T21:26:46+00:00,SAT-52094,331.98163684300624,37.947699707602496,838.590867877833,-3.646152527608072,127703.68472673438,10.5,10500127703.684727,47.655,-122.3035,60.0,3.65
2026-02-06T21:26:47+00:00,SAT-52094,332.4422958849949,38.183901917596764,834.9544901819824,-3.603753200005414,126218.68092511137,10.5,10500126218.680925,47.655,-122.3035,60.0,3.6666666666666665
2026-02-06T21:26:48+00:00,SAT-52094,332.90993256894706,38.41996947443699,831.360398146988,-3.56079738021395,124714.18641307674,10.5,10500124714.186413,47.655,-122.3035,60.0,3.683333333333333
2026-02-06T21:26:49+00:00,SAT-52094,333.3846464921055,38.655826155248405,827.8091467731604,-3.5172821833275942,123190.10014901623,10.5,10500123190.10015,47.655,-122.3035,60.0,3.7
2026-02-06T21:26:50+00:00,SAT-52094,333.86653650967247,38.89139283693986,824.3012939379812,-3.4732049615831033,121646.32939706104,10.5,10500121646.329397,47.655,-122.3035,60.0,3.716666666666667
2026-02-06T21:26:51+00:00,SAT-52094,334.3557005366475,39.126587456276326,820.8374001595981,-3.428563301578966,120082.78962968155,10.5,10500120082.789629,47.655,-122.3035,60.0,3.7333333333333334
2026-02-06T21:26:52+00:00,SAT-52094,334.85223533443775,39.3613249729239,817.418028363089,-3.383355051414851,118499.40547822567,10.5,10500118499.405478,47.655,-122.3035,60.0,3.75
2026-02-06T21:26:53+00:00,SAT-52094,335.35623628594556,39.59551733788685,814.0437436196639,-3.3375783124722957,116896.11044504364,10.5,10500116896.110445,47.655,-122.3035,60.0,3.7666666666666666
2026-02-06T21:26:54+00:00,SAT-52094,335.8677971535792,39.82907346537732,810.7151128940616,-3.2912314947482715,115272.84884150371,10.5,10500115272.84884,47.655,-122.3035,60.0,3.783333333333333
2026-02-06T21:26:55+00:00,SAT-52094,336.38700982954515,40.06189921299434,807.4327047367608,-3.244313274904317,113629.57431869526,10.5,10500113629.574318,47.655,-122.3035,60.0,3.8
2026-02-06T21:26:56+00:00,SAT-52094,336.9139640632153,40.29389736392919,804.1970890180311,-3.1968226402255104,111966.25140705795,10.5,10500111966.251408,47.655,-122.3035,60.0,3.816666666666667
2026-02-06T21:26:57+00:00,SAT-52094,337.44874717830515,40.52496761766129,801.0088366181424,-3.148758895731358,110282.85576543509,10.5,10500110282.855766,47.655,-122.3035,60.0,3.8333333333333335
2026-02-06T21:26:58+00:00,SAT-52094,337.99144377425284,40.75500658712744,797.8685191104819,-3.1001216918289134,108579.37514960296,10.5,10500108579.375149,47.655,-122.3035,60.0,3.85
2026-02-06T21:26:59+00:00,SAT-52094,338.54213541519147,40.983907804401895,794.7767084170921,-3.0509109995730292,106855.80854578005,10.5,10500106855.808546,47.655,-122.3035,60.0,3.8666666666666667
2026-02-06T21:27:00+00:00,SAT-52094,339.1009002972767,41.21156173160227,791.7339764888831,-3.0011271524788627,105112.16763507793,10.5,10500105112.167635,47.655,-122.3035,60.0,3.8833333333333333
2026-02-06T21:27:01+00:00,SAT-52094,339.66781290591365,41.43785578242846,788.7408949441443,-2.950770843063568,103348.47667237668,10.5,10500103348.476673,47.655,-122.3035,60.0,3.9
2026-02-06T21:27:02+00:00,SAT-52094,340.24294365514794,41.66267435161632,785.7980347105046,-2.8998431628443373,101564.77388722548,10.5,10500101564.773888,47.655,-122.3035,60.0,3.9166666666666665
2026-02-06T21:27:03+00:00,SAT-52094,340.8263585179734,41.88589885616027,782.9059656270016,-2.848345577635105,99761.11061862872,10.5,10500099761.110619,47.655,-122.3035,60.0,3.933333333333333
2026-02-06T21:27:04+00:00,SAT-52094,341.4181186352338,42.10740778401176,780.0652560707885,-2.7962799512049448,97937.55214366307,10.5,10500097937.552143,47.655,-122.3035,60.0,3.95
2026-02-06T21:27:05+00:00,SAT-52094,342.01827991303134,42.32707675445018,777.276472560246,-2.7436485743949937,96094.1786972754,10.5,10500096094.178698,47.655,-122.3035,60.0,3.966666666666667
2026-02-06T21:27:06+00:00,SAT-52094,342.62689261089514,42.54477859122641,774.5401793290554,-2.6904541547367904,94231.08510867307,10.5,10500094231.085108,47.655,-122.3035,60.0,3.9833333333333334
2026-02-06T21:27:07+00:00,SAT-52094,343.24400091345757,42.76038340597437,771.8569379106249,-2.63669982740861,92348.38118506107,10.5,10500092348.381186,47.655,-122.3035,60.0,4.0
2026-02-06T21:27:08+00:00,SAT-52094,343.8696424907526,42.97375869408046,769.2273067115887,-2.5823891859110986,90446.19278603245,10.5,10500090446.192785,47.655,-122.3035,60.0,4.016666666666667
2026-02-06T21:27:09+00:00,SAT-52094,344.5038480535804,43.184769445175526,766.6518405547154,-2.5275262683988253,88524.66134484165,10.5,10500088524.661345,47.655,-122.3035,60.0,4.033333333333333
2026-02-06T21:27:10+00:00,SAT-52094,345.14664089487894,43.393278265211535,764.1310902354435,-2.4721155765530307,86583.9445294078,10.5,10500086583.944529,47.655,-122.3035,60.0,4.05
2026-02-06T21:27:11+00:00,SAT-52094,345.7980364265674,43.59914551321156,761.6656020595992,-2.4161620956540144,84624.21694533473,10.5,10500084624.216946,47.655,-122.3035,60.0,4.066666666666666
2026-02-06T21:27:12+00:00,SAT-52094,346.45804171453244,43.80222945328841,759.2559173610933,-2.359671259571151,82645.66890971315,10.5,10500082645.66891,47.655,-122.3035,60.0,4.083333333333333
2026-02-06T21:27:13+00:00,SAT-52094,347.1266549988766,44.00238641771173,756.9025720545344,-2.3026490313234675,80648.50927269294,10.5,10500080648.509274,47.655,-122.3035,60.0,4.1
2026-02-06T21:27:14+00:00,SAT-52094,347.80386523396965,44.19947099107342,754.6060961074982,-2.245101826388399,78632.96273143131,10.5,10500078632.962732,47.655,-122.3035,60.0,4.116666666666666
2026-02-06T21:27:15+00:00,SAT-52094,348.4896516067029,44.393336202590135,752.3670130892823,-2.1870365936764355,76599.27266616753,10.5,10500076599.272667,47.655,-122.3035,60.0,4.133333333333334
2026-02-06T21:27:16+00:00,SAT-52094,349.18398308149364,44.58383374009949,750.1858396389025,-2.1284607507580127,74547.69887159448,10.5,10500074547.698872,47.655,-122.3035,60.0,4.15
2026-02-06T21:27:17+00:00,SAT-52094,349.88681793137357,44.77081417343273,748.0630849976897,-2.069382246728637,72478.51975866148,10.5,10500072478.519758,47.655,-122.3035,60.0,4.166666666666667
2026-02-06T21:27:18+00:00,SAT-52094,350.5981032982644,44.9541271981829,745.9992504791896,-2.0098095358921317,70392.03143285007,10.5,10500070392.031433,47.655,-122.3035,60.0,4.183333333333334
2026-02-06T21:27:19+00:00,SAT-52094,351.3177747583364,45.13362189213215,743.9948289653095,-1.949751572388491,68288.54750601883,10.5,10500068288.547506,47.655,-122.3035,60.0,4.2
2026-02-06T21:27:20+00:00,SAT-52094,352.0457559017831,45.30914698591058,742.0503044078208,-1.8892178410907265,66168.40017854162,10.5,10500066168.400179,47.655,-122.3035,60.0,4.216666666666667
2026-02-06T21:27:21+00:00,SAT-52094,352.7819579449088,45.480551150890356,740.1661512990502,-1.8282183226712343,64031.939015783915,10.5,10500064031.939016,47.655,-122.3035,60.0,4.233333333333333
2026-02-06T21:27:22+00:00,SAT-52094,353.526279354603,45.647683298015714,738.3428341774078,-1.7667635197823561,61879.53186505692,10.5,10500061879.531864,47.655,-122.3035,60.0,4.25
2026-02-06T21:27:23+00:00,SAT-52094,354.278605512212,45.810392892535525,736.5808071068086,-1.704864427472398,59711.56381946133,10.5,10500059711.56382,47.655,-122.3035,60.0,4.266666666666667
2026-02-06T21:27:24+00:00,SAT-52094,355.0388083993816,45.968530278921655,734.8805131855949,-1.642532574856857,57528.438677389946,10.5,10500057528.438677,47.655,-122.3035,60.0,4.283333333333333
2026-02-06T21:27:25+00:00,SAT-52094,355.8067463413387,46.12194702173112,733.2423840139018,-1.5797799619911737,55330.576731544475,10.5,10500055330.57673,47.655,-122.3035,60.0,4.3
2026-02-06T21:27:26+00:00,SAT-52094,356.582263765248,46.27049625179803,731.6668392239791,-1.5166190989220811,53118.41613667897,10.5,10500053118.416136,47.655,-122.3035,60.0,4.316666666666666
2026-02-06T21:27:27+00:00,SAT-52094,357.3651910246436,46.414033026133005,730.1542859715677,-1.4530629759141915,50892.41186680891,10.5,10500050892.411867,47.655,-122.3035,60.0,4.333333333333333
2026-02-06T21:27:28+00:00,SAT-52094,358.1553442626133,46.552414693924604,728.7051184569692,-1.3891250644562645,48653.035750455,10.5,10500048653.035751,47.655,-122.3035,60.0,4.35
2026-02-06T21:27:29+00:00,SAT-52094,358.95252533283275,46.685501270159605,727.3197174451115,-1.32481930696989,46400.776110197694,10.5,10500046400.77611,47.655,-122.3035,60.0,4.366666666666666
2026-02-06T21:27:30+00:00,SAT-52094,359.75652177760173,46.81315581431362,725.9984497958785,-1.2601601010725851,44136.13721150431,10.5,10500044136.13721,47.655,-122.3035,60.0,4.383333333333334
2026-02-06T21:27:31+00:00,SAT-52094,0.5671068634330264,46.93524481196711,724.7416680101348,-1.195162287043065,41859.63882370977,10.5,10500041859.638824,47.655,-122.3035,60.0,4.4
2026-02-06T21:27:32+00:00,SAT-52094,1.3840396786128928,47.05163855789515,723.549709788251,-1.1298411435757008,39571.81607131977,10.5,10500039571.81607,47.655,-122.3035,60.0,4.416666666666667
2026-02-06T21:27:33+00:00,SAT-52094,2.2070653034777568,47.162211539596036,722.4228975928629,-1.064212363451277,37273.218581897774,10.5,10500037273.218582,47.655,-122.3035,60.0,4.433333333333334
2026-02-06T21:27:34+00:00,SAT-52094,3.0359150417097447,47.266842817355474,721.3615382358968,-0.9982920385753832,34964.40996204622,10.5,10500034964.409962,47.655,-122.3035,60.0,4.45
2026-02-06T21:27:35+00:00,SAT-52094,3.8703067216664957,47.36541639971674,720.3659224805125,-0.9320966507150907,32645.967472965756,10.5,10500032645.967472,47.655,-122.3035,60.0,4.466666666666667
2026-02-06T21:27:36+00:00,SAT-52094,4.709945074346386,47.45782161281769,719.4363246522886,-0.8656430443474415,30318.481079494457,10.5,10500030318.48108,47.655,-122.3035,60.0,4.483333333333333
2026-02-06T21:27:37+00:00,SAT-52094,5.554522175704142,47.54395345969393,718.5730022774843,-0.7989484118494129,27982.552931397742,10.5,10500027982.55293,47.655,-122.3035,60.0,4.5
2026-02-06T21:27:38+00:00,SAT-52094,6.403717963328592,47.62371296858379,717.776195736072,-0.7320302728518717,25638.79664025655,10.5,10500025638.79664,47.655,-122.3035,60.0,4.516666666666667
2026-02-06T21:27:39+00:00,SAT-52094,7.257200823290684,47.69700752747267,717.0461279353614,-0.6649064499824999,23287.836429881932,10.5,10500023287.83643,47.655,-122.3035,60.0,4.533333333333333
2026-02-06T21:27:40+00:00,SAT-52094,8.114628241839489,47.76375120237564,716.3830040078142,-0.5975950522735615,20930.306555184907,10.5,10500020930.306555,47.655,-122.3035,60.0,4.55
2026-02-06T21:27:41+00:00,SAT-52094,8.975647530907626,47.82386503799297,715.7870110254077,-0.5301144461421722,18566.850285782733,10.5,10500018566.850286,47.655,-122.3035,60.0,4.566666666666666
2026-02-06T21:27:42+00:00,SAT-52094,9.839896609389504,47.87727733745644,715.25831774294,-0.46248323424175186,16198.119165287322,10.5,10500016198.119165,47.655,-122.3035,60.0,4.583333333333333
2026-02-06T21:27:43+00:00,SAT-52094,10.707004847902688,47.923923919998984,714.7970743624265,-0.39472023031492737,13824.772130547519,10.5,10500013824.772131,47.655,-122.3035,60.0,4.6
2026-02-06T21:27:44+00:00,SAT-52094,11.576593968790053,47.96374835431311,714.4034123225777,-0.32684443249763884,11447.47457664598,10.5,10500011447.474577,47.655,-122.3035,60.0,4.616666666666666
2026-02-06T21:27:45+00:00,SAT-52094,12.448278992415375,47.99670216575683,714.0774441148989,-0.2588749996702756,9066.897528615926,10.5,10500009066.897528,47.655,-122.3035,60.0,4.633333333333334
2026-02-06T21:27:46+00:00,SAT-52094,13.321669236007308,48.022745016174305,713.819263123378,-0.19083122241545772,6683.716624259793,10.5,10500006683.716623,47.655,-122.3035,60.0,4.65
2026-02-06T21:27:47+00:00,SAT-52094,14.196369342908802,48.04184485445706,713.6289434931351,-0.12273249691142166,4298.611199785178,10.5,10500004298.6112,47.655,-122.3035,60.0,4.666666666666667
2026-02-06T21:27:48+00:00,SAT-52094,15.071980347865225,48.05397803700061,713.5065400251106,-0.05459829771952013,1912.2633367079611,10.5,10500001912.263336,47.655,-122.3035,60.0,4.683333333333334
2026-02-06T21:27:49+00:00,SAT-52094,15.94810076737552,48.05912941701836,713.4520880978929,0.013551850323762037,-474.64312260817917,10.5,10499999525.356878,47.655,-122.3035,60.0,4.7
2026-02-06T21:27:50+00:00,SAT-52094,16.82432770026574,48.05729240195799,713.4656036175761,0.08169839929707332,-2861.423527269888,10.5,10499997138.576473,47.655,-122.3035,60.0,4.716666666666667
2026-02-06T21:27:51+00:00,SAT-52094,17.700257951979452,48.048468978643754,713.5470829947391,0.14982180742280393,-5247.393441563635,10.5,10499994752.606558,47.655,-122.3035,60.0,4.733333333333333
2026-02-06T21:27:52+00:00,SAT-52094,18.57548914995043,48.03266970576207,713.6965031505714,0.21790256542653946,-7631.869568175276,10.5,10499992368.130432,47.655,-122.3035,60.0,4.75
2026-02-06T21:27:53+00:00,SAT-52094,19.44962085377771,48.00991367403886,713.9138215492907,0.28592122456296687,-10014.170729775838,10.5,10499989985.82927,47.655,-122.3035,60.0,4.766666666666667
2026-02-06T21:27:54+00:00,SAT-52094,20.322255654523346,47.98022843424096,714.1989762585074,0.3538584261829573,-12393.618904585825,10.5,10499987606.381096,47.655,-122.3035,60.0,4.783333333333333
2026-02-06T21:27:55+00:00,SAT-52094,21.193000257488656,47.94364989339928,714.5518860390825,0.4216949247961977,-14769.540034126128,10.5,10499985230.459967,47.655,-122.3035,60.0,4.8
2026-02-06T21:27:56+00:00,SAT-52094,22.061466525777757,47.90022218072288,714.9724504579792,0.48941162220043594,-17141.265218568566,10.5,10499982858.734781,47.655,-122.3035,60.0,4.816666666666666
2026-02-06T21:27:57+00:00,SAT-52094,22.927272504575406,47.84999748307487,715.4605500351594,0.5569895840776503,-19508.13129800393,10.5,10499980491.868702,47.655,-122.3035,60.0,4.833333333333333
2026-02-06T21:27:58+00:00,SAT-52094,23.790043385289703,47.79303585305443,716.0160464070266,0.624410073065817,-21869.482010755182,10.5,10499978130.51799,47.655,-122.3035,60.0,4.85
2026-02-06T21:27:59+00:00,SAT-52094,24.64941243661153,47.729404989415954,716.6387825228551,0.6916545762659226,-24224.66895678939,10.5,10499975775.331043,47.655,-122.3035,60.0,4.866666666666666
2026-02-06T21:28:00+00:00,SAT-52094,25.505021882865083,47.6591799920089,717.3285828686503,0.7587048186502007,-26573.052067330882,10.5,10499973426.947933,47.655,-122.3035,60.0,4.883333333333334
2026-02-06T21:28:01+00:00,SAT-52094,26.356523711671752,47.582443094421336,718.0852537043829,0.8255427973169047,-28914.0008046083,10.5,10499971085.999195,47.655,-122.3035,60.0,4.9
2026-02-06T21:28:02+00:00,SAT-52094,27.20358043407609,47.499283374109524,718.9085833353851,0.8921508023430752,-31246.894892206692,10.5,10499968753.105108,47.655,-122.3035,60.0,4.916666666666667
2026-02-06T21:28:03+00:00,SAT-52094,28.045865775624367,47.409796443365146,719.7983424045439,0.9585114347222818,-33571.12494332316,10.5,10499966428.875057,47.655,-122.3035,60.0,4.933333333333334
2026-02-06T21:28:04+00:00,SAT-52094,28.883065296794392,47.314084123498425,720.7542842023843,1.0246076309066845,-35886.09332033359,10.5,10499964113.90668,47.655,-122.3035,60.0,4.95
2026-02-06T21:28:05+00:00,SAT-52094,29.71487694723135,47.21225410370006,721.7761450016282,1.0904226825656007,-38191.21482682132,10.5,10499961808.785173,47.655,-122.3035,60.0,4.966666666666667
2026-02-06T21:28:06+00:00,SAT-52094,30.54101154916459,47.104419587246625,722.8636444114602,1.1559402508564438,-40485.917207405735,10.5,10499959514.082792,47.655,-122.3035,60.0,4.983333333333333
2026-02-06T21:28:07+00:00,SAT-52094,31.361193206294,46.99069892775563,724.0164857460238,1.221144394792661,-42769.642141307435,10.5,10499957230.357859,47.655,-122.3035,60.0,5.0
2026-02-06T21:28:08+00:00,SAT-52094,32.1751596493263,46.87121525627835,725.234356421212,1.2860195720984322,-45041.84527228346,10.5,10499954958.154728,47.655,-122.3035,60.0,5.016666666666667
2026-02-06T21:28:09+00:00,SAT-52094,32.98266250024789,46.74609610405997,726.5169283523085,1.3505506750835228,-47301.997465116314,10.5,10499952698.002535,47.655,-122.3035,60.0,5.033333333333333
2026-02-06T21:28:10+00:00,SAT-52094,33.78346748138079,46.61547301960134,727.863858387408,1.4147230239885251,-49549.58457253622,10.5,10499950450.415428,47.655,-122.3035,60.0,5.05
2026-02-06T21:28:11+00:00,SAT-52094,34.57735454386336,46.47948118619478,729.2747887342011,1.4785223909422136,-51784.10827430903,10.5,10499948215.891726,47.655,-122.3035,60.0,5.066666666666666
2026-02-06T21:28:12+00:00,SAT-52094,35.36411793901328,46.33825903882723,730.7493474106493,1.541935010016036,-54005.086429387025,10.5,10499945994.91357,47.655,-122.3035,60.0,5.083333333333333
2026-02-06T21:28:13+00:00,SAT-52094,36.14356622658604,46.19194788363122,732.2871487056905,1.6049475948100433,-56212.05369184256,10.5,10499943787.946308,47.655,-122.3035,60.0,5.1
2026-02-06T21:28:14+00:00,SAT-52094,36.9155222276355,46.040691520848846,733.8877936574816,1.667547335457186,-58404.56140594589,10.5,10499941595.438595,47.655,-122.3035,60.0,5.116666666666666
2026-02-06T21:28:15+00:00,SAT-52094,37.67982291605536,45.88463587483289,735.550870528654,1.7297219077924915,-60582.1779273085,10.5,10499939417.822073,47.655,-122.3035,60.0,5.133333333333334
2026-02-06T21:28:16+00:00,SAT-52094,38.43631925963028,45.72392863133822,737.2759552907131,1.791459482525157,-62744.488944128636,10.5,10499937255.511055,47.655,-122.3035,60.0,5.15
2026-02-06T21:28:17+00:00,SAT-52094,39.18487601523262,45.55871888338977,739.062612117587,1.8527487507767226,-64891.09837164611,10.5,10499935108.901628,47.655,-122.3035,60.0,5.166666666666667
2026-02-06T21:28:18+00:00,SAT-52094,39.92537148765744,45.38915678542576,740.9103939046424,1.9135788909293858,-67021.6271910301,10.5,10499932978.372808,47.655,-122.3035,60.0,5.183333333333334
2026-02-06T21:28:19+00:00,SAT-52094,40.65769723394486,45.21539322210644,742.818842754639,1.973939592046167,-69135.71426965235,10.5,10499930864.28573,47.655,-122.3035,60.0,5.2
2026-02-06T21:28:20+00:00,SAT-52094,41.381757740994225,45.03757948742406,744.7874904870425,2.0338210698512444,-71233.01692078613,10.5,10499928766.98308,47.655,-122.3035,60.0,5.216666666666667
2026-02-06T21:28:21+00:00,SAT-52094,42.09747007655167,44.85586697560124,746.8158591632728,2.0932140378766664,-73313.20989304206,10.5,10499926686.790108,47.655,-122.3035,60.0,5.233333333333333
2026-02-06T21:28:22+00:00,SAT-52094,42.80476350194721,44.670406888399796,748.9034615831773,2.152109723919777,-75375.98594677675,10.5,10499924624.014053,47.655,-122.3035,60.0,5.25
2026-02-06T21:28:23+00:00,SAT-52094,43.50357906813525,44.481349955204024,751.0498017979187,2.2104998694688027,-77421.05583397442,10.5,10499922578.944166,47.655,-122.3035,60.0,5.266666666666667
2026-02-06T21:28:24+00:00,SAT-52094,44.19386919186977,44.288846167769634,753.2543756222864,2.2683767256238787,-79448.14815538397,10.5,10499920551.851845,47.655,-122.3035,60.0,5.283333333333333
2026-02-06T21:28:25+00:00,SAT-52094,44.875597215631814,44.09304453018629,755.5166711429446,2.3257330543735715,-81457.00940522827,10.5,10499918542.990595,47.655,-122.3035,60.0,5.3
2026-02-06T21:28:26+00:00,SAT-52094,45.548736955988076,43.89409282369377,757.8361692279506,2.3825621035694993,-83447.40309470941,10.5,10499916552.596905,47.655,-122.3035,60.0,5.316666666666666
2026-02-06T21:28:27+00:00,SAT-52094,46.21327223732758,43.69213738861692,760.2123440113141,2.4388576197789593,-85419.11020216218,10.5,10499914580.889797,47.655,-122.3035,60.0,5.333333333333333
2026-02-06T21:28:28+00:00,SAT-52094,46.86919642463911,43.48732292005701,762.6446633903765,2.494613862505424,-87371.92967111585,10.5,10499912628.07033,47.655,-122.3035,60.0,5.35
2026-02-06T21:28:29+00:00,SAT-52094,47.51651195817635,43.279792277157554,765.1325895373735,2.549825545630822,-89305.67635935535,10.5,10499910694.32364,47.655,-122.3035,60.0,5.366666666666666
2026-02-06T21:28:30+00:00,SAT-52094,48.155229873716266,43.06968631179227,767.6755793525923,2.6044878812655057,-91220.18257473245,10.5,10499908779.817425,47.655,-122.3035,60.0,5.383333333333334
2026-02-06T21:28:31+00:00,SAT-52094,48.78536933800012,42.857143707745315,770.2730849612675,2.658596533676728,-93115.29646154623,10.5,10499906884.703539,47.655,-122.3035,60.0,5.4
2026-02-06T21:28:32+00:00,SAT-52094,49.40695717865313,42.642300837551694,772.9245541645239,2.712147638687394,-94990.88267996933,10.5,10499905009.11732,47.655,-122.3035,60.0,5.416666666666667
2026-02-06T21:28:33+00:00,SAT-52094,50.02002742670694,42.42529163112606,775.6294309096684,2.765137772752918,-96846.82132298884,10.5,10499903153.178677,47.655,-122.3035,60.0,5.433333333333334
2026-02-06T21:28:34+00:00,SAT-52094,50.6246208618196,42.20624745986128,778.3871557296414,2.8175639557767638,-98683.00801501823,10.5,10499901316.991985,47.655,-122.3035,60.0,5.45
2026-02-06T21:28:35+00:00,SAT-52094,51.22078456948319,41.985297032927534,781.1971661852764,2.869423654497347,-100499.35403052115,10.5,10499899500.64597,47.655,-122.3035,60.0,5.466666666666667
2026-02-06T21:28:36+00:00,SAT-52094,51.80857151148926,41.76256630526364,784.0588973109365,2.9207147245317957,-102295.78426413868,10.5,10499897704.215736,47.655,-122.3035,60.0,5.483333333333333
2026-02-06T21:28:37+00:00,SAT-52094,52.38804009815496,41.53817840148452,786.9717820023506,2.9714354589832324,-104072.238933122,10.5,10499895927.761066,47.655,-122.3035,60.0,5.5
2026-02-06T21:28:38+00:00,SAT-52094,52.9592537855117,41.31225354678743,789.9352514529265,3.0215845294636523,-105828.67151170412,10.5,10499894171.328487,47.655,-122.3035,60.0,5.516666666666667
2026-02-06T21:28:39+00:00,SAT-52094,53.522280676070395,41.08490901267861,792.9487355312452,3.0711609967125333,-107565.04910300845,10.5,10499892434.950897,47.655,-122.3035,60.0,5.533333333333333
2026-02-06T21:28:40+00:00,SAT-52094,54.07719313835277,40.85625907149138,796.0116631691457,3.1201643134361388,-109281.35253849333,10.5,10499890718.64746,47.655,-122.3035,60.0,5.55
2026-02-06T21:28:41+00:00,SAT-52094,54.62406744292329,40.626414959808244,799.1234627526401,3.1685942685674955,-110977.57442570054,10.5,10499889022.425573,47.655,-122.3035,60.0,5.566666666666666
2026-02-06T21:28:42+00:00,SAT-52094,55.16298340590166,40.39548485452174,802.2835624572396,3.216451020810551,-112653.72032311361,10.5,10499887346.279676,47.655,-122.3035,60.0,5.583333333333333
2026-02-06T21:28:43+00:00,SAT-52094,55.6940240552733,40.16357385429851,805.4913906167337,3.2637350375045093,-114309.80659892834,10.5,10499885690.193401,47.655,-122.3035,60.0,5.6
2026-02-06T21:28:44+00:00,SAT-52094,56.217275304445465,39.93078397285055,808.7463760309981,3.3104471535495046,-115945.86249487902,10.5,10499884054.137505,47.655,-122.3035,60.0,5.616666666666666
2026-02-06T21:28:45+00:00,SAT-52094,56.732825652330895,39.69721413474298,812.047948332571,3.3565884915200357,-117561.92732827313,10.5,10499882438.072672,47.655,-122.3035,60.0,5.633333333333334
2026-02-06T21:28:46+00:00,SAT-52094,57.24076588765411,39.462960183226265,815.3955382735543,3.4021604614256042,-119158.0504836077,10.5,10499880841.949516,47.655,-122.3035,60.0,5.65
2026-02-06T21:28:47+00:00,SAT-52094,57.741188810669954,39.22811489370748,818.7885780122809,3.447164788326098,-120734.29237977705,10.5,10499879265.70762,47.655,-122.3035,60.0,5.666666666666667
2026-02-06T21:28:48+00:00,SAT-52094,58.23418897529591,38.992767990537125,822.2265014275184,3.4916034594934566,-122290.72261945061,10.5,10499877709.27738,47.655,-122.3035,60.0,5.683333333333334
2026-02-06T21:28:49+00:00,SAT-52094,58.719862439900254,38.75700617221861,825.7087443799783,3.5354787176177886,-123827.41975112256,10.5,10499876172.58025,47.655,-122.3035,60.0,5.7
2026-02-06T21:28:50+00:00,SAT-52094,59.19830653304206,38.52091314129531,829.23474496705,3.578793073030184,-125344.47169720638,10.5,10499874655.528303,47.655,-122.3035,60.0,5.716666666666667
2026-02-06T21:28:51+00:00,SAT-52094,59.66961963650056,38.284569637233325,832.8039437897247,3.6215492642370357,-126841.97437177981,10.5,10499873158.025629,47.655,-122.3035,60.0,5.733333333333333
2026-02-06T21:28:52+00:00,SAT-52094,60.13390097778148,38.04805347535989,836.4157841801583,3.6637502613819026,-128320.03180183397,10.5,10499871679.968199,47.655,-122.3035,60.0,5.75
2026-02-06T21:28:53+00:00,SAT-52094,60.59125043789902,37.81143958853488,840.0697124326869,3.7053992419517208,-129778.75527640215,10.5,10499870221.244724,47.655,-122.3035,60.0,5.766666666666667
2026-02-06T21:28:54+00:00,SAT-52094,61.0417683699228,37.574800073010664,843.7651780106158,3.746499591969972,-131218.26338834953,10.5,10499868781.736612,47.655,-122.3035,60.0,5.783333333333333
2026-02-06T21:28:55+00:00,SAT-52094,61.48555543141922,37.338204236446025,847.501633754197,3.787054893774889,-132638.68160631423,10.5,10499867361.318394,47.655,-122.3035,60.0,5.8
2026-02-06T21:28:56+00:00,SAT-52094,61.92271242817745,37.10171864862455,851.2785360764151,3.8270689148313775,-134040.1418828537,10.5,10499865959.858118,47.655,-122.3035,60.0,5.816666666666666
2026-02-06T21:28:57+00:00,SAT-52094,62.35334016901853,36.865407194481044,855.0953451476213,3.8665455729001756,-135422.78143452108,10.5,10499864577.218565,47.655,-122.3035,60.0,5.833333333333333
2026-02-06T21:28:58+00:00,SAT-52094,62.77753932870078,36.62933113056577,858.9515250454236,3.905488972101384,-136786.7440049627,10.5,10499863213.255995,47.655,-122.3035,60.0,5.85
2026-02-06T21:28:59+00:00,SAT-52094,63.19541032611437,36.393549140292244,862.8465439405486,3.943903346992247,-138132.1779062854,10.5,10499861867.822094,47.655,-122.3035,60.0,5.866666666666666
2026-02-06T21:29:00+00:00,SAT-52094,63.60705320709714,36.158117393385794,866.779874226926,3.981793077138703,-139459.2365294139,10.5,10499860540.76347,47.655,-122.3035,60.0,5.883333333333334
2026-02-06T21:29:01+00:00,SAT-52094,64.0125675392933,35.92308960493227,870.7509926663124,4.01916265809375,-140768.07732763037,10.5,10499859231.922672,47.655,-122.3035,60.0,5.9
2026-02-06T21:29:02+00:00,SAT-52094,64.41205231374262,35.688517096448535,874.7593805039643,4.056016748724523,-142058.86347416881,10.5,10499857941.136526,47.655,-122.3035,60.0,5.916666666666667
2026-02-06T21:29:03+00:00,SAT-52094,64.80560586017015,35.45444885429734,878.804523631516,4.092360075416675,-143331.76050704747,10.5,10499856668.239492,47.655,-122.3035,60.0,5.933333333333334
2026-02-06T21:29:04+00:00,SAT-52094,65.19332576183574,35.220931593629466,882.885912654316,4.1281974785753475,-144586.93795772924,10.5,10499855413.062042,47.655,-122.3035,60.0,5.95
2026-02-06T21:29:05+00:00,SAT-52094,65.57530878307273,34.98800981930297,887.0030430051428,4.163533890333377,-145824.56857036895,10.5,10499854175.431429,47.655,-122.3035,60.0,5.966666666666667
2026-02-06T21:29:06+00:00,SAT-52094,65.9516508026406,34.755725887692215,891.1554150356837,4.198374351209598,-147044.82888525762,10.5,10499852955.171114,47.655,-122.3035,60.0,5.983333333333333
2026-02-06T21:29:07+00:00,SAT-52094,66.32244675560388,34.52412006703161,895.3425341246335,4.232723945176398,-148247.89696461338,10.5,10499851752.103035,47.655,-122.3035,60.0,6.0
2026-02-06T21:29:08+00:00,SAT-52094,66.68779057653518,34.293230600713194,899.5639107210286,4.266587847992181,-149433.95408538895,10.5,10499850566.045914,47.655,-122.3035,60.0,6.016666666666667
2026-02-06T21:29:09+00:00,SAT-52094,67.04777515333818,34.06309376707778,903.8190604357893,4.299971274315628,-150603.1828869894,10.5,10499849396.817114,47.655,-122.3035,60.0,6.033333333333333
2026-02-06T21:29:10+00:00,SAT-52094,67.40249228271996,33.833743941226686,908.1075040805148,4.332879531534447,-151755.76925658248,10.5,10499848244.230743,47.655,-122.3035,60.0,6.05
2026-02-06T21:29:11+00:00,SAT-52094,67.75203263562129,33.605213652948855,912.4287677599625,4.365317940372533,-152891.89954842557,10.5,10499847108.100452,47.655,-122.3035,60.0,6.066666666666666
2026-02-06T21:29:12+00:00,SAT-52094,68.09648572159499,33.37753364786076,916.7823828853509,4.397291867340828,-154011.76172043223,10.5,10499845988.23828,47.655,-122.3035,60.0,6.083333333333333
2026-02-06T21:29:13+00:00,SAT-52094,68.43593986074413,33.15073294564004,921.1678862200216,4.4288067275650524,-155115.54543321117,10.5,10499844884.454567,47.655,-122.3035,60.0,6.1
2026-02-06T21:29:14+00:00,SAT-52094,68.77048216052086,32.92483889695487,925.5848199279252,4.459867970378309,-156203.44154545822,10.5,10499843796.558455,47.655,-122.3035,60.0,6.116666666666666
2026-02-06T21:29:15+00:00,SAT-52094,69.10019849549634,32.699877239939575,930.0327316077368,4.490481036270805,-157275.6406061538,10.5,10499842724.359394,47.655,-122.3035,60.0,6.133333333333334
2026-02-06T21:29:16+00:00,SAT-52094,69.4251734881661,32.47587215754967,934.5111742840359,4.520651410359776,-158332.33472730542,10.5,10499841667.665272,47.655,-122.3035,60.0,6.15
2026-02-06T21:29:17+00:00,SAT-52094,69.74549049729706,32.25284633088109,939.0197064518145,4.550384574769557,-159373.71591609667,10.5,10499840626.284084,47.655,-122.3035,60.0,6.166666666666667
2026-02-06T21:29:18+00:00,SAT-52094,70.06123160625461,32.03082099355817,943.5578920734919,4.579686046473108,-160399.97740025746,10.5,10499839600.0226,47.655,-122.3035,60.0,6.183333333333334
2026-02-06T21:29:19+00:00,SAT-52094,70.37247761709718,31.809815982893213,948.1253006136715,4.6085613090397555,-161411.311237581,10.5,10499838588.688763,47.655,-122.3035,60.0,6.2
2026-02-06T21:29:20+00:00,SAT-52094,70.6793080430141,31.589849793006625,952.7215070058226,4.637015867781107,-162407.91024736728,10.5,10499837592.089752,47.655,-122.3035,60.0,6.216666666666667
2026-02-06T21:29:21+00:00,SAT-52094,70.98180110715799,31.370939623850354,957.3460916739708,4.6650552021252585,-163389.96634236616,10.5,10499836610.033657,47.655,-122.3035,60.0,6.233333333333333
2026-02-06T21:29:22+00:00,SAT-52094,71.28003374082311,31.153101431135507,961.9986405068765,4.692684804736641,-164357.67189891994,10.5,10499835642.3281,47.655,-122.3035,60.0,6.25
2026-02-06T21:29:23+00:00,SAT-52094,71.57408158642787,30.936349972998272,966.6787448712422,4.719910138626457,-165311.21825478945,10.5,10499834688.781746,47.655,-122.3035,60.0,6.266666666666667
2026-02-06T21:29:24+00:00,SAT-52094,71.86401899982927,30.72069885730347,971.3860015821347,4.746736652615142,-166250.79625071486,10.5,10499833749.203749,47.655,-122.3035,60.0,6.283333333333333
2026-02-06T21:29:25+00:00,SAT-52094,72.14991905558021,30.506160586813863,976.1200128888338,4.773169770536635,-167176.59585230346,10.5,10499832823.404148,47.655,-122.3035,60.0,6.3
2026-02-06T21:29:26+00:00,SAT-52094,72.43185355325845,30.292746603476076,980.880386449913,4.799214912339915,-168088.80688909497,10.5,10499831911.193111,47.655,-122.3035,60.0,6.316666666666666
2026-02-06T21:29:27+00:00,SAT-52094,72.70989302658722,30.0804673303988,985.6667353293648,4.8248774294712735,-168987.61679137498,10.5,10499831012.38321,47.655,-122.3035,60.0,6.333333333333333
