DopplerPredictor/satellites_20260211_204923/SAT-49759.csv

timestamp,satellite,azimuth_deg,elevation_deg,distance_km,relative_velocity_kms,doppler_shift_hz,tx_freq_ghz,rx_freq_hz,ue_lat,ue_lon,ue_alt_m,time_minutes
2026-02-06T21:25:08+00:00,SAT-49759,255.2482881458351,30.225542430391066,979.2203413729166,-5.696614339895141,199519.53083789378,10.5,10500199519.530838,47.655,-122.3035,60.0,2.0166666666666666
2026-02-06T21:25:09+00:00,SAT-49759,255.34632189783866,30.48045872747907,973.5389988699338,-5.67974710731005,198928.7690044408,10.5,10500198928.769005,47.655,-122.3035,60.0,2.033333333333333
2026-02-06T21:25:10+00:00,SAT-49759,255.44597692169873,30.73793198200163,967.8744783808136,-5.6625758936855775,198327.36046915018,10.5,10500198327.36047,47.655,-122.3035,60.0,2.05
2026-02-06T21:25:11+00:00,SAT-49759,255.54729469947335,30.997996851058687,962.2270830716633,-5.645094459075905,197715.08668272436,10.5,10500197715.086683,47.655,-122.3035,60.0,2.066666666666667
2026-02-06T21:25:12+00:00,SAT-49759,255.65031812090385,31.26068833291914,956.5971223318094,-5.627296474366143,197091.72597278783,10.5,10500197091.725973,47.655,-122.3035,60.0,2.0833333333333335
2026-02-06T21:25:13+00:00,SAT-49759,255.7550915433836,31.52604175957331,950.9849118627242,-5.609175495670775,196457.05264721217,10.5,10500196457.052647,47.655,-122.3035,60.0,2.1
2026-02-06T21:25:14+00:00,SAT-49759,255.8616608545299,31.794092787206154,945.390773792491,-5.590724898115405,195810.83467487284,10.5,10500195810.834675,47.655,-122.3035,60.0,2.1166666666666667
2026-02-06T21:25:15+00:00,SAT-49759,255.97007353689693,32.06487738243419,939.8150368563075,-5.57193794874114,195152.836239069,10.5,10500195152.836239,47.655,-122.3035,60.0,2.1333333333333333
2026-02-06T21:25:16+00:00,SAT-49759,256.0803787371558,32.33843181081135,934.2580365042792,-5.552807769392225,194482.81643769157,10.5,10500194482.816437,47.655,-122.3035,60.0,2.15
2026-02-06T21:25:17+00:00,SAT-49759,256.1926273382952,32.61479262234351,928.7201150462295,-5.533327399332022,193800.5314762996,10.5,10500193800.531477,47.655,-122.3035,60.0,2.1666666666666665
2026-02-06T21:25:18+00:00,SAT-49759,256.3068720366234,32.89399663883194,923.2016217340555,-5.5134896522101435,193105.7296585043,10.5,10500193105.729658,47.655,-122.3035,60.0,2.183333333333333
2026-02-06T21:25:19+00:00,SAT-49759,256.42316742031835,33.17608093266289,917.7029129867416,-5.493287256449147,192398.15630290488,10.5,10500192398.156303,47.655,-122.3035,60.0,2.2
2026-02-06T21:25:20+00:00,SAT-49759,256.541570054568,33.4610828110605,912.2243524753535,-5.472712789746689,191677.55144907694,10.5,10500191677.551449,47.655,-122.3035,60.0,2.216666666666667
2026-02-06T21:25:21+00:00,SAT-49759,256.6621385701248,33.749039795484755,906.7663112733617,-5.451758716912752,190943.65118279227,10.5,10500190943.651182,47.655,-122.3035,60.0,2.2333333333333334
2026-02-06T21:25:22+00:00,SAT-49759,256.7849337572817,34.039989601298316,901.3291679692262,-5.430417288415241,190196.18408265637,10.5,10500190196.184082,47.655,-122.3035,60.0,2.25
2026-02-06T21:25:23+00:00,SAT-49759,256.9100186629326,34.33397011020052,895.9133088801638,-5.408680674323355,189434.87591137207,10.5,10500189434.875912,47.655,-122.3035,60.0,2.2666666666666666
2026-02-06T21:25:24+00:00,SAT-49759,257.0374586954835,34.631019347768266,890.5191281323304,-5.3865408890220525,188659.44697892148,10.5,10500188659.44698,47.655,-122.3035,60.0,2.283333333333333
2026-02-06T21:25:25+00:00,SAT-49759,257.1673217341591,34.93117545497615,885.1470278160891,-5.363989789297474,187869.6120755095,10.5,10500187869.612076,47.655,-122.3035,60.0,2.3
2026-02-06T21:25:26+00:00,SAT-49759,257.2996782440862,35.23447665731391,879.7974181431862,-5.341019063058141,187065.08007653244,10.5,10500187065.080076,47.655,-122.3035,60.0,2.316666666666667
2026-02-06T21:25:27+00:00,SAT-49759,257.43460139758304,35.540961230809394,874.4707176151755,-5.31762032278247,186245.5572155052,10.5,10500186245.557215,47.655,-122.3035,60.0,2.3333333333333335
2026-02-06T21:25:28+00:00,SAT-49759,257.5721672042909,35.8506674708607,869.1673530986469,-5.293784970897709,185410.74236906235,10.5,10500185410.742369,47.655,-122.3035,60.0,2.35
2026-02-06T21:25:29+00:00,SAT-49759,257.7124546455376,36.163633650709365,863.8877600347138,-5.2695042962835,184560.33043692098,10.5,10500184560.330437,47.655,-122.3035,60.0,2.3666666666666667
2026-02-06T21:25:30+00:00,SAT-49759,257.8555458186064,36.47989798251584,858.632382552257,-5.244769417535501,183694.01035473266,10.5,10500183694.010355,47.655,-122.3035,60.0,2.3833333333333333
2026-02-06T21:25:31+00:00,SAT-49759,258.0015260877006,36.79949857204464,853.401673637752,-5.219571348822017,182811.4674006615,10.5,10500182811.467402,47.655,-122.3035,60.0,2.4
2026-02-06T21:25:32+00:00,SAT-49759,258.1504842454209,37.12247337403885,848.1960952394152,-5.193900940155993,181912.38110345634,10.5,10500181912.381104,47.655,-122.3035,60.0,2.4166666666666665
2026-02-06T21:25:33+00:00,SAT-49759,258.302512681881,37.448860140545676,843.0161184309213,-5.167748880913664,180996.42536568904,10.5,10500180996.425365,47.655,-122.3035,60.0,2.433333333333333
2026-02-06T21:25:34+00:00,SAT-49759,258.45770756387594,37.77869636563943,837.862223571608,-5.141105736716955,180063.26975553206,10.5,10500180063.269756,47.655,-122.3035,60.0,2.45
2026-02-06T21:25:35+00:00,SAT-49759,258.616169025312,38.112019228485984,832.7349004298987,-5.11396197364876,179112.58035487996,10.5,10500179112.580355,47.655,-122.3035,60.0,2.466666666666667
2026-02-06T21:25:36+00:00,SAT-49759,258.77800136986417,38.44886553391016,827.6346482825744,-5.086307862323023,178144.01639947775,10.5,10500178144.0164,47.655,-122.3035,60.0,2.4833333333333334
2026-02-06T21:25:37+00:00,SAT-49759,258.9433132826622,38.789271642265426,822.5619761097198,-5.05813356640545,177157.23337929076,10.5,10500177157.23338,47.655,-122.3035,60.0,2.5
2026-02-06T21:25:38+00:00,SAT-49759,259.11221805740917,39.13327340024521,817.5174027013834,-5.029429117737029,176151.8821672252,10.5,10500176151.882168,47.655,-122.3035,60.0,2.5166666666666666
2026-02-06T21:25:39+00:00,SAT-49759,259.28483383625377,39.4809060650671,812.5014567890498,-5.00018444418258,175127.6099945019,10.5,10500175127.609995,47.655,-122.3035,60.0,2.533333333333333
2026-02-06T21:25:40+00:00,SAT-49759,259.4612838652359,39.832204225247466,807.5146771493366,-4.970389335749382,174084.05926398758,10.5,10500174084.059263,47.655,-122.3035,60.0,2.55
2026-02-06T21:25:41+00:00,SAT-49759,259.64169676417004,40.18720171338329,802.5576127414828,-4.940033444637117,173020.867551944,10.5,10500173020.867552,47.655,-122.3035,60.0,2.566666666666667
2026-02-06T21:25:42+00:00,SAT-49759,259.8262068131253,40.54593151276317,797.6308228447863,-4.90910635111763,171937.66991541567,10.5,10500171937.669916,47.655,-122.3035,60.0,2.5833333333333335
2026-02-06T21:25:43+00:00,SAT-49759,260.0149542588461,40.908425662286845,792.7348771303392,-4.877597510351765,170834.0970295308,10.5,10500170834.097029,47.655,-122.3035,60.0,2.6
2026-02-06T21:25:44+00:00,SAT-49759,260.2080856383725,41.274715150802834,787.8703557858041,-4.845496281993546,169709.7762243646,10.5,10500169709.776224,47.655,-122.3035,60.0,2.6166666666666667
2026-02-06T21:25:45+00:00,SAT-49759,260.4057541241738,41.64482980632017,783.0378496106644,-4.812791935726089,168564.33167883076,10.5,10500168564.331678,47.655,-122.3035,60.0,2.6333333333333333
2026-02-06T21:25:46+00:00,SAT-49759,260.6081198910898,42.01879817794914,778.2379601059525,-4.779473657357826,167397.38463419644,10.5,10500167397.384634,47.655,-122.3035,60.0,2.65
2026-02-06T21:25:47+00:00,SAT-49759,260.8153505069473,42.39664741014985,773.4712995579029,-4.745530559172402,166208.5537565799,10.5,10500166208.553757,47.655,-122.3035,60.0,2.6666666666666665
2026-02-06T21:25:48+00:00,SAT-49759,261.02762134842885,42.77840310910734,768.7384911112764,-4.710951690567996,164997.45550958443,10.5,10500164997.45551,47.655,-122.3035,60.0,2.683333333333333
2026-02-06T21:25:49+00:00,SAT-49759,261.2451160443521,43.164089200746496,764.0401688320794,-4.67572602726312,163763.70377623962,10.5,10500163763.703775,47.655,-122.3035,60.0,2.7
2026-02-06T21:25:50+00:00,SAT-49759,261.4680269468773,43.55372777803702,759.3769777810452,-4.639842543654532,162506.9123932817,10.5,10500162506.912394,47.655,-122.3035,60.0,2.716666666666667
2026-02-06T21:25:51+00:00,SAT-49759,261.6965556368924,43.947338943891175,754.7495740149519,-4.603290129945271,161226.6922486267,10.5,10500161226.69225,47.655,-122.3035,60.0,2.7333333333333334
2026-02-06T21:25:52+00:00,SAT-49759,261.93091345855777,44.34494063613612,750.158624670591,-4.566057676425155,159922.65423323,10.5,10500159922.654234,47.655,-122.3035,60.0,2.75
2026-02-06T21:25:53+00:00,SAT-49759,262.1713220930041,44.74654844769926,745.6048079646805,-4.528134099158493,158594.41014077872,10.5,10500158594.410141,47.655,-122.3035,60.0,2.7666666666666666
2026-02-06T21:25:54+00:00,SAT-49759,262.41801417133894,45.15217543677297,741.0888131681593,-4.489508281860645,157241.5706319629,10.5,10500157241.570631,47.655,-122.3035,60.0,2.783333333333333
2026-02-06T21:25:55+00:00,SAT-49759,262.67123392568624,45.56183191861781,736.6113406384503,-4.450169133003754,155863.7472345599,10.5,10500155863.747234,47.655,-122.3035,60.0,2.8
2026-02-06T21:25:56+00:00,SAT-49759,262.9312378864764,45.97552524815828,732.1731017947687,-4.4101056167367085,154460.55342638222,10.5,10500154460.553427,47.655,-122.3035,60.0,2.816666666666667
2026-02-06T21:25:57+00:00,SAT-49759,263.1982956284062,46.3932595904587,727.7748190625957,-4.369306750968264,153031.60456814017,10.5,10500153031.604568,47.655,-122.3035,60.0,2.8333333333333335
2026-02-06T21:25:58+00:00,SAT-49759,263.4726905667053,46.81503567513237,723.4172258200625,-4.327761653611614,151576.51952312273,10.5,10500151576.519524,47.655,-122.3035,60.0,2.85
2026-02-06T21:25:59+00:00,SAT-49759,263.7547208100155,47.24085053822301,719.1010662982133,-4.285459484417747,150094.91861995522,10.5,10500150094.91862,47.655,-122.3035,60.0,2.8666666666666667
2026-02-06T21:26:00+00:00,SAT-49759,264.0447000679647,47.67069724027664,714.8270955392798,-4.2423895601041215,148586.42768489284,10.5,10500148586.427685,47.655,-122.3035,60.0,2.8833333333333333
2026-02-06T21:26:01+00:00,SAT-49759,264.3429586273735,48.104564576289555,710.5960792401366,-4.198541338369757,147050.67748196135,10.5,10500147050.677483,47.655,-122.3035,60.0,2.9
2026-02-06T21:26:02+00:00,SAT-49759,264.64984439477917,48.542436763771576,706.4087936116962,-4.153904411843099,145487.3035009858,10.5,10500145487.303501,47.655,-122.3035,60.0,2.9166666666666665
2026-02-06T21:26:03+00:00,SAT-49759,264.9657240095417,48.98429310814987,702.2660252443424,-4.108468602146768,143895.94925213582,10.5,10500143895.949253,47.655,-122.3035,60.0,2.933333333333333
2026-02-06T21:26:04+00:00,SAT-49759,265.29098404026655,49.43010765461023,698.1685708795495,-4.0622238938839965,142276.26395385157,10.5,10500142276.263954,47.655,-122.3035,60.0,2.95
2026-02-06T21:26:05+00:00,SAT-49759,265.6260322583003,49.87984880798874,694.1172372473382,-4.015160550150253,140627.90657854927,10.5,10500140627.906578,47.655,-122.3035,60.0,2.966666666666667
2026-02-06T21:26:06+00:00,SAT-49759,265.97129900733444,50.33347893834977,690.1128407885305,-3.9672690832468267,138950.54482688714,10.5,10500138950.544827,47.655,-122.3035,60.0,2.9833333333333334
2026-02-06T21:26:07+00:00,SAT-49759,266.32723866465165,50.790953954992894,686.1562074062127,-3.918540302834391,137243.85681430687,10.5,10500137243.856813,47.655,-122.3035,60.0,3.0
2026-02-06T21:26:08+00:00,SAT-49759,266.6943312058515,51.25222285523615,682.2481721691718,-3.8689653651706086,135507.53279554282,10.5,10500135507.532795,47.655,-122.3035,60.0,3.0166666666666666
2026-02-06T21:26:09+00:00,SAT-49759,267.073083880469,51.717227246332946,678.389578966228,-3.818535737260688,133741.27390902283,10.5,10500133741.273909,47.655,-122.3035,60.0,3.033333333333333
2026-02-06T21:26:10+00:00,SAT-49759,267.46403299736915,52.18590082803577,674.581280196321,-3.7672433317129914,131944.79690008215,10.5,10500131944.7969,47.655,-122.3035,60.0,3.05
2026-02-06T21:26:11+00:00,SAT-49759,267.86774584230017,52.6581688537741,670.8241363241008,-3.7150804514710254,130117.83218524385,10.5,10500130117.832186,47.655,-122.3035,60.0,3.066666666666667
2026-02-06T21:26:12+00:00,SAT-49759,268.28482271766285,53.13394754507376,667.1190154906392,-3.6620398818437843,128260.1270755108,10.5,10500128260.127075,47.655,-122.3035,60.0,3.0833333333333335
2026-02-06T21:26:13+00:00,SAT-49759,268.7158991250099,53.61314347415925,663.466793032357,-3.6081148678681094,126371.4449834997,10.5,10500126371.444984,47.655,-122.3035,60.0,3.1
2026-02-06T21:26:14+00:00,SAT-49759,269.16164808558494,54.09565289726305,659.8683510225299,-3.553299233591437,124451.56960122754,10.5,10500124451.569601,47.655,-122.3035,60.0,3.1166666666666667
2026-02-06T21:26:15+00:00,SAT-49759,269.62278262084897,54.581361053712456,656.3245776938282,-3.497587325089934,122500.30290436561,10.5,10500122500.302904,47.655,-122.3035,60.0,3.1333333333333333
2026-02-06T21:26:16+00:00,SAT-49759,270.10005837889787,55.070141404007856,652.8363669176899,-3.4409741291312113,120517.46930830968,10.5,10500120517.469309,47.655,-122.3035,60.0,3.15
2026-02-06T21:26:17+00:00,SAT-49759,270.5942764320737,55.56185482636152,649.4046175653444,-3.3834552607032484,118502.9152313902,10.5,10500118502.915232,47.655,-122.3035,60.0,3.1666666666666665
2026-02-06T21:26:18+00:00,SAT-49759,271.10628623337897,56.05634874989415,646.0302328812782,-3.3250270367713077,116456.51167815145,10.5,10500116456.511679,47.655,-122.3035,60.0,3.183333333333333
2026-02-06T21:26:19+00:00,SAT-49759,271.6369887446085,56.55345623189856,642.7141197831388,-3.265686470596674,114378.15404036974,10.5,10500114378.154041,47.655,-122.3035,60.0,3.2
2026-02-06T21:26:20+00:00,SAT-49759,272.187339723589,57.05299496290191,639.4571881673049,-3.205431365940271,112267.76539646252,10.5,10500112267.765396,47.655,-122.3035,60.0,3.216666666666667
2026-02-06T21:26:21+00:00,SAT-49759,272.7583531812675,57.554766209162665,636.2603501205075,-3.144260331271979,110125.29700915884,10.5,10500110125.297009,47.655,-122.3035,60.0,3.2333333333333334
2026-02-06T21:26:22+00:00,SAT-49759,273.3511049882903,58.05855367562759,633.1245191172757,-3.082172796904372,107950.7289255953,10.5,10500107950.728926,47.655,-122.3035,60.0,3.25
2026-02-06T21:26:23+00:00,SAT-49759,273.96673661626215,58.56412228361622,630.0506092003001,-3.019169095309616,105744.0727903534,10.5,10500105744.07279,47.655,-122.3035,60.0,3.2666666666666666
2026-02-06T21:26:24+00:00,SAT-49759,274.60645900302205,59.07121686754995,627.0395340806894,-2.95525048714946,103505.3727571403,10.5,10500103505.372757,47.655,-122.3035,60.0,3.283333333333333
2026-02-06T21:26:25+00:00,SAT-49759,275.2715565033407,59.57956077650998,624.0922062122714,-2.8904191776249273,101234.70606142379,10.5,10500101234.706062,47.655,-122.3035,60.0,3.3
2026-02-06T21:26:26+00:00,SAT-49759,275.96339087988525,60.0888543726916,621.209535849584,-2.824678390175422,98932.18560168691,10.5,10500098932.185602,47.655,-122.3035,60.0,3.316666666666667
2026-02-06T21:26:27+00:00,SAT-49759,276.68340529131103,60.59877343088439,618.3924300323671,-2.758032375281222,96597.96024772857,10.5,10500096597.960247,47.655,-122.3035,60.0,3.3333333333333335
2026-02-06T21:26:28+00:00,SAT-49759,277.43312819087373,61.10896742266641,615.6417915612756,-2.690486458561653,94232.21652526481,10.5,10500094232.216526,47.655,-122.3035,60.0,3.35
2026-02-06T21:26:29+00:00,SAT-49759,278.21417705009515,61.61905768743411,612.958517925622,-2.622047069847416,91835.179634165,10.5,10500091835.179634,47.655,-122.3035,60.0,3.3666666666666667
2026-02-06T21:26:30+00:00,SAT-49759,279.02826178353314,62.128635483538574,610.3435002021264,-2.552721787001714,89407.11498325283,10.5,10500089407.114983,47.655,-122.3035,60.0,3.3833333333333333
2026-02-06T21:26:31+00:00,SAT-49759,279.8771877282379,62.63725992054733,607.79762190996,-2.4825193428856562,86948.32843426433,10.5,10500086948.328434,47.655,-122.3035,60.0,3.4
2026-02-06T21:26:32+00:00,SAT-49759,280.76285797920235,63.144455765978286,605.3217578588448,-2.411449680630715,84459.168237723,10.5,10500084459.168238,47.655,-122.3035,60.0,3.4166666666666665
2026-02-06T21:26:33+00:00,SAT-49759,281.6872748633424,63.64971113962449,602.9167729420278,-2.339523948099131,81940.02483891998,10.5,10500081940.02484,47.655,-122.3035,60.0,3.433333333333333
2026-02-06T21:26:34+00:00,SAT-49759,282.65254024862344,64.15247509118647,600.5835209347792,-2.2667545529055633,79391.33280500477,10.5,10500079391.332806,47.655,-122.3035,60.0,3.45
2026-02-06T21:26:35+00:00,SAT-49759,283.6608543650664,64.65215508702353,598.322843238018,-2.1931551694591103,76813.57107162669,10.5,10500076813.571072,47.655,-122.3035,60.0,3.466666666666667
2026-02-06T21:26:36+00:00,SAT-49759,284.714512709614,65.14811441693215,596.1355676149127,-2.118740736278004,74207.26284888409,10.5,10500074207.26285,47.655,-122.3035,60.0,3.4833333333333334
2026-02-06T21:26:37+00:00,SAT-49759,285.81590053800926,65.63966954792656,594.0225069301625,-2.0435274957168934,71572.97701274186,10.5,10500071572.977013,47.655,-122.3035,60.0,3.5
2026-02-06T21:26:38+00:00,SAT-49759,286.96748438904535,66.12608747554795,591.984457849655,-1.9675329786563447,68911.32756879301,10.5,10500068911.327568,47.655,-122.3035,60.0,3.5166666666666666
2026-02-06T21:26:39+00:00,SAT-49759,288.171799952478,66.6065831154139,590.0221995553948,-1.8907760456350993,66222.97509288424,10.5,10500066222.975092,47.655,-122.3035,60.0,3.533333333333333
2026-02-06T21:26:40+00:00,SAT-49759,289.431435557803,67.08031682049202,588.136492419411,-1.8132768382431723,63508.62502869671,10.5,10500063508.625029,47.655,-122.3035,60.0,3.55
2026-02-06T21:26:41+00:00,SAT-49759,290.74901039433666,67.54639209499535,586.3280767261386,-1.735056804041901,60769.02856055158,10.5,10500060769.02856,47.655,-122.3035,60.0,3.566666666666667
2026-02-06T21:26:42+00:00,SAT-49759,292.1271465928204,68.00385363871824,584.5976713699506,-1.656138693057992,58004.98249061661,10.5,10500058004.98249,47.655,-122.3035,60.0,3.5833333333333335
2026-02-06T21:26:43+00:00,SAT-49759,293.56843420287885,68.45168585896616,582.9459725561816,-1.5765465282304119,55217.32820383135,10.5,10500055217.328203,47.655,-122.3035,60.0,3.6
2026-02-06T21:26:44+00:00,SAT-49759,295.07538809354224,68.88881201680182,581.3736525316299,-1.4963056036926075,52406.951607743176,10.5,10500052406.951609,47.655,-122.3035,60.0,3.6166666666666667
2026-02-06T21:26:45+00:00,SAT-49759,296.65039591321676,69.31409422077786,579.8813583167705,-1.4154424267834846,49574.781101486515,10.5,10500049574.781101,47.655,-122.3035,60.0,3.6333333333333333
2026-02-06T21:26:46+00:00,SAT-49759,298.2956563300165,69.7263344907561,578.4697104958024,-1.333984734705837,46721.78815923144,10.5,10500046721.788158,47.655,-122.3035,60.0,3.65
2026-02-06T21:26:47+00:00,SAT-49759,300.0131071816344,70.12427718126445,577.1393019900803,-1.2519614386576188,43848.98537342456,10.5,10500043848.985373,47.655,-122.3035,60.0,3.6666666666666665
2026-02-06T21:26:48+00:00,SAT-49759,301.80434346486356,70.50661303717483,575.890696887269,-1.1694025779689234,40957.42484847199,10.5,10500040957.424849,47.655,-122.3035,60.0,3.683333333333333
2026-02-06T21:26:49+00:00,SAT-49759,303.6705257821371,70.87198519020936,574.724429316234,-1.0863392872138107,38048.19704885642,10.5,10500038048.197048,47.655,-122.3035,60.0,3.7
2026-02-06T21:26:50+00:00,SAT-49759,305.6122807013433,71.21899740318996,573.6410023547343,-1.002803750251486,35122.42918946481,10.5,10500035122.42919,47.655,-122.3035,60.0,3.716666666666667
2026-02-06T21:26:51+00:00,SAT-49759,307.6295954838882,71.54622483399594,572.6408869829504,-0.9188291393772741,32181.2831043981,10.5,10500032181.283104,47.655,-122.3035,60.0,3.7333333333333334
2026-02-06T21:26:52+00:00,SAT-49759,309.7217108189004,71.85222753147211,571.7245210976976,-0.8344495529447401,29225.953062234043,10.5,10500029225.953062,47.655,-122.3035,60.0,3.75
2026-02-06T21:26:53+00:00,SAT-49759,311.88701651358997,72.1355667830521,570.89230858885,-0.7496999759770713,26257.664386471155,10.5,10500026257.664387,47.655,-122.3035,60.0,3.7666666666666666
2026-02-06T21:26:54+00:00,SAT-49759,314.12295643891616,72.39482430365202,570.14461845505,-0.6646161783655739,23277.66989000946,10.5,10500023277.66989,47.655,-122.3035,60.0,3.783333333333333
2026-02-06T21:26:55+00:00,SAT-49759,316.42594990491375,72.62862404508299,569.4817840209416,-0.5792346756551817,20287.248501693157,10.5,10500020287.2485,47.655,-122.3035,60.0,3.8
2026-02-06T21:26:56+00:00,SAT-49759,318.7913376061058,72.83565622927256,568.9041021935174,-0.4935926327465301,17287.70189354986,10.5,10500017287.701893,47.655,-122.3035,60.0,3.816666666666667
2026-02-06T21:26:57+00:00,SAT-49759,321.2133599945594,73.01470292690188,568.4118328145034,-0.40772780118602014,14280.352284423418,10.5,10500014280.352283,47.655,-122.3035,60.0,3.8333333333333335
2026-02-06T21:26:58+00:00,SAT-49759,323.6851753437199,73.16466429235851,568.0051980752859,-0.3216784304237855,11266.539331852531,10.5,10500011266.539331,47.655,-122.3035,60.0,3.85
2026-02-06T21:26:59+00:00,SAT-49759,326.19892274171315,73.28458433185462,567.6843820203426,-0.23548318155056588,8247.617110771153,10.5,10500008247.617111,47.655,-122.3035,60.0,3.8666666666666667
2026-02-06T21:27:00+00:00,SAT-49759,328.7458324752435,73.37367494074482,567.449530136705,-0.14918104896484088,5224.951369960178,10.5,10500005224.95137,47.655,-122.3035,60.0,3.8833333333333333
2026-02-06T21:27:01+00:00,SAT-49759,331.316382691938,73.43133689235705,567.3007490215455,-0.0628112709812293,2199.916401175468,10.5,10500002199.9164,47.655,-122.3035,60.0,3.9
2026-02-06T21:27:02+00:00,SAT-49759,333.900497059341,73.45717651689706,567.2381061389136,0.023586762268080975,-826.108186533666,10.5,10499999173.891813,47.655,-122.3035,60.0,3.9166666666666665
2026-02-06T21:27:03+00:00,SAT-49759,336.4877741315712,73.45101700396576,567.261629668327,0.10997359564565493,-3851.7405073591835,10.5,10499996148.259493,47.655,-122.3035,60.0,3.933333333333333
2026-02-06T21:27:04+00:00,SAT-49759,339.06773593144413,73.41290357640892,567.3713084399391,0.19630979797293505,-6875.599514634281,10.5,10499993124.400486,47.655,-122.3035,60.0,3.95
2026-02-06T21:27:05+00:00,SAT-49759,341.63008112382795,73.34310218076156,567.5670919584345,0.282556053901383,-9896.308218549386,10.5,10499990103.691782,47.655,-122.3035,60.0,3.966666666666667
2026-02-06T21:27:06+00:00,SAT-49759,344.16492765578323,73.2420917827666,567.848890518548,0.36867325275907825,-12912.496797935863,10.5,10499987087.503202,47.655,-122.3035,60.0,3.9833333333333334
2026-02-06T21:27:07+00:00,SAT-49759,346.6630308676403,73.11055079112445,568.2165754091934,0.45462257301697057,-15922.80555863147,10.5,10499984077.19444,47.655,-122.3035,60.0,4.0
2026-02-06T21:27:08+00:00,SAT-49759,349.1159657272271,72.94933850264758,568.6699792018298,0.5403655759483204,-18925.88821383013,10.5,10499981074.111786,47.655,-122.3035,60.0,4.016666666666667
2026-02-06T21:27:09+00:00,SAT-49759,351.5162655466432,72.75947272314349,569.2088961322396,0.6258642810684595,-21920.414526301473,10.5,10499978079.585474,47.655,-122.3035,60.0,4.033333333333333
2026-02-06T21:27:10+00:00,SAT-49759,353.85751345144723,72.54210486881057,569.8330825575397,0.7110812554917062,-24905.07343804798,10.5,10499975094.926561,47.655,-122.3035,60.0,4.05
2026-02-06T21:27:11+00:00,SAT-49759,356.134387061924,72.29849385500553,570.5422575023147,0.795979688521002,-27878.575682749568,10.5,10499972121.424316,47.655,-122.3035,60.0,4.066666666666666
2026-02-06T21:27:12+00:00,SAT-49759,358.342660021201,72.02997999199627,571.3361032791358,0.8805234742944834,-30839.65668039613,10.5,10499969160.343319,47.655,-122.3035,60.0,4.083333333333333
2026-02-06T21:27:13+00:00,SAT-49759,0.4791665816768652,71.73795991955156,572.2142661915079,0.964677274811276,-33787.07874471745,10.5,10499966212.921255,47.655,-122.3035,60.0,4.1
2026-02-06T21:27:14+00:00,SAT-49759,2.541736799831955,71.42386339295486,573.1763572996709,1.0484065942189318,-36719.63368504348,10.5,10499963280.366316,47.655,-122.3035,60.0,4.116666666666666
2026-02-06T21:27:15+00:00,SAT-49759,4.529110472046984,71.0891324777147,574.2219532604909,1.1316778412378714,-39636.1449926724,10.5,10499960363.855007,47.655,-122.3035,60.0,4.133333333333334
2026-02-06T21:27:16+00:00,SAT-49759,6.440837565024683,70.73520348391914,575.350597229608,1.2144584015255282,-42535.470375368976,10.5,10499957464.529625,47.655,-122.3035,60.0,4.15
2026-02-06T21:27:17+00:00,SAT-49759,8.277172084018767,70.36349175952033,576.5617998357542,1.2967166653114317,-45416.50272526212,10.5,10499954583.497274,47.655,-122.3035,60.0,4.166666666666667
2026-02-06T21:27:18+00:00,SAT-49759,10.038965047838847,69.97537931396958,577.8550401826328,1.3784221062893063,-48278.17288197996,10.5,10499951721.827118,47.655,-122.3035,60.0,4.183333333333334
2026-02-06T21:27:19+00:00,SAT-49759,11.727561100926906,69.57220509197643,579.2297669294775,1.459545312416842,-51119.45071138795,10.5,10499948880.549288,47.655,-122.3035,60.0,4.2
2026-02-06T21:27:20+00:00,SAT-49759,13.344701849220487,69.15525766756467,580.6853994023289,1.540058034231638,-53939.34679781771,10.5,10499946060.653202,47.655,-122.3035,60.0,4.216666666666667
2026-02-06T21:27:21+00:00,SAT-49759,14.892437985110243,68.72577006284033,582.2213287534988,1.619933215216191,-56736.913507577316,10.5,10499943263.086493,47.655,-122.3035,60.0,4.233333333333333
2026-02-06T21:27:22+00:00,SAT-49759,16.373051267265463,68.28491638981878,583.8369191513157,1.699145019755446,-59511.24596814301,10.5,10499940488.754032,47.655,-122.3035,60.0,4.25
2026-02-06T21:27:23+00:00,SAT-49759,17.7889867010788,67.83381001294694,585.5315089977552,1.7776688702929977,-62261.48336952652,10.5,10499937738.51663,47.655,-122.3035,60.0,4.266666666666667
2026-02-06T21:27:24+00:00,SAT-49759,19.142794728725004,67.37350294572389,587.3044121831251,1.8554814633693626,-64986.809526003184,10.5,10499935013.190474,47.655,-122.3035,60.0,4.283333333333333
2026-02-06T21:27:25+00:00,SAT-49759,20.43708283452344,66.90498623024146,589.1549193567475,1.9325607705194952,-67686.45290754679,10.5,10499932313.547092,47.655,-122.3035,60.0,4.3
2026-02-06T21:27:26+00:00,SAT-49759,21.67447575577468,66.42919107770899,591.0822991985345,2.0088860705547806,-70359.68777048153,10.5,10499929640.31223,47.655,-122.3035,60.0,4.316666666666666
2026-02-06T21:27:27+00:00,SAT-49759,22.85758340054529,65.9469905690892,593.0857997227605,2.0844379489599043,-73005.83413635773,10.5,10499926994.165863,47.655,-122.3035,60.0,4.333333333333333
2026-02-06T21:27:28+00:00,SAT-49759,23.988975485480616,65.4592017630921,595.1646495812316,2.159198296085116,-75624.25772863746,10.5,10499924375.742271,47.655,-122.3035,60.0,4.35
2026-02-06T21:27:29+00:00,SAT-49759,25.071161955300536,64.96658807927896,597.3180593646543,2.2331502906210803,-78214.36939391366,10.5,10499921785.630606,47.655,-122.3035,60.0,4.366666666666666
2026-02-06T21:27:30+00:00,SAT-49759,26.10657829388096,64.46986185304851,599.545222887521,2.306278437736073,-80775.62643763628,10.5,10499919224.373562,47.655,-122.3035,60.0,4.383333333333334
2026-02-06T21:27:31+00:00,SAT-49759,27.09757494709864,63.96968696636065,601.8453185110319,2.3785685061775537,-83307.53042114325,10.5,10499916692.46958,47.655,-122.3035,60.0,4.4
2026-02-06T21:27:32+00:00,SAT-49759,28.046410087825723,63.46668151218064,604.2175104032868,2.450007529215934,-85809.62719471518,10.5,10499914190.372805,47.655,-122.3035,60.0,4.416666666666667
2026-02-06T21:27:33+00:00,SAT-49759,28.955245132143016,62.96142042858897,606.6609498004179,2.520583826084082,-88281.50764847746,10.5,10499911718.492352,47.655,-122.3035,60.0,4.433333333333334
2026-02-06T21:27:34+00:00,SAT-49759,29.82614246874086,62.45443806300007,609.1747762891048,2.5902869115626106,-90722.80454569477,10.5,10499909277.195454,47.655,-122.3035,60.0,4.45
2026-02-06T21:27:35+00:00,SAT-49759,30.661064901578786,61.94623066382057,611.758118998917,2.6591075356855627,-93133.19391343195,10.5,10499906866.806087,47.655,-122.3035,60.0,4.466666666666667
2026-02-06T21:27:36+00:00,SAT-49759,31.461876471239588,61.43725875514077,614.4100978342562,2.7270376105675664,-95512.39247973158,10.5,10499904487.607521,47.655,-122.3035,60.0,4.483333333333333
2026-02-06T21:27:37+00:00,SAT-49759,32.23034429459492,60.92794940645796,617.1298246333212,2.7940702163896454,-97860.15788326229,10.5,10499902139.842117,47.655,-122.3035,60.0,4.5
2026-02-06T21:27:38+00:00,SAT-49759,32.96814118759786,60.41869837567805,619.9164043330422,2.860199545353253,-100176.28671035198,10.5,10499899823.71329,47.655,-122.3035,60.0,4.516666666666667
2026-02-06T21:27:39+00:00,SAT-49759,33.67684883767449,59.90987213515352,622.7689360781219,2.925420879679944,-102460.61372444336,10.5,10499897539.386276,47.655,-122.3035,60.0,4.533333333333333
2026-02-06T21:27:40+00:00,SAT-49759,34.3579613643034,59.40180977473723,625.6865143081316,2.989730557396624,-104713.01066774853,10.5,10499895286.989332,47.655,-122.3035,60.0,4.55
2026-02-06T21:27:41+00:00,SAT-49759,35.01288912620335,58.89482478678977,628.6682298104863,3.0531259254061562,-106933.38461758313,10.5,10499893066.615383,47.655,-122.3035,60.0,4.566666666666666
2026-02-06T21:27:42+00:00,SAT-49759,35.6429626634087,58.389206739223475,631.713170726618,3.1156053176876517,-109121.67722284843,10.5,10499890878.322777,47.655,-122.3035,60.0,4.583333333333333
2026-02-06T21:27:43+00:00,SAT-49759,36.249436695288125,57.88522283720411,634.8204235364025,3.1771679985807997,-111277.86271760844,10.5,10499888722.137283,47.655,-122.3035,60.0,4.6
2026-02-06T21:27:44+00:00,SAT-49759,36.833494101004554,57.38311938488177,637.9890739860284,3.2378141694355373,-113401.94815398972,10.5,10499886598.051846,47.655,-122.3035,60.0,4.616666666666666
2026-02-06T21:27:45+00:00,SAT-49759,37.39624984524877,56.88312314281216,641.2182080224936,3.297544834644942,-115493.9687100864,10.5,10499884506.03129,47.655,-122.3035,60.0,4.633333333333334
2026-02-06T21:27:46+00:00,SAT-49759,37.93875478618708,56.385442609109404,644.5069125944983,3.3563618664046233,-117553.98995810811,10.5,10499882446.010042,47.655,-122.3035,60.0,4.65
2026-02-06T21:27:47+00:00,SAT-49759,38.46199937612311,55.89026919891563,647.8542765179169,3.4142679065457586,-119582.1044261576,10.5,10499880417.895575,47.655,-122.3035,60.0,4.666666666666667
2026-02-06T21:27:48+00:00,SAT-49759,38.9669172060022,55.39777835368434,651.2593912433741,3.4712663476178784,-121578.43093566992,10.5,10499878421.569065,47.655,-122.3035,60.0,4.683333333333334
2026-02-06T21:27:49+00:00,SAT-49759,39.45438839628149,54.908130573338596,654.7213516049487,3.5273612648256654,-123543.11221755113,10.5,10499876456.887783,47.655,-122.3035,60.0,4.7
2026-02-06T21:27:50+00:00,SAT-49759,39.92524281998451,54.42147238377914,658.2392565009993,3.582557400994412,-125476.31438560515,10.5,10499874523.685614,47.655,-122.3035,60.0,4.716666666666667
2026-02-06T21:27:51+00:00,SAT-49759,40.380263162852415,53.93793723699119,661.8122095599945,3.6368601481658627,-127378.22629194212,10.5,10499872621.773708,47.655,-122.3035,60.0,4.733333333333333
2026-02-06T21:27:52+00:00,SAT-49759,40.82018781951081,53.45764634942856,665.4393197879898,3.690275449985834,-129249.0561081802,10.5,10499870750.943892,47.655,-122.3035,60.0,4.75
2026-02-06T21:27:53+00:00,SAT-49759,41.24571361767178,52.98070949351355,669.1197021187522,3.7428098229938023,-131089.03207109674,10.5,10499868910.96793,47.655,-122.3035,60.0,4.766666666666667
2026-02-06T21:27:54+00:00,SAT-49759,41.657498390432856,52.50722573031025,672.8524779851183,3.7944702819373344,-132898.3998668239,10.5,10499867101.600134,47.655,-122.3035,60.0,4.783333333333333
2026-02-06T21:27:55+00:00,SAT-49759,42.05616338915176,52.037284100030256,676.6367758158667,3.8452643230434025,-134677.42204493925,10.5,10499865322.577955,47.655,-122.3035,60.0,4.8
2026-02-06T21:27:56+00:00,SAT-49759,42.4422955505484,51.57096426619824,680.4717315159066,3.8951998723930377,-136426.3762103278,10.5,10499863573.623789,47.655,-122.3035,60.0,4.816666666666666
2026-02-06T21:27:57+00:00,SAT-49759,42.816449620434526,51.10833712118845,684.3564888949792,3.9442852644634008,-138145.55427163452,10.5,10499861854.445728,47.655,-122.3035,60.0,4.833333333333333
2026-02-06T21:27:58+00:00,SAT-49759,43.179150144401696,50.649465352344215,688.2902000749598,3.992529230080436,-139835.2620193153,10.5,10499860164.73798,47.655,-122.3035,60.0,4.85
2026-02-06T21:27:59+00:00,SAT-49759,43.530893332994566,50.194403970627896,692.2720258851434,4.039940800120241,-141495.81575285166,10.5,10499858504.184248,47.655,-122.3035,60.0,4.866666666666666
2026-02-06T21:28:00+00:00,SAT-49759,43.87214880063511,49.74320081398278,696.3011361614904,4.086529342288044,-143127.54356890614,10.5,10499856872.45643,47.655,-122.3035,60.0,4.883333333333334
2026-02-06T21:28:01+00:00,SAT-49759,44.2033611979522,49.29589701233048,700.3767100825526,4.132304490002257,-144730.78287054072,10.5,10499855269.217129,47.655,-122.3035,60.0,4.9
2026-02-06T21:28:02+00:00,SAT-49759,44.52495173385041,48.8525274289134,704.4979364344753,4.177276153538702,-146305.88075753517,10.5,10499853694.119242,47.655,-122.3035,60.0,4.916666666666667
2026-02-06T21:28:03+00:00,SAT-49759,44.837319601375164,48.413121070791114,708.6640138871105,4.221454445823681,-147853.1914273462,10.5,10499852146.808573,47.655,-122.3035,60.0,4.933333333333334
2026-02-06T21:28:04+00:00,SAT-49759,45.140843306207316,47.97770147964468,712.8741511961256,4.264849652423713,-149373.07512402127,10.5,10499850626.924875,47.655,-122.3035,60.0,4.95
2026-02-06T21:28:05+00:00,SAT-49759,45.43588190813616,47.54628709952696,717.1275673751802,4.307472293247492,-150865.9002992619,10.5,10499849134.0997,47.655,-122.3035,60.0,4.966666666666667
2026-02-06T21:28:06+00:00,SAT-49759,45.72277618724911,47.11889161410514,721.4234919296406,4.349332994602434,-152332.03913130317,10.5,10499847667.960869,47.655,-122.3035,60.0,4.983333333333333
2026-02-06T21:28:07+00:00,SAT-49759,46.00184972623064,46.695524274319936,725.7611649626925,4.3904425236385265,-153771.86873128254,10.5,10499846228.13127,47.655,-122.3035,60.0,5.0
2026-02-06T21:28:08+00:00,SAT-49759,46.27340992590081,46.27619020110417,730.1398373158064,4.43081173863807,-155185.76940217667,10.5,10499844814.230598,47.655,-122.3035,60.0,5.016666666666667
2026-02-06T21:28:09+00:00,SAT-49759,46.537748952727306,45.860890672980126,734.558770659625,4.470451604389202,-156574.12517724722,10.5,10499843425.874823,47.655,-122.3035,60.0,5.033333333333333
2026-02-06T21:28:10+00:00,SAT-49759,46.79514462678722,45.449623393458396,739.0172376001851,4.50937314137879,-157937.3220405608,10.5,10499842062.67796,47.655,-122.3035,60.0,5.05
2026-02-06T21:28:11+00:00,SAT-49759,47.04586125032974,45.0423827456929,743.5145217344655,4.547587409652128,-159275.74736168762,10.5,10499840724.252638,47.655,-122.3035,60.0,5.066666666666666
2026-02-06T21:28:12+00:00,SAT-49759,47.290150382929035,44.63916003199743,748.0499176898394,4.585105503960839,-160589.78972576026,10.5,10499839410.210274,47.655,-122.3035,60.0,5.083333333333333
2026-02-06T21:28:13+00:00,SAT-49759,47.528251567564126,44.23994369825338,752.6227311586886,4.621938561556679,-161879.8392064457,10.5,10499838120.160793,47.655,-122.3035,60.0,5.1
2026-02-06T21:28:14+00:00,SAT-49759,47.76039301141641,43.84471954317032,757.2322789407891,4.658097676103425,-163146.28435077565,10.5,10499836853.715649,47.655,-122.3035,60.0,5.116666666666666
2026-02-06T21:28:15+00:00,SAT-49759,47.986792219536234,43.45347092130823,761.8778888998405,4.6935939352870495,-164389.51349641362,10.5,10499835610.486504,47.655,-122.3035,60.0,5.133333333333334
2026-02-06T21:28:16+00:00,SAT-49759,48.20765659125381,43.066178929788315,766.5588999575031,4.728438442975747,-165609.91554779324,10.5,10499834390.084452,47.655,-122.3035,60.0,5.15
2026-02-06T21:28:17+00:00,SAT-49759,48.423183980501335,42.68282258121215,771.2746621095375,4.762642216568441,-166807.87638082818,10.5,10499833192.12362,47.655,-122.3035,60.0,5.166666666666667
2026-02-06T21:28:18+00:00,SAT-49759,48.63356321676425,42.303378973695544,776.0245363395679,4.7962162340930306,-167983.78049249263,10.5,10499832016.219507,47.655,-122.3035,60.0,5.183333333333334
2026-02-06T21:28:19+00:00,SAT-49759,48.83897459637557,41.92782344613503,780.8078945798152,4.8291714171044156,-169138.0104018373,10.5,10499830861.989597,47.655,-122.3035,60.0,5.2
2026-02-06T21:28:20+00:00,SAT-49759,49.03959034312467,41.55612972480758,785.624119654776,4.8615186196220765,-170270.94626253675,10.5,10499829729.053738,47.655,-122.3035,60.0,5.216666666666667
2026-02-06T21:28:21+00:00,SAT-49759,49.23557504037641,41.18827006135539,790.4726052138685,4.893268631447861,-171382.9659790926,10.5,10499828617.034021,47.655,-122.3035,60.0,5.233333333333333
2026-02-06T21:28:22+00:00,SAT-49759,49.42708603738274,40.82421536161518,795.3527556673865,4.924432100567431,-172474.4424890036,10.5,10499827525.55751,47.655,-122.3035,60.0,5.25
2026-02-06T21:28:23+00:00,SAT-49759,49.61427382797479,40.46393531178431,800.2639860450639,4.955019633012017,-173545.74726034695,10.5,10499826454.252739,47.655,-122.3035,60.0,5.266666666666667
2026-02-06T21:28:24+00:00,SAT-49759,49.797282410934166,40.10739848914796,805.2057219542323,4.985041714420923,-174597.2475445653,10.5,10499825402.752455,47.655,-122.3035,60.0,5.283333333333333
2026-02-06T21:28:25+00:00,SAT-49759,49.97624962572313,39.754572471242795,810.1773994597528,5.0145087408538735,-175629.30745564544,10.5,10499824370.692545,47.655,-122.3035,60.0,5.3
2026-02-06T21:28:26+00:00,SAT-49759,50.151307469813446,39.40542393574162,815.1784649946746,5.043430941579346,-176642.28526583925,10.5,10499823357.714735,47.655,-122.3035,60.0,5.316666666666666
2026-02-06T21:28:27+00:00,SAT-49759,50.32258239451267,39.059918759097584,820.2083751938932,5.071818475778627,-177636.53679264867,10.5,10499822363.463207,47.655,-122.3035,60.0,5.333333333333333
2026-02-06T21:28:28+00:00,SAT-49759,50.49019558729232,38.71802210214961,825.266596824249,5.0996813915444195,-178612.41396278355,10.5,10499821387.586037,47.655,-122.3035,60.0,5.35
2026-02-06T21:28:29+00:00,SAT-49759,50.654263236116876,38.37969849288557,830.3526066737388,5.127029540458378,-179570.26182030558,10.5,10499820429.73818,47.655,-122.3035,60.0,5.366666666666666
2026-02-06T21:28:30+00:00,SAT-49759,50.81489677588601,38.04491190929775,835.465891355529,5.153872717847306,-180510.42343899363,10.5,10499819489.576561,47.655,-122.3035,60.0,5.383333333333334
2026-02-06T21:28:31+00:00,SAT-49759,50.972203125502794,37.713625847673335,840.6059472518543,5.180220549736412,-181433.23596296852,10.5,10499818566.764036,47.655,-122.3035,60.0,5.4
2026-02-06T21:28:32+00:00,SAT-49759,51.12628490773433,37.385803393553125,845.7722803451674,5.206082521768787,-182339.03161957551,10.5,10499817660.96838,47.655,-122.3035,60.0,5.416666666666667
2026-02-06T21:28:33+00:00,SAT-49759,51.27724065774891,37.06140728609071,850.9644060781346,5.231467989171595,-183228.1380684425,10.5,10499816771.86193,47.655,-122.3035,60.0,5.433333333333334
2026-02-06T21:28:34+00:00,SAT-49759,51.42516502025247,36.74039997746075,856.1818492235698,5.256386176537285,-184100.878393817,10.5,10499815899.121607,47.655,-122.3035,60.0,5.45
2026-02-06T21:28:35+00:00,SAT-49759,51.570148935708175,36.42274368826042,861.4241437541489,5.280846156055903,-184957.57034216978,10.5,10499815042.429657,47.655,-122.3035,60.0,5.466666666666667
2026-02-06T21:28:36+00:00,SAT-49759,51.71227981554329,36.10840046042763,866.6908326904173,5.304856853636981,-185798.5265366092,10.5,10499814201.473463,47.655,-122.3035,60.0,5.483333333333333
2026-02-06T21:28:37+00:00,SAT-49759,51.851641708083235,35.79733220614945,871.9814679548997,5.328427040172475,-186624.05417087238,10.5,10499813375.94583,47.655,-122.3035,60.0,5.5
2026-02-06T21:28:38+00:00,SAT-49759,51.9883154550866,35.489500753879625,877.2956102175007,5.351565379746619,-187434.45669783826,10.5,10499812565.543303,47.655,-122.3035,60.0,5.516666666666667
2026-02-06T21:28:39+00:00,SAT-49759,52.122378841229,35.18486788840025,882.6328287889802,5.374280362382701,-188230.03147403515,10.5,10499811769.968527,47.655,-122.3035,60.0,5.533333333333333
2026-02-06T21:28:40+00:00,SAT-49759,52.25390673361633,34.883395391842775,887.9927014473619,5.396580329658094,-189011.07065678746,10.5,10499810988.929342,47.655,-122.3035,60.0,5.55
2026-02-06T21:28:41+00:00,SAT-49759,52.38297121468581,34.58504508035154,893.3748142898842,5.418473485383604,-189777.86157825173,10.5,10499810222.138422,47.655,-122.3035,60.0,5.566666666666666
2026-02-06T21:28:42+00:00,SAT-49759,52.509641708196185,34.28977883753248,898.7787615956026,5.439967898881246,-190530.68686021806,10.5,10499809469.313139,47.655,-122.3035,60.0,5.583333333333333
2026-02-06T21:28:43+00:00,SAT-49759,52.63398509874332,33.997558645295356,904.2041456912629,5.461071480463512,-191269.8235552906,10.5,10499808730.176445,47.655,-122.3035,60.0,5.6
2026-02-06T21:28:44+00:00,SAT-49759,52.75606584436103,33.70834661371762,909.6505767927149,5.481792010646239,-191995.5441700455,10.5,10499808004.45583,47.655,-122.3035,60.0,5.616666666666666
2026-02-06T21:28:45+00:00,SAT-49759,52.87594608398256,33.42210500715899,915.1176728754682,5.502137089409083,-192708.11488791814,10.5,10499807291.885113,47.655,-122.3035,60.0,5.633333333333334
2026-02-06T21:28:46+00:00,SAT-49759,52.99368573819216,33.1387962709968,920.6050594946352,5.522114235557188,-193407.7990492692,10.5,10499806592.20095,47.655,-122.3035,60.0,5.65
2026-02-06T21:28:47+00:00,SAT-49759,53.10934260702831,32.85838305128639,926.1123697039786,5.541730766261156,-194094.85293236477,10.5,10499805905.147068,47.655,-122.3035,60.0,5.666666666666667
2026-02-06T21:28:48+00:00,SAT-49759,53.22297246014292,32.58082821888527,931.6392438548143,5.560993923886466,-194769.5301954791,10.5,10499805230.469805,47.655,-122.3035,60.0,5.683333333333334
2026-02-06T21:28:49+00:00,SAT-49759,53.33462912508494,32.3060948854308,937.1853295214081,5.579910723390328,-195432.07653208688,10.5,10499804567.923468,47.655,-122.3035,60.0,5.7
2026-02-06T21:28:50+00:00,SAT-49759,53.444364567986305,32.03414642540731,942.7502812741766,5.598488155872333,-196082.7368000682,10.5,10499803917.2632,47.655,-122.3035,60.0,5.716666666666667
2026-02-06T21:28:51+00:00,SAT-49759,53.552228974364205,31.7649464866727,948.3337606558943,5.6167329584501395,-196721.74696178135,10.5,10499803278.253038,47.655,-122.3035,60.0,5.733333333333333
2026-02-06T21:28:52+00:00,SAT-49759,53.65827082126313,31.498459010911116,953.935435928392,5.6346517996540895,-197349.34057736685,10.5,10499802650.659422,47.655,-122.3035,60.0,5.75
2026-02-06T21:28:53+00:00,SAT-49759,53.762536949516374,31.234648243728635,959.5549820041531,5.652251251707903,-197965.74783389975,10.5,10499802034.252167,47.655,-122.3035,60.0,5.766666666666667
2026-02-06T21:28:54+00:00,SAT-49759,53.86507263194136,30.973478745081533,965.1920803502659,5.669537677201885,-198571.19157620633,10.5,10499801428.808424,47.655,-122.3035,60.0,5.783333333333333
2026-02-06T21:28:55+00:00,SAT-49759,53.96592163593947,30.714915403855837,970.8464187793513,5.6865173491007655,-199165.89151004606,10.5,10499800834.10849,47.655,-122.3035,60.0,5.8
2026-02-06T21:28:56+00:00,SAT-49759,54.06512628543042,30.458923445756053,976.5176913601786,5.703196389002247,-199750.06203966474,10.5,10499800249.93796,47.655,-122.3035,60.0,5.816666666666666
2026-02-06T21:28:57+00:00,SAT-49759,54.16272751862804,30.205468443097928,982.2055982667029,5.719580862048307,-200323.91559199005,10.5,10499799676.084408,47.655,-122.3035,60.0,5.833333333333333
