DopplerPredictor/satellites_20260211_205513/SAT-49763.csv

timestamp,satellite,azimuth_deg,elevation_deg,distance_km,relative_velocity_kms,doppler_shift_hz,tx_freq_ghz,rx_freq_hz,ue_lat,ue_lon,ue_alt_m,time_minutes
2026-02-06T21:28:21+00:00,SAT-49763,48.1271373366687,42.294633716006544,773.7592080690868,4.7825795930049235,-167506.16763865252,10.5,10499832493.832361,47.655,-122.3035,60.0,0.0
2026-02-06T21:28:22+00:00,SAT-49763,48.3409267553977,41.91933316294509,778.5289662261988,4.815825142321756,-168670.56740426217,10.5,10499831329.432596,47.655,-122.3035,60.0,0.016666666666666666
2026-02-06T21:28:23+00:00,SAT-49763,48.549723775529245,41.547861292946564,783.3318808058979,4.848457326017452,-169813.48451128564,10.5,10499830186.51549,47.655,-122.3035,60.0,0.03333333333333333
2026-02-06T21:28:24+00:00,SAT-49763,48.753699264364435,41.18019250148096,788.1673400869114,4.880486950294618,-170935.29743864835,10.5,10499829064.70256,47.655,-122.3035,60.0,0.05
2026-02-06T21:28:25+00:00,SAT-49763,48.95301661779997,40.8162997205051,793.0347431251994,4.911924775763722,-172036.38306844624,10.5,10499827963.616932,47.655,-122.3035,60.0,0.06666666666666667
2026-02-06T21:28:26+00:00,SAT-49763,49.14783215212409,40.4561545441365,797.9334997084849,4.942781414794256,-173117.11309074922,10.5,10499826882.88691,47.655,-122.3035,60.0,0.08333333333333333
2026-02-06T21:28:27+00:00,SAT-49763,49.3382954683611,40.09972735367311,802.86303020841,4.973067458065783,-174177.85843595414,10.5,10499825822.141563,47.655,-122.3035,60.0,0.1
