DopplerPredictor/satellites_20260211_205513/SAT-48646.csv

timestamp,satellite,azimuth_deg,elevation_deg,distance_km,relative_velocity_kms,doppler_shift_hz,tx_freq_ghz,rx_freq_hz,ue_lat,ue_lon,ue_alt_m,time_minutes
2026-02-06T21:28:45+00:00,SAT-48646,329.6238377263069,40.07365805015288,810.2302109196285,-1.7105038478632564,59909.08017627378,10.5,10500059909.080175,47.655,-122.3035,60.0,0.4
2026-02-06T21:28:46+00:00,SAT-48646,330.2603546299175,40.19591115759002,808.5242926965319,-1.6541174097910905,57934.18860058998,10.5,10500057934.1886,47.655,-122.3035,60.0,0.4166666666666667
2026-02-06T21:28:47+00:00,SAT-48646,330.90176991533485,40.314809160341724,806.8746097472484,-1.5973828467762792,55947.104216847685,10.5,10500055947.104218,47.655,-122.3035,60.0,0.43333333333333335
2026-02-06T21:28:48+00:00,SAT-48646,331.5479819674577,40.430266788307115,805.2815092634454,-1.5403093918608066,53948.15040523291,10.5,10500053948.150406,47.655,-122.3035,60.0,0.45
2026-02-06T21:28:49+00:00,SAT-48646,332.1988828276821,40.54219997114048,803.7453292285014,-1.4829066257352783,51937.66272205694,10.5,10500051937.662722,47.655,-122.3035,60.0,0.4666666666666667
2026-02-06T21:28:50+00:00,SAT-48646,332.8543581924728,40.6505259998967,802.2663980707887,-1.4251844368017423,49915.987500987416,10.5,10500049915.987501,47.655,-122.3035,60.0,0.48333333333333334
2026-02-06T21:28:51+00:00,SAT-48646,333.5142874158352,40.75516368771689,800.8450343567862,-1.3671530498022164,47883.48285574039,10.5,10500047883.482855,47.655,-122.3035,60.0,0.5
2026-02-06T21:28:52+00:00,SAT-48646,334.1785435441021,40.8560335340596,799.4815464556438,-1.3088229847899782,45840.51724308144,10.5,10500045840.517242,47.655,-122.3035,60.0,0.5166666666666667
2026-02-06T21:28:53+00:00,SAT-48646,334.8469933546926,40.953057886861004,798.1762322446581,-1.2502050979309751,43787.470891863595,10.5,10500043787.470892,47.655,-122.3035,60.0,0.5333333333333333
2026-02-06T21:28:54+00:00,SAT-48646,335.5194974367403,41.046161108105245,796.9293787740664,-1.1913105171983946,41724.73355077913,10.5,10500041724.733551,47.655,-122.3035,60.0,0.55
2026-02-06T21:28:55+00:00,SAT-48646,336.1959102651155,41.13526973447284,795.7412619959638,-1.13215068366806,39652.70593469909,10.5,10500039652.705935,47.655,-122.3035,60.0,0.5666666666666667
2026-02-06T21:28:56+00:00,SAT-48646,336.87608031947565,41.22031264029477,794.612146452042,-1.0727373025293507,37571.79800886846,10.5,10500037571.798008,47.655,-122.3035,60.0,0.5833333333333334
2026-02-06T21:28:57+00:00,SAT-48646,337.5598502032091,41.301221195496204,793.5422850101827,-1.013082362489794,35482.42966853702,10.5,10500035482.429668,47.655,-122.3035,60.0,0.6
2026-02-06T21:28:58+00:00,SAT-48646,338.24705679907424,41.377929423010585,792.5319185817012,-0.9531981145255077,33385.02999470998,10.5,10500033385.029995,47.655,-122.3035,60.0,0.6166666666666667
2026-02-06T21:28:59+00:00,SAT-48646,338.937531440612,41.450374152007605,791.5812758597796,-0.8930970556603494,31280.036686025196,10.5,10500031280.036686,47.655,-122.3035,60.0,0.6333333333333333
2026-02-06T21:29:00+00:00,SAT-48646,339.63110010049184,41.51849516665654,790.6905730740779,-0.8327919248771609,29167.895915547648,10.5,10500029167.895916,47.655,-122.3035,60.0,0.65
2026-02-06T21:29:01+00:00,SAT-48646,340.32758360459604,41.58223535071407,789.8600137494259,-0.7722956905051522,27049.061889022232,10.5,10500027049.06189,47.655,-122.3035,60.0,0.6666666666666666
2026-02-06T21:29:02+00:00,SAT-48646,341.0267978666479,41.641540826667075,789.0897884770902,-0.7116215321775914,24923.996212955793,10.5,10500024923.996212,47.655,-122.3035,60.0,0.6833333333333333
2026-02-06T21:29:03+00:00,SAT-48646,341.7285541385048,41.696361088389075,788.3800747040366,-0.6507828278598751,22793.167440285266,10.5,10500022793.16744,47.655,-122.3035,60.0,0.7
2026-02-06T21:29:04+00:00,SAT-48646,342.43265927922283,41.746649127087025,787.7310365351302,-0.5897931506303388,20657.05095762802,10.5,10500020657.050957,47.655,-122.3035,60.0,0.7166666666666667
2026-02-06T21:29:05+00:00,SAT-48646,343.1389160525988,41.79236155070556,787.1428245385454,-0.5286662381375186,18516.127915545978,10.5,10500018516.127916,47.655,-122.3035,60.0,0.7333333333333333
2026-02-06T21:29:06+00:00,SAT-48646,343.84712342715187,41.83345869412649,786.6155755816362,-0.4674159920384413,16370.885208872178,10.5,10500016370.885208,47.655,-122.3035,60.0,0.75
2026-02-06T21:29:07+00:00,SAT-48646,344.55707690678264,41.86990472192757,786.1494126673691,-0.40605644872605523,14221.81445146155,10.5,10500014221.814451,47.655,-122.3035,60.0,0.7666666666666667
2026-02-06T21:29:08+00:00,SAT-48646,345.2685688598115,41.90166772099422,785.744444799946,-0.34460178035812145,12069.412012227056,10.5,10500012069.412012,47.655,-122.3035,60.0,0.7833333333333333
2026-02-06T21:29:09+00:00,SAT-48646,345.98138888406214,41.928719784857634,785.400766849406,-0.2830662629238594,9914.177896698533,10.5,10500009914.177896,47.655,-122.3035,60.0,0.8
2026-02-06T21:29:10+00:00,SAT-48646,346.69532416212314,41.95103708678955,785.11845944807,-0.22146427139464114,7756.615577179503,10.5,10500007756.615578,47.655,-122.3035,60.0,0.8166666666666667
2026-02-06T21:29:11+00:00,SAT-48646,347.4101598460396,41.96859994338192,784.8975888918247,-0.15981025291819395,5597.231053894747,10.5,10500005597.231054,47.655,-122.3035,60.0,0.8333333333333334
2026-02-06T21:29:12+00:00,SAT-48646,348.12567942826854,41.98139286657114,784.7382070681409,-0.09811872269388844,3436.532710525455,10.5,10500003436.532711,47.655,-122.3035,60.0,0.85
2026-02-06T21:29:13+00:00,SAT-48646,348.8416651524821,41.98940460562199,784.6403513882019,-0.036404235351707136,1275.030311779641,10.5,10500001275.030312,47.655,-122.3035,60.0,0.8666666666666667
2026-02-06T21:29:14+00:00,SAT-48646,349.55789840144223,41.99262817692345,784.6040447475813,0.025318626278396022,-886.7653899523991,10.5,10499999113.23461,47.655,-122.3035,60.0,0.8833333333333333
2026-02-06T21:29:15+00:00,SAT-48646,350.2741600952861,41.991060882809016,784.6292954981167,0.08703526868749917,-3048.3432682577404,10.5,10499996951.656733,47.655,-122.3035,60.0,0.9
2026-02-06T21:29:16+00:00,SAT-48646,350.9902311127598,41.98470431882171,784.7160974372597,0.14873110626034988,-5209.192473193151,10.5,10499994790.807528,47.655,-122.3035,60.0,0.9166666666666666
2026-02-06T21:29:17+00:00,SAT-48646,351.7058926762381,41.97356436927114,784.8644298159492,0.21039157802222308,-7368.803017830896,10.5,10499992631.196981,47.655,-122.3035,60.0,0.9333333333333333
2026-02-06T21:29:18+00:00,SAT-48646,352.4209267704682,41.957651191288704,785.0742573631846,0.2720021630823219,-9526.666319151964,10.5,10499990473.333681,47.655,-122.3035,60.0,0.95
2026-02-06T21:29:19+00:00,SAT-48646,353.13511653112494,41.936979187536025,785.3455303260039,0.3335484013245483,-11682.275922724371,10.5,10499988317.724077,47.655,-122.3035,60.0,0.9666666666666667
2026-02-06T21:29:20+00:00,SAT-48646,353.84824664909104,41.91156696731431,785.6781845300943,0.3950159053314821,-13835.127920331346,10.5,10499986164.87208,47.655,-122.3035,60.0,0.9833333333333333
2026-02-06T21:29:21+00:00,SAT-48646,354.5601037491397,41.88143729695386,786.0721414522955,0.4563903813267202,-15984.721683460637,10.5,10499984015.278316,47.655,-122.3035,60.0,1.0
2026-02-06T21:29:22+00:00,SAT-48646,355.27047677407006,41.846617039041504,786.5273083139919,0.5176576423789342,-18130.560325766462,10.5,10499981869.439674,47.655,-122.3035,60.0,1.0166666666666666
2026-02-06T21:29:23+00:00,SAT-48646,355.97915734962777,41.807137081397116,787.0435781876682,0.5788036251961197,-20272.151291275168,10.5,10499979727.84871,47.655,-122.3035,60.0,1.0333333333333334
2026-02-06T21:29:24+00:00,SAT-48646,356.68594014066,41.763032255880105,787.6208301202199,0.6398144130571077,-22409.00715754374,10.5,10499977590.992842,47.655,-122.3035,60.0,1.05
2026-02-06T21:29:25+00:00,SAT-48646,357.3906232016127,41.71434124697456,788.25892927913,0.7006762306577078,-24540.645455149952,10.5,10499975459.354546,47.655,-122.3035,60.0,1.0666666666666667
2026-02-06T21:29:26+00:00,SAT-48646,358.0930082872607,41.66110649274049,788.9577270935066,0.7613754893360422,-26666.59025167485,10.5,10499973333.409748,47.655,-122.3035,60.0,1.0833333333333333
2026-02-06T21:29:27+00:00,SAT-48646,358.79290118392345,41.603374074792406,789.7170614402258,0.8218987728749172,-28786.37165444179,10.5,10499971213.628345,47.655,-122.3035,60.0,1.1
2026-02-06T21:29:28+00:00,SAT-48646,359.4901119901425,41.541193602346574,790.5367568159126,0.8822328700571127,-30899.526950740314,10.5,10499969100.47305,47.655,-122.3035,60.0,1.1166666666666667
2026-02-06T21:29:29+00:00,SAT-48646,0.18445539978638534,41.47461808735326,791.4166245413932,0.9423647777974122,-33005.60071752315,10.5,10499966994.399282,47.655,-122.3035,60.0,1.1333333333333333
2026-02-06T21:29:30+00:00,SAT-48646,0.8757509560243323,41.40370381351288,792.3564629692676,1.0022817234267694,-35104.145601891956,10.5,10499964895.854399,47.655,-122.3035,60.0,1.15
2026-02-06T21:29:31+00:00,SAT-48646,1.5638232933642682,41.32851019834458,793.3560577137087,1.0619711655731807,-37194.722351949225,10.5,10499962805.277649,47.655,-122.3035,60.0,1.1666666666666667
2026-02-06T21:29:32+00:00,SAT-48646,2.2485023506921453,41.249099650533076,794.4151818811389,1.1214208198307216,-39276.900715836484,10.5,10499960723.099283,47.655,-122.3035,60.0,1.1833333333333333
2026-02-06T21:29:33+00:00,SAT-48646,2.9296235736169782,41.165537421322206,795.5335963265074,1.180618652344416,-41350.25921704931,10.5,10499958649.740784,47.655,-122.3035,60.0,1.2
2026-02-06T21:29:34+00:00,SAT-48646,3.6070280842047273,41.07789145298571,796.7110499031706,1.2395529094383042,-43414.38619213761,10.5,10499956585.613808,47.655,-122.3035,60.0,1.2166666666666666
2026-02-06T21:29:35+00:00,SAT-48646,4.280562842153877,40.98623222232961,797.9472797423168,1.2982121147875825,-45468.87969166195,10.5,10499954531.120308,47.655,-122.3035,60.0,1.2333333333333334
2026-02-06T21:29:36+00:00,SAT-48646,4.950080776548893,40.89063258226693,799.242011529578,1.3565850798367267,-47513.347845080316,10.5,10499952486.652155,47.655,-122.3035,60.0,1.25
2026-02-06T21:29:37+00:00,SAT-48646,5.615440898070983,40.791167601107276,800.5949597920243,1.4146609176810065,-49547.4093469375,10.5,10499950452.590652,47.655,-122.3035,60.0,1.2666666666666666
2026-02-06T21:29:38+00:00,SAT-48646,6.276508393371215,40.687914399903924,802.0058281990082,1.472429046874704,-51570.693590245,10.5,10499948429.30641,47.655,-122.3035,60.0,1.2833333333333334
2026-02-06T21:29:39+00:00,SAT-48646,6.933154696860535,40.58095198922367,803.4743098668034,1.5298791993894532,-53582.8409452157,10.5,10499946417.159056,47.655,-122.3035,60.0,1.3
2026-02-06T21:29:40+00:00,SAT-48646,7.585257543204287,40.47036110556812,805.0000876711828,1.587001428608283,-55583.503039249146,10.5,10499944416.496962,47.655,-122.3035,60.0,1.3166666666666667
2026-02-06T21:29:41+00:00,SAT-48646,8.232701001162724,40.35622404803669,806.5828345679669,1.6437861109252403,-57572.34281295703,10.5,10499942427.657187,47.655,-122.3035,60.0,1.3333333333333333
2026-02-06T21:29:42+00:00,SAT-48646,8.875375487005767,40.238624516189915,808.2222139151712,1.700223948979826,-59549.03463344689,10.5,10499940450.965366,47.655,-122.3035,60.0,1.35
2026-02-06T21:29:43+00:00,SAT-48646,9.513177759687885,40.1176474495009,809.9178797983749,1.7563060019858994,-61513.2653565686,10.5,10499938486.734644,47.655,-122.3035,60.0,1.3666666666666667
