DopplerPredictor/satellites_20260211_205513/SAT-49759.csv

timestamp,satellite,azimuth_deg,elevation_deg,distance_km,relative_velocity_kms,doppler_shift_hz,tx_freq_ghz,rx_freq_hz,ue_lat,ue_lon,ue_alt_m,time_minutes
2026-02-06T21:28:21+00:00,SAT-49759,49.23557504037641,41.18827006135539,790.4726052138685,4.893268631447861,-171382.9659790926,10.5,10499828617.034021,47.655,-122.3035,60.0,0.0
2026-02-06T21:28:22+00:00,SAT-49759,49.42708603738274,40.82421536161518,795.3527556673865,4.924432100567431,-172474.4424890036,10.5,10499827525.55751,47.655,-122.3035,60.0,0.016666666666666666
2026-02-06T21:28:23+00:00,SAT-49759,49.61427382797479,40.46393531178431,800.2639860450639,4.955019633012017,-173545.74726034695,10.5,10499826454.252739,47.655,-122.3035,60.0,0.03333333333333333
2026-02-06T21:28:24+00:00,SAT-49759,49.797282410934166,40.10739848914796,805.2057219542323,4.985041714420923,-174597.2475445653,10.5,10499825402.752455,47.655,-122.3035,60.0,0.05
