DopplerPredictor/satellites_20260211_205513/SAT-59722.csv

timestamp,satellite,azimuth_deg,elevation_deg,distance_km,relative_velocity_kms,doppler_shift_hz,tx_freq_ghz,rx_freq_hz,ue_lat,ue_lon,ue_alt_m,time_minutes
2026-02-06T21:37:23+00:00,SAT-59722,248.12363651968852,40.34240874691094,707.3294444069664,-5.162076238932831,180797.7454482685,10.5,10500180797.74545,47.655,-122.3035,60.0,9.033333333333333
2026-02-06T21:37:24+00:00,SAT-59722,248.20755033240115,40.76229878075034,702.1812069820634,-5.128504969541841,179621.9375878673,10.5,10500179621.937588,47.655,-122.3035,60.0,9.05
2026-02-06T21:37:25+00:00,SAT-59722,248.29370619898677,41.18785821418971,697.0664508266113,-5.0941836828266025,178419.8609482008,10.5,10500178419.860949,47.655,-122.3035,60.0,9.066666666666666
2026-02-06T21:37:26+00:00,SAT-59722,248.38219842633907,41.61917105438791,691.9859239472413,-5.059095308076554,177190.91764077605,10.5,10500177190.91764,47.655,-122.3035,60.0,9.083333333333334
2026-02-06T21:37:27+00:00,SAT-59722,248.47312666636287,42.05632129716117,686.9403913755306,-5.023222552171837,175934.50198738583,10.5,10500175934.501987,47.655,-122.3035,60.0,9.1
2026-02-06T21:37:28+00:00,SAT-59722,248.56659629870765,42.49939280971233,681.9306353898164,-4.986547902878342,174650.00063551497,10.5,10500174650.000635,47.655,-122.3035,60.0,9.116666666666667
2026-02-06T21:37:29+00:00,SAT-59722,248.66271884689377,42.948469203137435,676.957455733722,-4.949053614977246,173336.79207253802,10.5,10500173336.792072,47.655,-122.3035,60.0,9.133333333333333
2026-02-06T21:37:30+00:00,SAT-59722,248.76161243032422,43.40363369230765,672.021669848517,-4.910721692758622,171994.24601257156,10.5,10500171994.246012,47.655,-122.3035,60.0,9.15
2026-02-06T21:37:31+00:00,SAT-59722,248.86340225640245,43.86496894166944,667.1241131229372,-4.871534034911206,170621.7284711267,10.5,10500170621.728472,47.655,-122.3035,60.0,9.166666666666666
2026-02-06T21:37:32+00:00,SAT-59722,248.9682211590951,44.332556911445174,662.2656389985018,-4.8314722870588795,169218.59660031286,10.5,10500169218.5966,47.655,-122.3035,60.0,9.183333333333334
2026-02-06T21:37:33+00:00,SAT-59722,249.0762101843644,44.80647867627018,657.4471192219015,-4.790518001533527,167784.20428475898,10.5,10500167784.204285,47.655,-122.3035,60.0,9.2
2026-02-06T21:37:34+00:00,SAT-59722,249.18751923247555,45.286814244077966,652.6694439380386,-4.748652549521369,166317.8990646068,10.5,10500166317.899065,47.655,-122.3035,60.0,9.216666666666667
2026-02-06T21:37:35+00:00,SAT-59722,249.3023077593792,45.773642350753065,647.9335218706885,-4.705857234832537,164819.02612020227,10.5,10500164819.026121,47.655,-122.3035,60.0,9.233333333333333
2026-02-06T21:37:36+00:00,SAT-59722,249.42074554691732,46.2670402492008,643.2402803896944,-4.662113273114371,163286.92754405746,10.5,10500163286.927544,47.655,-122.3035,60.0,9.25
2026-02-06T21:37:37+00:00,SAT-59722,249.5430135476018,46.76708347865225,638.5906655988936,-4.617401830804308,161720.94370514562,10.5,10500161720.943705,47.655,-122.3035,60.0,9.266666666666667
2026-02-06T21:37:38+00:00,SAT-59722,249.66930481324096,47.27384561894459,633.9856423851965,-4.571704028870125,160120.41337990004,10.5,10500160120.41338,47.655,-122.3035,60.0,9.283333333333333
2026-02-06T21:37:39+00:00,SAT-59722,249.7998255166474,47.78739802477452,629.4261944639325,-4.525001056732736,158484.6777422724,10.5,10500158484.677742,47.655,-122.3035,60.0,9.3
2026-02-06T21:37:40+00:00,SAT-59722,249.93479607980925,48.30780955096806,624.9133243105827,-4.477274119047578,156813.0784997919,10.5,10500156813.078499,47.655,-122.3035,60.0,9.316666666666666
2026-02-06T21:37:41+00:00,SAT-59722,250.0744524174646,48.835146249044335,620.4480531455844,-4.4285045112084065,155104.9605380275,10.5,10500155104.960539,47.655,-122.3035,60.0,9.333333333333334
2026-02-06T21:37:42+00:00,SAT-59722,250.2190473133383,49.36947104762182,616.0314208438368,-4.378673717646658,153359.67536344728,10.5,10500153359.675364,47.655,-122.3035,60.0,9.35
2026-02-06T21:37:43+00:00,SAT-59722,250.36885194590704,49.910843418693275,611.6644857461702,-4.327763344850494,151576.57875746224,10.5,10500151576.578758,47.655,-122.3035,60.0,9.366666666666667
2026-02-06T21:37:44+00:00,SAT-59722,250.52415757871654,50.45931900813319,607.3483245376159,-4.275755269854808,149755.0359771742,10.5,10500149755.035976,47.655,-122.3035,60.0,9.383333333333333
2026-02-06T21:37:45+00:00,SAT-59722,250.6852774415632,51.014949254565785,603.0840319775851,-4.222631651984779,147894.422166685,10.5,10500147894.422167,47.655,-122.3035,60.0,9.4
2026-02-06T21:37:46+00:00,SAT-59722,250.85254882454035,51.577780978430056,598.8727206183362,-4.168374976892993,145994.12389946255,10.5,10500145994.1239,47.655,-122.3035,60.0,9.416666666666666
2026-02-06T21:37:47+00:00,SAT-59722,251.0263354135183,52.14785594271531,594.7155204795208,-4.112968165841681,144053.54300586728,10.5,10500144053.543005,47.655,-122.3035,60.0,9.433333333333334
2026-02-06T21:37:48+00:00,SAT-59722,251.20702990253028,52.72521039201995,590.6135786137421,-4.056394592070327,142072.09714641466,10.5,10500142072.097147,47.655,-122.3035,60.0,9.45
2026-02-06T21:37:49+00:00,SAT-59722,251.3950569178794,53.30987455511968,586.5680586557907,-3.9986381306954657,140049.22155947762,10.5,10500140049.22156,47.655,-122.3035,60.0,9.466666666666667
2026-02-06T21:37:50+00:00,SAT-59722,251.59087629909433,53.90187211204439,582.5801403221116,-3.939683315561292,137984.37455485808,10.5,10500137984.374556,47.655,-122.3035,60.0,9.483333333333333
2026-02-06T21:37:51+00:00,SAT-59722,251.79498679235414,54.50121963843643,578.651018753843,-3.879515311357319,135877.03653722955,10.5,10500135877.036537,47.655,-122.3035,60.0,9.5
2026-02-06T21:37:52+00:00,SAT-59722,252.00793020922092,55.107925996820676,574.7819038876621,-3.818120063021019,133726.71523884934,10.5,10500133726.715239,47.655,-122.3035,60.0,9.516666666666667
2026-02-06T21:37:53+00:00,SAT-59722,252.2302961276391,55.7219916965764,570.9740196776298,-3.7554843333665393,131532.9470374757,10.5,10500131532.947037,47.655,-122.3035,60.0,9.533333333333333
2026-02-06T21:37:54+00:00,SAT-59722,252.46272721310862,56.34340820130991,567.2286032795041,-3.691595803014557,129295.30045633386,10.5,10500129295.300457,47.655,-122.3035,60.0,9.55
2026-02-06T21:37:55+00:00,SAT-59722,252.70592525913878,56.97215718752061,563.5469041353971,-3.6264431594271764,127013.37928249466,10.5,10500127013.379282,47.655,-122.3035,60.0,9.566666666666666
2026-02-06T21:37:56+00:00,SAT-59722,252.96065806060167,57.60820974666927,559.9301829696311,-3.5600161547931397,124686.8245942597,10.5,10500124686.824594,47.655,-122.3035,60.0,9.583333333333334
2026-02-06T21:37:57+00:00,SAT-59722,253.2277672534905,58.25152551743071,556.379710726867,-3.4923057420737544,122315.319526065,10.5,10500122315.319527,47.655,-122.3035,60.0,9.6
2026-02-06T21:37:58+00:00,SAT-59722,253.50817728507477,58.90205175259407,552.8967673745494,-3.423304151993098,119898.59196500377,10.5,10500119898.591965,47.655,-122.3035,60.0,9.616666666666667
2026-02-06T21:37:59+00:00,SAT-59722,253.80290570252473,59.559722299960264,549.482640628572,-3.3530049489461407,117436.41650896527,10.5,10500117436.41651,47.655,-122.3035,60.0,9.633333333333333
2026-02-06T21:38:00+00:00,SAT-59722,254.11307498518107,60.22445647926475,546.1386246231791,-3.281403165692032,114928.61918416352,10.5,10500114928.619184,47.655,-122.3035,60.0,9.65
2026-02-06T21:38:01+00:00,SAT-59722,254.43992619869374,60.896157853863755,542.8660184465408,-3.208495414542172,112375.08133941382,10.5,10500112375.081339,47.655,-122.3035,60.0,9.666666666666666
2026-02-06T21:38:02+00:00,SAT-59722,254.78483479820778,61.574712874397264,539.6661245654325,-3.134279913071492,109775.74054665068,10.5,10500109775.740547,47.655,-122.3035,60.0,9.683333333333334
2026-02-06T21:38:03+00:00,SAT-59722,255.14932896813423,62.25998935245598,536.5402472242773,-3.058756679339392,107130.59743839059,10.5,10500107130.597439,47.655,-122.3035,60.0,9.7
2026-02-06T21:38:04+00:00,SAT-59722,255.53511099271304,62.951834770340426,533.4896906494869,-2.981927512635895,104439.71503338117,10.5,10500104439.715033,47.655,-122.3035,60.0,9.716666666666667
2026-02-06T21:38:05+00:00,SAT-59722,255.94408221806918,63.65007434486616,530.5157572730064,-2.903796197994366,101703.22589950159,10.5,10500101703.225899,47.655,-122.3035,60.0,9.733333333333333
2026-02-06T21:38:06+00:00,SAT-59722,256.3783723377176,64.35450884902654,527.619745751895,-2.824368505660104,98921.33213515028,10.5,10500098921.332134,47.655,-122.3035,60.0,9.75
2026-02-06T21:38:07+00:00,SAT-59722,256.8403738455378,65.06491208936733,524.8029489884357,-2.743652333322951,96094.31035083273,10.5,10500096094.31035,47.655,-122.3035,60.0,9.766666666666667
2026-02-06T21:38:08+00:00,SAT-59722,257.33278273610705,65.78102800089746,522.0666520083944,-2.6616577822627154,93222.51433609618,10.5,10500093222.514336,47.655,-122.3035,60.0,9.783333333333333
2026-02-06T21:38:09+00:00,SAT-59722,257.85864675484623,66.5025672560879,519.4121297633371,-2.578397217933923,90306.37718146396,10.5,10500090306.377182,47.655,-122.3035,60.0,9.8
2026-02-06T21:38:10+00:00,SAT-59722,258.421422810451,67.22920327085079,516.8406448725258,-2.4938853424533316,87346.41381725481,10.5,10500087346.413816,47.655,-122.3035,60.0,9.816666666666666
2026-02-06T21:38:11+00:00,SAT-59722,259.0250455513863,67.96056746710289,514.3534452925193,-2.4081392942198327,84343.22450269327,10.5,10500084343.224503,47.655,-122.3035,60.0,9.833333333333334
2026-02-06T21:38:12+00:00,SAT-59722,259.6740095949068,68.69624361813068,511.951761887424,-2.321178665883136,81297.49545524901,10.5,10500081297.495455,47.655,-122.3035,60.0,9.85
2026-02-06T21:38:13+00:00,SAT-59722,260.37346847471673,69.43576101974584,509.6368059812214,-2.2330255898020033,78210.00184374563,10.5,10500078210.001844,47.655,-122.3035,60.0,9.866666666666667
2026-02-06T21:38:14+00:00,SAT-59722,261.1293541529033,70.17858620579968,507.4097668248682,-2.1437047594814644,75081.60853918271,10.5,10500075081.60854,47.655,-122.3035,60.0,9.883333333333333
2026-02-06T21:38:15+00:00,SAT-59722,261.9485218374442,70.9241127998274,505.2718090420157,-2.0532434662507852,71913.27139935337,10.5,10500071913.271399,47.655,-122.3035,60.0,9.9
2026-02-06T21:38:16+00:00,SAT-59722,262.8389259934069,71.6716490014298,503.22407003815033,-1.9616716166441401,68706.03787758888,10.5,10500068706.037878,47.655,-122.3035,60.0,9.916666666666666
2026-02-06T21:38:17+00:00,SAT-59722,263.8098347773141,72.42040204202458,501.26765739239966,-1.8690217791934203,65461.04866164083,10.5,10500065461.048662,47.655,-122.3035,60.0,9.933333333333334
2026-02-06T21:38:18+00:00,SAT-59722,264.8720917088914,73.16945876096533,499.40364620267127,-1.775329107783866,62179.534989271124,10.5,10500062179.534988,47.655,-122.3035,60.0,9.95
2026-02-06T21:38:19+00:00,SAT-59722,266.03843501684787,73.91776112725583,497.6330765072299,-1.680631401174541,58862.82073291077,10.5,10500058862.820732,47.655,-122.3035,60.0,9.966666666666667
2026-02-06T21:38:20+00:00,SAT-59722,267.3238868319739,74.66407528259117,495.9569506469148,-1.5849690386906823,55512.32014733394,10.5,10500055512.320147,47.655,-122.3035,60.0,9.983333333333333
