DopplerPredictor/satellites_20260211_205513/SAT-49756.csv

timestamp,satellite,azimuth_deg,elevation_deg,distance_km,relative_velocity_kms,doppler_shift_hz,tx_freq_ghz,rx_freq_hz,ue_lat,ue_lon,ue_alt_m,time_minutes
2026-02-06T21:31:41+00:00,SAT-49756,265.71186938284075,40.29991234371571,801.4072303633512,-4.795219365094473,167948.86592341145,10.5,10500167948.865923,47.655,-122.3035,60.0,3.3333333333333335
2026-02-06T21:31:42+00:00,SAT-49756,265.953042342895,40.6497402013864,796.6248663196342,-4.7625363032601,166804.16684875725,10.5,10500166804.16685,47.655,-122.3035,60.0,3.35
2026-02-06T21:31:43+00:00,SAT-49756,266.19963321535727,41.002888119831034,791.8750977189729,-4.729256591332046,165638.57056399493,10.5,10500165638.570564,47.655,-122.3035,60.0,3.3666666666666667
2026-02-06T21:31:44+00:00,SAT-49756,266.4518204848253,41.359367551436314,787.1585196119252,-4.695370114727088,164451.72281363537,10.5,10500164451.722815,47.655,-122.3035,60.0,3.3833333333333333
2026-02-06T21:31:45+00:00,SAT-49756,266.7097901145276,41.71918794392127,782.4757371365145,-4.6608666831405605,163243.2666901043,10.5,10500163243.26669,47.655,-122.3035,60.0,3.4
2026-02-06T21:31:46+00:00,SAT-49756,266.9737359119007,42.08235658448521,777.827365593752,-4.625736079394536,162012.844344612,10.5,10500162012.844345,47.655,-122.3035,60.0,3.4166666666666665
2026-02-06T21:31:47+00:00,SAT-49756,267.2438599154637,42.448878437953695,773.2140304744344,-4.589968088311185,160760.09799842077,10.5,10500160760.097998,47.655,-122.3035,60.0,3.433333333333333
2026-02-06T21:31:48+00:00,SAT-49756,267.5203728034483,42.81875597714089,768.6363674571528,-4.553552428586042,159484.66755675833,10.5,10500159484.667557,47.655,-122.3035,60.0,3.45
2026-02-06T21:31:49+00:00,SAT-49756,267.80349431955347,43.19198899703144,764.0950224742373,-4.516478861207043,158186.19440611126,10.5,10500158186.194407,47.655,-122.3035,60.0,3.466666666666667
2026-02-06T21:31:50+00:00,SAT-49756,268.09345372663824,43.5685744262788,759.5906516695832,-4.478737137784193,156864.31960451129,10.5,10500156864.319605,47.655,-122.3035,60.0,3.4833333333333334
2026-02-06T21:31:51+00:00,SAT-49756,268.3904902805837,43.94850612266775,755.1239214079998,-4.440317046893376,155518.68550469153,10.5,10500155518.685505,47.655,-122.3035,60.0,3.5
2026-02-06T21:31:52+00:00,SAT-49756,268.6948537308055,44.33177465979695,750.6955082383454,-4.401208377011622,154148.93445592298,10.5,10500154148.934456,47.655,-122.3035,60.0,3.5166666666666666
2026-02-06T21:31:53+00:00,SAT-49756,269.00680484345423,44.71836709724106,746.3060988936256,-4.361401050179936,152754.71348545176,10.5,10500152754.713486,47.655,-122.3035,60.0,3.533333333333333
2026-02-06T21:31:54+00:00,SAT-49756,269.3266159591781,45.108266748356655,741.956390157788,-4.320884981439092,151335.66937534657,10.5,10500151335.669374,47.655,-122.3035,60.0,3.55
2026-02-06T21:31:55+00:00,SAT-49756,269.654571568978,45.50145292110592,737.647088872702,-4.279650221794417,149891.45366972967,10.5,10500149891.45367,47.655,-122.3035,60.0,3.566666666666667
2026-02-06T21:31:56+00:00,SAT-49756,269.9909689273365,45.89790065588736,733.3789118025604,-4.237686895332727,148421.72047234638,10.5,10500148421.720472,47.655,-122.3035,60.0,3.5833333333333335
2026-02-06T21:31:57+00:00,SAT-49756,270.3361186900727,46.29758044140773,729.1525855609933,-4.194985279926492,146926.12927316592,10.5,10500146926.129272,47.655,-122.3035,60.0,3.6
2026-02-06T21:31:58+00:00,SAT-49756,270.6903455876667,46.70045792072901,724.9688464576944,-4.151535810254939,145404.34505419366,10.5,10500145404.345055,47.655,-122.3035,60.0,3.6166666666666667
2026-02-06T21:31:59+00:00,SAT-49756,271.05398912972925,47.10649357967576,720.8284403420347,-4.10732904671715,143856.03720067593,10.5,10500143856.0372,47.655,-122.3035,60.0,3.6333333333333333
2026-02-06T21:32:00+00:00,SAT-49756,271.42740433769757,47.515642413088734,716.7321224776805,-4.0623557802559365,142280.88317247573,10.5,10500142280.883173,47.655,-122.3035,60.0,3.65
2026-02-06T21:32:01+00:00,SAT-49756,271.8109625176122,47.927853581198896,712.680657312666,-4.016607002120166,140678.56744502138,10.5,10500140678.567446,47.655,-122.3035,60.0,3.6666666666666665
2026-02-06T21:32:02+00:00,SAT-49756,272.20505206216603,48.34307004214265,708.6748182796271,-3.9700739350742844,139048.78260239618,10.5,10500139048.782602,47.655,-122.3035,60.0,3.683333333333333
2026-02-06T21:32:03+00:00,SAT-49756,272.6100792869571,48.761228165421734,704.7153875649025,-3.9227480704621436,137391.2306354702,10.5,10500137391.230635,47.655,-122.3035,60.0,3.7
2026-02-06T21:32:04+00:00,SAT-49756,273.02646930111615,49.182257325990875,700.8031558406783,-3.8746212109827214,135705.62444008706,10.5,10500135705.62444,47.655,-122.3035,60.0,3.716666666666667
2026-02-06T21:32:05+00:00,SAT-49756,273.4546669125754,49.60607947869309,696.938921954464,-3.8256854525911432,133991.68718316124,10.5,10500133991.687183,47.655,-122.3035,60.0,3.7333333333333334
2026-02-06T21:32:06+00:00,SAT-49756,273.89513756047796,50.032608705341374,693.1234926366269,-3.7759332293575847,132249.1538738264,10.5,10500132249.153873,47.655,-122.3035,60.0,3.75
2026-02-06T21:32:07+00:00,SAT-49756,274.3483682784695,50.46175073988863,689.3576821631785,-3.7253573842188428,130477.77384145485,10.5,10500130477.773842,47.655,-122.3035,60.0,3.7666666666666666
2026-02-06T21:32:08+00:00,SAT-49756,274.8148686900932,50.89340247382681,685.6423119480072,-3.6739511528752558,128677.31017165945,10.5,10500128677.310171,47.655,-122.3035,60.0,3.783333333333333
2026-02-06T21:32:09+00:00,SAT-49756,275.29517202301355,51.327451430975,681.9782101511676,-3.6217081949185324,126847.54079652192,10.5,10500126847.540796,47.655,-122.3035,60.0,3.8
2026-02-06T21:32:10+00:00,SAT-49756,275.7898361422398,51.76377521558152,678.366211256124,-3.568622658946902,124988.26077520092,10.5,10500124988.260775,47.655,-122.3035,60.0,3.816666666666667
2026-02-06T21:32:11+00:00,SAT-49756,276.2994446008775,52.202240936858345,674.8071555820558,-3.514689166241221,123099.28172220003,10.5,10500123099.281723,47.655,-122.3035,60.0,3.8333333333333335
2026-02-06T21:32:12+00:00,SAT-49756,276.82460769092177,52.64270459916214,671.3018888124423,-3.4599029139499793,121180.43542134333,10.5,10500121180.435421,47.655,-122.3035,60.0,3.85
2026-02-06T21:32:13+00:00,SAT-49756,277.36596350060523,53.085010471456805,667.8512614207378,-3.4042596302100603,119231.57225391452,10.5,10500119231.572254,47.655,-122.3035,60.0,3.8666666666666667
2026-02-06T21:32:14+00:00,SAT-49756,277.9241789471437,53.52899041693845,664.4561281408087,-3.3477556679057927,117252.5644824955,10.5,10500117252.564482,47.655,-122.3035,60.0,3.8833333333333333
2026-02-06T21:32:15+00:00,SAT-49756,278.4999507902912,53.97446319932881,661.1173473438583,-3.2903880220284716,115243.30685897025,10.5,10500115243.306858,47.655,-122.3035,60.0,3.9
2026-02-06T21:32:16+00:00,SAT-49756,279.09400660026023,54.42123375593416,657.8357803980434,-3.232154323407332,113203.71640495701,10.5,10500113203.716406,47.655,-122.3035,60.0,3.9166666666666665
2026-02-06T21:32:17+00:00,SAT-49756,279.7071056547067,54.869092433571055,654.6122910343397,-3.173052955015271,111133.7364853266,10.5,10500111133.736485,47.655,-122.3035,60.0,3.933333333333333
2026-02-06T21:32:18+00:00,SAT-49756,280.3400397632286,55.317814204096614,651.4477445964156,-3.113083017372162,109033.33559648022,10.5,10500109033.335596,47.655,-122.3035,60.0,3.95
2026-02-06T21:32:19+00:00,SAT-49756,280.99363396522506,55.767157839599335,648.3430073250073,-3.052244393734461,106902.5096495651,10.5,10500106902.50965,47.655,-122.3035,60.0,3.966666666666667
2026-02-06T21:32:20+00:00,SAT-49756,281.6687470860187,56.21686506161603,645.298945577283,-2.9905377789773357,104741.28298204894,10.5,10500104741.282982,47.655,-122.3035,60.0,3.9833333333333334
2026-02-06T21:32:21+00:00,SAT-49756,282.36627210662556,56.66665966102805,642.3164250173968,-2.92796471950999,102549.7097557234,10.5,10500102549.709755,47.655,-122.3035,60.0,4.0
2026-02-06T21:32:22+00:00,SAT-49756,283.0871363048094,57.11624659250492,639.3963097672405,-2.8645276183506243,100327.87413445055,10.5,10500100327.874134,47.655,-122.3035,60.0,4.016666666666667
2026-02-06T21:32:23+00:00,SAT-49756,283.83230110768034,57.565311041281774,636.53946155213,-2.800229831788814,98075.89366968848,10.5,10500098075.89367,47.655,-122.3035,60.0,4.033333333333333
2026-02-06T21:32:24+00:00,SAT-49756,284.60276161830933,58.01351748072208,633.7467387500884,-2.735075626839259,95793.91781034137,10.5,10500095793.91781,47.655,-122.3035,60.0,4.05
2026-02-06T21:32:25+00:00,SAT-49756,285.39954571513607,58.46050870472752,631.0189954835643,-2.6690702513895777,93482.13035963221,10.5,10500093482.13036,47.655,-122.3035,60.0,4.066666666666666
2026-02-06T21:32:26+00:00,SAT-49756,286.2237126730152,58.905904859370594,628.3570806411868,-2.602219969190352,91140.750700602,10.5,10500091140.7507,47.655,-122.3035,60.0,4.083333333333333
2026-02-06T21:32:27+00:00,SAT-49756,287.07635121174803,59.34930247760532,625.7618368646276,-2.5345320680561394,88770.03408334397,10.5,10500088770.034082,47.655,-122.3035,60.0,4.1
2026-02-06T21:32:28+00:00,SAT-49756,287.9585768660576,59.79027352355312,623.2340995272805,-2.4660148871328627,86370.27258002287,10.5,10500086370.27258,47.655,-122.3035,60.0,4.116666666666666
2026-02-06T21:32:29+00:00,SAT-49756,288.87152857280387,60.2283644628903,620.7746956857501,-2.3966778642828213,83941.79674449857,10.5,10500083941.796745,47.655,-122.3035,60.0,4.133333333333334
2026-02-06T21:32:30+00:00,SAT-49756,289.8163643644149,60.663095379461005,618.3844429840797,-2.3265315124528585,81484.97478463921,10.5,10500081484.974785,47.655,-122.3035,60.0,4.15
2026-02-06T21:32:31+00:00,SAT-49756,290.7942560137908,61.09395914508806,616.0641485815505,-2.2555875029206254,79000.21547795764,10.5,10500079000.215479,47.655,-122.3035,60.0,4.166666666666667
2026-02-06T21:32:32+00:00,SAT-49756,291.8063825320331,61.520420685108206,613.8146079974542,-2.1838586170921026,76487.96648335656,10.5,10500076487.966484,47.655,-122.3035,60.0,4.183333333333334
2026-02-06T21:32:33+00:00,SAT-49756,292.8539223249819,61.94191634308567,611.6366040039418,-2.1113587962126035,73948.71608221823,10.5,10500073948.716082,47.655,-122.3035,60.0,4.2
2026-02-06T21:32:34+00:00,SAT-49756,293.9380438961315,62.357853394189355,609.5309054692943,-2.038103143361666,71382.9932482741,10.5,10500071382.993248,47.655,-122.3035,60.0,4.216666666666667
2026-02-06T21:32:35+00:00,SAT-49756,295.0598949315843,62.7676097350621,607.4982661992019,-1.964107942841003,68791.3683266526,10.5,10500068791.368326,47.655,-122.3035,60.0,4.233333333333333
2026-02-06T21:32:36+00:00,SAT-49756,296.2205896340329,63.170533795048684,605.5394237587086,-1.8893906371451539,66174.45222729424,10.5,10500066174.452227,47.655,-122.3035,60.0,4.25
2026-02-06T21:32:37+00:00,SAT-49756,297.4211941585968,63.565944706709296,603.6550983171257,-1.8139698465533642,63532.89711114188,10.5,10500063532.897112,47.655,-122.3035,60.0,4.266666666666667
2026-02-06T21:32:38+00:00,SAT-49756,298.66271007053444,63.95313279551016,601.8459914734032,-1.7378653633072845,60867.39618621923,10.5,10500060867.396187,47.655,-122.3035,60.0,4.283333333333333
2026-02-06T21:32:39+00:00,SAT-49756,299.9460557489785,64.33136043964201,600.1127850873094,-1.6610981445533293,58178.68346044236,10.5,10500058178.68346,47.655,-122.3035,60.0,4.3
2026-02-06T21:32:40+00:00,SAT-49756,301.27204572389877,64.69986335941121,598.4561401176502,-1.5836902931514054,55467.5330694602,10.5,10500055467.53307,47.655,-122.3035,60.0,4.316666666666666
2026-02-06T21:32:41+00:00,SAT-49756,302.64136799229755,65.05785239572636,596.8766954796255,-1.5056650498429922,52734.75900234761,10.5,10500052734.759003,47.655,-122.3035,60.0,4.333333333333333
2026-02-06T21:32:42+00:00,SAT-49756,304.054559463119,65.40451584321897,595.3750669099993,-1.4270467633059436,49981.21405279785,10.5,10500049981.214052,47.655,-122.3035,60.0,4.35
2026-02-06T21:32:43+00:00,SAT-49756,305.51197975981137,65.73902239456663,593.9518458621332,-1.3478608873228148,47207.78971994537,10.5,10500047207.78972,47.655,-122.3035,60.0,4.366666666666666
2026-02-06T21:32:44+00:00,SAT-49756,307.0137837757978,66.0605247592413,592.6075984038445,-1.2681339163162333,44415.413950541915,10.5,10500044415.41395,47.655,-122.3035,60.0,4.383333333333334
2026-02-06T21:32:45+00:00,SAT-49756,308.5598934319942,66.36816399096216,591.3428641795555,-1.1878933866640455,41605.05118501839,10.5,10500041605.051186,47.655,-122.3035,60.0,4.4
2026-02-06T21:32:46+00:00,SAT-49756,310.1499693631755,66.6610745753071,590.1581553711318,-1.1071678314474276,38777.70077257243,10.5,10500038777.700773,47.655,-122.3035,60.0,4.416666666666667
2026-02-06T21:32:47+00:00,SAT-49756,311.7833833094225,66.93839028532184,589.0539557038512,-1.0259867155162812,35934.39469688378,10.5,10500035934.394697,47.655,-122.3035,60.0,4.433333333333334
2026-02-06T21:32:48+00:00,SAT-49756,313.4591921521089,67.19925079585025,588.030719517133,-0.9443804152023718,33076.196865582606,10.5,10500033076.196865,47.655,-122.3035,60.0,4.45
2026-02-06T21:32:49+00:00,SAT-49756,315.17611475718326,67.44280903568551,587.0888708554992,-0.8623801686939543,30204.201372159,10.5,10500030204.201372,47.655,-122.3035,60.0,4.466666666666667
2026-02-06T21:32:50+00:00,SAT-49756,316.9325128090357,67.66823920610744,586.2288026090292,-0.7800180033844865,27319.529951407607,10.5,10500027319.529951,47.655,-122.3035,60.0,4.483333333333333
2026-02-06T21:32:51+00:00,SAT-49756,318.7263768551472,67.87474535892083,585.4508757262693,-0.6973266919125091,24423.330439758247,10.5,10500024423.33044,47.655,-122.3035,60.0,4.5
2026-02-06T21:32:52+00:00,SAT-49756,320.55531886165255,68.06157040212268,584.7554184709867,-0.614339692348753,21516.774680375398,10.5,10500021516.774681,47.655,-122.3035,60.0,4.516666666666667
2026-02-06T21:32:53+00:00,SAT-49756,322.41657242199534,68.22800535156586,584.1427257385741,-0.5310910776195321,18601.056051266933,10.5,10500018601.056051,47.655,-122.3035,60.0,4.533333333333333
2026-02-06T21:32:54+00:00,SAT-49756,324.3070015727658,68.37339861236912,583.6130584428431,-0.44761547253361467,15677.387259698688,10.5,10500015677.38726,47.655,-122.3035,60.0,4.55
2026-02-06T21:32:55+00:00,SAT-49756,326.22311893629404,68.49716504885639,583.1666429656206,-0.36394798210989304,12746.997831926366,10.5,10500012746.997831,47.655,-122.3035,60.0,4.566666666666666
2026-02-06T21:32:56+00:00,SAT-49756,328.16111350463234,68.59879457664842,582.8036706778256,-0.2801241194702752,9811.131587699547,10.5,10500009811.131588,47.655,-122.3035,60.0,4.583333333333333
2026-02-06T21:32:57+00:00,SAT-49756,330.11688795853314,68.67786000382247,582.5242975324626,-0.19617973798357846,6871.044263653804,10.5,10500006871.044264,47.655,-122.3035,60.0,4.6
2026-02-06T21:32:58+00:00,SAT-49756,332.0861049702099,68.73402385483985,582.3286437252838,-0.11215094240736831,3928.0004011220562,10.5,10500003928.0004,47.655,-122.3035,60.0,4.616666666666666
2026-02-06T21:32:59+00:00,SAT-49756,334.06424128821595,68.76704392479236,582.2167934440762,-0.028074025161519755,983.2711141651117,10.5,10500000983.271114,47.655,-122.3035,60.0,4.633333333333334
2026-02-06T21:33:00+00:00,SAT-49756,336.0466482007455,68.77677736104046,582.1887946815019,0.05601461890328721,-1961.8688955961518,10.5,10499998038.131104,47.655,-122.3035,60.0,4.65
2026-02-06T21:33:01+00:00,SAT-49756,338.02861633161854,68.76318310687014,582.2446591329419,0.1400785698256151,-4906.144047055908,10.5,10499995093.855953,47.655,-122.3035,60.0,4.666666666666667
2026-02-06T21:33:02+00:00,SAT-49756,340.0054425644759,68.72632261183607,582.3843621714527,0.224081460070453,-7848.280595303556,10.5,10499992151.719404,47.655,-122.3035,60.0,4.683333333333334
2026-02-06T21:33:03+00:00,SAT-49756,341.97249676000104,68.66635878000716,582.6078429000518,0.3079870531384905,-10787.009384853005,10.5,10499989212.990616,47.655,-122.3035,60.0,4.7
2026-02-06T21:33:04+00:00,SAT-49756,343.92528590320455,68.58355319801107,582.9150042824027,0.3917593224175583,-13721.068611353665,10.5,10499986278.931389,47.655,-122.3035,60.0,4.716666666666667
2026-02-06T21:33:05+00:00,SAT-49756,345.85951350247086,68.47826175282292,583.3057133521401,0.47536252688145414,-16649.206472883547,10.5,10499983350.793528,47.655,-122.3035,60.0,4.733333333333333
2026-02-06T21:33:06+00:00,SAT-49756,347.7711323555297,68.35092881020113,583.7798014976868,0.558761285358004,-19570.1837711309,10.5,10499980429.816229,47.655,-122.3035,60.0,4.75
2026-02-06T21:33:07+00:00,SAT-49756,349.6563892190201,68.20208017228457,584.3370648211478,0.641920651041703,-22482.776521142114,10.5,10499977517.223478,47.655,-122.3035,60.0,4.766666666666667
2026-02-06T21:33:08+00:00,SAT-49756,351.51186038813216,68.03231506614433,584.9772645715091,0.7248061860027989,-25385.77856094495,10.5,10499974614.22144,47.655,-122.3035,60.0,4.783333333333333
2026-02-06T21:33:09+00:00,SAT-49756,353.3344776901964,67.84229743314116,585.7001276521505,0.8073840238263961,-28278.003745434977,10.5,10499971721.996254,47.655,-122.3035,60.0,4.8
2026-02-06T21:33:10+00:00,SAT-49756,355.1215448383783,67.63274679459597,586.5053471908278,0.8896209354898061,-31158.28825367903,10.5,10499968841.711746,47.655,-122.3035,60.0,4.816666666666666
2026-02-06T21:33:11+00:00,SAT-49756,356.87074458091985,67.40442895388662,587.3925831753573,0.9714844029949544,-34025.493167833534,10.5,10499965974.506832,47.655,-122.3035,60.0,4.833333333333333
2026-02-06T21:33:12+00:00,SAT-49756,358.58013741241365,67.15814677123637,588.3614631627327,1.052942667192748,-36878.50614815618,10.5,10499963121.493853,47.655,-122.3035,60.0,4.85
2026-02-06T21:33:13+00:00,SAT-49756,0.2481528151037476,66.89473122483106,589.4115830359407,1.1339647858826332,-39716.24346789821,10.5,10499960283.756533,47.655,-122.3035,60.0,4.866666666666666
2026-02-06T21:33:14+00:00,SAT-49756,1.8735742444551342,66.61503292603098,590.5425078187194,1.2145206936962583,-42537.65211068356,10.5,10499957462.347889,47.655,-122.3035,60.0,4.883333333333334
2026-02-06T21:33:15+00:00,SAT-49756,3.455519120281428,66.31991422020081,591.7537725500398,1.294581241808114,-45341.711161343475,10.5,10499954658.28884,47.655,-122.3035,60.0,4.9
2026-02-06T21:33:16+00:00,SAT-49756,4.993415049773968,66.01024197177702,593.044883198191,1.3741182477483127,-48127.43355057079,10.5,10499951872.56645,47.655,-122.3035,60.0,4.916666666666667
2026-02-06T21:33:17+00:00,SAT-49756,6.4869734962834515,65.6868810889976,594.4153176245451,1.453104530090241,-50893.86726982815,10.5,10499949106.13273,47.655,-122.3035,60.0,4.933333333333334
2026-02-06T21:33:18+00:00,SAT-49756,7.936161956426065,65.35068881816443,595.8645265819188,1.5315139484456741,-53640.0967721462,10.5,10499946359.903229,47.655,-122.3035,60.0,4.95
2026-02-06T21:33:19+00:00,SAT-49756,9.34117559769613,65.00250980545432,597.3919347528174,1.6093214451250761,-56365.2444312435,10.5,10499943634.75557,47.655,-122.3035,60.0,4.966666666666667
2026-02-06T21:33:20+00:00,SAT-49756,10.702409143402447,64.6431719037329,598.9969418292345,1.686503037737032,-59068.47028232724,10.5,10499940931.529718,47.655,-122.3035,60.0,4.983333333333333
2026-02-06T21:33:21+00:00,SAT-49756,12.020429593848176,64.27348269650751,600.6789235850647,1.7630358959174879,-61748.974709475915,10.5,10499938251.025291,47.655,-122.3035,60.0,5.0
2026-02-06T21:33:22+00:00,SAT-49756,13.295950342312523,63.89422666953052,602.4372330250441,1.8388983018175695,-64405.997061755574,10.5,10499935594.002937,47.655,-122.3035,60.0,5.016666666666667
2026-02-06T21:33:23+00:00,SAT-49756,14.529806928649187,63.506162997820226,604.2712014942824,1.914069719707586,-67038.81809104634,10.5,10499932961.18191,47.655,-122.3035,60.0,5.033333333333333
2026-02-06T21:33:24+00:00,SAT-49756,15.722934747206716,63.11002386205511,606.1801398572131,1.9885307477561172,-69646.75826314227,10.5,10499930353.241737,47.655,-122.3035,60.0,5.05
2026-02-06T21:33:25+00:00,SAT-49756,16.876348743353294,62.70651325654462,608.1633396284518,2.0622631915515024,-72229.18033278469,10.5,10499927770.819668,47.655,-122.3035,60.0,5.066666666666666
2026-02-06T21:33:26+00:00,SAT-49756,17.991125225064703,62.2963062012602,610.220074176979,2.135250002944962,-74785.48720168971,10.5,10499925214.512798,47.655,-122.3035,60.0,5.083333333333333
2026-02-06T21:33:27+00:00,SAT-49756,19.068385677977012,61.88004832675579,612.3495998693306,2.207475310308981,-77315.12297832489,10.5,10499922684.877022,47.655,-122.3035,60.0,5.1
2026-02-06T21:33:28+00:00,SAT-49756,20.109282572350768,61.45835575781303,614.5511572429641,2.278924434253373,-79817.57352835215,10.5,10499920182.426472,47.655,-122.3035,60.0,5.116666666666666
2026-02-06T21:33:29+00:00,SAT-49756,21.11498704040529,61.03181524888408,616.8239721953008,2.349583813518329,-82292.36387908882,10.5,10499917707.636122,47.655,-122.3035,60.0,5.133333333333334
2026-02-06T21:33:30+00:00,SAT-49756,22.086678254041928,60.60098454266359,619.1672570988577,2.419441078625237,-84739.06079907116,10.5,10499915260.939201,47.655,-122.3035,60.0,5.15
2026-02-06T21:33:31+00:00,SAT-49756,23.025534430132097,60.16639288330674,621.580211989834,2.488484956074212,-87157.2694426463,10.5,10499912842.730556,47.655,-122.3035,60.0,5.166666666666667
2026-02-06T21:33:32+00:00,SAT-49756,23.932725238107878,59.72854168049693,624.0620256611519,2.5567053121058834,-89546.63488269533,10.5,10499910453.365118,47.655,-122.3035,60.0,5.183333333333334
2026-02-06T21:33:33+00:00,SAT-49756,24.80940552321085,59.28790526761547,626.6118767991412,2.624093103179316,-91906.84037616056,10.5,10499908093.159624,47.655,-122.3035,60.0,5.2
2026-02-06T21:33:34+00:00,SAT-49756,25.656710161607297,58.84493174466941,629.2289350708355,2.6906403408391584,-94237.60613354444,10.5,10499905762.393866,47.655,-122.3035,60.0,5.216666666666667
2026-02-06T21:33:35+00:00,SAT-49756,26.475749919625773,58.40004388035424,631.9123621762294,2.756340121575461,-96538.69036472673,10.5,10499903461.309635,47.655,-122.3035,60.0,5.233333333333333
2026-02-06T21:33:36+00:00,SAT-49756,27.26760820973429,57.95364004358771,634.6613129303139,2.8211865350996637,-98809.88606640154,10.5,10499901190.113934,47.655,-122.3035,60.0,5.25
2026-02-06T21:33:37+00:00,SAT-49756,28.033338586110712,57.50609516909592,637.4749362536365,2.885174671685577,-101051.02127918962,10.5,10499898948.978722,47.655,-122.3035,60.0,5.266666666666667
2026-02-06T21:33:38+00:00,SAT-49756,28.77396290647783,57.05776172728052,640.3523761701814,2.948300583204933,-103261.95772293843,10.5,10499896738.042276,47.655,-122.3035,60.0,5.283333333333333
2026-02-06T21:33:39+00:00,SAT-49756,29.49047004885886,56.60897069554149,643.2927727663881,3.010561280844717,-105442.59071677356,10.5,10499894557.409283,47.655,-122.3035,60.0,5.3
2026-02-06T21:33:40+00:00,SAT-49756,30.1838151069751,56.16003251691052,646.2952631478963,3.0719546462608256,-107592.8460673239,10.5,10499892407.153933,47.655,-122.3035,60.0,5.316666666666666
2026-02-06T21:33:41+00:00,SAT-49756,30.854918967655813,55.71123805233258,649.3589823076804,3.132479415511076,-109712.67950598776,10.5,10499890287.320494,47.655,-122.3035,60.0,5.333333333333333
2026-02-06T21:33:42+00:00,SAT-49756,31.5046682234516,55.262859509800975,652.4830639781605,3.192135228099049,-111802.07840665564,10.5,10499888197.921593,47.655,-122.3035,60.0,5.35
2026-02-06T21:33:43+00:00,SAT-49756,32.13391537404126,54.81515133768151,655.6666415322278,3.2509224435982373,-113861.05536311222,10.5,10499886138.944637,47.655,-122.3035,60.0,5.366666666666666
2026-02-06T21:33:44+00:00,SAT-49756,32.74347921624882,54.36835111248328,658.908848701382,3.3088422209266986,-115889.65096557011,10.5,10499884110.349035,47.655,-122.3035,60.0,5.383333333333334
2026-02-06T21:33:45+00:00,SAT-49756,33.334145437267715,53.92268038104008,662.2088203729346,3.3658964778688825,-117887.93238295296,10.5,10499882112.067617,47.655,-122.3035,60.0,5.4
2026-02-06T21:33:46+00:00,SAT-49756,33.90666734534468,53.47834547355798,665.5656933468399,3.4220877770201814,-119855.98936819119,10.5,10499880144.010632,47.655,-122.3035,60.0,5.416666666666667
2026-02-06T21:33:47+00:00,SAT-49756,34.46176669520551,53.03553829601185,668.978606978778,3.4774193781227756,-121793.93609124463,10.5,10499878206.06391,47.655,-122.3035,60.0,5.433333333333334
2026-02-06T21:33:48+00:00,SAT-49756,35.0001346116024,52.59443707921861,672.4467038754319,3.5318951219412167,-123701.90707193433,10.5,10499876298.092928,47.655,-122.3035,60.0,5.45
2026-02-06T21:33:49+00:00,SAT-49756,35.52243255846808,52.155207106915746,675.9691304739525,3.585519508552676,-125580.05992199811,10.5,10499874419.940079,47.655,-122.3035,60.0,5.466666666666667
2026-02-06T21:33:50+00:00,SAT-49756,36.029293366432185,51.71800139831321,679.5450376995045,3.6382975259698984,-127428.56934274154,10.5,10499872571.430656,47.655,-122.3035,60.0,5.483333333333333
2026-02-06T21:33:51+00:00,SAT-49756,36.52132226361055,51.28296137712838,683.1735814518922,3.6902347405777656,-129247.63029250903,10.5,10499870752.369707,47.655,-122.3035,60.0,5.5
2026-02-06T21:33:52+00:00,SAT-49756,36.99909793693011,50.850217495168835,686.853923182383,3.7413371650256355,-131037.4533597145,10.5,10499868962.54664,47.655,-122.3035,60.0,5.516666666666667
2026-02-06T21:33:53+00:00,SAT-49756,37.46317357983186,50.41988983870796,690.5852303387737,3.791611292031706,-132798.26594681348,10.5,10499867201.734053,47.655,-122.3035,60.0,5.533333333333333
2026-02-06T21:33:54+00:00,SAT-49756,37.914077941889914,49.99208869851201,694.3666768441739,3.8410640470762676,-134530.31061342047,10.5,10499865469.689386,47.655,-122.3035,60.0,5.55
2026-02-06T21:33:55+00:00,SAT-49756,38.352316361045155,49.56691511447692,698.1974435286066,3.8897027321307203,-136233.8431054612,10.5,10499863766.156895,47.655,-122.3035,60.0,5.566666666666666
2026-02-06T21:33:56+00:00,SAT-49756,38.77837177271385,49.14446139667762,702.0767185044915,3.9375350240378792,-137909.13229844405,10.5,10499862090.867702,47.655,-122.3035,60.0,5.583333333333333
2026-02-06T21:33:57+00:00,SAT-49756,39.19270569786223,48.72481161779775,706.0036975405096,3.9845689437275738,-139556.45911926017,10.5,10499860443.54088,47.655,-122.3035,60.0,5.6
2026-02-06T21:33:58+00:00,SAT-49756,39.59575920298023,48.30804208148594,709.9775844047696,4.030812813519335,-141176.11505074293,10.5,10499858823.884949,47.655,-122.3035,60.0,5.616666666666666
2026-02-06T21:33:59+00:00,SAT-49756,39.98795382810886,47.8942217689372,713.9975911653879,4.076275227457725,-142768.40109268564,10.5,10499857231.598907,47.655,-122.3035,60.0,5.633333333333334
2026-02-06T21:34:00+00:00,SAT-49756,40.36969248313014,47.48341276329322,718.062938461487,4.120965055008245,-144333.62789128794,10.5,10499855666.372108,47.655,-122.3035,60.0,5.65
2026-02-06T21:34:01+00:00,SAT-49756,40.74136031388853,47.075670649653894,722.1728557778757,4.164891390173352,-145872.11395698352,10.5,10499854127.886044,47.655,-122.3035,60.0,5.666666666666667
2026-02-06T21:34:02+00:00,SAT-49756,41.10332553223881,46.671044897386054,726.326581668987,4.208063506935817,-147384.1841038779,10.5,10499852615.815897,47.655,-122.3035,60.0,5.683333333333334
2026-02-06T21:34:03+00:00,SAT-49756,41.45594021054748,46.26957922483293,730.5233639383737,4.25049090272079,-148870.17097197386,10.5,10499851129.829027,47.655,-122.3035,60.0,5.7
2026-02-06T21:34:04+00:00,SAT-49756,41.79954104878307,45.8713119390017,734.7624598615516,4.292183228490551,-150330.41257879403,10.5,10499849669.587421,47.655,-122.3035,60.0,5.716666666666667
2026-02-06T21:34:05+00:00,SAT-49756,42.134450103612245,45.47627626233442,739.0431363391283,4.333150227701344,-151765.25018139087,10.5,10499848234.749819,47.655,-122.3035,60.0,5.733333333333333
2026-02-06T21:34:06+00:00,SAT-49756,42.46097548210752,45.08450064610942,743.3646699890438,4.373401844928623,-153175.03208086223,10.5,10499846824.967918,47.655,-122.3035,60.0,5.75
2026-02-06T21:34:07+00:00,SAT-49756,42.77941201386099,44.69600905600251,747.7263473471554,4.412948039899015,-154560.10710896418,10.5,10499845439.89289,47.655,-122.3035,60.0,5.766666666666667
2026-02-06T21:34:08+00:00,SAT-49756,43.09004187879297,44.31082125756015,752.1274648823465,4.4517989265447095,-155920.82949838403,10.5,10499844079.170502,47.655,-122.3035,60.0,5.783333333333333
2026-02-06T21:34:09+00:00,SAT-49756,43.39313521721203,43.92895307296919,756.5673291503172,4.489964631244587,-157257.55391774452,10.5,10499842742.446083,47.655,-122.3035,60.0,5.8
2026-02-06T21:34:10+00:00,SAT-49756,43.68895070138521,43.55041663503659,761.0452568060005,4.527455383851194,-158570.6386597542,10.5,10499841429.36134,47.655,-122.3035,60.0,5.816666666666666
2026-02-06T21:34:11+00:00,SAT-49756,43.97773608697864,43.17522061871154,765.5605747067564,4.564281378358617,-159860.44076120647,10.5,10499840139.559238,47.655,-122.3035,60.0,5.833333333333333
2026-02-06T21:34:12+00:00,SAT-49756,44.25972872904422,42.803370470561674,770.1126198766103,4.600452891300535,-161127.32014978048,10.5,10499838872.67985,47.655,-122.3035,60.0,5.85
2026-02-06T21:34:13+00:00,SAT-49756,44.53515608140911,42.43486861519908,774.700739588572,4.635980197366169,-162371.63668855463,10.5,10499837628.363312,47.655,-122.3035,60.0,5.866666666666666
2026-02-06T21:34:14+00:00,SAT-49756,44.804236166346534,42.06971465641879,779.324291362794,4.670873494237882,-163593.74754350146,10.5,10499836406.252457,47.655,-122.3035,60.0,5.883333333333334
2026-02-06T21:34:15+00:00,SAT-49756,45.06717801739892,41.70790557229616,783.9826428897745,4.705143083698601,-164794.01352663554,10.5,10499835205.986473,47.655,-122.3035,60.0,5.9
2026-02-06T21:34:16+00:00,SAT-49756,45.32418211116553,41.34943588491447,788.6751721341756,4.738799127845776,-165972.79055759517,10.5,10499834027.209442,47.655,-122.3035,60.0,5.916666666666667
2026-02-06T21:34:17+00:00,SAT-49756,45.57544076395639,40.99429783858446,793.4012671955137,4.7718517997509755,-167130.4349403788,10.5,10499832869.56506,47.655,-122.3035,60.0,5.933333333333334
2026-02-06T21:34:18+00:00,SAT-49756,45.821138517544895,40.64248155621944,798.1603263191051,4.804311224470561,-168267.30129728912,10.5,10499831732.698702,47.655,-122.3035,60.0,5.95
2026-02-06T21:34:19+00:00,SAT-49756,46.061452502665276,40.29397519084356,802.9517578481779,4.836187460528699,-169383.74192038996,10.5,10499830616.25808,47.655,-122.3035,60.0,5.966666666666667
