DopplerPredictor/satellites_20260211_205513/SAT-63494.csv

timestamp,satellite,azimuth_deg,elevation_deg,distance_km,relative_velocity_kms,doppler_shift_hz,tx_freq_ghz,rx_freq_hz,ue_lat,ue_lon,ue_alt_m,time_minutes
2026-02-06T21:28:21+00:00,SAT-63494,175.42558711689492,81.48344490051366,467.2747951081335,-0.3740071006646931,13099.310713744764,10.5,10500013099.310713,47.655,-122.3035,60.0,0.0
2026-02-06T21:28:22+00:00,SAT-63494,169.6889131374989,81.82563031141197,466.9017906688928,-0.26614381922335717,9321.482336441068,10.5,10500009321.482336,47.655,-122.3035,60.0,0.016666666666666666
2026-02-06T21:28:23+00:00,SAT-63494,163.51244627298618,82.08058383804439,466.63636034452094,-0.15809652873946772,5537.209184109664,10.5,10500005537.209185,47.655,-122.3035,60.0,0.03333333333333333
2026-02-06T21:28:24+00:00,SAT-63494,157.00151418448218,82.23924296994585,466.4786876507578,-0.049939905518088926,1749.106736834366,10.5,10500001749.106737,47.655,-122.3035,60.0,0.05
2026-02-06T21:28:25+00:00,SAT-63494,150.30631766017052,82.29537892834054,466.42888162723466,0.058250994520641336,-2040.1962295753751,10.5,10499997959.80377,47.655,-122.3035,60.0,0.06666666666666667
2026-02-06T21:28:26+00:00,SAT-63494,143.60483210605196,82.2466752096729,466.48697645887745,0.16640099644174336,-5828.066770906909,10.5,10499994171.93323,47.655,-122.3035,60.0,0.08333333333333333
2026-02-06T21:28:27+00:00,SAT-63494,137.07602041608575,82.09516504589628,466.6529313572112,0.2744350665300269,-9611.876889061974,10.5,10499990388.123112,47.655,-122.3035,60.0,0.1
2026-02-06T21:28:28+00:00,SAT-63494,130.8726820221599,81.84684748956263,466.92663070119977,0.38227857078851624,-13389.012585764984,10.5,10499986610.987413,47.655,-122.3035,60.0,0.11666666666666667
2026-02-06T21:28:29+00:00,SAT-63494,125.10349351065656,81.51064080693877,467.3078844358945,0.4898575339646623,-17156.882934756664,10.5,10499982843.117065,47.655,-122.3035,60.0,0.13333333333333333
2026-02-06T21:28:30+00:00,SAT-63494,119.8282948131443,81.09706266984377,467.79642872941093,0.5970988885325431,-20912.9288022039,10.5,10499979087.071198,47.655,-122.3035,60.0,0.15
2026-02-06T21:28:31+00:00,SAT-63494,115.06421635968225,80.61702345310866,468.3919268782228,0.703930711256016,-24654.63113214198,10.5,10499975345.368868,47.655,-122.3035,60.0,0.16666666666666666
2026-02-06T21:28:32+00:00,SAT-63494,110.79714616050393,80.08095208673602,469.09397044838454,0.8102824759523274,-28379.519799325426,10.5,10499971620.4802,47.655,-122.3035,60.0,0.18333333333333332
2026-02-06T21:28:33+00:00,SAT-63494,106.99364982212788,79.4982916446865,469.9020806688378,0.9160852589949691,-32085.180806807275,10.5,10499967914.819193,47.655,-122.3035,60.0,0.2
2026-02-06T21:28:34+00:00,SAT-63494,103.61066179784669,78.87729294930156,470.81571002967314,1.021271959140963,-35769.26398522043,10.5,10499964230.736015,47.655,-122.3035,60.0,0.21666666666666667
2026-02-06T21:28:35+00:00,SAT-63494,100.60221581347326,78.22500340373153,471.83424409962726,1.1257774868433588,-39429.489623302215,10.5,10499960570.510376,47.655,-122.3035,60.0,0.23333333333333334
2026-02-06T21:28:36+00:00,SAT-63494,97.9235564198113,77.54736202146734,472.95700353238567,1.2295389664418335,-43063.65554946433,10.5,10499956936.34445,47.655,-122.3035,60.0,0.25
2026-02-06T21:28:37+00:00,SAT-63494,95.53332718004195,76.84933918017684,474.1832462745348,1.3324958803663645,-46669.6421824155,10.5,10499953330.357817,47.655,-122.3035,60.0,0.26666666666666666
2026-02-06T21:28:38+00:00,SAT-63494,93.39450409390498,76.13508484932484,475.51216991733025,1.4345902270091573,-50245.41806050422,10.5,10499949754.58194,47.655,-122.3035,60.0,0.2833333333333333
2026-02-06T21:28:39+00:00,SAT-63494,91.47458387810815,75.40806680754326,476.9429142059143,1.5357666543295885,-53789.04452112894,10.5,10499946210.955479,47.655,-122.3035,60.0,0.3
2026-02-06T21:28:40+00:00,SAT-63494,89.74537071512799,74.67119127093923,478.47456368177944,1.6359725760043382,-57298.679768807095,10.5,10499942701.32023,47.655,-122.3035,60.0,0.31666666666666665
2026-02-06T21:28:41+00:00,SAT-63494,88.18257472597989,73.92690427697741,480.10615044107163,1.7351582608740082,-60772.58200797395,10.5,10499939227.417992,47.655,-122.3035,60.0,0.3333333333333333
2026-02-06T21:28:42+00:00,SAT-63494,86.76534585745912,73.1772750325675,481.8366569821,1.8332769074045578,-64209.1120509371,10.5,10499935790.887949,47.655,-122.3035,60.0,0.35
2026-02-06T21:28:43+00:00,SAT-63494,85.47581000832383,72.42406356334764,483.66501912710805,1.9302847244038477,-67606.73614491128,10.5,10499932393.263855,47.655,-122.3035,60.0,0.36666666666666664
2026-02-06T21:28:44+00:00,SAT-63494,84.29864010709618,71.66877523917861,485.5901290245451,2.026140940966804,-70964.02632034005,10.5,10499929035.97368,47.655,-122.3035,60.0,0.38333333333333336
2026-02-06T21:28:45+00:00,SAT-63494,83.22067543332244,70.91270461614742,487.61083816125665,2.1208078613692503,-74279.66231350998,10.5,10499925720.337687,47.655,-122.3035,60.0,0.4
2026-02-06T21:28:46+00:00,SAT-63494,82.23059185190353,70.15697066368989,489.725960429421,2.2142508558225,-77552.43124273744,10.5,10499922447.568758,47.655,-122.3035,60.0,0.4166666666666667
2026-02-06T21:28:47+00:00,SAT-63494,81.31862040343465,69.40254513568347,491.93427518426563,2.3064383525052974,-80781.22732929332,10.5,10499919218.77267,47.655,-122.3035,60.0,0.43333333333333335
2026-02-06T21:28:48+00:00,SAT-63494,80.47630931588857,68.65027548775284,494.2345302938364,2.397341831661417,-83965.05169067622,10.5,10499916034.948309,47.655,-122.3035,60.0,0.45
2026-02-06T21:28:49+00:00,SAT-63494,79.69632378689438,67.90090346183462,496.6254451828801,2.4869357706383,-87103.01041563277,10.5,10499912896.989584,47.655,-122.3035,60.0,0.4666666666666667
2026-02-06T21:28:50+00:00,SAT-63494,78.97227800755017,67.15508024205201,499.10571382191455,2.5751976135564973,-90194.31350185341,10.5,10499909805.686499,47.655,-122.3035,60.0,0.48333333333333334
2026-02-06T21:28:51+00:00,SAT-63494,78.29859435401079,66.41337887326213,501.6740076860463,2.6621076897438285,-93238.27199919152,10.5,10499906761.728,47.655,-122.3035,60.0,0.5
2026-02-06T21:28:52+00:00,SAT-63494,77.67038532802628,65.67630450852901,504.3289786324449,2.7476491600631814,-96234.29612983593,10.5,10499903765.70387,47.655,-122.3035,60.0,0.5166666666666667
2026-02-06T21:28:53+00:00,SAT-63494,77.08335444429083,64.94430290989692,507.06926172428535,2.8318079376043714,-99181.89251060446,10.5,10499900818.107489,47.655,-122.3035,60.0,0.5333333333333333
2026-02-06T21:28:54+00:00,SAT-63494,76.53371288005584,64.21776755147327,509.89347797559856,2.9145725833379226,-102080.66049829774,10.5,10499897919.339502,47.655,-122.3035,60.0,0.55
2026-02-06T21:28:55+00:00,SAT-63494,76.01810922579804,63.49704560018795,512.8002369920516,2.995934236070626,-104930.28973644685,10.5,10499895069.710264,47.655,-122.3035,60.0,0.5666666666666667
2026-02-06T21:28:56+00:00,SAT-63494,75.53357012254197,62.782442978193544,515.7881395418742,3.075886471011161,-107730.55520168284,10.5,10499892269.444798,47.655,-122.3035,60.0,0.5833333333333334
2026-02-06T21:28:57+00:00,SAT-63494,75.07744997142426,62.07422869362997,518.855779985729,3.1544252410873495,-110481.31514841902,10.5,10499889518.68485,47.655,-122.3035,60.0,0.6
2026-02-06T21:28:58+00:00,SAT-63494,74.64738819551626,61.37263855391381,522.0017486480557,3.2315487367979543,-113182.5062002678,10.5,10499886817.4938,47.655,-122.3035,60.0,0.6166666666666667
2026-02-06T21:28:59+00:00,SAT-63494,74.24127282370245,60.67787838885869,525.2246340486438,3.307257290276727,-115834.1399899581,10.5,10499884165.86001,47.655,-122.3035,60.0,0.6333333333333333
2026-02-06T21:29:00+00:00,SAT-63494,73.85720936410226,59.99012685907526,528.5230250385268,3.3815532281497007,-118436.29800577524,10.5,10499881563.701994,47.655,-122.3035,60.0,0.65
2026-02-06T21:29:01+00:00,SAT-63494,73.49349412441624,59.30953792994432,531.8955127891262,3.4544407922454763,-120989.12881449972,10.5,10499879010.871185,47.655,-122.3035,60.0,0.6666666666666666
2026-02-06T21:29:02+00:00,SAT-63494,73.14859127025287,58.63624305263507,535.3406927023206,3.5259260227114018,-123492.8439676415,10.5,10499876507.156033,47.655,-122.3035,60.0,0.6833333333333333
2026-02-06T21:29:03+00:00,SAT-63494,72.82111304397984,57.970353106233496,538.8571662039427,3.5960166142163548,-125947.71296505307,10.5,10499874052.287035,47.655,-122.3035,60.0,0.7
2026-02-06T21:29:04+00:00,SAT-63494,72.50980266144595,57.3119601426681,542.4435423938667,3.664721817517337,-128354.05980737528,10.5,10499871645.940193,47.655,-122.3035,60.0,0.7166666666666667
2026-02-06T21:29:05+00:00,SAT-63494,72.21351947958075,56.661138955610504,546.0984395979228,3.732052317810017,-130712.25873535877,10.5,10499869287.741264,47.655,-122.3035,60.0,0.7333333333333333
2026-02-06T21:29:06+00:00,SAT-63494,71.9312260991445,56.017948502798745,549.820486798492,3.7980201514701433,-133022.73131379613,10.5,10499866977.268686,47.655,-122.3035,60.0,0.75
2026-02-06T21:29:07+00:00,SAT-63494,71.66197711841045,55.38243319566443,553.6083249820629,3.8626385819035796,-135285.94208326476,10.5,10499864714.057917,47.655,-122.3035,60.0,0.7666666666666667
2026-02-06T21:29:08+00:00,SAT-63494,71.40490930308567,54.75462408079326,557.4606083629724,3.92592196550836,-137502.39386555142,10.5,10499862497.606134,47.655,-122.3035,60.0,0.7833333333333333
2026-02-06T21:29:09+00:00,SAT-63494,71.15923297311765,54.134539928347564,561.3760054734684,3.9878856705140304,-139672.6249210623,10.5,10499860327.375078,47.655,-122.3035,60.0,0.8
2026-02-06T21:29:10+00:00,SAT-63494,70.92422443398125,53.52218823052481,565.3532001728281,4.048546031560009,-141797.20735796526,10.5,10499858202.792643,47.655,-122.3035,60.0,0.8166666666666667
2026-02-06T21:29:11+00:00,SAT-63494,70.69921930868368,52.91756611554999,569.3908926111767,4.107920156834064,-143876.74037736357,10.5,10499856123.259623,47.655,-122.3035,60.0,0.8333333333333334
2026-02-06T21:29:12+00:00,SAT-63494,70.48360665660084,52.320661208378304,573.4878000009634,4.166025916741553,-145911.84987644455,10.5,10499854088.150124,47.655,-122.3035,60.0,0.85
2026-02-06T21:29:13+00:00,SAT-63494,70.27682376645052,51.731452417334566,577.6426573771337,4.222881829468819,-147903.1844404258,10.5,10499852096.81556,47.655,-122.3035,60.0,0.8666666666666667
2026-02-06T21:29:14+00:00,SAT-63494,70.078351540493,51.149910669222855,581.8542182431753,4.278506966431628,-149851.4120309594,10.5,10499850148.587969,47.655,-122.3035,60.0,0.8833333333333333
2026-02-06T21:29:15+00:00,SAT-63494,69.88771039373034,50.57599959497883,586.1212551228639,4.332920887114727,-151757.21770393784,10.5,10499848242.782295,47.655,-122.3035,60.0,0.9
2026-02-06T21:29:16+00:00,SAT-63494,69.70445660172734,50.00967616660402,590.4425600470233,4.386143581178377,-153621.30158181948,10.5,10499846378.698418,47.655,-122.3035,60.0,0.9166666666666666
2026-02-06T21:29:17+00:00,SAT-63494,69.52817904159544,49.450891289025115,594.8169449825484,4.438195382087278,-155444.37582854874,10.5,10499844555.624172,47.655,-122.3035,60.0,0.9333333333333333
2026-02-06T21:29:18+00:00,SAT-63494,69.35849627927176,48.89959035449471,599.2432421752872,4.489096897465036,-157227.1622102744,10.5,10499842772.83779,47.655,-122.3035,60.0,0.95
2026-02-06T21:29:19+00:00,SAT-63494,69.1950539607839,48.355713760491454,603.7203044234654,4.538868967357371,-158970.39063355085,10.5,10499841029.609367,47.655,-122.3035,60.0,0.9666666666666667
2026-02-06T21:29:20+00:00,SAT-63494,69.03752247081302,47.81919739082879,608.2470053094852,4.587532561371478,-160674.79554272347,10.5,10499839325.204456,47.655,-122.3035,60.0,0.9833333333333333
2026-02-06T21:29:21+00:00,SAT-63494,68.88559482933753,47.289973070071376,612.8222393291392,4.635108815255287,-162341.11720108887,10.5,10499837658.8828,47.655,-122.3035,60.0,1.0
2026-02-06T21:29:22+00:00,SAT-63494,68.73898479508509,46.76796897737911,617.4449220573058,4.6816189084313535,-163970.09740161378,10.5,10499836029.9026,47.655,-122.3035,60.0,1.0166666666666666
2026-02-06T21:29:23+00:00,SAT-63494,68.59742515695397,46.25311004104294,622.1139901915069,4.727084002383091,-165562.47730896037,10.5,10499834437.522692,47.655,-122.3035,60.0,1.0333333333333334
2026-02-06T21:29:24+00:00,SAT-63494,68.46066619076952,45.74531830799891,626.8284015340173,4.77152525724878,-167118.99804067847,10.5,10499832881.001959,47.655,-122.3035,60.0,1.05
2026-02-06T21:29:25+00:00,SAT-63494,68.32847426123256,45.2445132819198,631.5871349905218,4.814963815829169,-168640.40010708434,10.5,10499831359.599894,47.655,-122.3035,60.0,1.0666666666666667
2026-02-06T21:29:26+00:00,SAT-63494,68.20063055451465,44.75061223603714,636.3891905528258,4.85742065442179,-170127.4181868471,10.5,10499829872.581814,47.655,-122.3035,60.0,1.0833333333333333
2026-02-06T21:29:27+00:00,SAT-63494,68.07692993047279,44.26353051591149,641.2335891327972,4.898916644045179,-171580.78327132025,10.5,10499828419.216728,47.655,-122.3035,60.0,1.1
2026-02-06T21:29:28+00:00,SAT-63494,67.95717987723178,43.78318181151866,646.1193724573701,4.939472504873799,-173001.22106865974,10.5,10499826998.77893,47.655,-122.3035,60.0,1.1166666666666667
2026-02-06T21:29:29+00:00,SAT-63494,67.84119955992233,43.30947841176173,651.0456029181054,4.979108789593205,-174389.4514208515,10.5,10499825610.548578,47.655,-122.3035,60.0,1.1333333333333333
2026-02-06T21:29:30+00:00,SAT-63494,67.72881895348483,42.84233143984248,656.0113634041506,5.01784579992228,-175746.1853799669,10.5,10499824253.814621,47.655,-122.3035,60.0,1.15
2026-02-06T21:29:31+00:00,SAT-63494,67.61987805221966,42.3816510770022,661.0157570519463,5.05570362077831,-177072.12640476853,10.5,10499822927.873594,47.655,-122.3035,60.0,1.1666666666666667
2026-02-06T21:29:32+00:00,SAT-63494,67.5142261463747,41.9273467645732,666.0579070290042,5.092702117673754,-178367.97026953366,10.5,10499821632.02973,47.655,-122.3035,60.0,1.1833333333333333
2026-02-06T21:29:33+00:00,SAT-63494,67.4117211598004,41.47932738948363,671.1369563150934,5.128860856761712,-179634.40226370865,10.5,10499820365.597736,47.655,-122.3035,60.0,1.2
2026-02-06T21:29:34+00:00,SAT-63494,67.31222904424683,41.03750146109313,676.2520674036809,5.164199154920857,-180872.0989460949,10.5,10499819127.901054,47.655,-122.3035,60.0,1.2166666666666666
2026-02-06T21:29:35+00:00,SAT-63494,67.21562322265886,40.60177726871446,681.4024220533267,5.19873598768901,-182081.72492029337,10.5,10499817918.27508,47.655,-122.3035,60.0,1.2333333333333334
2026-02-06T21:29:36+00:00,SAT-63494,67.12178407908813,40.17206303324452,686.5872209472585,5.232490088685283,-183263.93631688852,10.5,10499816736.063683,47.655,-122.3035,60.0,1.25
