DopplerPredictor/satellites_20260211_205513/SAT-59726.csv

timestamp,satellite,azimuth_deg,elevation_deg,distance_km,relative_velocity_kms,doppler_shift_hz,tx_freq_ghz,rx_freq_hz,ue_lat,ue_lon,ue_alt_m,time_minutes
2026-02-06T21:30:06+00:00,SAT-59726,239.7818046988961,40.097742633218076,709.5775144313055,-5.210687459613379,182500.3160217609,10.5,10500182500.316021,47.655,-122.3035,60.0,1.75
2026-02-06T21:30:07+00:00,SAT-59726,239.76965295413186,40.5171636456337,704.3807961056965,-5.177857280841868,181350.4642896641,10.5,10500181350.464289,47.655,-122.3035,60.0,1.7666666666666666
2026-02-06T21:30:08+00:00,SAT-59726,239.7570821884967,40.94234238429213,699.2168199456801,-5.144288652359509,180174.74892505415,10.5,10500180174.748924,47.655,-122.3035,60.0,1.7833333333333334
2026-02-06T21:30:09+00:00,SAT-59726,239.74407467919193,41.37336960948383,694.0863224212859,-5.109964479497496,178972.5712003192,10.5,10500178972.5712,47.655,-122.3035,60.0,1.8
2026-02-06T21:30:10+00:00,SAT-59726,239.73061169240174,41.810336505728245,688.990057051383,-5.074867384002042,177743.32245550165,10.5,10500177743.322456,47.655,-122.3035,60.0,1.8166666666666667
2026-02-06T21:30:11+00:00,SAT-59726,239.7166734102339,42.25333458946437,683.9287946865057,-5.038979769320934,176486.3863849097,10.5,10500176486.386385,47.655,-122.3035,60.0,1.8333333333333333
2026-02-06T21:30:12+00:00,SAT-59726,239.7022388509165,42.70245561384998,678.9033237265671,-5.002283767159134,175201.1371652682,10.5,10500175201.137165,47.655,-122.3035,60.0,1.85
2026-02-06T21:30:13+00:00,SAT-59726,239.68728578223852,43.15779145996686,673.9144503918727,-4.9647612968511705,173886.9415351913,10.5,10500173886.941536,47.655,-122.3035,60.0,1.8666666666666667
2026-02-06T21:30:14+00:00,SAT-59726,239.6717906268829,43.61943402361782,668.9629989349211,-4.926394033165931,172543.15766756973,10.5,10500172543.157667,47.655,-122.3035,60.0,1.8833333333333333
2026-02-06T21:30:15+00:00,SAT-59726,239.655728359366,44.08747508900676,664.0498118843157,-4.887163470265987,171169.13740969717,10.5,10500171169.13741,47.655,-122.3035,60.0,1.9
2026-02-06T21:30:16+00:00,SAT-59726,239.6390723928597,44.56200619748672,659.1757502248851,-4.847050887482938,169764.22508457786,10.5,10500169764.225084,47.655,-122.3035,60.0,1.9166666666666667
2026-02-06T21:30:17+00:00,SAT-59726,239.6217944559242,45.0431185016229,654.3416936119385,-4.806037467249551,168327.76162140904,10.5,10500168327.761621,47.655,-122.3035,60.0,1.9333333333333333
2026-02-06T21:30:18+00:00,SAT-59726,239.6038644562031,45.530902618780814,649.5485404679055,-4.764104150232853,166859.0794817292,10.5,10500166859.079481,47.655,-122.3035,60.0,1.95
2026-02-06T21:30:19+00:00,SAT-59726,239.58525033251422,46.025448457571606,644.7972082234528,-4.721231847505351,165357.5100905513,10.5,10500165357.51009,47.655,-122.3035,60.0,1.9666666666666666
2026-02-06T21:30:20+00:00,SAT-59726,239.5659178902162,46.52684505215834,640.088633347001,-4.677401342246804,163822.3803935436,10.5,10500163822.380394,47.655,-122.3035,60.0,1.9833333333333334
2026-02-06T21:30:21+00:00,SAT-59726,239.545830621271,47.03518037276979,635.4237714722714,-4.632593354652665,162253.01513039728,10.5,10500162253.015131,47.655,-122.3035,60.0,2.0
2026-02-06T21:30:22+00:00,SAT-59726,239.52494950518775,47.5505411280244,630.8035974611046,-4.586788580266805,160648.73817740087,10.5,10500160648.738178,47.655,-122.3035,60.0,2.0166666666666666
2026-02-06T21:30:23+00:00,SAT-59726,239.50323278928852,48.07301255594887,626.2291054280446,-4.53996775439328,159008.874803413,10.5,10500159008.874804,47.655,-122.3035,60.0,2.033333333333333
2026-02-06T21:30:24+00:00,SAT-59726,239.4806357448187,48.60267820625485,621.7013087006852,-4.492111594536143,157332.74965386058,10.5,10500157332.749655,47.655,-122.3035,60.0,2.05
2026-02-06T21:30:25+00:00,SAT-59726,239.45711039791772,49.139619699081734,617.2212398374229,-4.443200952680232,155619.6920842566,10.5,10500155619.692083,47.655,-122.3035,60.0,2.066666666666667
2026-02-06T21:30:26+00:00,SAT-59726,239.43260522928352,49.683916483671204,612.7899504933349,-4.39321681825334,153869.0362639479,10.5,10500153869.036264,47.655,-122.3035,60.0,2.0833333333333335
2026-02-06T21:30:27+00:00,SAT-59726,239.4070648405438,50.23564557968778,608.4085112831075,-4.342140310766689,152080.1209183529,10.5,10500152080.120918,47.655,-122.3035,60.0,2.1
2026-02-06T21:30:28+00:00,SAT-59726,239.38042958282705,50.79488129844088,604.0780116512987,-4.289952845958952,150252.29514802867,10.5,10500150252.295149,47.655,-122.3035,60.0,2.1166666666666667
2026-02-06T21:30:29+00:00,SAT-59726,239.35263514040167,51.36169496541046,599.7995595769062,-4.23663604251188,148384.91516145726,10.5,10500148384.915161,47.655,-122.3035,60.0,2.1333333333333333
2026-02-06T21:30:30+00:00,SAT-59726,239.3236120663594,51.936154610668574,595.5742813709685,-4.182171930285862,146477.3515683358,10.5,10500146477.351568,47.655,-122.3035,60.0,2.15
2026-02-06T21:30:31+00:00,SAT-59726,239.29328525967765,52.518324665656785,591.4033212664879,-4.126542915991451,144528.9881772484,10.5,10500144528.988176,47.655,-122.3035,60.0,2.1666666666666665
2026-02-06T21:30:32+00:00,SAT-59726,239.26157337837495,53.10826563459928,587.2878410425914,-4.069731884466136,142539.2255428068,10.5,10500142539.225542,47.655,-122.3035,60.0,2.183333333333333
2026-02-06T21:30:33+00:00,SAT-59726,239.2283881774801,53.7060337579336,583.2290195476845,-4.011722201135643,140507.48105185575,10.5,10500140507.481052,47.655,-122.3035,60.0,2.2
2026-02-06T21:30:34+00:00,SAT-59726,239.1936337621225,54.31168065338928,579.2280522201524,-3.9524979400900158,138433.196911662,10.5,10500138433.19691,47.655,-122.3035,60.0,2.216666666666667
2026-02-06T21:30:35+00:00,SAT-59726,239.1572057386104,54.925252968063184,575.2861503815951,-3.8920437748458303,136315.8363239452,10.5,10500136315.836325,47.655,-122.3035,60.0,2.2333333333333334
2026-02-06T21:30:36+00:00,SAT-59726,239.11899025363556,55.54679199153451,571.4045406390076,-3.830345166502636,134154.89007491202,10.5,10500134154.890076,47.655,-122.3035,60.0,2.25
2026-02-06T21:30:37+00:00,SAT-59726,239.07886289770258,56.176333273900354,567.5844640993088,-3.7673884329667335,131949.8789597659,10.5,10500131949.87896,47.655,-122.3035,60.0,2.2666666666666666
2026-02-06T21:30:38+00:00,SAT-59726,239.03668745298145,56.81390623186071,563.8271755148313,-3.703160811730106,129700.35598149073,10.5,10500129700.355982,47.655,-122.3035,60.0,2.283333333333333
2026-02-06T21:30:39+00:00,SAT-59726,238.99231445900173,57.459533741595685,560.1339423662013,-3.6376505513962214,127405.90955647166,10.5,10500127405.909557,47.655,-122.3035,60.0,2.3
2026-02-06T21:30:40+00:00,SAT-59726,238.94557956424435,58.113231723249775,556.5060438539375,-3.5708470133235477,125066.16707448073,10.5,10500125066.167074,47.655,-122.3035,60.0,2.316666666666667
2026-02-06T21:30:41+00:00,SAT-59726,238.89630162485804,58.77500871945147,552.9447697886799,-3.502740784088739,122680.79883761371,10.5,10500122680.798838,47.655,-122.3035,60.0,2.3333333333333335
2026-02-06T21:30:42+00:00,SAT-59726,238.84428050438933,59.44486547100785,549.4514193692551,-3.43332369422241,120249.51871649588,10.5,10500120249.518717,47.655,-122.3035,60.0,2.35
2026-02-06T21:30:43+00:00,SAT-59726,238.7892945201661,60.122794472534636,546.0272999420581,-3.3625890369034126,117772.0918098808,10.5,10500117772.09181,47.655,-122.3035,60.0,2.3666666666666667
2026-02-06T21:30:44+00:00,SAT-59726,238.73109746331377,60.808779546843624,542.6737255423254,-3.290531528883087,115248.33307605228,10.5,10500115248.333076,47.655,-122.3035,60.0,2.3833333333333333
2026-02-06T21:30:45+00:00,SAT-59726,238.6694151143684,61.50279538936243,539.3920154743779,-3.217147547785899,112678.11564409648,10.5,10500112678.115644,47.655,-122.3035,60.0,2.4
2026-02-06T21:30:46+00:00,SAT-59726,238.6039411435813,62.20480713817726,536.1834926552013,-3.1424351020245522,110061.3697602019,10.5,10500110061.36976,47.655,-122.3035,60.0,2.4166666666666665
2026-02-06T21:30:47+00:00,SAT-59726,238.53433227422622,62.914769916281614,533.0494819880294,-3.0663940306565185,107398.08978748039,10.5,10500107398.089787,47.655,-122.3035,60.0,2.433333333333333
2026-02-06T21:30:48+00:00,SAT-59726,238.46020254158105,63.63262839472129,529.9913085366065,-2.98902605911237,104688.33615780917,10.5,10500104688.336159,47.655,-122.3035,60.0,2.45
2026-02-06T21:30:49+00:00,SAT-59726,238.38111644940207,64.3583163474778,527.0102956438732,-2.910334876845342,101932.23809144688,10.5,10500101932.23809,47.655,-122.3035,60.0,2.466666666666667
2026-02-06T21:30:50+00:00,SAT-59726,238.29658076816293,65.09175620181105,524.1077629732064,-2.8303262800262314,99129.99859481264,10.5,10500099129.998594,47.655,-122.3035,60.0,2.4833333333333334
2026-02-06T21:30:51+00:00,SAT-59726,238.20603464697808,65.83285860013204,521.2850244073519,-2.7490082246527425,96281.89632059989,10.5,10500096281.89632,47.655,-122.3035,60.0,2.5
2026-02-06T21:30:52+00:00,SAT-59726,238.10883762472463,66.5815219513447,518.5433858943862,-2.6663909286089766,93388.28914233144,10.5,10500093388.289143,47.655,-122.3035,60.0,2.5166666666666666
2026-02-06T21:30:53+00:00,SAT-59726,238.0042549986578,67.33763198152349,515.8841431918949,-2.5824869520494684,90449.61696974853,10.5,10500090449.61697,47.655,-122.3035,60.0,2.533333333333333
2026-02-06T21:30:54+00:00,SAT-59726,237.8914398461838,68.10106127550902,513.3085795309806,-2.4973112772008754,87466.40454380341,10.5,10500087466.404543,47.655,-122.3035,60.0,2.55
2026-02-06T21:30:55+00:00,SAT-59726,237.76941077266494,68.87166880404197,510.8179632006851,-2.4108813580186657,84439.26317584676,10.5,10500084439.263176,47.655,-122.3035,60.0,2.566666666666667
2026-02-06T21:30:56+00:00,SAT-59726,237.63702415335692,69.64929941873199,508.41354508288566,-2.3232172219411678,81368.89431148485,10.5,10500081368.894312,47.655,-122.3035,60.0,2.5833333333333335
2026-02-06T21:30:57+00:00,SAT-59726,237.49293920971925,70.433783318421,506.09655608571245,-2.2343414893555935,78256.09021236196,10.5,10500078256.090212,47.655,-122.3035,60.0,2.6
2026-02-06T21:30:58+00:00,SAT-59726,237.3355736742285,71.22493544280614,503.86820455755065,-2.1442794336523368,75101.736059516,10.5,10500075101.73606,47.655,-122.3035,60.0,2.6166666666666667
2026-02-06T21:30:59+00:00,SAT-59726,237.1630469460426,72.0225547775111,501.7296736411495,-2.0530589848945073,71906.81008190116,10.5,10500071906.810081,47.655,-122.3035,60.0,2.6333333333333333
2026-02-06T21:31:00+00:00,SAT-59726,236.97310642913538,72.82642350922383,499.68211862407134,-1.9607108155833253,68672.38656025467,10.5,10500068672.38656,47.655,-122.3035,60.0,2.65
2026-02-06T21:31:01+00:00,SAT-59726,236.76303094609935,73.63630600117618,497.72666420360656,-1.867268290089549,65399.6340559717,10.5,10500065399.634056,47.655,-122.3035,60.0,2.6666666666666665
2026-02-06T21:31:02+00:00,SAT-59726,236.5295024868826,74.45194744821012,495.8644018021197,-1.7727674854210567,62089.81613847368,10.5,10500062089.81614,47.655,-122.3035,60.0,2.683333333333333
2026-02-06T21:31:03+00:00,SAT-59726,236.2684334975979,75.27307210183452,494.0963868616852,-1.677247178240431,58744.29093050941,10.5,10500058744.29093,47.655,-122.3035,60.0,2.7
2026-02-06T21:31:04+00:00,SAT-59726,235.97473068083806,76.0993808486203,492.4236361516693,-1.5807488152166902,55364.51006974714,10.5,10500055364.510069,47.655,-122.3035,60.0,2.716666666666667
2026-02-06T21:31:05+00:00,SAT-59726,235.64196639316376,76.930547820112,490.847125105883,-1.4833164546956992,51952.016665825664,10.5,10500051952.016666,47.655,-122.3035,60.0,2.7333333333333334
2026-02-06T21:31:06+00:00,SAT-59726,235.2619126911298,77.7662155247211,489.3677852179047,-1.3849967293833685,48508.44399336213,10.5,10500048508.443993,47.655,-122.3035,60.0,2.75
2026-02-06T21:31:07+00:00,SAT-59726,234.82386631609882,78.6059877168399,487.9865014736234,-1.2858387470399586,45035.51201384648,10.5,10500045035.512014,47.655,-122.3035,60.0,2.7666666666666666
2026-02-06T21:31:08+00:00,SAT-59726,234.31364694156932,79.44941865406112,486.70410988281833,-1.1858940209172424,41535.024939256626,10.5,10500041535.024939,47.655,-122.3035,60.0,2.783333333333333
2026-02-06T21:31:09+00:00,SAT-59726,233.71206912644982,80.29599651247769,485.5213950801179,-1.085216362345879,38008.867470013975,10.5,10500038008.86747,47.655,-122.3035,60.0,2.8
2026-02-06T21:31:10+00:00,SAT-59726,232.9925369692703,81.1451169621811,484.43908803307943,-0.983861747872534,34459.000141563294,10.5,10500034459.000141,47.655,-122.3035,60.0,2.816666666666667
2026-02-06T21:31:11+00:00,SAT-59726,232.11711741988177,81.9960395290047,483.45786388278003,-0.881888200515093,30887.455165428066,10.5,10500030887.455166,47.655,-122.3035,60.0,2.8333333333333335
2026-02-06T21:31:12+00:00,SAT-59726,231.02985152512275,82.84781245229937,482.57833990282995,-0.7793556318345132,27296.330897898664,10.5,10500027296.330898,47.655,-122.3035,60.0,2.85
2026-02-06T21:31:13+00:00,SAT-59726,229.64477423167253,83.69913649580148,481.80107361589324,-0.6763256934479988,23687.78663939567,10.5,10500023687.78664,47.655,-122.3035,60.0,2.8666666666666667
2026-02-06T21:31:14+00:00,SAT-59726,227.82313274744743,84.54810232499257,481.1265610582965,-0.5728615844021472,20064.035887862614,10.5,10500020064.035889,47.655,-122.3035,60.0,2.8833333333333333
2026-02-06T21:31:15+00:00,SAT-59726,225.32683296538025,85.39164351621817,480.55523523674725,-0.4690278908321525,16427.340722953082,10.5,10500016427.340723,47.655,-122.3035,60.0,2.9
2026-02-06T21:31:16+00:00,SAT-59726,221.7147413790343,86.22428212247027,480.0874647449646,-0.3648903715250186,12780.004295547338,10.5,10500012780.004295,47.655,-122.3035,60.0,2.9166666666666665
2026-02-06T21:31:17+00:00,SAT-59726,216.08764706452914,87.0348810400841,479.7235525941707,-0.2605157652573826,9124.364079907966,10.5,10500009124.36408,47.655,-122.3035,60.0,2.933333333333333
2026-02-06T21:31:18+00:00,SAT-59726,206.40304098772836,87.7969167324596,479.46373523572885,-0.1559715789496958,5462.7844539431535,10.5,10500005462.784454,47.655,-122.3035,60.0,2.95
2026-02-06T21:31:19+00:00,SAT-59726,187.79659333882228,88.43557463978404,479.30818179505815,-0.05132587057856064,1797.6490958784784,10.5,10500001797.649096,47.655,-122.3035,60.0,2.966666666666667
2026-02-06T21:31:20+00:00,SAT-59726,153.74913124274462,88.74406629479908,479.25699352205567,0.0533529705251499,-1868.6467106323068,10.5,10499998131.353289,47.655,-122.3035,60.0,2.9833333333333334
2026-02-06T21:31:21+00:00,SAT-59726,117.97383783376911,88.50176329412697,479.31020346062957,0.15799644681863112,-5533.7038918958615,10.5,10499994466.296108,47.655,-122.3035,60.0,3.0
2026-02-06T21:31:22+00:00,SAT-59726,97.60868813106299,87.89092836886532,479.4677763407778,0.26253617450437994,-9195.127358060452,10.5,10499990804.872643,47.655,-122.3035,60.0,3.0166666666666666
2026-02-06T21:31:23+00:00,SAT-59726,87.11515180935629,87.13924363950017,479.72960869202825,0.3669041093117185,-12850.533910939963,10.5,10499987149.46609,47.655,-122.3035,60.0,3.033333333333333
2026-02-06T21:31:24+00:00,SAT-59726,81.10863145190844,86.33318473618414,480.09552918205577,0.4710327627092387,-16497.559816688274,10.5,10499983502.440184,47.655,-122.3035,60.0,3.05
2026-02-06T21:31:25+00:00,SAT-59726,77.29732141235719,85.50288226658361,480.56529917093064,0.5748554212814863,-20133.868489298704,10.5,10499979866.13151,47.655,-122.3035,60.0,3.066666666666667
2026-02-06T21:31:26+00:00,SAT-59726,74.68554273184469,84.66070146281935,481.1386134841576,0.6783063515312987,-23757.157663648217,10.5,10499976242.842337,47.655,-122.3035,60.0,3.0833333333333335
2026-02-06T21:31:27+00:00,SAT-59726,72.79160125024868,83.81260868728168,481.8151013899667,0.7813210149735955,-27365.166928991766,10.5,10499972634.83307,47.655,-122.3035,60.0,3.1
2026-02-06T21:31:28+00:00,SAT-59726,71.35847573123108,82.96189158750086,482.5943277911215,0.883836241622866,-30955.683805227996,10.5,10499969044.316195,47.655,-122.3035,60.0,3.1166666666666667
2026-02-06T21:31:29+00:00,SAT-59726,70.23774545004633,82.11057045602455,483.47579458974985,0.9857904348742181,-34526.5509187002,10.5,10499965473.449081,47.655,-122.3035,60.0,3.1333333333333333
2026-02-06T21:31:30+00:00,SAT-59726,69.3381261876176,81.26000478511936,484.45894225650744,1.087123732095172,-38075.67162680026,10.5,10499961924.328373,47.655,-122.3035,60.0,3.15
2026-02-06T21:31:31+00:00,SAT-59726,68.60054902829084,80.41118119457684,485.5431515598999,1.187778164149873,-41601.015605181325,10.5,10499958398.984394,47.655,-122.3035,60.0,3.1666666666666665
2026-02-06T21:31:32+00:00,SAT-59726,67.98516899236395,79.56486137083742,486.7277454547049,1.2876978169527546,-45100.62450605053,10.5,10499954899.375494,47.655,-122.3035,60.0,3.183333333333333
2026-02-06T21:31:33+00:00,SAT-59726,67.46416439349895,78.72166308569965,488.01199113151273,1.386828941862448,-48572.61582463059,10.5,10499951427.384176,47.655,-122.3035,60.0,3.2
2026-02-06T21:31:34+00:00,SAT-59726,67.01753550950755,77.88210696585371,489.3951021763645,1.4851200938147715,-52015.18773716149,10.5,10499947984.812263,47.655,-122.3035,60.0,3.216666666666667
2026-02-06T21:31:35+00:00,SAT-59726,66.63054440944488,77.04664466906705,490.8762408681543,1.582522229297465,-55426.62253239,10.5,10499944573.377468,47.655,-122.3035,60.0,3.2333333333333334
2026-02-06T21:31:36+00:00,SAT-59726,66.29209584160772,76.21567649934273,492.45452057374297,1.6789888015295242,-58805.28994515267,10.5,10499941194.710054,47.655,-122.3035,60.0,3.25
2026-02-06T21:31:37+00:00,SAT-59726,65.99367990523996,75.3895627643428,494.1290082379963,1.7744758019254543,-62149.64860862934,10.5,10499937850.35139,47.655,-122.3035,60.0,3.2666666666666666
2026-02-06T21:31:38+00:00,SAT-59726,65.72866202569894,74.56863131853419,495.8987269151743,1.8689418858731819,-65458.250459617666,10.5,10499934541.74954,47.655,-122.3035,60.0,3.283333333333333
2026-02-06T21:31:39+00:00,SAT-59726,65.49179429594206,73.75318266108683,497.76265842576544,1.9623483386772973,-68729.7395457214,10.5,10499931270.260454,47.655,-122.3035,60.0,3.3
2026-02-06T21:31:40+00:00,SAT-59726,65.27887179440934,72.94349351529752,499.71974597935065,2.0546591569932025,-71962.85487751872,10.5,10499928037.145123,47.655,-122.3035,60.0,3.316666666666667
2026-02-06T21:31:41+00:00,SAT-59726,65.08648613221082,72.13981935960096,501.76889687868686,2.145841064128402,-75156.43096447818,10.5,10499924843.569035,47.655,-122.3035,60.0,3.3333333333333335
2026-02-06T21:31:42+00:00,SAT-59726,64.9118456318899,71.3423962775972,503.9089852390485,2.235863472389264,-78309.39649618293,10.5,10499921690.603504,47.655,-122.3035,60.0,3.35
2026-02-06T21:31:43+00:00,SAT-59726,64.75264205700242,70.55144236189736,506.1388546700173,2.3246985166401655,-81420.77551771412,10.5,10499918579.224482,47.655,-122.3035,60.0,3.3666666666666667
2026-02-06T21:31:44+00:00,SAT-59726,64.60695042625282,69.76715878680544,508.4573209907428,2.4123209875711287,-84489.68509240099,10.5,10499915510.314907,47.655,-122.3035,60.0,3.3833333333333333
2026-02-06T21:31:45+00:00,SAT-59726,64.47315272598831,68.9897306824621,510.8631748786465,2.4987083753897883,-87515.33683209862,10.5,10499912484.663168,47.655,-122.3035,60.0,3.4
2026-02-06T21:31:46+00:00,SAT-59726,64.34987912614841,68.21932783723162,513.3551845617036,2.5838407011602142,-90497.0309899599,10.5,10499909502.96901,47.655,-122.3035,60.0,3.4166666666666665
2026-02-06T21:31:47+00:00,SAT-59726,64.23596219793454,67.45610534110999,515.932098342514,2.66770059954344,-93434.15935835891,10.5,10499906565.840641,47.655,-122.3035,60.0,3.433333333333333
2026-02-06T21:31:48+00:00,SAT-59726,64.13040089287914,66.70020411924547,518.5926472048927,2.7502731488266643,-96326.19931579458,10.5,10499903673.800684,47.655,-122.3035,60.0,3.45
2026-02-06T21:31:49+00:00,SAT-59726,64.03233194678378,65.95175145508391,521.3355472509451,2.8315458585003905,-99172.71339178954,10.5,10499900827.286608,47.655,-122.3035,60.0,3.466666666666667
2026-02-06T21:31:50+00:00,SAT-59726,63.94100697977593,65.21086146778538,524.1595021257522,2.9115085928144873,-101973.34658949998,10.5,10499898026.65341,47.655,-122.3035,60.0,3.4833333333333334
2026-02-06T21:31:51+00:00,SAT-59726,63.8557740134865,64.4776355733819,527.0632053658175,2.9901534446823197,-104727.82196930505,10.5,10499895272.17803,47.655,-122.3035,60.0,3.5
2026-02-06T21:31:52+00:00,SAT-59726,63.77606244368461,63.75216294718933,530.0453426217558,3.0674746956998638,-107435.93924850694,10.5,10499892564.060751,47.655,-122.3035,60.0,3.5166666666666666
2026-02-06T21:31:53+00:00,SAT-59726,63.70137073629859,63.0345209686135,533.1045938411078,3.1434686995687304,-110097.57071831229,10.5,10499889902.429281,47.655,-122.3035,60.0,3.533333333333333
2026-02-06T21:31:54+00:00,SAT-59726,63.63125628976394,62.32477567029384,536.2396353348918,3.218133801456044,-112712.65841947387,10.5,10499887287.341581,47.655,-122.3035,60.0,3.55
2026-02-06T21:31:55+00:00,SAT-59726,63.56532703046208,61.62298218329084,539.4491417637286,3.2914702266895532,-115281.21024392251,10.5,10499884718.789757,47.655,-122.3035,60.0,3.566666666666667
2026-02-06T21:31:56+00:00,SAT-59726,63.50323440629953,60.92918518559539,542.7317880129632,3.3634800005361516,-117803.29712507175,10.5,10499882196.702875,47.655,-122.3035,60.0,3.5833333333333335
2026-02-06T21:31:57+00:00,SAT-59726,63.44466751376124,60.24341934662989,546.0862509877782,3.434166800762688,-120279.04787387355,10.5,10499879720.952126,47.655,-122.3035,60.0,3.6
2026-02-06T21:31:58+00:00,SAT-59726,63.38934815104389,59.56570978102929,549.511211261263,3.503535960799699,-122708.64928962571,10.5,10499877291.35071,47.655,-122.3035,60.0,3.6166666666666667
2026-02-06T21:31:59+00:00,SAT-59726,63.337026629969415,58.896072480391226,553.0053547256398,3.571594244523689,-125092.33827189454,10.5,10499874907.661728,47.655,-122.3035,60.0,3.6333333333333333
2026-02-06T21:32:00+00:00,SAT-59726,63.28747821622635,58.234514768103345,556.5673740188737,3.6383498332618243,-127430.40136536442,10.5,10499872569.598635,47.655,-122.3035,60.0,3.65
2026-02-06T21:32:01+00:00,SAT-59726,63.24050008900119,57.581035733521595,560.1959699383249,3.7038122133546003,-129723.17082180668,10.5,10499870276.829178,47.655,-122.3035,60.0,3.6666666666666665
2026-02-06T21:32:02+00:00,SAT-59726,63.1959087346296,56.935626665130464,563.8898527422617,3.7679920421671294,-131971.01990722815,10.5,10499868028.980093,47.655,-122.3035,60.0,3.683333333333333
2026-02-06T21:32:03+00:00,SAT-59726,63.153537703521344,56.298271484744525,567.6477433177465,3.8309010984651013,-134174.36116382742,10.5,10499865825.638836,47.655,-122.3035,60.0,3.7
2026-02-06T21:32:04+00:00,SAT-59726,63.11323567248467,55.66894716698854,571.4683742990312,3.892552189674902,-136333.64316185188,10.5,10499863666.356838,47.655,-122.3035,60.0,3.716666666666667
2026-02-06T21:32:05+00:00,SAT-59726,63.074864765137995,55.04762415170988,575.3504910934575,3.952959040584247,-138449.34660142317,10.5,10499861550.653399,47.655,-122.3035,60.0,3.7333333333333334
2026-02-06T21:32:06+00:00,SAT-59726,63.03829909117554,54.43426675148096,579.2928527963624,4.012136187796377,-140521.98061587644,10.5,10499859478.019384,47.655,-122.3035,60.0,3.75
2026-02-06T21:32:07+00:00,SAT-59726,63.00342347214443,53.8288335521643,583.2942330007141,4.070098977709172,-142552.08270098077,10.5,10499857447.9173,47.655,-122.3035,60.0,3.7666666666666666
2026-02-06T21:32:08+00:00,SAT-59726,62.97013232599389,53.23127779069464,587.3534206047376,4.126863408088643,-144540.21316617227,10.5,10499855459.786835,47.655,-122.3035,60.0,3.783333333333333
2026-02-06T21:32:09+00:00,SAT-59726,62.938328688428406,52.64154773417748,591.4692204615362,4.182446095913732,-146486.95400834325,10.5,10499853513.045992,47.655,-122.3035,60.0,3.8
2026-02-06T21:32:10+00:00,SAT-59726,62.90792335139901,52.05958704061983,595.6404539966442,4.2368641606276825,-148392.90482281134,10.5,10499851607.095177,47.655,-122.3035,60.0,3.816666666666667
2026-02-06T21:32:11+00:00,SAT-59726,62.87883410310681,51.485335113783954,599.8659597091446,4.29013524749774,-150258.6836214748,10.5,10499849741.316378,47.655,-122.3035,60.0,3.8333333333333335
2026-02-06T21:32:12+00:00,SAT-59726,62.850985055307305,50.91872743285872,604.1445936960824,4.342277342507015,-152084.9203495428,10.5,10499847915.07965,47.655,-122.3035,60.0,3.85
2026-02-06T21:32:13+00:00,SAT-59726,62.82430604710615,50.359695885805706,608.4752299922685,4.393308799448822,-153872.25783449374,10.5,10499846127.742165,47.655,-122.3035,60.0,3.8666666666666667
2026-02-06T21:32:14+00:00,SAT-59726,62.79873211467895,49.80816907750715,612.8567609371026,4.4432482663209685,-155621.34920809173,10.5,10499844378.650791,47.655,-122.3035,60.0,3.8833333333333333
2026-02-06T21:32:15+00:00,SAT-59726,62.77420301895427,49.26407262722297,617.2880974679898,4.492114577147478,-157332.85411752595,10.5,10499842667.145882,47.655,-122.3035,60.0,3.9
2026-02-06T21:32:16+00:00,SAT-59726,62.750662823831654,48.727329459427615,621.7681693058677,4.539926793070838,-159007.4401646348,10.5,10499840992.559835,47.655,-122.3035,60.0,3.9166666666666665
2026-02-06T21:32:17+00:00,SAT-59726,62.72805951883778,48.19786007014302,626.2959251817163,4.586704085104548,-160645.77879940448,10.5,10499839354.2212,47.655,-122.3035,60.0,3.933333333333333
2026-02-06T21:32:18+00:00,SAT-59726,62.70634468063533,47.675582788894594,630.8703329461335,4.6324656675990274,-162248.54298966317,10.5,10499837751.45701,47.655,-122.3035,60.0,3.95
2026-02-06T21:32:19+00:00,SAT-59726,62.685473169212074,47.1604140298314,635.4903796125582,4.677230893053308,-163816.410541788,10.5,10499836183.589458,47.655,-122.3035,60.0,3.966666666666667
2026-02-06T21:32:20+00:00,SAT-59726,62.66540285419742,46.65226851486742,640.155071495045,4.721019017709474,-165350.05589083058,10.5,10499834649.944109,47.655,-122.3035,60.0,3.9833333333333334
2026-02-06T21:32:21+00:00,SAT-59726,62.6460943682246,46.15105950634002,644.8634341122687,4.763849352793145,-166850.15539759852,10.5,10499833149.844603,47.655,-122.3035,60.0,4.0
2026-02-06T21:32:22+00:00,SAT-59726,62.627510884109356,45.656699006798696,649.614512242358,4.805741084136746,-168317.38103109927,10.5,10499831682.618969,47.655,-122.3035,60.0,4.016666666666667
2026-02-06T21:32:23+00:00,SAT-59726,62.60961791326557,45.169097962914435,654.4073697978405,4.846713359514794,-169752.40342739157,10.5,10499830247.596573,47.655,-122.3035,60.0,4.033333333333333
2026-02-06T21:32:24+00:00,SAT-59726,62.592383122992736,44.68816644542396,659.241089787685,4.886785151294963,-171155.88707904422,10.5,10499828844.11292,47.655,-122.3035,60.0,4.05
2026-02-06T21:32:25+00:00,SAT-59726,62.57577617063372,44.21381382912605,664.1147741423656,4.925975359780632,-172528.49395462987,10.5,10499827471.506046,47.655,-122.3035,60.0,4.066666666666666
2026-02-06T21:32:26+00:00,SAT-59726,62.55976855282286,43.74594894923504,669.0275436419911,4.964302662543804,-173870.87822172613,10.5,10499826129.121778,47.655,-122.3035,60.0,4.083333333333333
2026-02-06T21:32:27+00:00,SAT-59726,62.544333468230526,43.28448025992635,673.9785376941703,5.001785576600072,-175183.68842454586,10.5,10499824816.311575,47.655,-122.3035,60.0,4.1
2026-02-06T21:32:28+00:00,SAT-59726,62.52944569237827,42.829315974666635,678.9669141738862,5.038442420488817,-176467.56615582563,10.5,10499823532.433844,47.655,-122.3035,60.0,4.116666666666666
2026-02-06T21:32:29+00:00,SAT-59726,62.51508146339468,42.38036419888876,683.9918492255508,5.074291258856171,-177723.14411588633,10.5,10499822276.855885,47.655,-122.3035,60.0,4.133333333333334
2026-02-06T21:32:30+00:00,SAT-59726,62.50121837751752,41.9375330568148,689.0525370097937,5.109349973671586,-178951.04860693877,10.5,10499821048.951393,47.655,-122.3035,60.0,4.15
2026-02-06T21:32:31+00:00,SAT-59726,62.48783529343593,41.5007308017733,694.1481895212765,5.143636175942065,-180151.89644094277,10.5,10499819848.10356,47.655,-122.3035,60.0,4.166666666666667
2026-02-06T21:32:32+00:00,SAT-59726,62.47491224467087,41.06986592485416,699.2780363184526,5.177167195496688,-181326.29458181772,10.5,10499818673.705418,47.655,-122.3035,60.0,4.183333333333334
2026-02-06T21:32:33+00:00,SAT-59726,62.46243035900026,40.64484725513516,704.441324243147,5.209960131370758,-182474.8419101089,10.5,10499817525.15809,47.655,-122.3035,60.0,4.2
2026-02-06T21:32:34+00:00,SAT-59726,62.450371784621176,40.22558404721778,709.63731719038,5.242031801178979,-183598.12744982154,10.5,10499816401.872551,47.655,-122.3035,60.0,4.216666666666667
