DopplerPredictor/satellites_20260211_205513/SAT-65835.csv

timestamp,satellite,azimuth_deg,elevation_deg,distance_km,relative_velocity_kms,doppler_shift_hz,tx_freq_ghz,rx_freq_hz,ue_lat,ue_lon,ue_alt_m,time_minutes
2026-02-06T21:32:15+00:00,SAT-65835,357.11216638508995,40.11517013744758,699.620317439117,-1.4968262137036512,52425.18557250809,10.5,10500052425.185572,47.655,-122.3035,60.0,3.9
2026-02-06T21:32:16+00:00,SAT-65835,357.8666516421862,40.23574892948441,698.1275040099302,-1.4286908971331602,50038.798574106164,10.5,10500050038.798574,47.655,-122.3035,60.0,3.9166666666666665
2026-02-06T21:32:17+00:00,SAT-65835,358.62691977679737,40.35147290698124,696.7026432359329,-1.360134827040339,47637.675007566606,10.5,10500047637.675007,47.655,-122.3035,60.0,3.933333333333333
2026-02-06T21:32:18+00:00,SAT-65835,359.39277237015386,40.462222796703486,695.3461547426652,-1.2911749733886781,45222.40923279371,10.5,10500045222.409233,47.655,-122.3035,60.0,3.95
2026-02-06T21:32:19+00:00,SAT-65835,0.16400018124323934,40.567882732717614,694.058441231198,-1.2218288747497599,42793.61552475239,10.5,10500042793.615524,47.655,-122.3035,60.0,3.966666666666667
2026-02-06T21:32:20+00:00,SAT-65835,0.9403833146834277,40.66834058706038,692.8398879110489,-1.1521146089653846,40351.92704593168,10.5,10500040351.927046,47.655,-122.3035,60.0,3.9833333333333334
2026-02-06T21:32:21+00:00,SAT-65835,1.7216914277792221,40.76348829655905,691.6908619623583,-1.0820507907300956,37897.995761674574,10.5,10500037897.995762,47.655,-122.3035,60.0,4.0
2026-02-06T21:32:22+00:00,SAT-65835,2.507683996084587,40.853222186396344,690.6117120004752,-1.0116565482880322,35432.491624003225,10.5,10500035432.491625,47.655,-122.3035,60.0,4.016666666666667
2026-02-06T21:32:23+00:00,SAT-65835,3.298110627241406,40.937443287040445,689.6027675637846,-0.9409514780874024,32956.10098342675,10.5,10500032956.100983,47.655,-122.3035,60.0,4.033333333333333
2026-02-06T21:32:24+00:00,SAT-65835,4.0927114042968205,41.01605764100732,688.6643386467584,-0.8699556595172037,30469.527105083605,10.5,10500030469.527105,47.655,-122.3035,60.0,4.05
2026-02-06T21:32:25+00:00,SAT-65835,4.891217308344832,41.088976602743294,687.7967152183106,-0.798689589619153,27973.487882077094,10.5,10500027973.487883,47.655,-122.3035,60.0,4.066666666666666
2026-02-06T21:32:26+00:00,SAT-65835,5.69335065460133,41.156117123262035,687.000166805262,-0.7271741896306337,25468.716064637134,10.5,10500025468.716064,47.655,-122.3035,60.0,4.083333333333333
2026-02-06T21:32:27+00:00,SAT-65835,6.498825605349174,41.21740202385791,686.2749420692836,-0.6554307467840035,22955.9572216858,10.5,10500022955.957222,47.655,-122.3035,60.0,4.1
2026-02-06T21:32:28+00:00,SAT-65835,7.307348696295539,41.272760251823726,685.6212684418823,-0.5834809108174123,20435.969618631392,10.5,10500020435.969618,47.655,-122.3035,60.0,4.116666666666666
2026-02-06T21:32:29+00:00,SAT-65835,8.118619434433704,41.32212712119076,685.0393517628664,-0.5113466455495883,17909.52252131265,10.5,10500017909.522522,47.655,-122.3035,60.0,4.133333333333334
2026-02-06T21:32:30+00:00,SAT-65835,8.932330916182998,41.365444533196474,684.5293759671076,-0.4390502007505105,15377.39521079066,10.5,10500015377.39521,47.655,-122.3035,60.0,4.15
2026-02-06T21:32:31+00:00,SAT-65835,9.748170484820532,41.40266117677235,684.0915027993566,-0.36661408269477375,12840.375952003184,10.5,10500012840.375952,47.655,-122.3035,60.0,4.166666666666667
2026-02-06T21:32:32+00:00,SAT-65835,10.56582042897467,41.43373270762985,683.7258715584247,-0.29406101534122137,10299.260634111162,10.5,10500010299.260633,47.655,-122.3035,60.0,4.183333333333334
2026-02-06T21:32:33+00:00,SAT-65835,11.38495870073668,41.45862190398045,683.4325988800852,-0.22141390947473027,7754.851689713515,10.5,10500007754.85169,47.655,-122.3035,60.0,4.2
2026-02-06T21:32:34+00:00,SAT-65835,12.205259673116611,41.47729879849549,683.2117785507465,-0.14869582185271138,5207.956663984754,10.5,10500005207.956663,47.655,-122.3035,60.0,4.216666666666667
2026-02-06T21:32:35+00:00,SAT-65835,13.026394899663535,41.489740784788694,683.063481361872,-0.07592992359854038,2659.3871076792534,10.5,10500002659.387108,47.655,-122.3035,60.0,4.233333333333333
2026-02-06T21:32:36+00:00,SAT-65835,13.848033906116063,41.49593269846372,682.9877549959205,-0.003139461673036197,109.95722769943755,10.5,10500000109.957228,47.655,-122.3035,60.0,4.25
2026-02-06T21:32:37+00:00,SAT-65835,14.669844995363269,41.49586687158269,682.984623950711,0.0696522785125992,-2439.517422357208,10.5,10499997560.482578,47.655,-122.3035,60.0,4.266666666666667
2026-02-06T21:32:38+00:00,SAT-65835,15.491496046090814,41.489543160285436,683.0540895010769,0.14242200919372514,-4988.221206465821,10.5,10499995011.778793,47.655,-122.3035,60.0,4.283333333333333
2026-02-06T21:32:39+00:00,SAT-65835,16.312655325871496,41.47696894546352,683.1961296965178,0.21514647799825265,-7535.339728198409,10.5,10499992464.660273,47.655,-122.3035,60.0,4.3
2026-02-06T21:32:40+00:00,SAT-65835,17.132992298985123,41.45815910635687,683.4106993964989,0.28780250498951293,-10080.061128121797,10.5,10499989919.938871,47.655,-122.3035,60.0,4.316666666666666
2026-02-06T21:32:41+00:00,SAT-65835,17.952178426313317,41.43313596730931,683.6977303426894,0.36036701801014703,-12621.57732169014,10.5,10499987378.422678,47.655,-122.3035,60.0,4.333333333333333
2026-02-06T21:32:42+00:00,SAT-65835,18.769887950469723,41.40192921819627,684.0571312664548,0.43281709320678735,-15159.085418590708,10.5,10499984840.914581,47.655,-122.3035,60.0,4.35
2026-02-06T21:32:43+00:00,SAT-65835,19.585798673074386,41.3645758086347,684.4887880367637,0.5051299820324102,-17691.78866848047,10.5,10499982308.211332,47.655,-122.3035,60.0,4.366666666666666
2026-02-06T21:32:44+00:00,SAT-65835,20.399592694725094,41.32111981784741,684.992563835022,0.5772831569145819,-20218.898060481264,10.5,10499979781.10194,47.655,-122.3035,60.0,4.383333333333334
2026-02-06T21:32:45+00:00,SAT-65835,21.210957147801945,41.27161229947522,685.5682993754581,0.6492543424870892,-22739.63341704359,10.5,10499977260.366583,47.655,-122.3035,60.0,4.4
2026-02-06T21:32:46+00:00,SAT-65835,22.019584892326748,41.21611110360179,686.2158131566499,0.7210215343094516,-25253.224049583132,10.5,10499974746.77595,47.655,-122.3035,60.0,4.416666666666667
2026-02-06T21:32:47+00:00,SAT-65835,22.825175162711933,41.15468067825284,686.9349017317269,0.7925630651362375,-27758.911079512527,10.5,10499972241.08892,47.655,-122.3035,60.0,4.433333333333334
2026-02-06T21:32:48+00:00,SAT-65835,23.62743421670602,41.0873918475912,687.7253400446592,0.8638575933775549,-30255.94703407891,10.5,10499969744.052965,47.655,-122.3035,60.0,4.45
2026-02-06T21:32:49+00:00,SAT-65835,24.42607589797354,41.01432157487654,688.5868817550411,0.9348841737652294,-32743.598321392423,10.5,10499967256.401678,47.655,-122.3035,60.0,4.466666666666667
2026-02-06T21:32:50+00:00,SAT-65835,25.220822198216652,40.93555270468106,689.5192596333507,1.0056222474836856,-35221.14488476791,10.5,10499964778.855116,47.655,-122.3035,60.0,4.483333333333333
2026-02-06T21:32:51+00:00,SAT-65835,26.011403740106456,40.8511736927838,690.5221859463646,1.0760517098599924,-37687.88257351664,10.5,10499962312.117426,47.655,-122.3035,60.0,4.5
2026-02-06T21:32:52+00:00,SAT-65835,26.797560248098055,40.76127831882492,691.5953529100854,1.1461529002079796,-40143.12278724433,10.5,10499959856.877213,47.655,-122.3035,60.0,4.516666666666667
2026-02-06T21:32:53+00:00,SAT-65835,27.579040943477835,40.66596538995811,692.7384331325371,1.2159066460968484,-42586.194026325065,10.5,10499957413.805973,47.655,-122.3035,60.0,4.533333333333333
2026-02-06T21:32:54+00:00,SAT-65835,28.355604907653632,40.56533843261676,693.9510801007109,1.285294283461173,-45016.44259623875,10.5,10499954983.557404,47.655,-122.3035,60.0,4.55
2026-02-06T21:32:55+00:00,SAT-65835,29.127021394486555,40.45950537614541,695.2329286875688,1.3542976699780076,-47433.233076093864,10.5,10499952566.766924,47.655,-122.3035,60.0,4.566666666666666
2026-02-06T21:32:56+00:00,SAT-65835,29.893070089877362,40.34857823052654,696.5835956723867,1.4228992186666936,-49835.94949543488,10.5,10499950164.050505,47.655,-122.3035,60.0,4.583333333333333
2026-02-06T21:32:57+00:00,SAT-65835,30.653541331768604,40.232672758220005,698.0026802946081,1.4910818939526955,-52223.99519638117,10.5,10499947776.004803,47.655,-122.3035,60.0,4.6
2026-02-06T21:32:58+00:00,SAT-65835,31.40823627099709,40.111908144807295,699.4897648037725,1.5588292529307282,-54596.79427883621,10.5,10499945403.20572,47.655,-122.3035,60.0,4.616666666666666
