DopplerPredictor/satellites_20260211_205513/SAT-60908.csv

timestamp,satellite,azimuth_deg,elevation_deg,distance_km,relative_velocity_kms,doppler_shift_hz,tx_freq_ghz,rx_freq_hz,ue_lat,ue_lon,ue_alt_m,time_minutes
2026-02-06T21:28:21+00:00,SAT-60908,68.53970983676922,45.077056980894916,503.69563487640744,4.942536075086844,-173108.5202564097,10.5,10499826891.479744,47.655,-122.3035,60.0,0.0
2026-02-06T21:28:22+00:00,SAT-60908,68.37878572837685,44.46246040975932,508.6249206943468,4.996191003992855,-174987.74282682248,10.5,10499825012.257174,47.655,-122.3035,60.0,0.016666666666666666
2026-02-06T21:28:23+00:00,SAT-60908,68.22435184685283,43.8588894016803,513.6077175997324,5.048293148726057,-176812.58032723292,10.5,10499823187.419672,47.655,-122.3035,60.0,0.03333333333333333
2026-02-06T21:28:24+00:00,SAT-60908,68.07603252322187,43.26615781854839,518.6424769711912,5.098886277915984,-178584.56572018843,10.5,10499821415.43428,47.655,-122.3035,60.0,0.05
2026-02-06T21:28:25+00:00,SAT-60908,67.93348037143504,42.68407671514289,523.7276938386424,5.148013522932983,-180305.20964872412,10.5,10499819694.790352,47.655,-122.3035,60.0,0.06666666666666667
2026-02-06T21:28:26+00:00,SAT-60908,67.79637369137266,42.1124550645951,528.8619062477462,5.195717371649507,-181976.0002178568,10.5,10499818023.999783,47.655,-122.3035,60.0,0.08333333333333333
2026-02-06T21:28:27+00:00,SAT-60908,67.66441414964682,41.551100408019344,534.0436946181313,5.242039507763385,-183598.39736700628,10.5,10499816401.602633,47.655,-122.3035,60.0,0.1
2026-02-06T21:28:28+00:00,SAT-60908,67.53732470830309,40.999819451843535,539.2716809413757,5.28702087053346,-185173.83496219016,10.5,10499814826.165037,47.655,-122.3035,60.0,0.11666666666666667
2026-02-06T21:28:29+00:00,SAT-60908,67.41484776643841,40.45841859428681,544.5445280385642,5.330701526415476,-186703.71630016956,10.5,10499813296.283699,47.655,-122.3035,60.0,0.13333333333333333
