DopplerPredictor/satellites_20260211_205513/SAT-64461.csv

timestamp,satellite,azimuth_deg,elevation_deg,distance_km,relative_velocity_kms,doppler_shift_hz,tx_freq_ghz,rx_freq_hz,ue_lat,ue_lon,ue_alt_m,time_minutes
2026-02-06T21:37:05+00:00,SAT-64461,351.1230032674742,40.15235088652471,701.9500766351621,-2.0791167263376966,72819.46241137866,10.5,10500072819.462412,47.655,-122.3035,60.0,8.733333333333333
2026-02-06T21:37:06+00:00,SAT-64461,351.8438954006483,40.31984393775075,699.8765337338498,-2.0140895395225398,70541.93526438436,10.5,10500070541.935265,47.655,-122.3035,60.0,8.75
2026-02-06T21:37:07+00:00,SAT-64461,352.5725328148979,40.48336768970764,697.8678436904381,-1.9484967024648001,68244.59665319667,10.5,10500068244.596653,47.655,-122.3035,60.0,8.766666666666667
2026-02-06T21:37:08+00:00,SAT-64461,353.30880708089927,40.64277060360522,695.9245706387401,-1.8823503939543305,65927.87313055243,10.5,10500065927.87313,47.655,-122.3035,60.0,8.783333333333333
2026-02-06T21:37:09+00:00,SAT-64461,354.0525975108921,40.79790172591277,694.0472665664274,-1.8156634994963983,63592.216001351786,10.5,10500063592.216002,47.655,-122.3035,60.0,8.8
2026-02-06T21:37:10+00:00,SAT-64461,354.8037709248537,40.94861103153507,692.2364706102118,-1.7484496006859618,61238.10095050022,10.5,10500061238.10095,47.655,-122.3035,60.0,8.816666666666666
2026-02-06T21:37:11+00:00,SAT-64461,355.5621814504542,41.09474977818289,690.4927083616191,-1.6807229621865607,58866.02758685439,10.5,10500058866.027586,47.655,-122.3035,60.0,8.833333333333334
2026-02-06T21:37:12+00:00,SAT-64461,356.32767035918164,41.23617087066619,688.8164911857543,-1.612498528038235,56476.51931390972,10.5,10500056476.519314,47.655,-122.3035,60.0,8.85
2026-02-06T21:37:13+00:00,SAT-64461,357.1000659461429,41.37272923470008,687.208315543745,-1.5437919281773456,54070.12355815212,10.5,10500054070.123558,47.655,-122.3035,60.0,8.866666666666667
2026-02-06T21:37:14+00:00,SAT-64461,357.87918346353337,41.50428219979696,685.6686623086838,-1.4746194503242716,51647.410784446256,10.5,10500051647.410784,47.655,-122.3035,60.0,8.883333333333333
2026-02-06T21:37:15+00:00,SAT-64461,358.6648250954342,41.63068988685584,684.1979961096081,-1.4049980373428268,49208.97440355115,10.5,10500049208.974403,47.655,-122.3035,60.0,8.9
2026-02-06T21:37:16+00:00,SAT-64461,359.4567799891568,41.75181560101543,682.7967646781138,-1.334945268483267,46755.430115170886,10.5,10500046755.430115,47.655,-122.3035,60.0,8.916666666666666
2026-02-06T21:37:17+00:00,SAT-64461,0.25482433942722854,41.86752622666754,681.4653982136728,-1.264479345947499,44287.4154374115,10.5,10500044287.415438,47.655,-122.3035,60.0,8.933333333333334
2026-02-06T21:37:18+00:00,SAT-64461,1.058721530555483,41.97769262327889,680.2043087623535,-1.19361907983828,41805.5891796382,10.5,10500041805.58918,47.655,-122.3035,60.0,8.95
2026-02-06T21:37:19+00:00,SAT-64461,1.8682223402778317,42.082190019928426,679.0138896105491,-1.122383861013802,39310.630491728116,10.5,10500039310.630491,47.655,-122.3035,60.0,8.966666666666667
2026-02-06T21:37:20+00:00,SAT-64461,2.6830651988489467,42.18089840549839,677.8945147057776,-1.050793645529687,36803.23831916316,10.5,10500036803.23832,47.655,-122.3035,60.0,8.983333333333333
2026-02-06T21:37:21+00:00,SAT-64461,3.502976514262641,42.27370291342327,676.846538093002,-0.9788689318344038,34284.13060431707,10.5,10500034284.130604,47.655,-122.3035,60.0,9.0
2026-02-06T21:37:22+00:00,SAT-64461,4.327671060457433,42.360494198215584,675.8702933736897,-0.9066307252309843,31754.043041754358,10.5,10500031754.043041,47.655,-122.3035,60.0,9.016666666666667
2026-02-06T21:37:23+00:00,SAT-64461,5.156852419617988,42.441168800455955,674.9660932003184,-0.8341005206102572,29213.72847347514,10.5,10500029213.728474,47.655,-122.3035,60.0,9.033333333333333
2026-02-06T21:37:24+00:00,SAT-64461,5.990213492998942,42.51562949966092,674.1342287880979,-0.7613002727080467,26663.95584719643,10.5,10500026663.955847,47.655,-122.3035,60.0,9.05
2026-02-06T21:37:25+00:00,SAT-64461,6.827437073144764,42.58378565174104,673.3749694563613,-0.6882523604389467,24105.50896717001,10.5,10500024105.508966,47.655,-122.3035,60.0,9.066666666666666
2026-02-06T21:37:26+00:00,SAT-64461,7.66819646938458,42.64555350836174,672.6885622055221,-0.614979557146659,21539.185452223483,10.5,10500021539.185452,47.655,-122.3035,60.0,9.083333333333334
2026-02-06T21:37:27+00:00,SAT-64461,8.512156191437146,42.7008565166423,672.0752313237008,-0.541504994821256,18965.795482497386,10.5,10500018965.795483,47.655,-122.3035,60.0,9.1
2026-02-06T21:37:28+00:00,SAT-64461,9.358972682727936,42.74962559663191,671.5351780290431,-0.4678521367958359,16386.160843166632,10.5,10500016386.160843,47.655,-122.3035,60.0,9.116666666666667
2026-02-06T21:37:29+00:00,SAT-64461,10.208295115039737,42.79179939543173,671.0685801392622,-0.39404473056771977,13801.11327203921,10.5,10500013801.113272,47.655,-122.3035,60.0,9.133333333333333
2026-02-06T21:37:30+00:00,SAT-64461,11.059766212617609,42.82732451439673,670.6755917882389,-0.3201067786592893,11211.493438979502,10.5,10500011211.493439,47.655,-122.3035,60.0,9.15
2026-02-06T21:37:31+00:00,SAT-64461,11.913023129489671,42.85615570942584,670.3563431716785,-0.24606249543353698,8618.149433406154,10.5,10500008618.149433,47.655,-122.3035,60.0,9.166666666666666
2026-02-06T21:37:32+00:00,SAT-64461,12.767698352806661,42.87825606163505,670.1109403358387,-0.17193627179604323,6021.9355280060245,10.5,10500006021.935528,47.655,-122.3035,60.0,9.183333333333334
2026-02-06T21:37:33+00:00,SAT-64461,13.623420644813526,42.89359711787265,669.93946500146,-0.09775263315287734,3423.710706242023,10.5,10500003423.710707,47.655,-122.3035,60.0,9.2
2026-02-06T21:37:34+00:00,SAT-64461,14.479816007233252,42.90215899943982,669.8419744296267,-0.023536199410016875,824.3372613635837,10.5,10500000824.337261,47.655,-122.3035,60.0,9.216666666666667
2026-02-06T21:37:35+00:00,SAT-64461,15.336508658319575,42.903930478396305,669.8185013275194,0.05068835523026633,-1775.3206116939623,10.5,10499998224.679388,47.655,-122.3035,60.0,9.233333333333333
2026-02-06T21:37:36+00:00,SAT-64461,16.193122026503644,42.898909020854376,669.8690537942642,0.12489634270807203,-4374.398232642518,10.5,10499995625.601767,47.655,-122.3035,60.0,9.25
2026-02-06T21:37:37+00:00,SAT-64461,17.049279748150298,42.887100796919164,669.9936153071133,0.19906310495558138,-6972.031971643545,10.5,10499993027.968029,47.655,-122.3035,60.0,9.266666666666667
2026-02-06T21:37:38+00:00,SAT-64461,17.90460667145642,42.86852065689449,670.1921447513553,0.2731640474062733,-9567.36042294256,10.5,10499990432.639578,47.655,-122.3035,60.0,9.283333333333333
2026-02-06T21:37:39+00:00,SAT-64461,18.75872982748915,42.843192074874764,670.4645764836467,0.34717469037950055,-12159.526204574351,10.5,10499987840.473795,47.655,-122.3035,60.0,9.3
2026-02-06T21:37:40+00:00,SAT-64461,19.611279424676905,42.81114705850278,670.8108204465916,0.4210706981467216,-14747.676976385366,10.5,10499985252.323023,47.655,-122.3035,60.0,9.316666666666666
2026-02-06T21:37:41+00:00,SAT-64461,20.46188978695217,42.77242602762415,671.2307623123043,0.494827927672191,-17330.967147138857,10.5,10499982669.032852,47.655,-122.3035,60.0,9.333333333333334
2026-02-06T21:37:42+00:00,SAT-64461,21.310200290230497,42.72707766091741,671.7242636745888,0.5684224596413003,-19908.558961258637,10.5,10499980091.441038,47.655,-122.3035,60.0,9.35
2026-02-06T21:37:43+00:00,SAT-64461,22.155856248712077,42.67515871326159,672.2911622720578,0.6418306420348329,-22479.624024983794,10.5,10499977520.375975,47.655,-122.3035,60.0,9.366666666666667
2026-02-06T21:37:44+00:00,SAT-64461,22.998509775651257,42.616733804005726,672.9312722547139,0.7150291244581932,-25043.34450872353,10.5,10499974956.65549,47.655,-122.3035,60.0,9.383333333333333
2026-02-06T21:37:45+00:00,SAT-64461,23.837820594767326,42.55187517850766,673.6443844847635,0.7879948983112244,-27598.914553974053,10.5,10499972401.085445,47.655,-122.3035,60.0,9.4
2026-02-06T21:37:46+00:00,SAT-64461,24.673456810354413,42.4806624440973,674.4302668774958,0.8607053179743646,-30145.54101534745,10.5,10499969854.458984,47.655,-122.3035,60.0,9.416666666666666
2026-02-06T21:37:47+00:00,SAT-64461,25.50509561239118,42.40318228400353,675.2886647632898,0.9331381556183722,-32682.445380240046,10.5,10499967317.554619,47.655,-122.3035,60.0,9.433333333333334
2026-02-06T21:37:48+00:00,SAT-64461,26.33242394911778,42.31952814815691,676.2193013042861,1.0052716142465137,-35208.86422562503,10.5,10499964791.135775,47.655,-122.3035,60.0,9.45
2026-02-06T21:37:49+00:00,SAT-64461,27.155139123465226,42.22979992669694,677.2218779240621,1.0770843606481701,-37724.050372227124,10.5,10499962275.949627,47.655,-122.3035,60.0,9.466666666666667
2026-02-06T21:37:50+00:00,SAT-64461,27.972949335157058,42.1341036064912,678.296074770177,1.148555569192642,-40227.27441836692,10.5,10499959772.725582,47.655,-122.3035,60.0,9.483333333333333
2026-02-06T21:37:51+00:00,SAT-64461,28.78557417260228,42.032550911888315,679.4415512203894,1.2196649277243716,-42717.82494643645,10.5,10499957282.175053,47.655,-122.3035,60.0,9.5
2026-02-06T21:37:52+00:00,SAT-64461,29.592745027582815,41.925258935278656,680.6579463947564,1.2903926760978175,-45195.00987255351,10.5,10499954804.990128,47.655,-122.3035,60.0,9.516666666666667
2026-02-06T21:37:53+00:00,SAT-64461,30.394205457817794,41.81234975674654,681.9448797061638,1.3607196162361412,-47658.15679885945,10.5,10499952341.8432,47.655,-122.3035,60.0,9.533333333333333
2026-02-06T21:37:54+00:00,SAT-64461,31.18971147993776,41.69395005750336,683.3019514208881,1.430627161000221,-50106.61472511868,10.5,10499949893.385275,47.655,-122.3035,60.0,9.55
2026-02-06T21:37:55+00:00,SAT-64461,31.979031816897837,41.57019072585134,684.7287432678961,1.5000973150629455,-52539.75337885561,10.5,10499947460.246622,47.655,-122.3035,60.0,9.566666666666666
2026-02-06T21:37:56+00:00,SAT-64461,32.76194806329505,41.44120646366837,686.2248190290708,1.5691127256109956,-54956.96499114548,10.5,10499945043.03501,47.655,-122.3035,60.0,9.583333333333334
2026-02-06T21:37:57+00:00,SAT-64461,33.538254811470864,41.30713538933267,687.7897251800019,1.6376566650961206,-57357.66369249111,10.5,10499942642.336308,47.655,-122.3035,60.0,9.6
2026-02-06T21:37:58+00:00,SAT-64461,34.30775970442366,41.168118644841456,689.4229915135757,1.7057130909621416,-59741.28760471515,10.5,10499940258.712395,47.655,-122.3035,60.0,9.616666666666667
2026-02-06T21:37:59+00:00,SAT-64461,35.070283456901834,41.02430000234051,691.1241318231295,1.7732666035652433,-62107.29736715076,10.5,10499937892.702633,47.655,-122.3035,60.0,9.633333333333333
2026-02-06T21:38:00+00:00,SAT-64461,35.82565980040865,40.8758254803932,692.8926445436412,1.8403024955954252,-64455.17786758987,10.5,10499935544.822132,47.655,-122.3035,60.0,9.65
2026-02-06T21:38:01+00:00,SAT-64461,36.57373539820654,40.7228429637468,694.7280134422075,1.906806734285506,-66784.43761916723,10.5,10499933215.562382,47.655,-122.3035,60.0,9.666666666666666
2026-02-06T21:38:02+00:00,SAT-64461,37.31436970425389,40.56550183368292,696.6297082907779,1.9727659957412413,-69094.60996274641,10.5,10499930905.390038,47.655,-122.3035,60.0,9.683333333333334
2026-02-06T21:38:03+00:00,SAT-64461,38.04743479155929,40.40395260586372,698.597185573126,2.0381676349164626,-71385.25201532208,10.5,10499928614.747984,47.655,-122.3035,60.0,9.7
2026-02-06T21:38:04+00:00,SAT-64461,38.77281512897749,40.238346582123945,700.6298891618804,2.1029996931329515,-73655.94493339787,10.5,10499926344.055067,47.655,-122.3035,60.0,9.716666666666667
2026-02-06T21:38:05+00:00,SAT-64461,39.490407326395776,40.06883551402125,702.7272510030502,2.167250946722915,-75906.2956166516,10.5,10499924093.704384,47.655,-122.3035,60.0,9.733333333333333
