DopplerPredictor/satellites_20260211_205513/SAT-48107.csv

timestamp,satellite,azimuth_deg,elevation_deg,distance_km,relative_velocity_kms,doppler_shift_hz,tx_freq_ghz,rx_freq_hz,ue_lat,ue_lon,ue_alt_m,time_minutes
2026-02-06T21:31:46+00:00,SAT-48107,209.47221361927453,40.2650249762834,811.5174630379133,-4.567209360316255,159962.99107471437,10.5,10500159962.991076,47.655,-122.3035,60.0,3.4166666666666665
2026-02-06T21:31:47+00:00,SAT-48107,209.16743355564986,40.5945499519886,806.9624977356171,-4.532027053720848,158730.75787673387,10.5,10500158730.757877,47.655,-122.3035,60.0,3.433333333333333
2026-02-06T21:31:48+00:00,SAT-48107,208.85608026301784,40.92657869563523,802.442620421008,-4.496241957737846,157477.4124446032,10.5,10500157477.412445,47.655,-122.3035,60.0,3.45
2026-02-06T21:31:49+00:00,SAT-48107,208.5379595704958,41.26109307217211,797.9584322674772,-4.459845325579524,156202.64842881737,10.5,10500156202.648428,47.655,-122.3035,60.0,3.466666666666667
2026-02-06T21:31:50+00:00,SAT-48107,208.21287052051,41.59807198252667,793.5105431717568,-4.42282839338006,154906.1588817242,10.5,10500154906.158882,47.655,-122.3035,60.0,3.4833333333333334
2026-02-06T21:31:51+00:00,SAT-48107,207.88060513274564,41.93749118746422,789.0995717709492,-4.38518243195316,153587.63807029522,10.5,10500153587.638071,47.655,-122.3035,60.0,3.5
2026-02-06T21:31:52+00:00,SAT-48107,207.54094816001532,42.27932312643293,784.7261454079411,-4.346898810565236,152246.7837097322,10.5,10500152246.78371,47.655,-122.3035,60.0,3.5166666666666666
2026-02-06T21:31:53+00:00,SAT-48107,207.19367683510183,42.62353673237759,780.3909000332147,-4.3079689178609994,150883.294193947,10.5,10500150883.294193,47.655,-122.3035,60.0,3.533333333333333
2026-02-06T21:31:54+00:00,SAT-48107,206.83856062059144,42.970097231100524,776.094480185523,-4.268384274533613,149496.87254174665,10.5,10500149496.872541,47.655,-122.3035,60.0,3.55
2026-02-06T21:31:55+00:00,SAT-48107,206.47536094702815,43.31896593986647,771.8375388601924,-4.228136428366768,148087.22272076324,10.5,10500148087.222721,47.655,-122.3035,60.0,3.566666666666667
2026-02-06T21:31:56+00:00,SAT-48107,206.10383095848633,43.670100047635316,767.6207374821073,-4.18721712151573,146654.05550634357,10.5,10500146654.055506,47.655,-122.3035,60.0,3.5833333333333335
2026-02-06T21:31:57+00:00,SAT-48107,205.72371524269084,44.02345239871763,763.4447457118584,-4.145618141185126,145197.08325165344,10.5,10500145197.083252,47.655,-122.3035,60.0,3.6
2026-02-06T21:31:58+00:00,SAT-48107,205.3347495755384,44.37897125364141,759.3102414008144,-4.103331486413078,143716.02572916402,10.5,10500143716.025728,47.655,-122.3035,60.0,3.6166666666666667
2026-02-06T21:31:59+00:00,SAT-48107,204.9366606521845,44.73660005319216,755.2179103798567,-4.0603492725576515,142210.60678536264,10.5,10500142210.606785,47.655,-122.3035,60.0,3.6333333333333333
2026-02-06T21:32:00+00:00,SAT-48107,204.5291658310127,45.09627716343866,751.1684463433705,-4.016663823223394,140680.55756040945,10.5,10500140680.55756,47.655,-122.3035,60.0,3.65
2026-02-06T21:32:01+00:00,SAT-48107,204.11197287438557,45.45793561744649,747.1625506415578,-3.9722676545223994,139125.61593689324,10.5,10500139125.615936,47.655,-122.3035,60.0,3.6666666666666665
2026-02-06T21:32:02+00:00,SAT-48107,203.68477969873584,45.82150284433398,743.2009320884443,-3.9271534750720285,137545.52653975136,10.5,10500137545.526539,47.655,-122.3035,60.0,3.683333333333333
2026-02-06T21:32:03+00:00,SAT-48107,203.2472741357788,46.18690038666569,739.2843067698916,-3.881314290767836,135940.0444058612,10.5,10500135940.044405,47.655,-122.3035,60.0,3.7
2026-02-06T21:32:04+00:00,SAT-48107,202.79913369499783,46.554043615883934,735.4133977471163,-3.834743311979981,134308.93173366558,10.5,10500134308.931734,47.655,-122.3035,60.0,3.716666666666667
2026-02-06T21:32:05+00:00,SAT-48107,202.34002535382592,46.92284142752686,731.5889348527609,-3.7874340623530367,132651.96169380247,10.5,10500132651.961695,47.655,-122.3035,60.0,3.7333333333333334
2026-02-06T21:32:06+00:00,SAT-48107,201.8696053558177,47.29319593488516,727.8116543784632,-3.7393803621244373,130968.9178448465,10.5,10500130968.917845,47.655,-122.3035,60.0,3.75
2026-02-06T21:32:07+00:00,SAT-48107,201.3875190353629,47.66500214962191,724.0822987790552,-3.6905763735641615,129259.59572479871,10.5,10500129259.595724,47.655,-122.3035,60.0,3.7666666666666666
2026-02-06T21:32:08+00:00,SAT-48107,200.89340066640304,48.03814765543411,720.401616331449,-3.6410165904106147,127523.8024810866,10.5,10500127523.80248,47.655,-122.3035,60.0,3.783333333333333
2026-02-06T21:32:09+00:00,SAT-48107,200.386873347784,48.41251226954046,716.7703608040571,-3.590695912357479,125761.35947940868,10.5,10500125761.35948,47.655,-122.3035,60.0,3.8
2026-02-06T21:32:10+00:00,SAT-48107,199.86754891955826,48.78796770094671,713.1892910519246,-3.5396096087127007,123972.10103091839,10.5,10500123972.10103,47.655,-122.3035,60.0,3.816666666666667
2026-02-06T21:32:11+00:00,SAT-48107,199.33502793257415,49.16437719479547,709.6591706481066,-3.4877534079141577,122155.87752744152,10.5,10500122155.877527,47.655,-122.3035,60.0,3.8333333333333335
2026-02-06T21:32:12+00:00,SAT-48107,198.78889966063005,49.54159517646003,706.1807674257692,-3.435123478099018,120312.55476093294,10.5,10500120312.554762,47.655,-122.3035,60.0,3.85
2026-02-06T21:32:13+00:00,SAT-48107,198.22874217932562,49.919466884995046,702.7548530396681,-3.381716465905559,118442.01528248041,10.5,10500118442.015282,47.655,-122.3035,60.0,3.8666666666666667
2026-02-06T21:32:14+00:00,SAT-48107,197.65412251271042,50.297828003006835,699.3822024889307,-3.3275295487730485,116544.1602340677,10.5,10500116544.160234,47.655,-122.3035,60.0,3.8833333333333333
2026-02-06T21:32:15+00:00,SAT-48107,197.06459685437306,50.67650428596679,696.0635935876788,-3.2725604046165246,114618.90828645698,10.5,10500114618.908287,47.655,-122.3035,60.0,3.9
2026-02-06T21:32:16+00:00,SAT-48107,196.4597108896005,51.05531118320963,692.7998064658939,-3.2168072965733283,112666.19860737106,10.5,10500112666.198606,47.655,-122.3035,60.0,3.9166666666666665
2026-02-06T21:32:17+00:00,SAT-48107,195.8390002096668,51.43405346534623,689.5916229857631,-3.160269068068166,110685.99068865084,10.5,10500110685.990688,47.655,-122.3035,60.0,3.933333333333333
2026-02-06T21:32:18+00:00,SAT-48107,195.20199084855517,51.81252485019667,686.4398261629492,-3.10294518979841,108678.2659918793,10.5,10500108678.265991,47.655,-122.3035,60.0,3.95
2026-02-06T21:32:19+00:00,SAT-48107,194.54819994577636,52.19050763568452,683.3451995409985,-3.0448357596327007,106643.02794483028,10.5,10500106643.027945,47.655,-122.3035,60.0,3.966666666666667
2026-02-06T21:32:20+00:00,SAT-48107,193.87713656166432,52.56777233697236,680.3085265658499,-2.985941556069195,104580.30381380224,10.5,10500104580.303814,47.655,-122.3035,60.0,3.9833333333333334
2026-02-06T21:32:21+00:00,SAT-48107,193.188302650264,52.944077337587565,677.3305899070327,-2.926264048954172,102490.14507902932,10.5,10500102490.145079,47.655,-122.3035,60.0,4.0
2026-02-06T21:32:22+00:00,SAT-48107,192.48119421676574,53.31916855317915,674.4121707681694,-2.865805440202886,100372.62886089785,10.5,10500100372.62886,47.655,-122.3035,60.0,4.016666666666667
2026-02-06T21:32:23+00:00,SAT-48107,191.75530267173457,53.69277911593405,671.5540481568706,-2.8045686645345835,98227.85794568964,10.5,10500098227.857946,47.655,-122.3035,60.0,4.033333333333333
2026-02-06T21:32:24+00:00,SAT-48107,191.01011641193514,54.064629079390585,668.7569981538951,-2.7425574409643096,96055.96258904302,10.5,10500096055.96259,47.655,-122.3035,60.0,4.05
2026-02-06T21:32:25+00:00,SAT-48107,190.2451226354567,54.43442515562458,666.0217931309569,-2.67977626826133,93857.10035688746,10.5,10500093857.100357,47.655,-122.3035,60.0,4.066666666666666
2026-02-06T21:32:26+00:00,SAT-48107,189.45980942710463,54.801860483591376,663.3492009730619,-2.6162304975353687,91631.45866772062,10.5,10500091631.458668,47.655,-122.3035,60.0,4.083333333333333
2026-02-06T21:32:27+00:00,SAT-48107,188.65366811271755,55.166614445773796,660.7399842284506,-2.5519262726830294,89379.25270679027,10.5,10500089379.252707,47.655,-122.3035,60.0,4.1
2026-02-06T21:32:28+00:00,SAT-48107,187.82619594392227,55.52835252255027,658.194899317939,-2.4868706398709155,87100.7292606561,10.5,10500087100.729261,47.655,-122.3035,60.0,4.116666666666666
2026-02-06T21:32:29+00:00,SAT-48107,186.9768990805335,55.88672621569692,655.7146956350654,-2.4210714958409123,84796.1649066221,10.5,10500084796.164907,47.655,-122.3035,60.0,4.133333333333334
2026-02-06T21:32:30+00:00,SAT-48107,186.10529594107416,56.241373027631965,653.3001146977969,-2.3545376540058176,82465.86832768517,10.5,10500082465.868328,47.655,-122.3035,60.0,4.15
2026-02-06T21:32:31+00:00,SAT-48107,185.2109208987465,56.59191652255515,650.9518892343154,-2.287278816953893,80110.17934952813,10.5,10500080110.17935,47.655,-122.3035,60.0,4.166666666666667
2026-02-06T21:32:32+00:00,SAT-48107,184.2933283696743,56.93796646636638,648.6707422962252,-2.219305629909261,77729.47081292898,10.5,10500077729.470814,47.655,-122.3035,60.0,4.183333333333334
2026-02-06T21:32:33+00:00,SAT-48107,183.35209727302967,57.27911906816781,646.4573863184456,-2.150629671460199,75324.14824902664,10.5,10500075324.148249,47.655,-122.3035,60.0,4.2
2026-02-06T21:32:34+00:00,SAT-48107,182.3868358896263,57.61495732569419,644.3125221883475,-2.081263456080798,72894.64996763988,10.5,10500072894.649967,47.655,-122.3035,60.0,4.216666666666667
2026-02-06T21:32:35+00:00,SAT-48107,181.39718711533706,57.94505148815901,642.2368383123783,-2.011220457541218,70441.44787719373,10.5,10500070441.447878,47.655,-122.3035,60.0,4.233333333333333
2026-02-06T21:32:36+00:00,SAT-48107,180.3828340871627,58.268959652060644,640.2310096593352,-1.9405151053412544,67965.04735980774,10.5,10500067965.04736,47.655,-122.3035,60.0,4.25
2026-02-06T21:32:37+00:00,SAT-48107,179.3435061754224,58.586228498081105,638.2956968072002,-1.8691627788486602,65465.98706599528,10.5,10500065465.987066,47.655,-122.3035,60.0,4.266666666666667
2026-02-06T21:32:38+00:00,SAT-48107,178.27898531294534,58.89639418070024,636.4315449958175,-1.7971798298665145,62944.83970506824,10.5,10500062944.839705,47.655,-122.3035,60.0,4.283333333333333
2026-02-06T21:32:39+00:00,SAT-48107,177.18911260068862,59.1989833868245,634.6391831570639,-1.7245835485582341,60402.210851686796,10.5,10500060402.210852,47.655,-122.3035,60.0,4.3
2026-02-06T21:32:40+00:00,SAT-48107,176.07379516519754,59.4935145648621,632.9192229790069,-1.6513921732545607,57838.73928934158,10.5,10500057838.73929,47.655,-122.3035,60.0,4.316666666666666
2026-02-06T21:32:41+00:00,SAT-48107,174.93301316964423,59.779499340836274,631.2722579602769,-1.5776248840727365,55255.09678687024,10.5,10500055255.096786,47.655,-122.3035,60.0,4.333333333333333
2026-02-06T21:32:42+00:00,SAT-48107,173.76682689612542,60.05644412663914,629.698862470806,-1.5033017823496106,52651.9873781178,10.5,10500052651.987377,47.655,-122.3035,60.0,4.35
2026-02-06T21:32:43+00:00,SAT-48107,172.57538380260857,60.323851923370405,628.1995908330791,-1.4284438762876093,50030.146859197834,10.5,10500050030.14686,47.655,-122.3035,60.0,4.366666666666666
2026-02-06T21:32:44+00:00,SAT-48107,171.35892542682657,60.58122432327416,626.7749764176986,-1.3530730539173148,47390.3418415276,10.5,10500047390.34184,47.655,-122.3035,60.0,4.383333333333334
2026-02-06T21:32:45+00:00,SAT-48107,170.117794006172,60.82806370714144,625.4255307659148,-1.2772120838858432,44733.36977944039,10.5,10500044733.36978,47.655,-122.3035,60.0,4.4
2026-02-06T21:32:46+00:00,SAT-48107,168.8524386322384,61.06387563734251,624.1517427113706,-1.200884561817169,42060.0570914972,10.5,10500042060.05709,47.655,-122.3035,60.0,4.416666666666667
2026-02-06T21:32:47+00:00,SAT-48107,167.56342081856943,61.28817142725802,622.9540775553419,-1.124114900175047,39371.258805443314,10.5,10500039371.258806,47.655,-122.3035,60.0,4.433333333333334
2026-02-06T21:32:48+00:00,SAT-48107,166.2514192641917,61.50047088055339,621.832976252086,-1.0469282893551046,36667.85719548888,10.5,10500036667.857195,47.655,-122.3035,60.0,4.45
2026-02-06T21:32:49+00:00,SAT-48107,164.9172336539364,61.70030517532916,620.7888546329987,-0.9693506639438767,33950.76060055755,10.5,10500033950.760601,47.655,-122.3035,60.0,4.466666666666667
2026-02-06T21:32:50+00:00,SAT-48107,163.56178730754525,61.887219868701976,619.8221026644145,-0.8914086653835839,31220.902116649082,10.5,10500031220.902117,47.655,-122.3035,60.0,4.483333333333333
2026-02-06T21:32:51+00:00,SAT-48107,162.18612850272356,62.0607779901498,618.9330837426485,-0.8131295972538766,28479.23803061685,10.5,10500028479.238031,47.655,-122.3035,60.0,4.5
2026-02-06T21:32:52+00:00,SAT-48107,160.79143032047543,62.2205631857,618.1221340336327,-0.7345413915710174,25726.746639822682,10.5,10500025726.74664,47.655,-122.3035,60.0,4.516666666666667
2026-02-06T21:32:53+00:00,SAT-48107,159.3789888482535,62.366182873570565,617.389561846166,-0.6556725498074543,22964.426186392822,10.5,10500022964.426186,47.655,-122.3035,60.0,4.533333333333333
2026-02-06T21:32:54+00:00,SAT-48107,157.95021967299948,62.497271360324206,616.7356470639818,-0.5765521022433863,20193.293433537798,10.5,10500020193.293434,47.655,-122.3035,60.0,4.55
2026-02-06T21:32:55+00:00,SAT-48107,156.50665255587634,62.61349287168028,616.1606406183604,-0.49720955580931225,17414.381838777874,10.5,10500017414.381838,47.655,-122.3035,60.0,4.566666666666666
2026-02-06T21:32:56+00:00,SAT-48107,155.0499242743898,62.71454444397125,615.6647640127553,-0.41767484131426863,14628.739705652704,10.5,10500014628.739706,47.655,-122.3035,60.0,4.583333333333333
2026-02-06T21:32:57+00:00,SAT-48107,153.58176965116817,62.800158623528155,615.2482089000514,-0.3379782559037905,11837.428168355724,10.5,10500011837.42817,47.655,-122.3035,60.0,4.6
2026-02-06T21:32:58+00:00,SAT-48107,152.1040108512327,62.870105921141466,614.9111367172108,-0.2581504103779764,9041.519346589941,10.5,10500009041.519346,47.655,-122.3035,60.0,4.616666666666666
2026-02-06T21:32:59+00:00,SAT-48107,150.61854505746186,62.92419697315209,614.6536783724582,-0.17822216689136874,6242.094163554214,10.5,10500006242.094164,47.655,-122.3035,60.0,4.633333333333334
2026-02-06T21:33:00+00:00,SAT-48107,149.127330739864,62.962284361976536,614.4759339946016,-0.09822458522891478,3440.2404643001564,10.5,10500003440.240465,47.655,-122.3035,60.0,4.65
2026-02-06T21:33:01+00:00,SAT-48107,147.6323726895649,62.98426405848509,614.3779727359307,-0.018188857689927614,637.0507350930088,10.5,10500000637.050735,47.655,-122.3035,60.0,4.666666666666667
2026-02-06T21:33:02+00:00,SAT-48107,146.13570617134155,62.99007645189179,614.3598326400582,0.06185374697719388,-2166.3798602316265,10.5,10499997833.62014,47.655,-122.3035,60.0,4.683333333333334
2026-02-06T21:33:03+00:00,SAT-48107,144.63938044155148,62.979706945764626,614.4215205656757,0.1418719485437475,-4968.955755749361,10.5,10499995031.044245,47.655,-122.3035,60.0,4.7
2026-02-06T21:33:04+00:00,SAT-48107,143.14544196116967,62.95318610475123,614.5630121751035,0.22183451202123,-7769.582970038943,10.5,10499992230.41703,47.655,-122.3035,60.0,4.716666666666667
2026-02-06T21:33:05+00:00,SAT-48107,141.65591770891953,62.91058935019081,614.7842519794115,0.30171031244411134,-10567.171375149035,10.5,10499989432.828625,47.655,-122.3035,60.0,4.733333333333333
2026-02-06T21:33:06+00:00,SAT-48107,140.1727988502928,62.85203621001839,615.0851534481436,0.3814683909436273,-13360.636660539627,10.5,10499986639.36334,47.655,-122.3035,60.0,4.75
2026-02-06T21:33:07+00:00,SAT-48107,138.698025156796,62.77768914166875,615.4655991749739,0.4610780194569884,-16148.902599472258,10.5,10499983851.0974,47.655,-122.3035,60.0,4.766666666666667
2026-02-06T21:33:08+00:00,SAT-48107,137.23347041746027,62.687751952668066,615.9254411078894,0.5405087526668052,-18930.902868148387,10.5,10499981069.097132,47.655,-122.3035,60.0,4.783333333333333
2026-02-06T21:33:09+00:00,SAT-48107,135.78092915651072,62.58246785607579,616.4645008311804,0.6197304937410942,-21705.583348202475,10.5,10499978294.416653,47.655,-122.3035,60.0,4.8
2026-02-06T21:33:10+00:00,SAT-48107,134.34210481711858,62.462117199665,617.082569912991,0.6987135345413388,-24471.903534958365,10.5,10499975528.096464,47.655,-122.3035,60.0,4.816666666666666
2026-02-06T21:33:11+00:00,SAT-48107,132.91859964153682,62.327014920708514,617.7794102929686,0.7774286310268016,-27228.83917840727,10.5,10499972771.160822,47.655,-122.3035,60.0,4.833333333333333
2026-02-06T21:33:12+00:00,SAT-48107,131.51190627124672,62.177507769997376,618.5547547451207,0.8558470400994426,-29975.383573672647,10.5,10499970024.616426,47.655,-122.3035,60.0,4.85
2026-02-06T21:33:13+00:00,SAT-48107,130.12340120890224,62.01397136497739,619.4083073774126,0.9339405712908844,-32710.549371306348,10.5,10499967289.450628,47.655,-122.3035,60.0,4.866666666666666
2026-02-06T21:33:14+00:00,SAT-48107,128.7543401002259,61.836807121592905,620.3397441829156,1.0116816302562424,-35433.37010062656,10.5,10499964566.6299,47.655,-122.3035,60.0,4.883333333333334
2026-02-06T21:33:15+00:00,SAT-48107,127.40585480675999,61.646439117551196,621.3487136343333,1.08904328594731,-38142.90252240687,10.5,10499961857.097477,47.655,-122.3035,60.0,4.9
2026-02-06T21:33:16+00:00,SAT-48107,126.07895215089373,61.443310930982854,622.4348373455188,1.1659992791271454,-40838.2269270931,10.5,10499959161.773073,47.655,-122.3035,60.0,4.916666666666667
2026-02-06T21:33:17+00:00,SAT-48107,124.77451428565924,61.227882510186966,623.5977107414864,1.2425240837988492,-43518.44928629898,10.5,10499956481.550714,47.655,-122.3035,60.0,4.933333333333334
2026-02-06T21:33:18+00:00,SAT-48107,123.49330046829655,61.000627104332516,624.836903789685,1.318592938186387,-46182.70233788558,10.5,10499953817.297663,47.655,-122.3035,60.0,4.95
2026-02-06T21:33:19+00:00,SAT-48107,122.23595011000714,60.76202829557166,626.1519617621699,1.3941818804460497,-48830.1468367277,10.5,10499951169.853163,47.655,-122.3035,60.0,4.966666666666667
2026-02-06T21:33:20+00:00,SAT-48107,121.00298691448882,60.51257716077175,627.5424060333917,1.4692677735359332,-51459.97242574828,10.5,10499948540.027575,47.655,-122.3035,60.0,4.983333333333333
2026-02-06T21:33:21+00:00,SAT-48107,119.79482392983928,60.25276958826868,629.0077349027856,1.5438283314266115,-54071.398553927,10.5,10499945928.601446,47.655,-122.3035,60.0,5.0
2026-02-06T21:33:22+00:00,SAT-48107,118.61176932943198,59.98310376725516,630.5474244435042,1.6178421517747108,-56663.67562066709,10.5,10499943336.324379,47.655,-122.3035,60.0,5.016666666666667
2026-02-06T21:33:23+00:00,SAT-48107,117.45403274022179,59.7040778613549,632.1609293837322,1.6912887333936018,-59236.085587692854,10.5,10499940763.914412,47.655,-122.3035,60.0,5.033333333333333
2026-02-06T21:33:24+00:00,SAT-48107,116.32173196781797,59.41618787690908,633.8476840054292,1.7641484838249826,-61787.94224423857,10.5,10499938212.057756,47.655,-122.3035,60.0,5.05
2026-02-06T21:33:25+00:00,SAT-48107,115.21489997002219,59.119925731046955,635.6071030506216,1.8364027436227641,-64318.59205757279,10.5,10499935681.407942,47.655,-122.3035,60.0,5.066666666666666
2026-02-06T21:33:26+00:00,SAT-48107,114.13349193393334,58.815777516314164,637.4385826519122,1.9080337964295435,-66827.41452591916,10.5,10499933172.585474,47.655,-122.3035,60.0,5.083333333333333
2026-02-06T21:33:27+00:00,SAT-48107,113.07739234749573,58.50422196075702,639.3415012730422,1.979024879596109,-69313.82255039633,10.5,10499930686.17745,47.655,-122.3035,60.0,5.1
2026-02-06T21:33:28+00:00,SAT-48107,112.0464219645281,58.18572907715025,641.3152206600417,2.0493601805907415,-71777.26230925658,10.5,10499928222.73769,47.655,-122.3035,60.0,5.116666666666666
2026-02-06T21:33:29+00:00,SAT-48107,111.04034458620782,57.860758995327686,643.3590867888,2.1190248468200528,-74217.21360185303,10.5,10499925782.786398,47.655,-122.3035,60.0,5.133333333333334
2026-02-06T21:33:30+00:00,SAT-48107,110.05887358433256,57.52976096544654,645.4724308224312,2.1880049819747582,-76633.18972065322,10.5,10499923366.81028,47.655,-122.3035,60.0,5.15
2026-02-06T21:33:31+00:00,SAT-48107,109.10167811993361,57.193172523318275,647.6545700649938,2.256287646523032,-79024.73746851842,10.5,10499920975.262531,47.655,-122.3035,60.0,5.166666666666667
2026-02-06T21:33:32+00:00,SAT-48107,108.16838901714561,56.85141880529875,649.9048089157044,2.3238608430778425,-81391.43664620591,10.5,10499918608.563354,47.655,-122.3035,60.0,5.183333333333334
2026-02-06T21:33:33+00:00,SAT-48107,107.2586042707958,56.50491200285946,652.2224398085546,2.3907135183591897,-83732.90012109473,10.5,10499916267.099878,47.655,-122.3035,60.0,5.2
2026-02-06T21:33:34+00:00,SAT-48107,106.37189416480675,56.15405094195643,654.6067441538894,2.4568355533322257,-86048.77348178107,10.5,10499913951.226519,47.655,-122.3035,60.0,5.216666666666667
2026-02-06T21:33:35+00:00,SAT-48107,105.50780599928345,55.79922077692323,657.0569932701464,2.522217744919096,-88338.73439754949,10.5,10499911661.265602,47.655,-122.3035,60.0,5.233333333333333
2026-02-06T21:33:36+00:00,SAT-48107,104.66586842915444,55.4407927882672,659.5724492973577,2.586851776802095,-90602.4915957759,10.5,10499909397.508404,47.655,-122.3035,60.0,5.25
2026-02-06T21:33:37+00:00,SAT-48107,103.845595422968,55.07912427443247,662.1523660815315,2.6507302486850497,-92839.78588678513,10.5,10499907160.214113,47.655,-122.3035,60.0,5.266666666666667
2026-02-06T21:33:38+00:00,SAT-48107,103.04648983533015,54.7145585185907,664.7959900882207,2.713846604600925,-95050.3876528799,10.5,10499904949.612347,47.655,-122.3035,60.0,5.283333333333333
2026-02-06T21:33:39+00:00,SAT-48107,102.26804663937074,54.34742483462928,667.5025612445855,2.7761951480319893,-97234.09737791299,10.5,10499902765.902622,47.655,-122.3035,60.0,5.3
2026-02-06T21:33:40+00:00,SAT-48107,101.5097558090637,53.97803867064248,670.2713137965405,2.837771006779763,-99390.74441688426,10.5,10499900609.255583,47.655,-122.3035,60.0,5.316666666666666
2026-02-06T21:33:41+00:00,SAT-48107,100.77110488702918,53.60670176834297,673.1014771308634,2.8985701216248536,-101520.18659876013,10.5,10499898479.813402,47.655,-122.3035,60.0,5.333333333333333
2026-02-06T21:33:42+00:00,SAT-48107,100.05158125095231,53.23370236718228,675.9922765859949,2.9585892092332693,-103622.30892729573,10.5,10499896377.691072,47.655,-122.3035,60.0,5.35
2026-02-06T21:33:43+00:00,SAT-48107,99.35067410686422,52.85931544938283,678.9429342258435,3.0178257495426553,-105697.02313924748,10.5,10499894302.97686,47.655,-122.3035,60.0,5.366666666666666
2026-02-06T21:33:44+00:00,SAT-48107,98.66787622397533,52.48380301611072,681.9526696010117,3.076277948854612,-107744.26641171015,10.5,10499892255.73359,47.655,-122.3035,60.0,5.383333333333334
2026-02-06T21:33:45+00:00,SAT-48107,98.00268543818619,52.10741439205287,685.0207004732117,3.1339447230584887,-109764.00077454295,10.5,10499890235.999226,47.655,-122.3035,60.0,5.4
2026-02-06T21:33:46+00:00,SAT-48107,97.35460593960029,51.730386550584285,688.1462435229521,3.190825692724268,-111756.21293850165,10.5,10499888243.787062,47.655,-122.3035,60.0,5.416666666666667
2026-02-06T21:33:47+00:00,SAT-48107,96.72314936247558,51.35294445360036,691.3285150523279,3.246921083327588,-113720.9108006969,10.5,10499886279.0892,47.655,-122.3035,60.0,5.433333333333334
2026-02-06T21:33:48+00:00,SAT-48107,96.1078357139496,50.97530141314527,694.5667315883064,3.302231810786181,-115658.12644044202,10.5,10499884341.87356,47.655,-122.3035,60.0,5.45
2026-02-06T21:33:49+00:00,SAT-48107,95.50819412383977,50.59765944918522,697.8601105713157,3.3567593376828495,-117567.91108357343,10.5,10499882432.088917,47.655,-122.3035,60.0,5.466666666666667
2026-02-06T21:33:50+00:00,SAT-48107,94.9237634750628,50.22020966747168,701.207870900447,3.4105057416277567,-119450.33749678734,10.5,10499880549.662502,47.655,-122.3035,60.0,5.483333333333333
2026-02-06T21:33:51+00:00,SAT-48107,94.3540928912205,49.843132629923765,704.6092335468312,3.4634736090491356,-121305.49626774107,10.5,10499878694.503733,47.655,-122.3035,60.0,5.5
2026-02-06T21:33:52+00:00,SAT-48107,93.7987421261084,49.46659873522886,708.0634220610939,3.5156660872201275,-123133.49762725297,10.5,10499876866.502373,47.655,-122.3035,60.0,5.516666666666667
2026-02-06T21:33:53+00:00,SAT-48107,93.25728184161777,49.090768589841836,711.5696631326961,3.5670867811916893,-124934.4678394569,10.5,10499875065.53216,47.655,-122.3035,60.0,5.533333333333333
2026-02-06T21:33:54+00:00,SAT-48107,92.72929381121945,48.71579338481205,715.1271870464853,3.61773979280557,-126708.5505682017,10.5,10499873291.449432,47.655,-122.3035,60.0,5.55
2026-02-06T21:33:55+00:00,SAT-48107,92.2143710373765,48.34181526145879,718.7352281781543,3.667629626910236,-128455.90359233612,10.5,10499871544.096407,47.655,-122.3035,60.0,5.566666666666666
2026-02-06T21:33:56+00:00,SAT-48107,91.71211781261138,47.968967678866505,722.3930253961679,3.716761246787186,-130176.70074697294,10.5,10499869823.299253,47.655,-122.3035,60.0,5.583333333333333
2026-02-06T21:33:57+00:00,SAT-48107,91.22214971200093,47.5973757665845,726.0998225189657,3.7651399673325616,-131871.128182257,10.5,10499868128.871819,47.655,-122.3035,60.0,5.6
2026-02-06T21:33:58+00:00,SAT-48107,90.7440935474644,47.22715667849023,729.854868665635,3.8127714992191577,-133539.38591010572,10.5,10499866460.61409,47.655,-122.3035,60.0,5.616666666666666
2026-02-06T21:33:59+00:00,SAT-48107,90.27758727066562,46.85841993172555,733.657418650627,3.8596618478493734,-135181.6842651139,10.5,10499864818.315735,47.655,-122.3035,60.0,5.633333333333334
2026-02-06T21:34:00+00:00,SAT-48107,89.82227984963167,46.49126774468358,737.5067332776957,3.9058174078624854,-136798.24721459838,10.5,10499863201.752785,47.655,-122.3035,60.0,5.65
2026-02-06T21:34:01+00:00,SAT-48107,89.37783110126504,46.12579535466862,741.4020797280907,3.951244794645826,-138389.30645740652,10.5,10499861610.693542,47.655,-122.3035,60.0,5.666666666666667
2026-02-06T21:34:02+00:00,SAT-48107,88.94391151562608,45.762091340229084,745.3427317807135,3.995950919465157,-139955.10405529998,10.5,10499860044.895945,47.655,-122.3035,60.0,5.683333333333334
2026-02-06T21:34:03+00:00,SAT-48107,88.52020204792052,45.400237924562006,749.3279701072049,4.039942966062431,-141495.8916133091,10.5,10499858504.108387,47.655,-122.3035,60.0,5.7
2026-02-06T21:34:04+00:00,SAT-48107,88.10639389481977,45.040311269629015,753.3570825436873,4.08322832447273,-143011.9279617223,10.5,10499856988.072039,47.655,-122.3035,60.0,5.716666666666667
2026-02-06T21:34:05+00:00,SAT-48107,87.70218826181731,44.682381764646294,757.4293642965077,4.12581459362713,-144503.4792472493,10.5,10499855496.520752,47.655,-122.3035,60.0,5.733333333333333
2026-02-06T21:34:06+00:00,SAT-48107,87.30729611806795,44.32651430264277,761.5441181505716,4.1677095538628235,-145970.8179702094,10.5,10499854029.18203,47.655,-122.3035,60.0,5.75
2026-02-06T21:34:07+00:00,SAT-48107,86.92143794426157,43.972768547934926,765.7006546502646,4.208921187924299,-147414.2237200815,10.5,10499852585.77628,47.655,-122.3035,60.0,5.766666666666667
2026-02-06T21:34:08+00:00,SAT-48107,86.54434347170306,43.62119919056172,769.8982923013152,4.249457591214132,-148833.98003210739,10.5,10499851166.019968,47.655,-122.3035,60.0,5.783333333333333
2026-02-06T21:34:09+00:00,SAT-48107,86.17575142454356,43.27185619724044,774.1363576831524,4.289327034022221,-150230.3765668225,10.5,10499849769.623434,47.655,-122.3035,60.0,5.8
2026-02-06T21:34:10+00:00,SAT-48107,85.81540925344083,42.92478504617603,778.4141856233236,4.328537842098319,-151603.70492720118,10.5,10499848396.295073,47.655,-122.3035,60.0,5.816666666666666
2026-02-06T21:34:11+00:00,SAT-48107,85.4630728776769,42.58002696103309,782.7311192528053,4.367098533067636,-152954.26343650772,10.5,10499847045.736563,47.655,-122.3035,60.0,5.833333333333333
2026-02-06T21:34:12+00:00,SAT-48107,85.11850641616093,42.23761912347987,787.0865101973654,4.405017634515601,-154282.35076685552,10.5,10499845717.649233,47.655,-122.3035,60.0,5.85
2026-02-06T21:34:13+00:00,SAT-48107,84.78148193404446,41.89759489028549,791.4797185874954,4.4423037833979295,-155588.2694209681,10.5,10499844411.73058,47.655,-122.3035,60.0,5.866666666666666
2026-02-06T21:34:14+00:00,SAT-48107,84.45177918328292,41.55998399257618,795.9101131674879,4.478965670604785,-156872.32379058126,10.5,10499843127.676208,47.655,-122.3035,60.0,5.883333333333334
2026-02-06T21:34:15+00:00,SAT-48107,84.12918535063483,41.22481273000439,800.377071349227,4.515012028152105,-158134.81970782968,10.5,10499841865.180292,47.655,-122.3035,60.0,5.9
2026-02-06T21:34:16+00:00,SAT-48107,83.81349480983705,40.892104156640904,804.8799792532034,4.550451640456592,-159376.0648401442,10.5,10499840623.93516,47.655,-122.3035,60.0,5.916666666666667
2026-02-06T21:34:17+00:00,SAT-48107,83.50450887749471,40.56187825715211,809.4182317607741,4.585293289642491,-160596.36677466438,10.5,10499839403.633224,47.655,-122.3035,60.0,5.933333333333334
2026-02-06T21:34:18+00:00,SAT-48107,83.20203557700296,40.23415211841284,813.9912325118776,4.619545782996524,-161796.03397982582,10.5,10499838203.96602,47.655,-122.3035,60.0,5.95
