DopplerPredictor/satellites_20260211_205513/SAT-49741.csv

timestamp,satellite,azimuth_deg,elevation_deg,distance_km,relative_velocity_kms,doppler_shift_hz,tx_freq_ghz,rx_freq_hz,ue_lat,ue_lon,ue_alt_m,time_minutes
2026-02-06T21:35:31+00:00,SAT-49741,227.4403953139529,40.00177439164517,806.0162023294811,-5.046882565448169,176763.1757340799,10.5,10500176763.175734,47.655,-122.3035,60.0,7.166666666666667
2026-02-06T21:35:32+00:00,SAT-49741,227.31040282533226,40.36499954752381,800.9828497597209,-5.017179512439382,175722.84917392253,10.5,10500175722.849174,47.655,-122.3035,60.0,7.183333333333334
2026-02-06T21:35:33+00:00,SAT-49741,227.17726762487464,40.73225883168523,795.9791206131838,-4.986907347139933,174662.58989400358,10.5,10500174662.589893,47.655,-122.3035,60.0,7.2
2026-02-06T21:35:34+00:00,SAT-49741,227.04087815801762,41.10359627789773,791.0055824764484,-4.956055210654867,173582.01756988865,10.5,10500173582.01757,47.655,-122.3035,60.0,7.216666666666667
2026-02-06T21:35:35+00:00,SAT-49741,226.90111760785337,41.47905538811634,786.0628137658778,-4.924612064709495,172480.74559450624,10.5,10500172480.745594,47.655,-122.3035,60.0,7.233333333333333
2026-02-06T21:35:36+00:00,SAT-49741,226.75786358807392,41.8586790411324,781.1514039065172,-4.8925667987032355,171358.38482762623,10.5,10500171358.384829,47.655,-122.3035,60.0,7.25
2026-02-06T21:35:37+00:00,SAT-49741,226.6109878113941,42.24250940279816,776.2719534042269,-4.859908191341047,170214.54225203022,10.5,10500170214.542252,47.655,-122.3035,60.0,7.266666666666667
2026-02-06T21:35:38+00:00,SAT-49741,226.46035573575142,42.63058782666818,771.4250739560797,-4.82662490557588,169048.82079637487,10.5,10500169048.820797,47.655,-122.3035,60.0,7.283333333333333
2026-02-06T21:35:39+00:00,SAT-49741,226.30582618579513,43.022954746944016,766.6113885658015,-4.792705513115414,167860.8201935215,10.5,10500167860.820194,47.655,-122.3035,60.0,7.3
2026-02-06T21:35:40+00:00,SAT-49741,226.1472509466469,43.41964956558821,761.8315316347732,-4.758138517188279,166650.13777790542,10.5,10500166650.137777,47.655,-122.3035,60.0,7.316666666666666
2026-02-06T21:35:41+00:00,SAT-49741,225.98447432737046,43.820710533154255,757.0861490303266,-4.722912369775867,165416.36908906695,10.5,10500165416.36909,47.655,-122.3035,60.0,7.333333333333333
2026-02-06T21:35:42+00:00,SAT-49741,225.81733269196585,44.22617462248973,752.3758981368521,-4.687015401564795,164159.10541829022,10.5,10500164159.10542,47.655,-122.3035,60.0,7.35
2026-02-06T21:35:43+00:00,SAT-49741,225.64565395877167,44.63607738715168,747.701447976771,-4.650435943491599,162877.9380656127,10.5,10500162877.938066,47.655,-122.3035,60.0,7.366666666666666
2026-02-06T21:35:44+00:00,SAT-49741,225.46925705780848,45.050452820271445,743.0634792102837,-4.6131623026155015,161572.45749478717,10.5,10500161572.457495,47.655,-122.3035,60.0,7.383333333333334
2026-02-06T21:35:45+00:00,SAT-49741,225.28795134818745,45.46933320115225,738.4626841591851,-4.575182696487938,160242.25103462525,10.5,10500160242.251034,47.655,-122.3035,60.0,7.4
2026-02-06T21:35:46+00:00,SAT-49741,225.10153599447875,45.892748924660104,733.8997668961312,-4.5364854269468085,158886.90896600706,10.5,10500158886.908966,47.655,-122.3035,60.0,7.416666666666667
2026-02-06T21:35:47+00:00,SAT-49741,224.9097992873494,46.32072833449828,729.375443160579,-4.497058717577641,157506.0188290835,10.5,10500157506.01883,47.655,-122.3035,60.0,7.433333333333334
2026-02-06T21:35:48+00:00,SAT-49741,224.71251791939915,46.75329752897257,724.8904404368293,-4.4568908701709455,156099.17090307496,10.5,10500156099.170902,47.655,-122.3035,60.0,7.45
2026-02-06T21:35:49+00:00,SAT-49741,224.50945619669548,47.19048016770353,720.4454978760302,-4.415970244085447,154665.95748348412,10.5,10500154665.957483,47.655,-122.3035,60.0,7.466666666666667
2026-02-06T21:35:50+00:00,SAT-49741,224.30036518919982,47.632297262374465,716.0413662387654,-4.374285183244091,153205.97032518729,10.5,10500153205.970325,47.655,-122.3035,60.0,7.483333333333333
2026-02-06T21:35:51+00:00,SAT-49741,224.08498181719227,48.07876694467375,711.6788079104463,-4.331824221412778,151718.80783216422,10.5,10500151718.807833,47.655,-122.3035,60.0,7.5
2026-02-06T21:35:52+00:00,SAT-49741,223.86302785302894,48.529904238340116,707.3585967119794,-4.288575907495622,150204.06893859894,10.5,10500150204.06894,47.655,-122.3035,60.0,7.516666666666667
2026-02-06T21:35:53+00:00,SAT-49741,223.63420885137145,48.98572079612646,703.0815178846682,-4.244528986603621,148661.35945067045,10.5,10500148661.359451,47.655,-122.3035,60.0,7.533333333333333
2026-02-06T21:35:54+00:00,SAT-49741,223.39821298086392,49.44622463653493,698.8483678945328,-4.199672301348334,147090.2885894398,10.5,10500147090.28859,47.655,-122.3035,60.0,7.55
2026-02-06T21:35:55+00:00,SAT-49741,223.15470976476175,49.911419850147986,694.6599543350696,-4.153994917284757,145490.4733843903,10.5,10500145490.473385,47.655,-122.3035,60.0,7.566666666666666
2026-02-06T21:35:56+00:00,SAT-49741,222.90334870785333,50.38130629779324,690.5170957049068,-4.107486069353087,143861.5367975915,10.5,10500143861.536798,47.655,-122.3035,60.0,7.583333333333333
2026-02-06T21:35:57+00:00,SAT-49741,222.64375781052627,50.85587927973098,686.4206212388726,-4.060135269192884,142203.11148229512,10.5,10500142203.111483,47.655,-122.3035,60.0,7.6
2026-02-06T21:35:58+00:00,SAT-49741,222.3755419480465,51.335129191996884,682.3713706320377,-4.011932242577281,140514.8375916163,10.5,10500140514.837591,47.655,-122.3035,60.0,7.616666666666666
2026-02-06T21:35:59+00:00,SAT-49741,222.0982811142145,51.81904114869117,678.3701938261561,-3.962867051953024,138796.36707040426,10.5,10500138796.367071,47.655,-122.3035,60.0,7.633333333333334
2026-02-06T21:36:00+00:00,SAT-49741,221.8115285024245,52.30759458957587,674.4179506738939,-3.9129300482985983,137047.36196911024,10.5,10500137047.361969,47.655,-122.3035,60.0,7.65
2026-02-06T21:36:01+00:00,SAT-49741,221.5148084213648,52.80076285062631,670.5155106510704,-3.8621120004789873,135267.49897433832,10.5,10500135267.498974,47.655,-122.3035,60.0,7.666666666666667
2026-02-06T21:36:02+00:00,SAT-49741,221.20761401431056,53.2985127166229,666.6637524398933,-3.810403985500569,133456.46556510765,10.5,10500133456.465565,47.655,-122.3035,60.0,7.683333333333334
2026-02-06T21:36:03+00:00,SAT-49741,220.88940478329135,53.80080392300989,662.863563621642,-3.757797607617368,131613.96768688012,10.5,10500131613.967688,47.655,-122.3035,60.0,7.7
2026-02-06T21:36:04+00:00,SAT-49741,220.5596038693069,54.307588645750904,659.1158401508346,-3.7042848731269187,129739.72536638213,10.5,10500129739.725367,47.655,-122.3035,60.0,7.716666666666667
2026-02-06T21:36:05+00:00,SAT-49741,220.2175950955523,54.81881093154231,655.4214859542611,-3.6498582964915083,127833.47642841915,10.5,10500127833.476429,47.655,-122.3035,60.0,7.733333333333333
2026-02-06T21:36:06+00:00,SAT-49741,219.86271972869662,55.33440609397538,651.7814124241822,-3.5945109944708973,125894.97979280193,10.5,10500125894.979794,47.655,-122.3035,60.0,7.75
2026-02-06T21:36:07+00:00,SAT-49741,219.49427292968048,55.854300070989446,648.1965378176451,-3.538236607488396,123924.01272025381,10.5,10500123924.01272,47.655,-122.3035,60.0,7.766666666666667
2026-02-06T21:36:08+00:00,SAT-49741,219.1114998818309,56.37840871416124,644.6677867342244,-3.481029435250328,121920.37556237805,10.5,10500121920.375563,47.655,-122.3035,60.0,7.783333333333333
2026-02-06T21:36:09+00:00,SAT-49741,218.71359154062398,56.90663703426162,641.1960894585081,-3.4228844378212973,119883.89179931811,10.5,10500119883.8918,47.655,-122.3035,60.0,7.8
2026-02-06T21:36:10+00:00,SAT-49741,218.2996799824602,57.43887837799943,637.7823813015067,-3.3637972970865015,117814.41019242807,10.5,10500117814.410192,47.655,-122.3035,60.0,7.816666666666666
2026-02-06T21:36:11+00:00,SAT-49741,217.86883330534295,57.9750135376112,634.4276018807698,-3.303764446610668,115711.80583005866,10.5,10500115711.80583,47.655,-122.3035,60.0,7.833333333333333
2026-02-06T21:36:12+00:00,SAT-49741,217.42005004241383,58.51490978055712,631.1326943707209,-3.242783106204109,113575.98133820678,10.5,10500113575.981339,47.655,-122.3035,60.0,7.85
2026-02-06T21:36:13+00:00,SAT-49741,216.95225304033988,59.05841979075232,627.8986047185205,-3.1808513444122797,111406.86906916428,10.5,10500111406.86907,47.655,-122.3035,60.0,7.866666666666666
2026-02-06T21:36:14+00:00,SAT-49741,216.4642827491878,59.60538051566732,624.726280797605,-3.117968149757013,109204.43359668719,10.5,10500109204.433598,47.655,-122.3035,60.0,7.883333333333334
2026-02-06T21:36:15+00:00,SAT-49741,215.9548898662494,60.155611909823655,621.6166714901779,-3.0541333969545117,106968.67053280697,10.5,10500106968.670532,47.655,-122.3035,60.0,7.9
2026-02-06T21:36:16+00:00,SAT-49741,215.42272729639043,60.708915543239954,618.5707258033902,-2.9893479416782647,104699.60984682871,10.5,10500104699.609846,47.655,-122.3035,60.0,7.916666666666667
2026-02-06T21:36:17+00:00,SAT-49741,214.8663413498186,61.26507308166021,615.5893918910137,-2.923613682027462,102397.31801821497,10.5,10500102397.318018,47.655,-122.3035,60.0,7.933333333333334
2026-02-06T21:36:18+00:00,SAT-49741,214.28416212208518,61.82384461701208,612.6736160138089,-2.8569335586800992,100061.89804194821,10.5,10500100061.898043,47.655,-122.3035,60.0,7.95
2026-02-06T21:36:19+00:00,SAT-49741,213.67449301080313,62.38496681771602,609.8243414997429,-2.7893115951695187,97693.49083918564,10.5,10500097693.490839,47.655,-122.3035,60.0,7.966666666666667
2026-02-06T21:36:20+00:00,SAT-49741,213.03549930974853,62.94815088423603,607.0425076640349,-2.7207529928572174,95292.27858360861,10.5,10500095292.278584,47.655,-122.3035,60.0,7.983333333333333
2026-02-06T21:36:21+00:00,SAT-49741,212.36519582015526,63.51308029741336,604.3290486344878,-2.651264095868479,92858.48347332017,10.5,10500092858.483473,47.655,-122.3035,60.0,8.0
2026-02-06T21:36:22+00:00,SAT-49741,211.66143347783108,64.07940830704504,601.6848922117857,-2.5808524757822413,90392.37069704247,10.5,10500090392.370697,47.655,-122.3035,60.0,8.016666666666667
2026-02-06T21:36:23+00:00,SAT-49741,210.92188495635833,64.64675515481144,599.1109586453338,-2.5095269505259465,87894.24909589434,10.5,10500087894.249096,47.655,-122.3035,60.0,8.033333333333333
2026-02-06T21:36:24+00:00,SAT-49741,210.1440292811067,65.21470498599528,596.6081593902472,-2.437297605251048,85364.4718945398,10.5,10500085364.471895,47.655,-122.3035,60.0,8.05
2026-02-06T21:36:25+00:00,SAT-49741,209.32513551923302,65.78280241441401,594.177395843529,-2.3641758550001937,82803.438896058,10.5,10500082803.438896,47.655,-122.3035,60.0,8.066666666666666
2026-02-06T21:36:26+00:00,SAT-49741,208.46224565642422,66.35054871226473,591.8195580177397,-2.290174413949764,80211.59540468668,10.5,10500080211.595406,47.655,-122.3035,60.0,8.083333333333334
2026-02-06T21:36:27+00:00,SAT-49741,207.55215690626636,66.91739756321928,589.5355232453496,-2.2153073923812565,77589.4356221703,10.5,10500077589.435621,47.655,-122.3035,60.0,8.1
2026-02-06T21:36:28+00:00,SAT-49741,206.59140373348546,67.48275036819511,587.326154786375,-2.1395902248212924,74937.50013091914,10.5,10500074937.500132,47.655,-122.3035,60.0,8.116666666666667
2026-02-06T21:36:29+00:00,SAT-49741,205.57624014565934,68.04595102287193,585.192300507683,-2.0630397720622917,72256.37946720482,10.5,10500072256.379467,47.655,-122.3035,60.0,8.133333333333333
2026-02-06T21:36:30+00:00,SAT-49741,204.50262287495622,68.60628017360814,583.1347914605501,-1.9856742820078248,69546.71274979893,10.5,10500069546.71275,47.655,-122.3035,60.0,8.15
2026-02-06T21:36:31+00:00,SAT-49741,203.3661964776955,69.16294888794867,581.1544404972694,-1.9075133932512398,66809.1878053117,10.5,10500066809.187805,47.655,-122.3035,60.0,8.166666666666666
2026-02-06T21:36:32+00:00,SAT-49741,202.16228165667843,69.71509173392472,579.2520408841884,-1.828578163495949,64044.5421635906,10.5,10500064044.542164,47.655,-122.3035,60.0,8.183333333333334
2026-02-06T21:36:33+00:00,SAT-49741,200.88586855579575,70.26175928116645,577.4283648864051,-1.7488910570927358,61253.5626212242,10.5,10500061253.562622,47.655,-122.3035,60.0,8.2
2026-02-06T21:36:34+00:00,SAT-49741,199.5316173705101,70.80191005056194,575.6841623648894,-1.6684759068569506,58437.083904218765,10.5,10500058437.083904,47.655,-122.3035,60.0,8.216666666666667
2026-02-06T21:36:35+00:00,SAT-49741,198.0938693050591,71.33440198793855,574.0201594116892,-1.587357952466545,55595.99001285991,10.5,10500055595.990013,47.655,-122.3035,60.0,8.233333333333333
2026-02-06T21:36:36+00:00,SAT-49741,196.5666716241943,71.8579836352122,572.4370569468377,-1.5055637672398028,52731.21165715893,10.5,10500052731.211657,47.655,-122.3035,60.0,8.25
2026-02-06T21:36:37+00:00,SAT-49741,194.94382162024573,72.37128520402038,570.9355293882903,-1.4231212813977636,49843.72707160137,10.5,10500049843.727072,47.655,-122.3035,60.0,8.266666666666667
2026-02-06T21:36:38+00:00,SAT-49741,193.21893512414502,72.87280994132286,569.5162232986571,-1.340059717857773,46934.559766365484,10.5,10500046934.559767,47.655,-122.3035,60.0,8.283333333333333
2026-02-06T21:36:39+00:00,SAT-49741,191.38554632217006,73.36092627156899,568.1797560959747,-1.2564095538456705,44004.777182818725,10.5,10500044004.777184,47.655,-122.3035,60.0,8.3
2026-02-06T21:36:40+00:00,SAT-49741,189.43724632722333,73.83386142727223,566.9267148027583,-1.1722025162148353,41055.49052957086,10.5,10500041055.49053,47.655,-122.3035,60.0,8.316666666666666
2026-02-06T21:36:41+00:00,SAT-49741,187.36786824990628,74.28969751405849,565.7576547997255,-1.0874714892964095,38087.85155499909,10.5,10500038087.851555,47.655,-122.3035,60.0,8.333333333333334
2026-02-06T21:36:42+00:00,SAT-49741,185.17172624085075,74.72637116710501,564.6730986714208,-1.0022504952414868,35103.051858748266,10.5,10500035103.051859,47.655,-122.3035,60.0,8.35
2026-02-06T21:36:43+00:00,SAT-49741,182.84391396332407,75.1416782784003,563.6735350714465,-0.9165746089319726,32102.31991154932,10.5,10500032102.319912,47.655,-122.3035,60.0,8.366666666666667
2026-02-06T21:36:44+00:00,SAT-49741,180.380664519356,75.53328545501186,562.7594176725538,-0.8304799174155617,29086.919634460577,10.5,10500029086.919634,47.655,-122.3035,60.0,8.383333333333333
2026-02-06T21:36:45+00:00,SAT-49741,177.77976746912614,75.8987500532955,561.9311641571907,-0.7440034336357508,26058.147377327896,10.5,10500026058.147377,47.655,-122.3035,60.0,8.4
2026-02-06T21:36:46+00:00,SAT-49741,175.0410297040042,76.23555056467282,561.1891552940882,-0.6571830345327028,23017.329750815075,10.5,10500023017.32975,47.655,-122.3035,60.0,8.416666666666666
2026-02-06T21:36:47+00:00,SAT-49741,172.16675482639974,76.54112884786004,560.5337340765797,-0.5700573783145982,19965.820728896662,10.5,10500019965.820728,47.655,-122.3035,60.0,8.433333333333334
2026-02-06T21:36:48+00:00,SAT-49741,169.16220195196544,76.81294499447394,559.9652049434285,-0.48266581840681716,16904.99863499428,10.5,10500016904.998634,47.655,-122.3035,60.0,8.45
2026-02-06T21:36:49+00:00,SAT-49741,166.03597120418533,77.04854448242027,559.483833085473,-0.39504832699599196,13836.263464165984,10.5,10500013836.263464,47.655,-122.3035,60.0,8.466666666666667
2026-02-06T21:36:50+00:00,SAT-49741,162.8002531934294,77.24563569547637,559.0898438285249,-0.30724540012689033,10761.033559197638,10.5,10500010761.03356,47.655,-122.3035,60.0,8.483333333333333
2026-02-06T21:36:51+00:00,SAT-49741,159.47087817680855,77.402173984573,558.7834221109159,-0.2192979639165558,7680.7423258254075,10.5,10500007680.742327,47.655,-122.3035,60.0,8.5
2026-02-06T21:36:52+00:00,SAT-49741,156.0671111934955,77.51644655175288,558.5647120545774,-0.1312472880688978,4596.835203650877,10.5,10500004596.835203,47.655,-122.3035,60.0,8.516666666666667
2026-02-06T21:36:53+00:00,SAT-49741,152.6111644143886,77.58715095551234,558.4338166223757,-0.04313488214119252,1510.7660329551102,10.5,10500001510.766033,47.655,-122.3035,60.0,8.533333333333333
2026-02-06T21:36:54+00:00,SAT-49741,149.12743612454855,77.61345943083742,558.3907973789009,0.04499759740658096,-1576.0062008267735,10.5,10499998423.9938,47.655,-122.3035,60.0,8.55
2026-02-06T21:36:55+00:00,SAT-49741,145.64152930067186,77.59506189750638,558.4356743439586,0.13310844677040523,-4662.020854071168,10.5,10499995337.979145,47.655,-122.3035,60.0,8.566666666666666
2026-02-06T21:36:56+00:00,SAT-49741,142.17914263939053,77.53218253369829,558.568425945352,0.22115601271984733,-7745.819054455323,10.5,10499992254.180946,47.655,-122.3035,60.0,8.583333333333334
2026-02-06T21:36:57+00:00,SAT-49741,138.76495126357418,77.42556786930604,558.7889890693215,0.30909879107167393,-10825.947149919883,10.5,10499989174.05285,47.655,-122.3035,60.0,8.6
2026-02-06T21:36:58+00:00,SAT-49741,135.42159638280137,77.27644786890184,559.0972592091898,0.3968955235613672,-13900.960101519151,10.5,10499986099.039898,47.655,-122.3035,60.0,8.616666666666667
2026-02-06T21:36:59+00:00,SAT-49741,132.1688821415698,77.08647467274557,559.4930907106241,0.48450529331335196,-16969.42482719227,10.5,10499983030.575172,47.655,-122.3035,60.0,8.633333333333333
2026-02-06T21:37:00+00:00,SAT-49741,129.0232400855399,76.85764588415549,559.9762971121078,0.5718876230031993,-20029.923639818826,10.5,10499979970.07636,47.655,-122.3035,60.0,8.65
2026-02-06T21:37:01+00:00,SAT-49741,125.99747766017613,76.59222018432047,560.5466515833142,0.6590025587864363,-23081.05718676079,10.5,10499976918.942814,47.655,-122.3035,60.0,8.666666666666666
2026-02-06T21:37:02+00:00,SAT-49741,123.10078781436485,76.29263266137622,561.203887447183,0.7458107633178837,-26121.447707793166,10.5,10499973878.552292,47.655,-122.3035,60.0,8.683333333333334
2026-02-06T21:37:03+00:00,SAT-49741,120.33896909643373,75.96141585996837,561.9476987947661,0.8322736059517071,-29149.74219429137,10.5,10499970850.257805,47.655,-122.3035,60.0,8.7
2026-02-06T21:37:04+00:00,SAT-49741,117.71479274156364,75.6011306966791,562.7777411900342,0.9183532403814523,-32164.615108513663,10.5,10499967835.384892,47.655,-122.3035,60.0,8.716666666666667
2026-02-06T21:37:05+00:00,SAT-49741,115.22845315070062,75.21430947360233,563.6936324521107,1.0040126735667156,-35164.7707977047,10.5,10499964835.229202,47.655,-122.3035,60.0,8.733333333333333
2026-02-06T21:37:06+00:00,SAT-49741,112.87804696735853,74.80341157188315,564.6949535062535,1.0892158542818,-38148.94659544403,10.5,10499961851.053404,47.655,-122.3035,60.0,8.75
2026-02-06T21:37:07+00:00,SAT-49741,110.66003917030889,74.37079117819921,565.7812493231415,1.1739277440790754,-41115.91530708318,10.5,10499958884.084692,47.655,-122.3035,60.0,8.766666666666667
2026-02-06T21:37:08+00:00,SAT-49741,108.56968872370668,73.91867565253166,566.9520299289409,1.2581143505999894,-44064.48637643809,10.5,10499955935.513624,47.655,-122.3035,60.0,8.783333333333333
2026-02-06T21:37:09+00:00,SAT-49741,106.60141866210111,73.4491527854855,568.2067714485867,1.3417428240782519,-46993.50926573892,10.5,10499953006.490734,47.655,-122.3035,60.0,8.8
2026-02-06T21:37:10+00:00,SAT-49741,104.74912491376502,72.9641650827291,569.5449172453141,1.4247814900667097,-49901.87460186357,10.5,10499950098.125399,47.655,-122.3035,60.0,8.816666666666666
2026-02-06T21:37:11+00:00,SAT-49741,103.00642503697468,72.4655093836072,570.9658790928258,1.5071998968731184,-52788.515837739134,10.5,10499947211.484161,47.655,-122.3035,60.0,8.833333333333334
2026-02-06T21:37:12+00:00,SAT-49741,101.3668519372237,71.95484031180109,572.4690383947691,1.5889688688290078,-55652.41111804281,10.5,10499944347.588882,47.655,-122.3035,60.0,8.85
2026-02-06T21:37:13+00:00,SAT-49741,99.82399971500608,71.43367632244119,574.0537474573384,1.6700605208238135,-58492.58378824874,10.5,10499941507.416212,47.655,-122.3035,60.0,8.866666666666667
2026-02-06T21:37:14+00:00,SAT-49741,98.37162948256821,70.90340738447411,575.719330776374,1.7504483167226432,-61308.10444066526,10.5,10499938691.89556,47.655,-122.3035,60.0,8.883333333333333
2026-02-06T21:37:15+00:00,SAT-49741,97.00374266608193,70.36530354315414,577.4650863827216,1.8301070710016647,-64098.09097171311,10.5,10499935901.909029,47.655,-122.3035,60.0,8.9
2026-02-06T21:37:16+00:00,SAT-49741,95.71462867697333,69.82052383919928,579.2902871892206,1.9090129876826945,-66861.7099455794,10.5,10499933138.290054,47.655,-122.3035,60.0,8.916666666666666
2026-02-06T21:37:17+00:00,SAT-49741,94.49889280431947,69.27012519042609,581.1941823765272,1.9871436449091098,-69598.17605400084,10.5,10499930401.823946,47.655,-122.3035,60.0,8.933333333333334
2026-02-06T21:37:18+00:00,SAT-49741,93.35146925776442,68.71507099505708,583.17599876355,2.0644780467328068,-72306.75393006208,10.5,10499927693.24607,47.655,-122.3035,60.0,8.95
2026-02-06T21:37:19+00:00,SAT-49741,92.26762327910514,68.15623927419055,585.2349422295376,2.1409965867910996,-74986.75687600703,10.5,10499925013.243124,47.655,-122.3035,60.0,8.966666666666667
2026-02-06T21:37:20+00:00,SAT-49741,91.24294550720415,67.59443028541796,587.3701990999369,2.216681054825019,-77637.54709153724,10.5,10499922362.452908,47.655,-122.3035,60.0,8.983333333333333
2026-02-06T21:37:21+00:00,SAT-49741,90.2733409984367,67.03037355043179,589.580937538756,2.2915146660190944,-80258.53670141526,10.5,10499919741.463299,47.655,-122.3035,60.0,9.0
2026-02-06T21:37:22+00:00,SAT-49741,89.35501474937853,66.46473428178476,591.8663089701844,2.3654819950093975,-82849.18544414706,10.5,10499917150.814556,47.655,-122.3035,60.0,9.016666666666667
2026-02-06T21:37:23+00:00,SAT-49741,88.48445515132714,65.89811924599624,594.2254494344018,2.4385690077311346,-85409.00178741959,10.5,10499914590.998213,47.655,-122.3035,60.0,9.033333333333333
2026-02-06T21:37:24+00:00,SAT-49741,87.65841635444028,65.3310820649933,596.6574809751456,2.5107630100607525,-87937.54112932988,10.5,10499912062.45887,47.655,-122.3035,60.0,9.05
2026-02-06T21:37:25+00:00,SAT-49741,86.87390031264447,64.76412801229513,599.1615129760617,2.5820526452228725,-90434.40570756506,10.5,10499909565.594292,47.655,-122.3035,60.0,9.066666666666666
2026-02-06T21:37:26+00:00,SAT-49741,86.12813900817996,64.19771833157445,601.736643494466,2.6524278689139504,-92899.24372812768,10.5,10499907100.756271,47.655,-122.3035,60.0,9.083333333333334
2026-02-06T21:37:27+00:00,SAT-49741,85.41857721805843,63.63227412413464,604.3819605702985,2.7218798987800223,-95331.74759583257,10.5,10499904668.252403,47.655,-122.3035,60.0,9.1
2026-02-06T21:37:28+00:00,SAT-49741,84.74285605838615,63.06817985092959,607.0965434846892,2.790401213101686,-97731.65386824943,10.5,10499902268.346132,47.655,-122.3035,60.0,9.116666666666667
2026-02-06T21:37:29+00:00,SAT-49741,84.09879743187648,62.505786476967984,609.8794640172138,2.8579854964308478,-100098.7413516717,10.5,10499899901.258648,47.655,-122.3035,60.0,9.133333333333333
2026-02-06T21:37:30+00:00,SAT-49741,83.48438946660976,61.94541430557484,612.7297876489307,2.924627600319947,-102432.82972568792,10.5,10499897567.170275,47.655,-122.3035,60.0,9.15
2026-02-06T21:37:31+00:00,SAT-49741,82.89777296580549,61.387355532055196,615.646574726253,2.9903235349649173,-104733.77925048278,10.5,10499895266.220749,47.655,-122.3035,60.0,9.166666666666666
2026-02-06T21:37:32+00:00,SAT-49741,82.33722885720958,60.83187654114309,618.6288816164852,3.0550703748616796,-107001.48746252862,10.5,10499892998.512537,47.655,-122.3035,60.0,9.183333333333334
2026-02-06T21:37:33+00:00,SAT-49741,81.80116662845087,60.279219991876126,621.6757617692715,3.118866299721143,-109235.89060760163,10.5,10499890764.109392,47.655,-122.3035,60.0,9.2
2026-02-06T21:37:34+00:00,SAT-49741,81.28811368061403,59.729606688917436,624.7862668188467,3.1817104588585043,-111436.9588911216,10.5,10499888563.04111,47.655,-122.3035,60.0,9.216666666666667
2026-02-06T21:37:35+00:00,SAT-49741,80.79670557777563,59.18323729472176,627.9594475510411,3.2436029933161836,-113604.69725299069,10.5,10499886395.302748,47.655,-122.3035,60.0,9.233333333333333
2026-02-06T21:37:36+00:00,SAT-49741,80.32567710903403,58.64029387282914,631.1943548923492,3.304544990365451,-115739.14377404796,10.5,10499884260.856226,47.655,-122.3035,60.0,9.25
2026-02-06T21:37:37+00:00,SAT-49741,79.87385411625185,58.10094129243305,634.490040853623,3.3645383865152225,-117840.36627902706,10.5,10499882159.63372,47.655,-122.3035,60.0,9.266666666666667
2026-02-06T21:37:38+00:00,SAT-49741,79.44014603526067,57.565328517326066,637.84555937703,3.4235859939651543,-119908.46326305553,10.5,10499880091.536737,47.655,-122.3035,60.0,9.283333333333333
2026-02-06T21:37:39+00:00,SAT-49741,79.02353907718549,57.033589772260946,641.2599672094002,3.4816913939632186,-121943.56015658606,10.5,10499878056.439844,47.655,-122.3035,60.0,9.3
2026-02-06T21:37:40+00:00,SAT-49741,78.62309001337739,56.50584562042697,644.7323246692097,3.5388589551789993,-123945.80996890686,10.5,10499876054.190031,47.655,-122.3035,60.0,9.316666666666666
2026-02-06T21:37:41+00:00,SAT-49741,78.23792049757331,55.98220394254486,648.2616964318921,3.595093729766258,-125915.38964781332,10.5,10499874084.610352,47.655,-122.3035,60.0,9.333333333333334
2026-02-06T21:37:42+00:00,SAT-49741,77.86721189158865,55.462760845858405,651.8471522114919,3.6504014391097925,-127852.49958040245,10.5,10499872147.50042,47.655,-122.3035,60.0,9.35
2026-02-06T21:37:43+00:00,SAT-49741,77.51020054055778,54.94760149717464,655.4877674280989,3.7047884576926293,-129757.36302803391,10.5,10499870242.636972,47.655,-122.3035,60.0,9.366666666666667
2026-02-06T21:37:44+00:00,SAT-49741,77.16617345756791,54.436800888121034,659.1826238591973,3.7582617154510043,-131630.22270638825,10.5,10499868369.777294,47.655,-122.3035,60.0,9.383333333333333
2026-02-06T21:37:45+00:00,SAT-49741,76.83446438860628,53.93042455041271,662.9308101936291,3.8108286951602017,-133471.34069390805,10.5,10499866528.659306,47.655,-122.3035,60.0,9.4
2026-02-06T21:37:46+00:00,SAT-49741,76.51445021392283,53.4285292131655,666.7314225829518,3.862497412271062,-135280.99772558705,10.5,10499864719.002274,47.655,-122.3035,60.0,9.416666666666666
2026-02-06T21:37:47+00:00,SAT-49741,76.20554765773103,52.931163410336715,670.5835651726856,3.9132762993472894,-137059.4891454759,10.5,10499862940.510855,47.655,-122.3035,60.0,9.433333333333334
2026-02-06T21:37:48+00:00,SAT-49741,75.90721028470256,52.4383680549887,674.4863505183064,3.9631742486869204,-138807.12639946621,10.5,10499861192.8736,47.655,-122.3035,60.0,9.45
2026-02-06T21:37:49+00:00,SAT-49741,75.61892574547561,51.95017696355411,678.4389000437506,4.012200560324071,-140524.2352140918,10.5,10499859475.764786,47.655,-122.3035,60.0,9.466666666666667
2026-02-06T21:37:50+00:00,SAT-49741,75.34021325559286,51.46661734649211,682.4403444480558,4.0603648630759785,-142211.1528312623,10.5,10499857788.847168,47.655,-122.3035,60.0,9.483333333333333
2026-02-06T21:37:51+00:00,SAT-49741,75.07062128815255,50.98771027130293,686.4898240332643,4.107677124404758,-143868.22835366314,10.5,10499856131.771646,47.655,-122.3035,60.0,9.5
2026-02-06T21:37:52+00:00,SAT-49741,74.80972545491167,50.51347108982429,690.586489042158,4.154147609565293,-145495.82131394238,10.5,10499854504.178686,47.655,-122.3035,60.0,9.516666666666667
2026-02-06T21:37:53+00:00,SAT-49741,74.55712656245711,50.04390983879679,694.7294999552544,4.199786856965345,-147094.30081171732,10.5,10499852905.699188,47.655,-122.3035,60.0,9.533333333333333
2026-02-06T21:37:54+00:00,SAT-49741,74.31244882649868,49.57903161407897,698.9180277632269,4.244605590524708,-148664.04244402118,10.5,10499851335.957556,47.655,-122.3035,60.0,9.55
2026-02-06T21:37:55+00:00,SAT-49741,74.07533823361616,49.11883692743588,703.1512541519188,4.288614801955225,-150205.43118709765,10.5,10499849794.568813,47.655,-122.3035,60.0,9.566666666666666
2026-02-06T21:37:56+00:00,SAT-49741,73.8454610286335,48.66332202902211,707.4283717694191,4.331825611800166,-151718.85652941192,10.5,10499848281.14347,47.655,-122.3035,60.0,9.583333333333334
2026-02-06T21:37:57+00:00,SAT-49741,73.62250232758251,48.21247922176769,711.7485843545458,4.374249323519225,-153204.71436593594,10.5,10499846795.285635,47.655,-122.3035,60.0,9.6
2026-02-06T21:37:58+00:00,SAT-49741,73.40616483607344,47.76629714803869,716.1111069192749,4.415897357336473,-154663.4046812244,10.5,10499845336.595318,47.655,-122.3035,60.0,9.616666666666667
2026-02-06T21:37:59+00:00,SAT-49741,73.19616766944539,47.324761063071534,720.5151658651904,4.456781222783289,-156095.33058775126,10.5,10499843904.669413,47.655,-122.3035,60.0,9.633333333333333
2026-02-06T21:38:00+00:00,SAT-49741,72.99224526410518,46.88785309213242,724.9599990725509,4.496912555022849,-157500.89959814772,10.5,10499842499.1004,47.655,-122.3035,60.0,9.65
2026-02-06T21:38:01+00:00,SAT-49741,72.794146369735,46.45555246646948,729.4448560255878,4.536303002286434,-158880.51968274516,10.5,10499841119.480318,47.655,-122.3035,60.0,9.666666666666666
2026-02-06T21:38:02+00:00,SAT-49741,72.60163312160954,46.02783575383533,733.9689978255348,4.574964286611037,-160234.60139686332,10.5,10499839765.398603,47.655,-122.3035,60.0,9.683333333333334
2026-02-06T21:38:03+00:00,SAT-49741,72.41448017920125,45.60467706752688,738.5316972642385,4.612908140133374,-161563.55564955683,10.5,10499838436.444351,47.655,-122.3035,60.0,9.7
2026-02-06T21:38:04+00:00,SAT-49741,72.23247393062275,45.18604826708455,743.1322388342295,4.650146331199168,-162867.79461807298,10.5,10499837132.205381,47.655,-122.3035,60.0,9.716666666666667
2026-02-06T21:38:05+00:00,SAT-49741,72.05541175399618,44.77191914303474,747.7699187648351,4.686690588704344,-164147.7290979602,10.5,10499835852.270903,47.655,-122.3035,60.0,9.733333333333333
2026-02-06T21:38:06+00:00,SAT-49741,71.88310133473553,44.36225759581119,752.4440449828343,4.722552618873271,-165403.76909071323,10.5,10499834596.23091,47.655,-122.3035,60.0,9.75
2026-02-06T21:38:07+00:00,SAT-49741,71.71536003094555,43.95702980105091,757.1539370898483,4.757744124404288,-166636.32447433026,10.5,10499833363.675526,47.655,-122.3035,60.0,9.766666666666667
2026-02-06T21:38:08+00:00,SAT-49741,71.55201428316354,43.55620036213892,761.8989263588239,4.792276735712021,-167845.80259512804,10.5,10499832154.197405,47.655,-122.3035,60.0,9.783333333333333
2026-02-06T21:38:09+00:00,SAT-49741,71.39289906759329,43.159732458225356,766.6783556619419,4.826162016258473,-169032.6084544594,10.5,10499830967.391546,47.655,-122.3035,60.0,9.8
2026-02-06T21:38:10+00:00,SAT-49741,71.23785738714058,42.767587981738465,771.491579403845,4.859411471719918,-170197.14502977638,10.5,10499829802.85497,47.655,-122.3035,60.0,9.816666666666666
2026-02-06T21:38:11+00:00,SAT-49741,71.0867397971428,42.37972766587649,776.3379634640081,4.8920365173090055,-171339.81213011223,10.5,10499828660.18787,47.655,-122.3035,60.0,9.833333333333334
2026-02-06T21:38:12+00:00,SAT-49741,70.93940396436392,41.996111206056355,781.2168851065152,4.924048498189562,-172461.00711109416,10.5,10499827538.99289,47.655,-122.3035,60.0,9.85
2026-02-06T21:38:13+00:00,SAT-49741,70.79571425518441,41.61669737154779,786.1277329101997,4.9554586132395615,-173561.12220480008,10.5,10499826438.877794,47.655,-122.3035,60.0,9.866666666666667
2026-02-06T21:38:14+00:00,SAT-49741,70.65554135333883,41.24144411530422,791.0699066227505,4.986278014223359,-174640.54799318957,10.5,10499825359.452007,47.655,-122.3035,60.0,9.883333333333333
2026-02-06T21:38:15+00:00,SAT-49741,70.51876190045265,40.87030866887159,796.042817113724,5.016517682610769,-175699.66909378715,10.5,10499824300.330906,47.655,-122.3035,60.0,9.9
2026-02-06T21:38:16+00:00,SAT-49741,70.38525816322922,40.50324763988798,801.0458862047071,5.046188539784407,-176738.86801960933,10.5,10499823261.13198,47.655,-122.3035,60.0,9.916666666666666
2026-02-06T21:38:17+00:00,SAT-49741,70.25491771962238,40.14021709490051,806.0785466093903,5.0753013034061025,-177758.5201485091,10.5,10499822241.47985,47.655,-122.3035,60.0,9.933333333333334
