DopplerPredictor/satellites_20260211_205844/SAT-52995.csv

timestamp,satellite,azimuth_deg,elevation_deg,distance_km,relative_velocity_kms,doppler_shift_hz,tx_freq_ghz,rx_freq_hz,ue_lat,ue_lon,ue_alt_m,time_minutes
2026-02-06T21:44:02+00:00,SAT-52995,358.56517267693704,45.68672348536149,736.8913684301622,-1.3322038641105736,46659.41453791016,10.5,10500046659.414537,47.655,-122.3035,60.0,0.0
2026-02-06T21:44:03+00:00,SAT-52995,359.3452979574632,45.80959711441426,735.5627360207671,-1.2684241177047473,44425.57803071832,10.5,10500044425.578032,47.655,-122.3035,60.0,0.016666666666666666
2026-02-06T21:44:04+00:00,SAT-52995,0.13154035691964364,45.927207867810985,734.2977123730793,-1.2043125310099292,42180.119072922964,10.5,10500042180.119074,47.655,-122.3035,60.0,0.03333333333333333
2026-02-06T21:44:05+00:00,SAT-52995,0.9236784180053154,46.03943647416398,733.0966284377699,-1.1398837357277574,39923.55012860747,10.5,10500039923.550129,47.655,-122.3035,60.0,0.05
2026-02-06T21:44:06+00:00,SAT-52995,1.7214784212874472,46.14616746779029,731.9598005730336,-1.0751527827701532,37656.398344372654,10.5,10500037656.398344,47.655,-122.3035,60.0,0.06666666666666667
2026-02-06T21:44:07+00:00,SAT-52995,2.5246946108055535,46.247289523629,730.8875301265032,-1.0101350793648423,35379.20334650595,10.5,10500035379.203346,47.655,-122.3035,60.0,0.08333333333333333
2026-02-06T21:44:08+00:00,SAT-52995,3.3330694418473934,46.342695783425256,729.8801030798872,-0.9448464201904181,33092.51833146313,10.5,10500033092.518332,47.655,-122.3035,60.0,0.1
2026-02-06T21:44:09+00:00,SAT-52995,4.146333921429346,46.43228418024476,728.9377896625606,-0.8793029414302281,30796.90845664101,10.5,10500030796.908457,47.655,-122.3035,60.0,0.11666666666666667
2026-02-06T21:44:10+00:00,SAT-52995,4.964207985257646,46.51595775232419,728.0608440109725,-0.8135211185740677,28492.950763383484,10.5,10500028492.950764,47.655,-122.3035,60.0,0.13333333333333333
2026-02-06T21:44:11+00:00,SAT-52995,5.786400946084541,46.59362494857678,727.2495038302515,-0.7475177361888883,26181.23311822383,10.5,10500026181.233118,47.655,-122.3035,60.0,0.15
2026-02-06T21:44:12+00:00,SAT-52995,6.612611989308485,46.66519992130356,726.5039900859557,-0.6813098761822234,23862.353801820278,10.5,10500023862.353802,47.655,-122.3035,60.0,0.16666666666666666
2026-02-06T21:44:13+00:00,SAT-52995,7.442530732539733,46.73060280608924,725.8245067075306,-0.614914892394631,21536.920619075834,10.5,10500021536.92062,47.655,-122.3035,60.0,0.18333333333333332
2026-02-06T21:44:14+00:00,SAT-52995,8.27583783486336,46.78975998584063,725.2112403171045,-0.5483503946616674,19205.550340921207,10.5,10500019205.55034,47.655,-122.3035,60.0,0.2
2026-02-06T21:44:15+00:00,SAT-52995,9.112205665993757,46.84260433817516,724.6643599741783,-0.4816342169350399,16868.86758778274,10.5,10500016868.867588,47.655,-122.3035,60.0,0.21666666666666667
2026-02-06T21:44:16+00:00,SAT-52995,9.951299011291418,46.889075463027005,724.1840169521134,-0.41478440160593294,14527.504280518944,10.5,10500014527.50428,47.655,-122.3035,60.0,0.23333333333333334
2026-02-06T21:44:17+00:00,SAT-52995,10.79277583100509,46.929119890491364,723.770344530248,-0.3478191787486774,12182.098913446023,10.5,10500012182.098913,47.655,-122.3035,60.0,0.25
2026-02-06T21:44:18+00:00,SAT-52995,11.636288072460525,46.96269126701942,723.4234578067184,-0.2807569298670202,9833.295284578882,10.5,10500009833.295284,47.655,-122.3035,60.0,0.26666666666666666
2026-02-06T21:44:19+00:00,SAT-52995,12.481482492134745,46.98975051718441,723.143453547436,-0.2136161745016447,7481.742026569825,10.5,10500007481.742027,47.655,-122.3035,60.0,0.2833333333333333
2026-02-06T21:44:20+00:00,SAT-52995,13.328001535022088,47.010265982084526,722.9304100484192,-0.1464155401297104,5128.0915524631355,10.5,10500005128.091553,47.655,-122.3035,60.0,0.3
2026-02-06T21:44:21+00:00,SAT-52995,14.17548423278853,47.02421353179806,722.7843870281471,-0.0791737366955475,2772.999163652238,10.5,10500002772.999165,47.655,-122.3035,60.0,0.31666666666666665
2026-02-06T21:44:22+00:00,SAT-52995,15.023567121542758,47.03157665153217,722.7054255453135,-0.011909531212245915,417.12216031993074,10.5,10500000417.12216,47.655,-122.3035,60.0,0.3333333333333333
2026-02-06T21:44:23+00:00,SAT-52995,15.871885180197593,47.03234650085082,722.6935479419108,0.05535827798170831,-1938.881060203113,10.5,10499998061.11894,47.655,-122.3035,60.0,0.35
2026-02-06T21:44:24+00:00,SAT-52995,16.72007277218549,47.026521945528245,722.7487578119886,0.12261088713808384,-4294.351911114056,10.5,10499995705.648088,47.655,-122.3035,60.0,0.36666666666666664
2026-02-06T21:44:25+00:00,SAT-52995,17.567764597896268,47.014109561766006,722.8710399962588,0.18982951564713307,-6648.632616017636,10.5,10499993351.367384,47.655,-122.3035,60.0,0.38333333333333336
2026-02-06T21:44:26+00:00,SAT-52995,18.414596649180822,46.99512361249849,723.0603606051709,0.25699542833420974,-9001.06698984803,10.5,10499990998.93301,47.655,-122.3035,60.0,0.4
2026-02-06T21:44:27+00:00,SAT-52995,19.26020713873901,46.9695859965683,723.316667064227,0.32408996309129673,-11351.001406641843,10.5,10499988648.998594,47.655,-122.3035,60.0,0.4166666666666667
2026-02-06T21:44:28+00:00,SAT-52995,20.104237428353684,46.937526170615314,723.6398881868517,0.3910945591985689,-13697.78579147903,10.5,10499986302.214209,47.655,-122.3035,60.0,0.43333333333333335
2026-02-06T21:44:29+00:00,SAT-52995,20.946332939047476,46.8989810441689,724.029934275508,0.4579907788299668,-16040.774373699058,10.5,10499983959.225626,47.655,-122.3035,60.0,0.45
2026-02-06T21:44:30+00:00,SAT-52995,21.786144025802653,46.85399484938111,724.4866972442628,0.5247603333938462,-18379.326609461885,10.5,10499981620.673391,47.655,-122.3035,60.0,0.4666666666666667
2026-02-06T21:44:31+00:00,SAT-52995,22.62332682564614,46.802618985828,725.0100507676195,0.5913851066870893,-20712.807992702863,10.5,10499979287.192007,47.655,-122.3035,60.0,0.48333333333333334
2026-02-06T21:44:32+00:00,SAT-52995,23.457544068052986,46.74491184179762,725.5998504524468,0.6578471839162324,-23040.591071575393,10.5,10499976959.408928,47.655,-122.3035,60.0,0.5
2026-02-06T21:44:33+00:00,SAT-52995,24.288465851151244,46.680938592720615,726.2559340388458,0.7241288728367407,-25362.056188837738,10.5,10499974637.943811,47.655,-122.3035,60.0,0.5166666666666667
2026-02-06T21:44:34+00:00,SAT-52995,25.11577036818574,46.61077097890038,726.9781216221044,0.7902127144967729,-27676.591858145126,10.5,10499972323.408142,47.655,-122.3035,60.0,0.5333333333333333
2026-02-06T21:44:35+00:00,SAT-52995,25.939144574846438,46.53448706502062,727.7662158853628,0.8560815274764424,-29983.5963134958,10.5,10499970016.403687,47.655,-122.3035,60.0,0.55
2026-02-06T21:44:36+00:00,SAT-52995,26.758284828930446,46.45217097978757,728.6200023764035,0.9217184135744152,-32282.47770839972,10.5,10499967717.522291,47.655,-122.3035,60.0,0.5666666666666667
2026-02-06T21:44:37+00:00,SAT-52995,27.57289745872059,46.36391264110255,729.5392497901082,0.9871067792688877,-34572.654867532794,10.5,10499965427.345133,47.655,-122.3035,60.0,0.5833333333333334
2026-02-06T21:44:38+00:00,SAT-52995,28.382699277879855,46.2698074669696,730.5237102723227,1.0522303553888668,-36853.55797570832,10.5,10499963146.442024,47.655,-122.3035,60.0,0.6
2026-02-06T21:44:39+00:00,SAT-52995,29.1874180443227,46.16995607406928,731.5731197433364,1.1170732260162486,-39124.62959015003,10.5,10499960875.370409,47.655,-122.3035,60.0,0.6166666666666667
2026-02-06T21:44:40+00:00,SAT-52995,29.986792867979574,46.06446396493136,732.6871982501899,1.1816198273744671,-41385.324601567874,10.5,10499958614.675398,47.655,-122.3035,60.0,0.6333333333333333
2026-02-06T21:44:41+00:00,SAT-52995,30.78057454671568,45.95344120834112,733.8656503178706,1.2458549785092152,-43635.11130872665,10.5,10499956364.88869,47.655,-122.3035,60.0,0.65
2026-02-06T21:44:42+00:00,SAT-52995,31.56852585445911,45.8370021117478,735.1081653311105,1.3097638915407603,-45873.471777525454,10.5,10499954126.528223,47.655,-122.3035,60.0,0.6666666666666666
2026-02-06T21:44:43+00:00,SAT-52995,32.35042176802424,45.71526488936196,736.4144179264056,1.3733321797913964,-48099.90212565542,10.5,10499951900.097874,47.655,-122.3035,60.0,0.6833333333333333
2026-02-06T21:44:44+00:00,SAT-52995,33.1260496341259,45.58835132782738,737.7840683921423,1.4365458885431575,-50313.91359986499,10.5,10499949686.086401,47.655,-122.3035,60.0,0.7
2026-02-06T21:44:45+00:00,SAT-52995,33.89520929129708,45.45638644901999,739.2167630994018,1.4993914840997853,-52515.03219286372,10.5,10499947484.967808,47.655,-122.3035,60.0,0.7166666666666667
2026-02-06T21:44:46+00:00,SAT-52995,34.657713125897345,45.3194981754083,740.7121349218488,1.5618558755290055,-54702.79940482879,10.5,10499945297.200596,47.655,-122.3035,60.0,0.7333333333333333
2026-02-06T21:44:47+00:00,SAT-52995,35.413386083874045,45.17781699641746,742.2698036773115,1.6239264306107193,-56876.77280197807,10.5,10499943123.227198,47.655,-122.3035,60.0,0.75
2026-02-06T21:44:48+00:00,SAT-52995,36.16206563661647,45.031475637764544,743.8893765852636,1.6855909734173689,-59036.52593182438,10.5,10499940963.474068,47.655,-122.3035,60.0,0.7666666666666667
2026-02-06T21:44:49+00:00,SAT-52995,36.90360169577484,44.88060873671999,745.5704487218927,1.7468377901166612,-61181.648526411365,10.5,10499938818.351473,47.655,-122.3035,60.0,0.7833333333333333
2026-02-06T21:44:50+00:00,SAT-52995,37.63785648528084,44.725352523717035,747.3126034809579,1.8076556493865064,-63311.74721733099,10.5,10499936688.252783,47.655,-122.3035,60.0,0.8
2026-02-06T21:44:51+00:00,SAT-52995,38.36470437942707,44.56584451009779,749.1154130550049,1.868033791550927,-65426.44515521713,10.5,10499934573.554844,47.655,-122.3035,60.0,0.8166666666666667
2026-02-06T21:44:52+00:00,SAT-52995,39.08403169784367,44.402223185756995,750.9784389057492,1.9279619422464718,-67525.3824884012,10.5,10499932474.617512,47.655,-122.3035,60.0,0.8333333333333334
2026-02-06T21:44:53+00:00,SAT-52995,39.79573647106589,44.234627725347195,752.9012322480872,1.9874303060196592,-69608.21613866757,10.5,10499930391.783861,47.655,-122.3035,60.0,0.85
2026-02-06T21:44:54+00:00,SAT-52995,40.49972817281605,44.063197705547815,754.8833345277218,2.0464295751078754,-71674.62010879771,10.5,10499928325.37989,47.655,-122.3035,60.0,0.8666666666666667
2026-02-06T21:44:55+00:00,SAT-52995,41.195927428109144,43.88807283270101,756.9242779075463,2.1049509371935353,-73724.28575415371,10.5,10499926275.714247,47.655,-122.3035,60.0,0.8833333333333333
2026-02-06T21:44:56+00:00,SAT-52995,41.88426569995602,43.70939268145085,759.02358576176,2.1629860635502385,-75756.92136750654,10.5,10499924243.078632,47.655,-122.3035,60.0,0.9
2026-02-06T21:44:57+00:00,SAT-52995,42.56468495150726,43.52729644647757,761.1807731581663,2.2205270825575307,-77772.25125141098,10.5,10499922227.748749,47.655,-122.3035,60.0,0.9166666666666666
2026-02-06T21:44:58+00:00,SAT-52995,43.23713728397596,43.34192270880391,763.3953473140482,2.2775666533110726,-79770.01829634508,10.5,10499920229.981703,47.655,-122.3035,60.0,0.9333333333333333
2026-02-06T21:44:59+00:00,SAT-52995,43.90158458287838,43.1534092085179,765.6668081254656,2.334097879527547,-81749.98096529582,10.5,10499918250.019035,47.655,-122.3035,60.0,0.95
2026-02-06T21:45:00+00:00,SAT-52995,44.55799812760515,42.96189263745994,767.9946486106838,2.39011434546423,-83711.91455181444,10.5,10499916288.085447,47.655,-122.3035,60.0,0.9666666666666667
2026-02-06T21:45:01+00:00,SAT-52995,45.20635820450646,42.76750844162308,770.3783553894236,2.4456101184091423,-85655.61126723206,10.5,10499914344.388733,47.655,-122.3035,60.0,0.9833333333333333
2026-02-06T21:45:02+00:00,SAT-52995,45.84665371512348,42.57039063611506,772.8174091645996,2.5005797131155783,-87580.87899500651,10.5,10499912419.121004,47.655,-122.3035,60.0,1.0
2026-02-06T21:45:03+00:00,SAT-52995,46.47888177261294,42.37067163563449,775.3112851685842,2.5550181209914493,-89487.54231305652,10.5,10499910512.457687,47.655,-122.3035,60.0,1.0166666666666666
2026-02-06T21:45:04+00:00,SAT-52995,47.10304730536981,42.168482095038776,777.8594536385859,2.6089207708436306,-91375.44111886271,10.5,10499908624.558882,47.655,-122.3035,60.0,1.0333333333333334
2026-02-06T21:45:05+00:00,SAT-52995,47.71916265297817,41.96395076528585,780.4613802528739,2.6622835333809145,-93244.43078718011,10.5,10499906755.569212,47.655,-122.3035,60.0,1.05
2026-02-06T21:45:06+00:00,SAT-52995,48.3272471673108,41.75720436093248,783.1165265714969,2.7151027327616513,-95094.38257448537,10.5,10499904905.617426,47.655,-122.3035,60.0,1.0666666666666667
2026-02-06T21:45:07+00:00,SAT-52995,48.927326821796655,41.54836743836747,785.8243504885162,2.7673751077395874,-96925.18225813963,10.5,10499903074.817741,47.655,-122.3035,60.0,1.0833333333333333
2026-02-06T21:45:08+00:00,SAT-52995,49.51943381881733,41.33756228834789,788.5843066454896,2.819097813361954,-98736.73019586276,10.5,10499901263.269804,47.655,-122.3035,60.0,1.1
2026-02-06T21:45:09+00:00,SAT-52995,50.10360620665231,41.12490883922962,791.3958468466496,2.8702684039012887,-100528.94072793363,10.5,10499899471.059273,47.655,-122.3035,60.0,1.1166666666666667
2026-02-06T21:45:10+00:00,SAT-52995,50.67988750251424,40.91052457191434,794.2584204570569,2.9208848763343953,-102301.74370000714,10.5,10499897698.2563,47.655,-122.3035,60.0,1.1333333333333333
2026-02-06T21:45:11+00:00,SAT-52995,51.24832633489415,40.694524441572376,797.17147484412,2.9709455475969837,-104055.08016405246,10.5,10499895944.919836,47.655,-122.3035,60.0,1.15
2026-02-06T21:45:12+00:00,SAT-52995,51.8089760736302,40.47702081805622,800.1344556966943,3.020449173370251,-105788.90653876169,10.5,10499894211.093462,47.655,-122.3035,60.0,1.1666666666666667
2026-02-06T21:45:13+00:00,SAT-52995,52.36189449533864,40.25812342652417,803.1468074626528,3.069394826120468,-107503.19033798012,10.5,10499892496.809662,47.655,-122.3035,60.0,1.1833333333333333
2026-02-06T21:45:14+00:00,SAT-52995,52.907143439042,40.03793930564157,806.207973664821,3.1177819838750573,-109197.9132800202,10.5,10499890802.08672,47.655,-122.3035,60.0,1.2
