DopplerPredictor/satellites_20260211_205844/SAT-56881.csv

timestamp,satellite,azimuth_deg,elevation_deg,distance_km,relative_velocity_kms,doppler_shift_hz,tx_freq_ghz,rx_freq_hz,ue_lat,ue_lon,ue_alt_m,time_minutes
2026-02-06T21:44:02+00:00,SAT-56881,151.49540283439111,40.504453998469785,821.9633758522731,2.5252331441874194,-88444.34643505242,10.5,10499911555.653564,47.655,-122.3035,60.0,0.0
2026-02-06T21:44:03+00:00,SAT-56881,150.92359079182677,40.32553463612198,824.4818391948832,2.5757660090140364,-90214.22111508684,10.5,10499909785.778885,47.655,-122.3035,60.0,0.016666666666666666
2026-02-06T21:44:04+00:00,SAT-56881,150.35835110205687,40.14454602444783,827.0506999306825,2.6258266581342515,-91967.55680361259,10.5,10499908032.443197,47.655,-122.3035,60.0,0.03333333333333333
