DopplerPredictor/satellites_20260211_205844/SAT-59012.csv

timestamp,satellite,azimuth_deg,elevation_deg,distance_km,relative_velocity_kms,doppler_shift_hz,tx_freq_ghz,rx_freq_hz,ue_lat,ue_lon,ue_alt_m,time_minutes
2026-02-06T21:51:31+00:00,SAT-59012,309.00944828691036,40.119761127656396,713.65705769348,-5.067495836835493,177485.13969211557,10.5,10500177485.139692,47.655,-122.3035,60.0,7.483333333333333
2026-02-06T21:51:32+00:00,SAT-59012,309.1925863160007,40.52429897885653,708.6031471136688,-5.0330325781624605,176278.09059394628,10.5,10500176278.090593,47.655,-122.3035,60.0,7.5
2026-02-06T21:51:33+00:00,SAT-59012,309.3805301164824,40.933890020609084,703.5836074012899,-4.997820360315202,175044.80977740148,10.5,10500175044.809778,47.655,-122.3035,60.0,7.516666666666667
2026-02-06T21:51:34+00:00,SAT-59012,309.5734713501711,41.34859089625032,698.5991855076616,-4.961842963814802,173784.72916772118,10.5,10500173784.729168,47.655,-122.3035,60.0,7.533333333333333
2026-02-06T21:51:35+00:00,SAT-59012,309.77161177516615,41.76845687855634,693.6506445600983,-4.92508407105324,172497.27725324902,10.5,10500172497.277254,47.655,-122.3035,60.0,7.55
2026-02-06T21:51:36+00:00,SAT-59012,309.9751639068098,42.19354168149583,688.738763959778,-4.8875271037936745,171181.8733940051,10.5,10500171181.873394,47.655,-122.3035,60.0,7.566666666666666
2026-02-06T21:51:37+00:00,SAT-59012,310.18435172192017,42.62389724234223,683.8643396416709,-4.849155395030426,169837.93384094897,10.5,10500169837.933842,47.655,-122.3035,60.0,7.583333333333333
2026-02-06T21:51:38+00:00,SAT-59012,310.39941142454575,43.059573501211304,679.0281841630709,-4.8099520498481825,168464.86686268108,10.5,10500168464.866863,47.655,-122.3035,60.0,7.6
2026-02-06T21:51:39+00:00,SAT-59012,310.6205922646399,43.500618149946774,674.231126930895,-4.769900127204079,167062.0791122198,10.5,10500167062.079113,47.655,-122.3035,60.0,7.616666666666666
2026-02-06T21:51:40+00:00,SAT-59012,310.84815742931266,43.947076377349866,669.4740142476858,-4.72898253684841,165628.9720167287,10.5,10500165628.972017,47.655,-122.3035,60.0,7.633333333333334
2026-02-06T21:51:41+00:00,SAT-59012,311.0823849993711,44.398990584018314,664.757709460419,-4.687182090918206,164164.94358454196,10.5,10500164164.943584,47.655,-122.3035,60.0,7.65
2026-02-06T21:51:42+00:00,SAT-59012,311.3235689844267,44.85640007884226,660.0830930578555,-4.64448156345752,162669.39048981667,10.5,10500162669.39049,47.655,-122.3035,60.0,7.666666666666667
2026-02-06T21:51:43+00:00,SAT-59012,311.57202044429863,45.31934075670343,655.451062708531,-4.600863684531226,161141.7078663729,10.5,10500161141.707867,47.655,-122.3035,60.0,7.683333333333334
2026-02-06T21:51:44+00:00,SAT-59012,311.8280687010019,45.787844749391226,650.862533304619,-4.556311172345778,159581.29043269882,10.5,10500159581.290432,47.655,-122.3035,60.0,7.7
2026-02-06T21:51:45+00:00,SAT-59012,312.0920626515672,46.26194005135963,646.3184369737552,-4.510806783529047,157987.53425296306,10.5,10500157987.534252,47.655,-122.3035,60.0,7.716666666666667
2026-02-06T21:51:46+00:00,SAT-59012,312.36437219220255,46.741650120244564,641.8197230407214,-4.464333299400377,156359.83625613412,10.5,10500156359.836256,47.655,-122.3035,60.0,7.733333333333333
2026-02-06T21:51:47+00:00,SAT-59012,312.6453897598935,47.22699344320695,637.3673580028187,-4.416873635063524,154697.59805687642,10.5,10500154697.598057,47.655,-122.3035,60.0,7.75
2026-02-06T21:51:48+00:00,SAT-59012,312.93553201057387,47.71798307967474,632.9623253964421,-4.368410795635837,153000.22442251132,10.5,10500153000.224422,47.655,-122.3035,60.0,7.766666666666667
2026-02-06T21:51:49+00:00,SAT-59012,313.2352416360512,48.214626161549354,628.6056257073088,-4.318927983536129,151267.1270306919,10.5,10500151267.127031,47.655,-122.3035,60.0,7.783333333333333
2026-02-06T21:51:50+00:00,SAT-59012,313.5449893435947,48.71692336431847,624.2982761736843,-4.268408580083556,149497.72382491804,10.5,10500149497.723825,47.655,-122.3035,60.0,7.8
2026-02-06T21:51:51+00:00,SAT-59012,313.8652760038588,49.224868332019525,620.0413106079635,-4.2168362668358546,147691.4432643148,10.5,10500147691.443264,47.655,-122.3035,60.0,7.816666666666666
2026-02-06T21:51:52+00:00,SAT-59012,314.1966349943037,49.73844706865858,615.8357790972357,-4.164195024758655,145847.72429453803,10.5,10500145847.724295,47.655,-122.3035,60.0,7.833333333333333
2026-02-06T21:51:53+00:00,SAT-59012,314.53963474679733,50.257637278399514,611.6827477046795,-4.110469152710446,143966.01699519632,10.5,10500143966.016994,47.655,-122.3035,60.0,7.85
2026-02-06T21:51:54+00:00,SAT-59012,314.8948815198319,50.78240765189168,607.5832981525228,-4.055643416612075,142045.78780439767,10.5,10500142045.787804,47.655,-122.3035,60.0,7.866666666666666
2026-02-06T21:51:55+00:00,SAT-59012,315.2630224283984,51.31271711075679,603.538527356232,-3.999703036136465,140086.51905256696,10.5,10500140086.519053,47.655,-122.3035,60.0,7.883333333333334
2026-02-06T21:51:56+00:00,SAT-59012,315.64474874157463,51.84851398521653,599.5495469719762,-3.9426337523638444,138087.71133201878,10.5,10500138087.711332,47.655,-122.3035,60.0,7.9
2026-02-06T21:51:57+00:00,SAT-59012,316.04079947983354,52.389735129028054,595.6174828766189,-3.8844219082051183,136048.88631372355,10.5,10500136048.886314,47.655,-122.3035,60.0,7.916666666666667
2026-02-06T21:51:58+00:00,SAT-59012,316.45196534176847,52.9363049675157,591.7434745674996,-3.825054498091527,133969.58848764977,10.5,10500133969.588488,47.655,-122.3035,60.0,7.933333333333334
2026-02-06T21:51:59+00:00,SAT-59012,316.8790929875753,53.48813446779656,587.9286745126599,-3.7645192737730433,131849.38886827152,10.5,10500131849.388868,47.655,-122.3035,60.0,7.95
2026-02-06T21:52:00+00:00,SAT-59012,317.323089718067,54.045120031590095,584.1742473955561,-3.7028047521626197,129687.8852693069,10.5,10500129687.88527,47.655,-122.3035,60.0,7.966666666666667
2026-02-06T21:52:01+00:00,SAT-59012,317.7849285734089,54.60714228808636,580.481369351947,-3.6399003511748154,127484.70706136164,10.5,10500127484.707062,47.655,-122.3035,60.0,7.983333333333333
2026-02-06T21:52:02+00:00,SAT-59012,318.2656539032932,55.17406479589082,576.8512270713074,-3.5757964134303135,125239.51600216137,10.5,10500125239.516003,47.655,-122.3035,60.0,8.0
2026-02-06T21:52:03+00:00,SAT-59012,318.7663874349062,55.74573262709863,573.2850168746015,-3.510484328473815,122952.01051713937,10.5,10500122952.010517,47.655,-122.3035,60.0,8.016666666666667
2026-02-06T21:52:04+00:00,SAT-59012,319.2883348916176,56.321970836572945,569.7839436701655,-3.443956585195198,120621.92753544713,10.5,10500120621.927536,47.655,-122.3035,60.0,8.033333333333333
2026-02-06T21:52:05+00:00,SAT-59012,319.8327931957581,56.90258279269647,566.3492198573092,-3.3762068382279136,118249.04481550731,10.5,10500118249.044815,47.655,-122.3035,60.0,8.05
2026-02-06T21:52:06+00:00,SAT-59012,320.40115829750266,57.487348356518496,562.982064163698,-3.3072300452753134,115833.18575476235,10.5,10500115833.185755,47.655,-122.3035,60.0,8.066666666666666
2026-02-06T21:52:07+00:00,SAT-59012,320.99493368288546,58.07602190521409,559.6837003457764,-3.237022493145088,113374.22030151081,10.5,10500113374.2203,47.655,-122.3035,60.0,8.083333333333334
2026-02-06T21:52:08+00:00,SAT-59012,321.61573957884445,58.66833016282894,556.4553558632263,-3.1655818979905392,110872.06846578063,10.5,10500110872.068466,47.655,-122.3035,60.0,8.1
2026-02-06T21:52:09+00:00,SAT-59012,322.2653228978123,59.26396983028204,553.2982604534537,-3.0929075101799497,108326.70399229813,10.5,10500108326.703993,47.655,-122.3035,60.0,8.116666666666667
2026-02-06T21:52:10+00:00,SAT-59012,322.9455679436728,59.862604993723174,550.2136446014875,-3.019000157519211,105738.15587432728,10.5,10500105738.155874,47.655,-122.3035,60.0,8.133333333333333
2026-02-06T21:52:11+00:00,SAT-59012,323.65850787145143,60.46386427506631,547.2027379667685,-2.9438623709866034,103106.51275743346,10.5,10500103106.512758,47.655,-122.3035,60.0,8.15
2026-02-06T21:52:12+00:00,SAT-59012,324.4063369010859,61.06733771348686,544.2667676845455,-2.867498409898695,100431.92382089977,10.5,10500100431.92382,47.655,-122.3035,60.0,8.166666666666666
2026-02-06T21:52:13+00:00,SAT-59012,325.1914232121543,61.672573329241494,541.406956642169,-2.789914405221582,97714.60379709289,10.5,10500097714.603798,47.655,-122.3035,60.0,8.183333333333334
2026-02-06T21:52:14+00:00,SAT-59012,326.01632245787647,62.27907336274406,538.6245216124595,-2.711118371167955,94954.8333776413,10.5,10500094954.833378,47.655,-122.3035,60.0,8.2
2026-02-06T21:52:15+00:00,SAT-59012,326.88379171137643,62.886290129761754,535.9206713755104,-2.631120315894293,92152.96309051936,10.5,10500092152.96309,47.655,-122.3035,60.0,8.216666666666667
2026-02-06T21:52:16+00:00,SAT-59012,327.7968036406512,63.49362148045918,533.2966047300883,-2.5499322909352005,89309.41503144687,10.5,10500089309.415031,47.655,-122.3035,60.0,8.233333333333333
2026-02-06T21:52:17+00:00,SAT-59012,328.7585605589659,64.10040581765266,530.7535084557344,-2.4675684641915288,86424.68542024179,10.5,10500086424.685421,47.655,-122.3035,60.0,8.25
2026-02-06T21:52:18+00:00,SAT-59012,329.77250788503534,64.70591665041998,528.292555202071,-2.384045166383113,83499.34622779166,10.5,10500083499.346228,47.655,-122.3035,60.0,8.266666666666667
2026-02-06T21:52:19+00:00,SAT-59012,330.842346352025,65.3093566538803,525.9149013317806,-2.2993809318261746,80534.04660425059,10.5,10500080534.046604,47.655,-122.3035,60.0,8.283333333333333
2026-02-06T21:52:20+00:00,SAT-59012,331.9720420817639,65.90985122004332,523.6216847229181,-2.2135965690092867,77529.51535090823,10.5,10500077529.51535,47.655,-122.3035,60.0,8.3
2026-02-06T21:52:21+00:00,SAT-59012,333.1658333727103,66.5064415100269,521.414022500834,-2.1267151744768618,74486.5614064482,10.5,10500074486.561407,47.655,-122.3035,60.0,8.316666666666666
2026-02-06T21:52:22+00:00,SAT-59012,334.42823265306464,67.09807701939759,519.2930087562532,-2.0387621627315284,71406.07489425584,10.5,10500071406.074894,47.655,-122.3035,60.0,8.333333333333334
2026-02-06T21:52:23+00:00,SAT-59012,335.764021645726,67.68360772002583,517.2597122335308,-1.949765272802687,68289.02735247668,10.5,10500068289.027353,47.655,-122.3035,60.0,8.35
2026-02-06T21:52:24+00:00,SAT-59012,337.1782372548277,68.26177587883929,515.3151740123568,-1.8597546070785602,65136.47309407925,10.5,10500065136.473095,47.655,-122.3035,60.0,8.366666666666667
2026-02-06T21:52:25+00:00,SAT-59012,338.67614512468396,68.8312077343732,513.4604051507337,-1.768762595565133,61949.54795505194,10.5,10500061949.547955,47.655,-122.3035,60.0,8.383333333333333
2026-02-06T21:52:26+00:00,SAT-59012,340.2631970896357,69.39040526630262,511.696384363598,-1.6768239949180543,58729.46926049611,10.5,10500058729.469261,47.655,-122.3035,60.0,8.4
2026-02-06T21:52:27+00:00,SAT-59012,341.9449681250212,69.93773843479015,510.0240557024086,-1.5839758615960595,55477.5348843453,10.5,10500055477.534883,47.655,-122.3035,60.0,8.416666666666666
2026-02-06T21:52:28+00:00,SAT-59012,343.7270677406664,70.4714383880432,508.4443262615088,-1.4902575207261528,52195.12215889235,10.5,10500052195.122158,47.655,-122.3035,60.0,8.433333333333334
2026-02-06T21:52:29+00:00,SAT-59012,345.61502032395305,70.98959231127273,506.9580639155403,-1.3957105167342512,48883.686145665604,10.5,10500048883.686146,47.655,-122.3035,60.0,8.45
2026-02-06T21:52:30+00:00,SAT-59012,347.6141088282417,71.49014078125602,505.5660951060932,-1.3003785352724626,45544.75690099201,10.5,10500045544.7569,47.655,-122.3035,60.0,8.466666666666667
2026-02-06T21:52:31+00:00,SAT-59012,349.7291766981268,71.97087869992949,504.2692027062216,-1.2043073526719947,42179.93770562415,10.5,10500042179.937706,47.655,-122.3035,60.0,8.483333333333333
2026-02-06T21:52:32+00:00,SAT-59012,351.964384466242,72.42946111400583,503.06812393536774,-1.1075447431436196,38790.901814507975,10.5,10500038790.901815,47.655,-122.3035,60.0,8.5
2026-02-06T21:52:33+00:00,SAT-59012,354.3229201569091,72.86341538455959,501.9635483668392,-1.010140374453881,35379.38880292229,10.5,10500035379.388803,47.655,-122.3035,60.0,8.516666666666667
2026-02-06T21:52:34+00:00,SAT-59012,356.80666713568905,73.27016128115989,500.95611603932974,-0.9121457093603133,31947.201114323194,10.5,10500031947.201115,47.655,-122.3035,60.0,8.533333333333333
2026-02-06T21:52:35+00:00,SAT-59012,359.41583950067064,73.64704053795883,500.0464156667402,-0.8136138806271166,28496.199682864353,10.5,10500028496.199682,47.655,-122.3035,60.0,8.55
2026-02-06T21:52:36+00:00,SAT-59012,2.1486033164619847,73.9913571298375,499.2349829726484,-0.7145995609241985,25028.299376711086,10.5,10500025028.299377,47.655,-122.3035,60.0,8.566666666666666
2026-02-06T21:52:37+00:00,SAT-59012,5.000711558210188,74.30042896834786,498.52229915453216,-0.6151588254586104,21545.464186812227,10.5,10500021545.464188,47.655,-122.3035,60.0,8.583333333333334
2026-02-06T21:52:38+00:00,SAT-59012,7.965190083357459,74.57165079670104,497.9087894849928,-0.5153489939168023,18049.701691049297,10.5,10500018049.70169,47.655,-122.3035,60.0,8.6
2026-02-06T21:52:39+00:00,SAT-59012,11.032119095350776,74.80256678470728,497.3948220706104,-0.4152284825818816,14543.057874757333,10.5,10500014543.057875,47.655,-122.3035,60.0,8.616666666666667
2026-02-06T21:52:40+00:00,SAT-59012,14.188556925633794,74.99094980342971,496.9807067582888,-0.3148566318241301,11027.61108871313,10.5,10500011027.611088,47.655,-122.3035,60.0,8.633333333333333
2026-02-06T21:52:41+00:00,SAT-59012,17.41864731098173,75.13488275064731,496.66669421364435,-0.21429353502044457,7505.466057170351,10.5,10500007505.466057,47.655,-122.3035,60.0,8.65
2026-02-06T21:52:42+00:00,SAT-59012,20.703936530348635,75.2328359652401,496.45297517001865,-0.1135998610993039,3978.7476626336306,10.5,10500003978.747663,47.655,-122.3035,60.0,8.666666666666666
2026-02-06T21:52:43+00:00,SAT-59012,24.023902799224484,75.28373403072949,496.3396798544702,-0.012836675003559507,449.59465770608153,10.5,10500000449.594658,47.655,-122.3035,60.0,8.683333333333334
2026-02-06T21:52:44+00:00,SAT-59012,27.35667081380275,75.28700545859454,496.32687759282095,0.08793474873035657,-3079.846864155415,10.5,10499996920.153135,47.655,-122.3035,60.0,8.7
2026-02-06T21:52:45+00:00,SAT-59012,30.679854816515295,75.24260999877556,496.4145766006249,0.18865311074798932,-6607.429940261833,10.5,10499993392.570059,47.655,-122.3035,60.0,8.716666666666667
2026-02-06T21:52:46+00:00,SAT-59012,33.97145168184605,75.15104055119697,496.6027239584171,0.2892572738876959,-10131.013288602499,10.5,10499989868.986712,47.655,-122.3035,60.0,8.733333333333333
2026-02-06T21:52:47+00:00,SAT-59012,37.21069644568197,75.0132994633739,496.8912057734709,0.3896864459629652,-13648.467709655106,10.5,10499986351.53229,47.655,-122.3035,60.0,8.75
2026-02-06T21:52:48+00:00,SAT-59012,40.37879948206592,74.83085185764465,497.279847523849,0.4898803643749007,-17157.68255229575,10.5,10499982842.317448,47.655,-122.3035,60.0,8.766666666666667
2026-02-06T21:52:49+00:00,SAT-59012,43.459505042488345,74.60556096580827,497.76841458657043,0.5897794716952892,-20656.57186346074,10.5,10499979343.428137,47.655,-122.3035,60.0,8.783333333333333
2026-02-06T21:52:50+00:00,SAT-59012,46.439439517568076,74.33961186660667,498.3566129408918,0.6893250938432423,-24143.080628646247,10.5,10499975856.91937,47.655,-122.3035,60.0,8.8
2026-02-06T21:52:51+00:00,SAT-59012,49.30824786373812,74.03543035656553,499.04409004928516,0.7884596028315873,-27615.19047197534,10.5,10499972384.809528,47.655,-122.3035,60.0,8.816666666666666
2026-02-06T21:52:52+00:00,SAT-59012,52.058541529754734,73.6956030760668,499.830435900729,0.887126582616066,-31070.92546493846,10.5,10499968929.074535,47.655,-122.3035,60.0,8.833333333333334
2026-02-06T21:52:53+00:00,SAT-59012,54.68569763363104,73.32280372639833,500.71518421940067,0.9852709741742284,-34508.35720766998,10.5,10499965491.642792,47.655,-122.3035,60.0,8.85
2026-02-06T21:52:54+00:00,SAT-59012,57.18755582408655,72.91972864600268,501.6978138180604,1.0828392252924077,-37925.61007512164,10.5,10499962074.389925,47.655,-122.3035,60.0,8.866666666666667
2026-02-06T21:52:55+00:00,SAT-59012,59.56405808783561,72.4890434449383,502.7777501008217,1.1797794206461614,-41320.865773029866,10.5,10499958679.134228,47.655,-122.3035,60.0,8.883333333333333
2026-02-06T21:52:56+00:00,SAT-59012,61.81687001015105,72.03334108869734,503.9543666956506,1.2760414064566024,-44692.36770390776,10.5,10499955307.632296,47.655,-122.3035,60.0,8.9
2026-02-06T21:52:57+00:00,SAT-59012,63.949012772060506,71.55511084362784,505.2269872111902,1.371576896102854,-48038.424666040024,10.5,10499951961.575335,47.655,-122.3035,60.0,8.916666666666666
2026-02-06T21:52:58+00:00,SAT-59012,65.9645255211354,71.05671688610421,506.5948870989122,1.4663395805220576,-51357.41472015818,10.5,10499948642.58528,47.655,-122.3035,60.0,8.933333333333334
2026-02-06T21:52:59+00:00,SAT-59012,67.8681692869927,70.54038506276078,508.0572956253737,1.560285212974647,-54647.78815827914,10.5,10499945352.211842,47.655,-122.3035,60.0,8.95
2026-02-06T21:53:00+00:00,SAT-59012,69.66517686905915,70.00819622870476,509.61339792901174,1.6533716710321071,-57908.06967477856,10.5,10499942091.930325,47.655,-122.3035,60.0,8.966666666666667
2026-02-06T21:53:01+00:00,SAT-59012,71.36104839518165,69.46208467246987,511.2623371387591,1.7455590441343438,-61136.86143302047,10.5,10499938863.138567,47.655,-122.3035,60.0,8.983333333333333
2026-02-06T21:53:02+00:00,SAT-59012,72.96138928577602,68.9038402930514,513.0032165799834,1.8368096754328156,-64332.84453088063,10.5,10499935667.15547,47.655,-122.3035,60.0,9.0
2026-02-06T21:53:03+00:00,SAT-59012,74.47178564327918,68.33511343009943,514.8351020221559,1.927088187508552,-67494.77990150038,10.5,10499932505.220098,47.655,-122.3035,60.0,9.016666666666667
2026-02-06T21:53:04+00:00,SAT-59012,75.89771150330947,67.75742145170744,516.757023952172,2.01636153051473,-70621.50999944322,10.5,10499929378.49,47.655,-122.3035,60.0,9.033333333333333
2026-02-06T21:53:05+00:00,SAT-59012,77.24446243026031,67.17215639177294,518.7679798956814,2.1045990030811517,-73711.9595328582,10.5,10499926288.040466,47.655,-122.3035,60.0,9.05
2026-02-06T21:53:06+00:00,SAT-59012,78.51711031065472,66.58059311760695,520.8669367592698,2.1917722220824105,-76765.13440463306,10.5,10499923234.865595,47.655,-122.3035,60.0,9.066666666666666
2026-02-06T21:53:07+00:00,SAT-59012,79.72047480848602,65.98389765658125,523.0528331424894,2.277855169894007,-79780.12336750336,10.5,10499920219.876633,47.655,-122.3035,60.0,9.083333333333334
2026-02-06T21:53:08+00:00,SAT-59012,80.8591076989034,65.38313538870234,525.3245816970168,2.3628241328530977,-82756.09586868767,10.5,10499917243.90413,47.655,-122.3035,60.0,9.1
2026-02-06T21:53:09+00:00,SAT-59012,81.93728685067556,64.7792789535742,527.6810714244394,2.4466577085361365,-85692.30230478125,10.5,10499914307.697695,47.655,-122.3035,60.0,9.116666666666667
2026-02-06T21:53:10+00:00,SAT-59012,82.9590173392703,64.17321573731225,530.121169981298,2.529336749591764,-88588.07205454622,10.5,10499911411.927946,47.655,-122.3035,60.0,9.133333333333333
2026-02-06T21:53:11+00:00,SAT-59012,83.92803762970782,63.56575489070846,532.6437259281125,2.6108443620857233,-91442.81342094368,10.5,10499908557.186579,47.655,-122.3035,60.0,9.15
2026-02-06T21:53:12+00:00,SAT-59012,84.84782926999047,62.957633834880276,535.2475709767599,2.691165791172313,-94256.00962686421,10.5,10499905743.990374,47.655,-122.3035,60.0,9.166666666666666
2026-02-06T21:53:13+00:00,SAT-59012,85.72162883973547,62.349524276229374,537.931522123827,2.7702884451922625,-97027.2196591375,10.5,10499902972.78034,47.655,-122.3035,60.0,9.183333333333334
2026-02-06T21:53:14+00:00,SAT-59012,86.55244128597978,61.74203770897328,540.6943838079974,2.8482017768395163,-99756.07410649044,10.5,10499900243.925894,47.655,-122.3035,60.0,9.2
2026-02-06T21:53:15+00:00,SAT-59012,87.34305391549978,61.13573046101964,543.5349499489251,2.92489724028521,-102442.27365784734,10.5,10499897557.726341,47.655,-122.3035,60.0,9.216666666666667
2026-02-06T21:53:16+00:00,SAT-59012,88.09605057369215,60.53110829333853,546.452005943345,3.0003682317553437,-105085.58702110882,10.5,10499894914.41298,47.655,-122.3035,60.0,9.233333333333333
2026-02-06T21:53:17+00:00,SAT-59012,88.81382564930247,59.928630588771995,549.4443306019217,3.0746099761159496,-107685.8469508845,10.5,10499892314.15305,47.655,-122.3035,60.0,9.25
2026-02-06T21:53:18+00:00,SAT-59012,89.49859764820084,59.32871417368416,552.5106979729878,3.147619521527255,-110242.95006125931,10.5,10499889757.049938,47.655,-122.3035,60.0,9.266666666666667
2026-02-06T21:53:19+00:00,SAT-59012,90.15242219966362,58.731736783054956,555.6498791609495,3.2193955531388316,-112756.8503006094,10.5,10499887243.1497,47.655,-122.3035,60.0,9.283333333333333
2026-02-06T21:53:20+00:00,SAT-59012,90.77720435550353,58.138040235666296,558.8606439588868,3.2899384514649834,-115227.5609961553,10.5,10499884772.439003,47.655,-122.3035,60.0,9.3
2026-02-06T21:53:21+00:00,SAT-59012,91.37471017820468,57.54793330144648,562.141762539375,3.3592500723905157,-117655.14714883326,10.5,10499882344.852852,47.655,-122.3035,60.0,9.316666666666666
2026-02-06T21:53:22+00:00,SAT-59012,91.94657754145796,56.96169434090465,565.4920069258981,3.42733376547554,-120039.726074407,10.5,10499879960.273926,47.655,-122.3035,60.0,9.333333333333334
2026-02-06T21:53:23+00:00,SAT-59012,92.49432619091662,56.37957369693595,568.9101524825203,3.494194227052705,-122381.46225831138,10.5,10499877618.537743,47.655,-122.3035,60.0,9.35
2026-02-06T21:53:24+00:00,SAT-59012,93.0193670531675,55.801795891934525,572.3949792570492,3.559837463282928,-124680.56606170774,10.5,10499875319.433939,47.655,-122.3035,60.0,9.366666666666667
2026-02-06T21:53:25+00:00,SAT-59012,93.52301084077355,55.2285616312315,575.9452732873507,3.624270676004847,-126937.28972344892,10.5,10499873062.710276,47.655,-122.3035,60.0,9.383333333333333
2026-02-06T21:53:26+00:00,SAT-59012,94.00647597714794,54.66004964468032,579.5598277938224,3.6875022030228743,-129151.92526871433,10.5,10499870848.074732,47.655,-122.3035,60.0,9.4
2026-02-06T21:53:27+00:00,SAT-59012,94.47089588922734,54.09641837379512,583.2374443123143,3.749541400000355,-131324.80037240873,10.5,10499868675.199627,47.655,-122.3035,60.0,9.416666666666666
2026-02-06T21:53:28+00:00,SAT-59012,94.91732570236097,53.537807528525896,586.976933709258,3.810398646442261,-133456.2785687015,10.5,10499866543.721432,47.655,-122.3035,60.0,9.433333333333334
2026-02-06T21:53:29+00:00,SAT-59012,95.34674839352039,52.984339508147045,590.7771172027641,3.8700851562520895,-135546.75261592783,10.5,10499864453.247385,47.655,-122.3035,60.0,9.45
2026-02-06T21:53:30+00:00,SAT-59012,95.76008042199426,52.436120727648536,594.6368271947839,3.9286130019585594,-137596.6453451103,10.5,10499862403.354654,47.655,-122.3035,60.0,9.466666666666667
2026-02-06T21:53:31+00:00,SAT-59012,96.15817690085663,51.8932428282737,598.554908127433,3.9859949860802426,-139606.40515460382,10.5,10499860393.594845,47.655,-122.3035,60.0,9.483333333333333
2026-02-06T21:53:32+00:00,SAT-59012,96.54183633047393,51.35578380447481,602.5302172110228,4.042244594292477,-141576.5043698031,10.5,10499858423.49563,47.655,-122.3035,60.0,9.5
2026-02-06T21:53:33+00:00,SAT-59012,96.91180493766153,50.82380904382353,606.5616251053876,4.097375929810849,-143507.4369449745,10.5,10499856492.563055,47.655,-122.3035,60.0,9.516666666666667
2026-02-06T21:53:34+00:00,SAT-59012,97.26878065219158,50.297372290418416,610.6480165357688,4.151403617317338,-145399.7150983433,10.5,10499854600.284903,47.655,-122.3035,60.0,9.533333333333333
2026-02-06T21:53:35+00:00,SAT-59012,97.61341674834904,49.7765165424331,614.7882908128818,4.204342812999814,-147253.86966371932,10.5,10499852746.130337,47.655,-122.3035,60.0,9.55
2026-02-06T21:53:36+00:00,SAT-59012,97.94632518912437,49.26127487647838,618.9813623629991,4.2562090614808,-149070.44507953702,10.5,10499850929.55492,47.655,-122.3035,60.0,9.566666666666666
2026-02-06T21:53:37+00:00,SAT-59012,98.26807968617014,48.751671223881495,623.226161115343,4.307018311423764,-150849.99993545376,10.5,10499849150.000065,47.655,-122.3035,60.0,9.583333333333334
2026-02-06T21:53:38+00:00,SAT-59012,98.57921851276262,48.247721083887555,627.5216329050422,4.356786805552831,-152593.10312037513,10.5,10499847406.89688,47.655,-122.3035,60.0,9.6
2026-02-06T21:53:39+00:00,SAT-59012,98.88024708134087,47.74943219389027,631.8667397664059,4.4055310753246095,-154300.3336358395,10.5,10499845699.666365,47.655,-122.3035,60.0,9.616666666666667
2026-02-06T21:53:40+00:00,SAT-59012,99.17164031392974,47.256805148183076,636.2604602208811,4.45326790104145,-155972.27919901581,10.5,10499844027.7208,47.655,-122.3035,60.0,9.633333333333333
2026-02-06T21:53:41+00:00,SAT-59012,99.45384482029567,46.76983397352858,640.7017895252307,4.500014175180736,-157609.53145591717,10.5,10499842390.468544,47.655,-122.3035,60.0,9.65
2026-02-06T21:53:42+00:00,SAT-59012,99.72728089548269,46.28850667528846,645.1897397834099,4.545786990274461,-159212.6890593153,10.5,10499840787.31094,47.655,-122.3035,60.0,9.666666666666666
2026-02-06T21:53:43+00:00,SAT-59012,99.99234436497642,45.812805732480655,649.7233401460819,4.590603525854858,-160782.35370909833,10.5,10499839217.646292,47.655,-122.3035,60.0,9.683333333333334
2026-02-06T21:53:44+00:00,SAT-59012,100.24940827906292,45.34270856708868,654.3016368973873,4.634481024902473,-162319.12932738278,10.5,10499837680.870672,47.655,-122.3035,60.0,9.7
2026-02-06T21:53:45+00:00,SAT-59012,100.49882447474305,44.87818798016683,658.9236935182203,4.677436735508891,-163823.62001529525,10.5,10499836176.379984,47.655,-122.3035,60.0,9.716666666666667
2026-02-06T21:53:46+00:00,SAT-59012,100.74092501421016,44.419212560741485,663.5885906913277,4.719487947718735,-165296.43134333522,10.5,10499834703.568657,47.655,-122.3035,60.0,9.733333333333333
2026-02-06T21:53:47+00:00,SAT-59012,100.97602351545899,43.96574706033932,668.2954263431479,4.7606519090893205,-166738.16739391713,10.5,10499833261.832605,47.655,-122.3035,60.0,9.75
2026-02-06T21:53:48+00:00,SAT-59012,101.20441637772156,43.517752747454615,673.043315601439,4.800945805921862,-168149.43010400733,10.5,10499831850.569897,47.655,-122.3035,60.0,9.766666666666667
2026-02-06T21:53:49+00:00,SAT-59012,101.42638391436417,43.07518773707772,677.8313907341857,4.840386713374351,-169530.8175178666,10.5,10499830469.182482,47.655,-122.3035,60.0,9.783333333333333
2026-02-06T21:53:50+00:00,SAT-59012,101.64219139897975,42.638007299949166,682.6588010387547,4.878991672643378,-170882.92649028375,10.5,10499829117.07351,47.655,-122.3035,60.0,9.8
2026-02-06T21:53:51+00:00,SAT-59012,101.85209003753708,42.20616414172982,687.5247128080246,4.916777553893063,-172206.34788576688,10.5,10499827793.652115,47.655,-122.3035,60.0,9.816666666666666
2026-02-06T21:53:52+00:00,SAT-59012,102.05631786357787,41.779608673250614,692.428309159811,4.953761105989059,-173501.66832043894,10.5,10499826498.33168,47.655,-122.3035,60.0,9.833333333333334
2026-02-06T21:53:53+00:00,SAT-59012,102.25510057048882,41.35828925607589,697.368789915894,4.989958890325807,-174769.46784438778,10.5,10499825230.532156,47.655,-122.3035,60.0,9.85
2026-02-06T21:53:54+00:00,SAT-59012,102.44865228131292,40.94215243510883,702.345371415049,5.025387323337964,-176010.32143059655,10.5,10499823989.67857,47.655,-122.3035,60.0,9.866666666666667
2026-02-06T21:53:55+00:00,SAT-59012,102.6371762652005,40.53114315008959,707.3572863684767,5.060062653062838,-177224.79815406096,10.5,10499822775.201845,47.655,-122.3035,60.0,9.883333333333333
2026-02-06T21:53:56+00:00,SAT-59012,102.82086560207749,40.125204933026,712.4037836918553,5.094000861927476,-178413.45778698177,10.5,10499821586.542213,47.655,-122.3035,60.0,9.9
