DopplerPredictor/satellites_20260211_205844/SAT-48298.csv

timestamp,satellite,azimuth_deg,elevation_deg,distance_km,relative_velocity_kms,doppler_shift_hz,tx_freq_ghz,rx_freq_hz,ue_lat,ue_lon,ue_alt_m,time_minutes
2026-02-06T21:46:44+00:00,SAT-48298,305.01714229911954,40.137255944118074,815.5952785642063,-5.062050749377612,177294.4296966434,10.5,10500177294.429697,47.655,-122.3035,60.0,2.7
2026-02-06T21:46:45+00:00,SAT-48298,305.1266018563202,40.49810241800367,810.5467984743248,-5.033288574982018,176287.05668543265,10.5,10500176287.056684,47.655,-122.3035,60.0,2.716666666666667
2026-02-06T21:46:46+00:00,SAT-48298,305.2385586278753,40.86297814938486,805.5270034514185,-5.003979485467793,175260.5283933188,10.5,10500175260.528393,47.655,-122.3035,60.0,2.7333333333333334
2026-02-06T21:46:47+00:00,SAT-48298,305.3531012045521,41.231930255280155,800.5364389444022,-4.974112998920122,174214.4776993065,10.5,10500174214.4777,47.655,-122.3035,60.0,2.75
2026-02-06T21:46:48+00:00,SAT-48298,305.47032237557784,41.60500558519923,795.5756608560042,-4.9436785154140335,173148.5333491857,10.5,10500173148.53335,47.655,-122.3035,60.0,2.7666666666666666
2026-02-06T21:46:49+00:00,SAT-48298,305.59031937786847,41.982250652901165,790.6452356604627,-4.912665365052606,172062.3216380326,10.5,10500172062.321638,47.655,-122.3035,60.0,2.783333333333333
2026-02-06T21:46:50+00:00,SAT-48298,305.71319416424285,42.36371156682618,785.7457404733059,-4.881062711986232,170955.46304855822,10.5,10500170955.463049,47.655,-122.3035,60.0,2.8
2026-02-06T21:46:51+00:00,SAT-48298,305.83905368822633,42.749433947823114,780.8777632168639,-4.848859645763598,169827.5754506065,10.5,10500169827.57545,47.655,-122.3035,60.0,2.816666666666667
2026-02-06T21:46:52+00:00,SAT-48298,305.96801021190106,43.13946284806277,776.0419026946678,-4.8160451381971665,168678.27259040065,10.5,10500168678.27259,47.655,-122.3035,60.0,2.8333333333333335
2026-02-06T21:46:53+00:00,SAT-48298,306.10018163502,43.53384266051296,771.238768708872,-4.782608096794473,167507.16596193344,10.5,10500167507.165962,47.655,-122.3035,60.0,2.85
2026-02-06T21:46:54+00:00,SAT-48298,306.2356918499814,43.93261702621982,766.468982124385,-4.748537341509121,166313.86399268845,10.5,10500166313.863993,47.655,-122.3035,60.0,2.8666666666666667
2026-02-06T21:46:55+00:00,SAT-48298,306.3746711227178,44.33582873291872,761.7331749561904,-4.713821596430611,165097.97175258296,10.5,10500165097.971752,47.655,-122.3035,60.0,2.8833333333333333
2026-02-06T21:46:56+00:00,SAT-48298,306.5172565018903,44.743519605526664,757.0319904649523,-4.6784495548683696,163859.09323348582,10.5,10500163859.093233,47.655,-122.3035,60.0,2.9
2026-02-06T21:46:57+00:00,SAT-48298,306.66359226153446,45.15573039439636,752.3660831877145,-4.642409872898372,162596.8311231929,10.5,10500162596.831123,47.655,-122.3035,60.0,2.9166666666666665
2026-02-06T21:46:58+00:00,SAT-48298,306.8138303777287,45.572500655016015,747.7361189750327,-4.605691121338152,161310.7851233889,10.5,10500161310.785124,47.655,-122.3035,60.0,2.933333333333333
2026-02-06T21:46:59+00:00,SAT-48298,306.9681310407332,45.993868614625164,743.1427750760056,-4.568281891575948,160000.55565623153,10.5,10500160000.555656,47.655,-122.3035,60.0,2.95
2026-02-06T21:47:00+00:00,SAT-48298,307.12666321141717,46.41987103897996,738.5867401177582,-4.530170753390114,158665.74238700894,10.5,10500158665.742388,47.655,-122.3035,60.0,2.966666666666667
2026-02-06T21:47:01+00:00,SAT-48298,307.28960522071736,46.85054308563124,734.068714126994,-4.491346254077008,157305.94419359474,10.5,10500157305.944193,47.655,-122.3035,60.0,2.9833333333333334
2026-02-06T21:47:02+00:00,SAT-48298,307.4571454173974,47.2859181464768,729.5894085524185,-4.451797010074008,155920.7623754734,10.5,10500155920.762375,47.655,-122.3035,60.0,3.0
2026-02-06T21:47:03+00:00,SAT-48298,307.62948287269495,47.726027687944416,725.1495461957804,-4.411511648210438,154509.79859609946,10.5,10500154509.798595,47.655,-122.3035,60.0,3.0166666666666666
2026-02-06T21:47:04+00:00,SAT-48298,307.80682814088556,48.17090107383302,720.7498612015104,-4.370478845054329,153072.65626098725,10.5,10500153072.656261,47.655,-122.3035,60.0,3.033333333333333
2026-02-06T21:47:05+00:00,SAT-48298,307.9894040853434,48.62056537922275,716.3910990071134,-4.328687379820002,151608.94237075842,10.5,10500151608.942371,47.655,-122.3035,60.0,3.05
2026-02-06T21:47:06+00:00,SAT-48298,308.17744677718434,49.07504519638543,712.0740162407999,-4.286126098565383,150118.26626718047,10.5,10500150118.266268,47.655,-122.3035,60.0,3.066666666666667
2026-02-06T21:47:07+00:00,SAT-48298,308.3712064695916,49.53436242271773,707.7993806548194,-4.242783995795962,148600.24249128244,10.5,10500148600.24249,47.655,-122.3035,60.0,3.0833333333333335
2026-02-06T21:47:08+00:00,SAT-48298,308.570948660944,49.99853604189386,703.5679709774118,-4.198650177680865,147054.4894950262,10.5,10500147054.489494,47.655,-122.3035,60.0,3.1
2026-02-06T21:47:09+00:00,SAT-48298,308.77695524989616,50.46758188478413,699.3805768014437,-4.153713942045115,145480.63244297393,10.5,10500145480.632442,47.655,-122.3035,60.0,3.1166666666666667
2026-02-06T21:47:10+00:00,SAT-48298,308.98952579789864,50.941512381529,695.2379983932647,-4.1079647705101445,143878.30293701557,10.5,10500143878.302937,47.655,-122.3035,60.0,3.1333333333333333
2026-02-06T21:47:11+00:00,SAT-48298,309.20897890568796,51.42033629412908,691.141046509405,-4.061392341064484,142247.1394566473,10.5,10500142247.139456,47.655,-122.3035,60.0,3.15
2026-02-06T21:47:12+00:00,SAT-48298,309.43565371653216,51.90405843010986,687.0905422007347,-4.01398660282327,140586.78997736605,10.5,10500140586.789978,47.655,-122.3035,60.0,3.1666666666666665
2026-02-06T21:47:13+00:00,SAT-48298,309.66991156366265,52.392679343162754,683.0873165420635,-3.9657377968815197,138896.9127010392,10.5,10500138896.9127,47.655,-122.3035,60.0,3.183333333333333
2026-02-06T21:47:14+00:00,SAT-48298,309.91213777432074,52.88619501320853,679.1322103409436,-3.9166364010998658,137177.17412206746,10.5,10500137177.174122,47.655,-122.3035,60.0,3.2
2026-02-06T21:47:15+00:00,SAT-48298,310.16274364199955,53.38459649415226,675.2260739015394,-3.8666733097477897,135427.25531925086,10.5,10500135427.25532,47.655,-122.3035,60.0,3.216666666666667
2026-02-06T21:47:16+00:00,SAT-48298,310.42216860151007,53.8878695564876,671.369766609334,-3.8158397493819445,133646.8490094918,10.5,10500133646.849009,47.655,-122.3035,60.0,3.2333333333333334
2026-02-06T21:47:17+00:00,SAT-48298,310.69088261140723,54.395994289979,667.5641565997341,-3.7641273382870297,131835.66162966585,10.5,10500131835.661629,47.655,-122.3035,60.0,3.25
2026-02-06T21:47:18+00:00,SAT-48298,310.96938877687035,54.9089446812372,663.8101203673915,-3.7115281577707693,129993.41583367344,10.5,10500129993.415834,47.655,-122.3035,60.0,3.2666666666666666
2026-02-06T21:47:19+00:00,SAT-48298,311.25822624188714,55.426688165488315,660.1085423044209,-3.6580347772620856,128119.85137148412,10.5,10500128119.851372,47.655,-122.3035,60.0,3.283333333333333
2026-02-06T21:47:20+00:00,SAT-48298,311.55797337843296,55.94918514345401,656.4603142135877,-3.6036402292413845,126214.7242110892,10.5,10500126214.72421,47.655,-122.3035,60.0,3.3
2026-02-06T21:47:21+00:00,SAT-48298,311.8692513023268,56.476388451994694,652.8663348464986,-3.548338151540184,124277.81152243643,10.5,10500124277.811522,47.655,-122.3035,60.0,3.316666666666667
2026-02-06T21:47:22+00:00,SAT-48298,312.1927277693787,57.008242808175446,649.3275092998721,-3.4921227510147084,122308.91040512579,10.5,10500122308.910404,47.655,-122.3035,60.0,3.3333333333333335
2026-02-06T21:47:23+00:00,SAT-48298,312.52912148104724,57.54468419680121,645.8447484480398,-3.4349888474710677,120307.83942685513,10.5,10500120307.839426,47.655,-122.3035,60.0,3.35
2026-02-06T21:47:24+00:00,SAT-48298,312.87920685547806,58.085639206835985,642.4189683316404,-3.376931971884699,118274.44206348025,10.5,10500118274.442064,47.655,-122.3035,60.0,3.3666666666666667
2026-02-06T21:47:25+00:00,SAT-48298,313.2438193270508,58.63102431934277,639.0510894483556,-3.3179483378586205,116208.58569936245,10.5,10500116208.5857,47.655,-122.3035,60.0,3.3833333333333333
2026-02-06T21:47:26+00:00,SAT-48298,313.62386122470895,59.1807451201167,635.7420360721139,-3.258034911827384,114110.16408620772,10.5,10500114110.164085,47.655,-122.3035,60.0,3.4
2026-02-06T21:47:27+00:00,SAT-48298,314.02030831114877,59.73469544365855,632.4927355022763,-3.197189492948459,111979.10014120108,10.5,10500111979.100142,47.655,-122.3035,60.0,3.4166666666666665
2026-02-06T21:47:28+00:00,SAT-48298,314.43421706672393,60.29275644140174,629.3041172331463,-3.1354106716515746,109815.34449522922,10.5,10500109815.344496,47.655,-122.3035,60.0,3.433333333333333
2026-02-06T21:47:29+00:00,SAT-48298,314.86673279424616,60.85479554227464,626.1771121648187,-3.0726979571379744,107618.87995844355,10.5,10500107618.87996,47.655,-122.3035,60.0,3.45
2026-02-06T21:47:30+00:00,SAT-48298,315.3190986696707,61.42066532143561,623.1126516868716,-3.0090517486027237,105389.72051234392,10.5,10500105389.720512,47.655,-122.3035,60.0,3.466666666666667
2026-02-06T21:47:31+00:00,SAT-48298,315.79266583428716,61.99020223512199,620.1116667907577,-2.944473435212213,103127.91481141342,10.5,10500103127.914812,47.655,-122.3035,60.0,3.4833333333333334
2026-02-06T21:47:32+00:00,SAT-48298,316.28890467719873,62.56322522702044,617.1750870824878,-2.878965399209379,100833.54629187663,10.5,10500100833.546291,47.655,-122.3035,60.0,3.5
2026-02-06T21:47:33+00:00,SAT-48298,316.8094174398324,63.13953416836479,614.3038397922166,-2.8125310542552038,98506.73451458088,10.5,10500098506.734514,47.655,-122.3035,60.0,3.5166666666666666
2026-02-06T21:47:34+00:00,SAT-48298,317.3559523088633,63.71890811398209,611.4988487455885,-2.7451749274680863,96147.63803836222,10.5,10500096147.638039,47.655,-122.3035,60.0,3.533333333333333
2026-02-06T21:47:35+00:00,SAT-48298,317.93041918664835,64.30110335594087,608.7610332532668,-2.676902640468649,93756.45375615424,10.5,10500093756.453756,47.655,-122.3035,60.0,3.55
2026-02-06T21:47:36+00:00,SAT-48298,318.53490731599635,64.8858512220652,606.0913070193645,-2.607720955804211,91333.41852096964,10.5,10500091333.418522,47.655,-122.3035,60.0,3.566666666666667
2026-02-06T21:47:37+00:00,SAT-48298,319.1717049823033,65.47285559418907,603.4905770035774,-2.537637865413461,88878.81224430716,10.5,10500088878.812244,47.655,-122.3035,60.0,3.5833333333333335
2026-02-06T21:47:38+00:00,SAT-48298,319.8433215333127,66.06179011262346,600.9597421950872,-2.466662547563346,86392.9563878993,10.5,10500086392.956388,47.655,-122.3035,60.0,3.6
2026-02-06T21:47:39+00:00,SAT-48298,320.55251191891676,66.65229498666234,598.4996924294144,-2.394805434132922,83876.21632027742,10.5,10500083876.21632,47.655,-122.3035,60.0,3.6166666666666667
2026-02-06T21:47:40+00:00,SAT-48298,321.30230401412246,67.24397337587206,596.1113071381673,-2.3220782367100528,81329.00223078845,10.5,10500081329.002232,47.655,-122.3035,60.0,3.6333333333333333
2026-02-06T21:47:41+00:00,SAT-48298,322.09602893970543,67.83638726496747,593.7954540727628,-2.248493973357828,78751.77006706818,10.5,10500078751.770067,47.655,-122.3035,60.0,3.65
2026-02-06T21:47:42+00:00,SAT-48298,322.9373545744966,68.42905275369719,591.5529880014554,-2.174066948692978,76145.02083730293,10.5,10500076145.020838,47.655,-122.3035,60.0,3.6666666666666665
2026-02-06T21:47:43+00:00,SAT-48298,323.8303223677395,69.02143465887576,589.3847494262305,-2.0988128277206797,73509.30319623697,10.5,10500073509.303196,47.655,-122.3035,60.0,3.683333333333333
2026-02-06T21:47:44+00:00,SAT-48298,324.77938750878053,69.61294035071835,587.2915632260649,-2.0227486064088844,70845.21241456077,10.5,10500070845.212414,47.655,-122.3035,60.0,3.7
2026-02-06T21:47:45+00:00,SAT-48298,325.78946226211895,70.20291268219245,585.2742373295304,-1.9458926441212536,68153.39151484979,10.5,10500068153.391516,47.655,-122.3035,60.0,3.716666666666667
2026-02-06T21:47:46+00:00,SAT-48298,326.86596207417614,70.79062190192082,583.3335613550549,-1.8682646412172448,65434.5304870247,10.5,10500065434.530487,47.655,-122.3035,60.0,3.7333333333333334
2026-02-06T21:47:47+00:00,SAT-48298,328.01485360834295,71.37525640032796,581.4703052735202,-1.7898856645646153,62689.367181907095,10.5,10500062689.367182,47.655,-122.3035,60.0,3.75
2026-02-06T21:47:48+00:00,SAT-48298,329.2427033383661,71.95591216442814,579.685218045418,-1.7107781322650066,59918.686776244955,10.5,10500059918.686777,47.655,-122.3035,60.0,3.7666666666666666
2026-02-06T21:47:49+00:00,SAT-48298,330.55672445716414,72.53158079605484,577.9790262732382,-1.630965797339199,57123.321201301165,10.5,10500057123.321201,47.655,-122.3035,60.0,3.783333333333333
2026-02-06T21:47:50+00:00,SAT-48298,331.96481871541675,73.10113597915304,576.3524328701286,-1.550473737336432,54304.148778928036,10.5,10500054304.148779,47.655,-122.3035,60.0,3.8
2026-02-06T21:47:51+00:00,SAT-48298,333.4756082188293,73.66331832810987,574.8061157389163,-1.4693283393954102,51462.09369834049,10.5,10500051462.093699,47.655,-122.3035,60.0,3.816666666666667
2026-02-06T21:47:52+00:00,SAT-48298,335.09845006743535,74.21671862550664,573.3407264660315,-1.3875572552112057,48598.12443886651,10.5,10500048598.12444,47.655,-122.3035,60.0,3.8333333333333335
2026-02-06T21:47:53+00:00,SAT-48298,336.84342388680807,74.75975957966813,571.9568890603388,-1.3051893937122536,45713.253513464515,10.5,10500045713.253513,47.655,-122.3035,60.0,3.85
2026-02-06T21:47:54+00:00,SAT-48298,338.7212788319378,75.2906764643578,570.6551986992748,-1.2222548729128837,42808.53578239543,10.5,10500042808.535782,47.655,-122.3035,60.0,3.8666666666666667
2026-02-06T21:47:55+00:00,SAT-48298,340.7433223083562,75.80749728383527,569.4362205230051,-1.1387849627897983,39885.06645251524,10.5,10500039885.066452,47.655,-122.3035,60.0,3.8833333333333333
2026-02-06T21:47:56+00:00,SAT-48298,342.9212279052237,76.30802355958416,568.3004884855482,-1.0548120742036444,36943.980689261596,10.5,10500036943.98069,47.655,-122.3035,60.0,3.9
2026-02-06T21:47:57+00:00,SAT-48298,345.2667354859082,76.78981346674956,567.2485042169515,-0.9703696654757685,33986.45034457662,10.5,10500033986.450344,47.655,-122.3035,60.0,3.9166666666666665
2026-02-06T21:47:58+00:00,SAT-48298,347.7912127543137,77.25016978071793,566.2807359786376,-0.885492214997268,31013.68299755998,10.5,10500031013.682997,47.655,-122.3035,60.0,3.933333333333333
2026-02-06T21:47:59+00:00,SAT-48298,350.5050478103723,77.6861361098129,565.3976176460709,-0.8002151430522746,28026.919216389637,10.5,10500028026.919216,47.655,-122.3035,60.0,3.95
2026-02-06T21:48:00+00:00,SAT-48298,353.41684831601236,78.09450587481466,564.5995477693875,-0.7145747467913003,25027.430280813314,10.5,10500025027.43028,47.655,-122.3035,60.0,3.966666666666667
2026-02-06T21:48:01+00:00,SAT-48298,356.53243980782617,78.4718494555465,563.8868886988809,-0.6286081347225339,22016.515887756603,10.5,10500022016.515888,47.655,-122.3035,60.0,3.9833333333333334
2026-02-06T21:48:02+00:00,SAT-48298,359.8536871748591,78.81456541180148,563.2599657758198,-0.5423531410803041,18995.501152144374,10.5,10500018995.501152,47.655,-122.3035,60.0,4.0
2026-02-06T21:48:03+00:00,SAT-48298,3.377211895726724,79.11896123147126,562.7190666086659,-0.45584825697750114,15965.73419556726,10.5,10500015965.734196,47.655,-122.3035,60.0,4.016666666666667
2026-02-06T21:48:04+00:00,SAT-48298,7.093141174120427,79.38136710331139,562.2644404179583,-0.36913253751259484,12928.582892776596,10.5,10500012928.582893,47.655,-122.3035,60.0,4.033333333333333
2026-02-06T21:48:05+00:00,SAT-48298,10.984091521151722,79.59828218325067,561.8962974738383,-0.2822455202259643,9885.432015680077,10.5,10500009885.432016,47.655,-122.3035,60.0,4.05
2026-02-06T21:48:06+00:00,SAT-48298,15.024636697431157,79.76654674248978,561.6148086149021,-0.19522713950355403,6837.680235395772,10.5,10500006837.680235,47.655,-122.3035,60.0,4.066666666666666
2026-02-06T21:48:07+00:00,SAT-48298,19.181506944476013,79.88352616735476,561.4201048524184,-0.10811763017254025,3786.73674576454,10.5,10500003786.736746,47.655,-122.3035,60.0,4.083333333333333
2026-02-06T21:48:08+00:00,SAT-48298,23.414686479971884,79.94728590295115,561.3122770706921,-0.02095743852113307,734.0181468871283,10.5,10500000734.018147,47.655,-122.3035,60.0,4.1
2026-02-06T21:48:09+00:00,SAT-48298,27.679415969586973,79.95673270733195,561.2913758161716,0.06621287193273753,-2319.0548552550445,10.5,10499997680.945145,47.655,-122.3035,60.0,4.116666666666666
2026-02-06T21:48:10+00:00,SAT-48298,31.92889956708775,79.91169932794283,561.357411180532,0.15335271460272862,-5371.060746727158,10.5,10499994628.939253,47.655,-122.3035,60.0,4.133333333333334
2026-02-06T21:48:11+00:00,SAT-48298,36.11733099369407,79.81295770313609,561.5103527776695,0.24042157318694066,-8420.580475252906,10.5,10499991579.419525,47.655,-122.3035,60.0,4.15
2026-02-06T21:48:12+00:00,SAT-48298,40.20276335630286,79.66215829379756,561.750129813797,0.32737909712277097,-11466.20079344723,10.5,10499988533.799206,47.655,-122.3035,60.0,4.166666666666667
2026-02-06T21:48:13+00:00,SAT-48298,44.149391860854195,79.46170640501195,562.0766312527385,0.41418519400699616,-14506.517495758548,10.5,10499985493.482504,47.655,-122.3035,60.0,4.183333333333334
2026-02-06T21:48:14+00:00,SAT-48298,47.928977606569234,79.2145962564874,562.489706073398,0.5008001168759102,-17540.13847538839,10.5,10499982459.861525,47.655,-122.3035,60.0,4.2
2026-02-06T21:48:15+00:00,SAT-48298,51.52134894661302,78.92422753511731,562.989163614271,0.5871845643405652,-20565.68723145108,10.5,10499979434.312769,47.655,-122.3035,60.0,4.216666666666667
2026-02-06T21:48:16+00:00,SAT-48298,54.914099719748435,78.59422712856347,563.574774017826,0.6732997568248174,-23581.80553915263,10.5,10499976418.19446,47.655,-122.3035,60.0,4.233333333333333
2026-02-06T21:48:17+00:00,SAT-48298,58.101712751011085,78.22829267779488,564.2462687509181,0.7591075231241754,-26587.156481447713,10.5,10499973412.84352,47.655,-122.3035,60.0,4.25
2026-02-06T21:48:18+00:00,SAT-48298,61.084364890562846,77.83006708270136,565.0033412115295,0.8445703907952912,-29580.427614862,10.5,10499970419.572386,47.655,-122.3035,60.0,4.266666666666667
2026-02-06T21:48:19+00:00,SAT-48298,63.866636459147635,77.4030463987022,565.8456474256578,0.9296516521162773,-32560.333279701492,10.5,10499967439.66672,47.655,-122.3035,60.0,4.283333333333333
2026-02-06T21:48:20+00:00,SAT-48298,66.45628493268283,76.95051880864946,566.7728068099868,1.0143154489860928,-35525.617573588104,10.5,10499964474.382427,47.655,-122.3035,60.0,4.3
2026-02-06T21:48:21+00:00,SAT-48298,68.86317650262073,76.47552968687964,567.7844030192296,1.0985268246208453,-38475.05616208289,10.5,10499961524.943838,47.655,-122.3035,60.0,4.316666666666666
2026-02-06T21:48:22+00:00,SAT-48298,71.09841448444035,75.98086688634643,568.8799848450304,1.1822518155829271,-41407.45950193562,10.5,10499958592.540499,47.655,-122.3035,60.0,4.333333333333333
2026-02-06T21:48:23+00:00,SAT-48298,73.17366635158648,75.46906057183196,570.0590672066464,1.265457485792925,-44321.67403232577,10.5,10499955678.325968,47.655,-122.3035,60.0,4.35
2026-02-06T21:48:24+00:00,SAT-48298,75.10066944786998,74.94239279225661,571.3211321755532,1.3481119966892947,-47216.58463215107,10.5,10499952783.415367,47.655,-122.3035,60.0,4.366666666666666
2026-02-06T21:48:25+00:00,SAT-48298,76.89088614696102,74.40291296786765,572.6656300700187,1.4301846558196978,-50091.11632190169,10.5,10499949908.883678,47.655,-122.3035,60.0,4.383333333333334
2026-02-06T21:48:26+00:00,SAT-48298,78.55527733753534,73.85245648974953,574.0919805981417,1.511645959130159,-52944.23574480539,10.5,10499947055.764256,47.655,-122.3035,60.0,4.4
2026-02-06T21:48:27+00:00,SAT-48298,80.10416566910764,73.29266447066786,575.5995740430625,1.5924676206536141,-55774.95220664607,10.5,10499944225.047792,47.655,-122.3035,60.0,4.416666666666667
2026-02-06T21:48:28+00:00,SAT-48298,81.54716438495852,72.72500335744816,577.1877724777855,1.6726226329800578,-58582.31979368409,10.5,10499941417.680206,47.655,-122.3035,60.0,4.433333333333334
2026-02-06T21:48:29+00:00,SAT-48298,82.8931524194955,72.15078359731217,578.8559110403086,1.7520852721364688,-61365.43754357196,10.5,10499938634.562456,47.655,-122.3035,60.0,4.45
2026-02-06T21:48:30+00:00,SAT-48298,84.15028083210277,71.57117693492164,580.6032992136181,1.8308311173738394,-64123.450138379776,10.5,10499935876.549862,47.655,-122.3035,60.0,4.466666666666667
2026-02-06T21:48:31+00:00,SAT-48298,85.32599952684748,70.98723212915807,582.4292221254211,1.9088371084824223,-66855.54991201758,10.5,10499933144.450089,47.655,-122.3035,60.0,4.483333333333333
2026-02-06T21:48:32+00:00,SAT-48298,86.42709625894567,70.39988902937402,584.3329419050351,1.986081497899005,-69560.97517282957,10.5,10499930439.024828,47.655,-122.3035,60.0,4.5
2026-02-06T21:48:33+00:00,SAT-48298,87.4597422041757,69.80999109180392,586.3136989925177,2.062543911388603,-72239.01232892367,10.5,10499927760.98767,47.655,-122.3035,60.0,4.516666666666667
2026-02-06T21:48:34+00:00,SAT-48298,88.42954027605938,69.21829640239413,588.3707135083106,2.1382053367408935,-74888.9954922728,10.5,10499925111.004507,47.655,-122.3035,60.0,4.533333333333333
2026-02-06T21:48:35+00:00,SAT-48298,89.34157355601567,68.62548735807769,590.5031866116161,2.213048096624161,-77510.30552794522,10.5,10499922489.694471,47.655,-122.3035,60.0,4.55
2026-02-06T21:48:36+00:00,SAT-48298,90.20045218425369,68.03217914768315,592.7103018316939,2.2870558770890566,-80102.37105242685,10.5,10499919897.628948,47.655,-122.3035,60.0,4.566666666666666
2026-02-06T21:48:37+00:00,SAT-48298,91.01035773847215,67.4389271535569,594.9912264275903,2.360213695514039,-82664.66731093485,10.5,10499917335.33269,47.655,-122.3035,60.0,4.583333333333333
2026-02-06T21:48:38+00:00,SAT-48298,91.77508453296433,66.84623342040793,597.3451127158961,2.432507908087126,-85196.71643946035,10.5,10499914803.28356,47.655,-122.3035,60.0,4.6
2026-02-06T21:48:39+00:00,SAT-48298,92.49807761972379,66.25455229926072,599.7710994059677,2.5039261687358962,-87698.08602632329,10.5,10499912301.913973,47.655,-122.3035,60.0,4.616666666666666
2026-02-06T21:48:40+00:00,SAT-48298,93.18246744355469,65.66429538564861,602.268312894187,2.574457388872543,-90168.38770227402,10.5,10499909831.612297,47.655,-122.3035,60.0,4.633333333333334
2026-02-06T21:48:41+00:00,SAT-48298,93.83110125242797,65.07583584506631,604.835868518075,2.644091803086107,-92607.27944131312,10.5,10499907392.720558,47.655,-122.3035,60.0,4.65
2026-02-06T21:48:42+00:00,SAT-48298,94.44657145993214,64.48951218459538,607.4728718759218,2.712820823908899,-95014.46047399713,10.5,10499904985.539526,47.655,-122.3035,60.0,4.666666666666667
2026-02-06T21:48:43+00:00,SAT-48298,95.0312411239581,63.9056315916981,610.178420001571,2.7806370919034555,-97389.67304169569,10.5,10499902610.326958,47.655,-122.3035,60.0,4.683333333333334
2026-02-06T21:48:44+00:00,SAT-48298,95.58726682393686,63.32447285696092,612.9516025891589,2.8475344138297345,-99732.70023094515,10.5,10499900267.299768,47.655,-122.3035,60.0,4.7
2026-02-06T21:48:45+00:00,SAT-48298,96.11661914616812,62.7462889605882,615.791503156185,2.913507733325023,-102043.3649465349,10.5,10499897956.635054,47.655,-122.3035,60.0,4.716666666666667
2026-02-06T21:48:46+00:00,SAT-48298,96.62110101523162,62.17130936131319,618.6972001773411,2.978553093900584,-104321.5286154935,10.5,10499895678.471384,47.655,-122.3035,60.0,4.733333333333333
2026-02-06T21:48:47+00:00,SAT-48298,97.10236408796924,61.59974202913502,621.6677681814373,3.0426675965815395,-106567.089703458,10.5,10499893432.910297,47.655,-122.3035,60.0,4.75
2026-02-06T21:48:48+00:00,SAT-48298,97.56192341126443,61.031775256897326,624.7022788060805,3.10584938947515,-108779.9833493112,10.5,10499891220.016651,47.655,-122.3035,60.0,4.766666666666667
2026-02-06T21:48:49+00:00,SAT-48298,98.00117053354131,60.46757927405814,627.7998018419495,3.1680975589045524,-110960.17755222449,10.5,10499889039.822447,47.655,-122.3035,60.0,4.783333333333333
2026-02-06T21:48:50+00:00,SAT-48298,98.42138522443622,59.90730770581319,630.9594061684961,3.2294121817254076,-113107.67500400821,10.5,10499886892.324995,47.655,-122.3035,60.0,4.8
2026-02-06T21:48:51+00:00,SAT-48298,98.82374597628214,59.3510988693796,634.1801607418213,3.2897942063669015,-115222.5089226643,10.5,10499884777.491077,47.655,-122.3035,60.0,4.816666666666666
2026-02-06T21:48:52+00:00,SAT-48298,99.2093393999207,58.799076957228046,637.4611354639126,3.3492454395453555,-117304.74258704078,10.5,10499882695.257414,47.655,-122.3035,60.0,4.833333333333333
2026-02-06T21:48:53+00:00,SAT-48298,99.5791686506134,58.251353103600266,640.8014020386304,3.407768528167537,-119354.468703009,10.5,10499880645.531298,47.655,-122.3035,60.0,4.85
2026-02-06T21:48:54+00:00,SAT-48298,99.93416098986181,57.708026349558935,644.2000348096458,3.4653668807230367,-121371.80665029233,10.5,10499878628.19335,47.655,-122.3035,60.0,4.866666666666666
2026-02-06T21:48:55+00:00,SAT-48298,100.27517457263068,57.169184528238105,647.6561115199825,3.522044620265046,-123356.90083565406,10.5,10499876643.099165,47.655,-122.3035,60.0,4.883333333333334
2026-02-06T21:48:56+00:00,SAT-48298,100.60300454915158,56.634905074650035,651.1687140246626,3.5778066044814816,-125309.921395873,10.5,10499874690.078604,47.655,-122.3035,60.0,4.9
2026-02-06T21:48:57+00:00,SAT-48298,100.91838856159931,56.105255758855336,654.7369290233748,3.632658295839877,-127231.0596496684,10.5,10499872768.94035,47.655,-122.3035,60.0,4.916666666666667
2026-02-06T21:48:58+00:00,SAT-48298,101.22201168937376,55.580295373043185,658.3598486636304,3.6866058055398847,-129120.52963710245,10.5,10499870879.470364,47.655,-122.3035,60.0,4.933333333333334
2026-02-06T21:48:59+00:00,SAT-48298,101.51451091652658,55.06007435262732,662.0365711877571,3.7396557862561552,-130978.56436298219,10.5,10499869021.435637,47.655,-122.3035,60.0,4.95
2026-02-06T21:49:00+00:00,SAT-48298,101.79647916151426,54.544635359699114,665.766201472923,3.7918154395208727,-132805.41605542714,10.5,10499867194.583944,47.655,-122.3035,60.0,4.966666666666667
2026-02-06T21:49:01+00:00,SAT-48298,102.06846892387354,54.03401381699007,669.5478515785209,3.8430924810949207,-134601.3549530211,10.5,10499865398.645046,47.655,-122.3035,60.0,4.983333333333333
2026-02-06T21:49:02+00:00,SAT-48298,102.33099558553161,53.528238403201016,673.3806412590209,3.8934950180625645,-136366.66500014797,10.5,10499863633.335,47.655,-122.3035,60.0,5.0
2026-02-06T21:49:03+00:00,SAT-48298,102.58454039758053,53.027331524775924,677.2636983542423,3.9430316551409836,-138101.64757040128,10.5,10499861898.35243,47.655,-122.3035,60.0,5.016666666666667
2026-02-06T21:49:04+00:00,SAT-48298,102.82955319914399,52.531309737232796,681.1961592856542,3.991711352219916,-139806.61647701997,10.5,10499860193.383522,47.655,-122.3035,60.0,5.033333333333333
2026-02-06T21:49:05+00:00,SAT-48298,103.0664548807506,52.04018415212125,685.1771694105952,4.039543393047959,-141481.8968761501,10.5,10499858518.103125,47.655,-122.3035,60.0,5.05
2026-02-06T21:49:06+00:00,SAT-48298,103.29563962560655,51.553960816869115,689.2058833452631,4.086537435466017,-143127.82702623287,10.5,10499856872.172974,47.655,-122.3035,60.0,5.066666666666666
2026-02-06T21:49:07+00:00,SAT-48298,103.51747695439649,51.0726410604514,693.281465337807,4.132703392244392,-144744.7541144151,10.5,10499855255.245886,47.655,-122.3035,60.0,5.083333333333333
2026-02-06T21:49:08+00:00,SAT-48298,103.73231358510091,50.596221827741296,697.4030895225698,4.1780514573825025,-146333.03517767705,10.5,10499853666.964823,47.655,-122.3035,60.0,5.1
2026-02-06T21:49:09+00:00,SAT-48298,103.94047513314862,50.12469598661968,701.5699402005661,4.222592035694031,-147893.03463660626,10.5,10499852106.965363,47.655,-122.3035,60.0,5.116666666666666
2026-02-06T21:49:10+00:00,SAT-48298,104.14226766281483,49.65805262103046,705.7812120497302,4.266335749218118,-149425.12451994454,10.5,10499850574.87548,47.655,-122.3035,60.0,5.133333333333334
2026-02-06T21:49:11+00:00,SAT-48298,104.33797910804832,49.19627730259383,710.0361103415589,4.3092933961701885,-150929.68302687246,10.5,10499849070.316973,47.655,-122.3035,60.0,5.15
2026-02-06T21:49:12+00:00,SAT-48298,104.52788057255376,48.73935234764047,714.3338511168164,4.351475926555789,-152407.09367290285,10.5,10499847592.906326,47.655,-122.3035,60.0,5.166666666666667
2026-02-06T21:49:13+00:00,SAT-48298,104.71222752192817,48.28725705896967,718.6736613369169,4.392894425044105,-153857.74469003853,10.5,10499846142.25531,47.655,-122.3035,60.0,5.183333333333334
2026-02-06T21:49:14+00:00,SAT-48298,104.89126087760795,47.839967952713934,723.0547790182269,4.433560063798279,-155282.0273746911,10.5,10499844717.972626,47.655,-122.3035,60.0,5.2
2026-02-06T21:49:15+00:00,SAT-48298,105.06520802108518,47.39745897441894,727.4764533193255,4.4734841439399435,-156680.33753994375,10.5,10499843319.66246,47.655,-122.3035,60.0,5.216666666666667
2026-02-06T21:49:16+00:00,SAT-48298,105.23428371938708,46.95970169634481,731.9379446696164,4.512677982991868,-158053.071573317,10.5,10499841946.928427,47.655,-122.3035,60.0,5.233333333333333
2026-02-06T21:49:17+00:00,SAT-48298,105.3986909738423,46.52666551232978,736.4385247856852,4.5511529721728845,-159400.628443479,10.5,10499840599.371557,47.655,-122.3035,60.0,5.25
2026-02-06T21:49:18+00:00,SAT-48298,105.55862180474081,46.09831781398282,740.9774767447988,4.58892053297355,-160723.4081793421,10.5,10499839276.59182,47.655,-122.3035,60.0,5.266666666666667
2026-02-06T21:49:19+00:00,SAT-48298,105.71425797403171,45.67462415912583,745.5540950150945,4.625992108125087,-162021.81155375636,10.5,10499837978.188446,47.655,-122.3035,60.0,5.283333333333333
2026-02-06T21:49:20+00:00,SAT-48298,105.86577165275112,45.25554842977726,750.1676854767646,4.662379106257553,-163296.23814520478,10.5,10499836703.761854,47.655,-122.3035,60.0,5.3
2026-02-06T21:49:21+00:00,SAT-48298,106.01332603657043,44.84105298446591,754.8175653880467,4.698092938464603,-164547.08761845613,10.5,10499835452.912382,47.655,-122.3035,60.0,5.316666666666666
2026-02-06T21:49:22+00:00,SAT-48298,106.15707591660481,44.43109879708373,759.5030633876802,4.733145006364892,-165774.75930642447,10.5,10499834225.240694,47.655,-122.3035,60.0,5.333333333333333
2026-02-06T21:49:23+00:00,SAT-48298,106.29716820771277,44.02564558753657,764.2235194854571,4.767546635787156,-166979.64988754032,10.5,10499833020.350113,47.655,-122.3035,60.0,5.35
2026-02-06T21:49:24+00:00,SAT-48298,106.43374243663632,43.62465194925987,768.978284986635,4.80130910214752,-168162.15427457137,10.5,10499831837.845726,47.655,-122.3035,60.0,5.366666666666666
2026-02-06T21:49:25+00:00,SAT-48298,106.56693119557067,43.228075465996206,773.7667224416605,4.834443635130467,-169322.6657785697,10.5,10499830677.33422,47.655,-122.3035,60.0,5.383333333333334
2026-02-06T21:49:26+00:00,SAT-48298,106.69686056357179,42.83587282037253,778.5882056005582,4.866961369762253,-170461.574395256,10.5,10499829538.425604,47.655,-122.3035,60.0,5.4
2026-02-06T21:49:27+00:00,SAT-48298,106.82365049687672,42.44799989909885,783.4421193185287,4.898873384545575,-171579.2681406566,10.5,10499828420.73186,47.655,-122.3035,60.0,5.416666666666667
2026-02-06T21:49:28+00:00,SAT-48298,106.9474151930438,42.064411888041214,788.327859499575,4.930190611074959,-172676.1298854525,10.5,10499827323.870115,47.655,-122.3035,60.0,5.433333333333334
2026-02-06T21:49:29+00:00,SAT-48298,107.06826342777065,41.68506336783059,793.2448329499879,4.960923930864448,-173752.54074629422,10.5,10499826247.459253,47.655,-122.3035,60.0,5.45
2026-02-06T21:49:30+00:00,SAT-48298,107.18629887082399,41.309908395555986,798.1924573284011,4.99108410465309,-174808.87760978108,10.5,10499825191.12239,47.655,-122.3035,60.0,5.466666666666667
2026-02-06T21:49:31+00:00,SAT-48298,107.3016203791155,40.938900586212654,803.1701610253394,5.02068177149763,-175845.5131006835,10.5,10499824154.486898,47.655,-122.3035,60.0,5.483333333333333
2026-02-06T21:49:32+00:00,SAT-48298,107.41432227001582,40.57199318858392,808.1773830418617,5.049727459389868,-176862.81595380767,10.5,10499823137.184046,47.655,-122.3035,60.0,5.5
2026-02-06T21:49:33+00:00,SAT-48298,107.5244945767967,40.20913915509689,813.2135728787954,5.078231558103741,-177861.1500629855,10.5,10499822138.849937,47.655,-122.3035,60.0,5.516666666666667
