DopplerPredictor/satellites_20260211_205844/SAT-62859.csv

timestamp,satellite,azimuth_deg,elevation_deg,distance_km,relative_velocity_kms,doppler_shift_hz,tx_freq_ghz,rx_freq_hz,ue_lat,ue_lon,ue_alt_m,time_minutes
2026-02-06T21:44:02+00:00,SAT-62859,15.37931071212945,40.8761536968607,684.6963167342616,2.79869740944941,-98022.22175722249,10.5,10499901977.778242,47.655,-122.3035,60.0,0.0
2026-02-06T21:44:03+00:00,SAT-62859,16.061344510847658,40.6426907519194,687.4875112221766,2.859570682232491,-100154.26126377455,10.5,10499899845.738737,47.655,-122.3035,60.0,0.016666666666666666
2026-02-06T21:44:04+00:00,SAT-62859,16.73311250728998,40.40677978893958,690.3394157900308,2.9196890972460334,-102259.86245819215,10.5,10499897740.137543,47.655,-122.3035,60.0,0.03333333333333333
2026-02-06T21:44:05+00:00,SAT-62859,17.394669504093297,40.16859686870146,693.251277603724,2.9790495483980703,-104338.9165519959,10.5,10499895661.083448,47.655,-122.3035,60.0,0.05
