DopplerPredictor/satellites_20260211_205844/SAT-56490.csv

timestamp,satellite,azimuth_deg,elevation_deg,distance_km,relative_velocity_kms,doppler_shift_hz,tx_freq_ghz,rx_freq_hz,ue_lat,ue_lon,ue_alt_m,time_minutes
2026-02-06T21:44:02+00:00,SAT-56490,162.61911027490945,40.634125423914895,839.484216542222,5.111371236117993,-179021.84176774364,10.5,10499820978.158232,47.655,-122.3035,60.0,0.0
2026-02-06T21:44:03+00:00,SAT-56490,162.514032990519,40.27679454189373,844.5818848974254,5.139998072131164,-180024.47465632114,10.5,10499819975.525343,47.655,-122.3035,60.0,0.016666666666666666
