DopplerPredictor/satellites_20260211_205844/SAT-63385.csv

timestamp,satellite,azimuth_deg,elevation_deg,distance_km,relative_velocity_kms,doppler_shift_hz,tx_freq_ghz,rx_freq_hz,ue_lat,ue_lon,ue_alt_m,time_minutes
2026-02-06T21:46:13+00:00,SAT-63385,246.94947840759556,40.18679669830173,699.7258918066341,-2.6067219976831684,91298.43078198208,10.5,10500091298.430782,47.655,-122.3035,60.0,2.183333333333333
2026-02-06T21:46:14+00:00,SAT-63385,246.26499423093492,40.39731223469286,697.1261580708992,-2.543849319880158,89096.36365415723,10.5,10500089096.363655,47.655,-122.3035,60.0,2.2
2026-02-06T21:46:15+00:00,SAT-63385,245.57111237640237,40.60477908214566,694.5891284599942,-2.4802822603694814,86869.97634169822,10.5,10500086869.976341,47.655,-122.3035,60.0,2.216666666666667
2026-02-06T21:46:16+00:00,SAT-63385,244.86784763274,40.80902446080719,692.1154954940861,-2.4160283398582942,84619.53225158216,10.5,10500084619.532251,47.655,-122.3035,60.0,2.2333333333333334
2026-02-06T21:46:17+00:00,SAT-63385,244.155226548161,41.00987336606768,689.705944192795,-2.3510958627017,82345.32223745217,10.5,10500082345.322237,47.655,-122.3035,60.0,2.25
2026-02-06T21:46:18+00:00,SAT-63385,243.43328800516244,41.20714885113147,687.3611512936498,-2.2854939118839512,80047.6644238378,10.5,10500080047.664423,47.655,-122.3035,60.0,2.2666666666666666
2026-02-06T21:46:19+00:00,SAT-63385,242.70208378868452,41.40067233101775,685.0817844755454,-2.2192323509683622,77726.9042744491,10.5,10500077726.904274,47.655,-122.3035,60.0,2.283333333333333
2026-02-06T21:46:20+00:00,SAT-63385,241.9616791422074,41.59026390861052,682.868501580256,-2.1523218776030695,75383.41646617485,10.5,10500075383.416466,47.655,-122.3035,60.0,2.3
2026-02-06T21:46:21+00:00,SAT-63385,241.21215328986796,41.775742727119635,680.7219497805862,-2.084773953236649,73017.60242742603,10.5,10500073017.602427,47.655,-122.3035,60.0,2.316666666666667
2026-02-06T21:46:22+00:00,SAT-63385,240.45359995797128,41.95692733814986,678.6427648186194,-2.016600902300126,70629.89381190945,10.5,10500070629.893812,47.655,-122.3035,60.0,2.3333333333333335
2026-02-06T21:46:23+00:00,SAT-63385,239.68612783645858,42.13363609948388,676.6315701450476,-1.9478158281592448,68220.74955492067,10.5,10500068220.749556,47.655,-122.3035,60.0,2.35
2026-02-06T21:46:24+00:00,SAT-63385,238.90986103303385,42.30568758618313,674.6889761423251,-1.8784326698471663,65790.657860363,10.5,10500065790.65786,47.655,-122.3035,60.0,2.3666666666666667
2026-02-06T21:46:25+00:00,SAT-63385,238.1249394685567,42.47290102633533,672.815579291242,-1.808466177392557,63340.13533663294,10.5,10500063340.135336,47.655,-122.3035,60.0,2.3833333333333333
2026-02-06T21:46:26+00:00,SAT-63385,237.33151923335427,42.63509675335226,671.0119613621025,-1.7379319164044955,60869.72715720288,10.5,10500060869.727158,47.655,-122.3035,60.0,2.4
2026-02-06T21:46:27+00:00,SAT-63385,236.5297728888714,42.79209667608177,669.2786886013312,-1.6668462486533961,58380.00638048292,10.5,10500058380.00638,47.655,-122.3035,60.0,2.4166666666666665
2026-02-06T21:46:28+00:00,SAT-63385,235.7198897173473,42.94372476309102,667.6163109374456,-1.5952263450849893,55871.5744056256,10.5,10500055871.574406,47.655,-122.3035,60.0,2.433333333333333
2026-02-06T21:46:29+00:00,SAT-63385,234.90207589979687,43.08980754230942,666.0253611740505,-1.5230901512484207,53345.059761671575,10.5,10500053345.059761,47.655,-122.3035,60.0,2.45
2026-02-06T21:46:30+00:00,SAT-63385,234.07655463615598,43.23017460975832,664.5063542173114,-1.4504564098852202,50801.11889871096,10.5,10500050801.118898,47.655,-122.3035,60.0,2.466666666666667
2026-02-06T21:46:31+00:00,SAT-63385,233.2435661750123,43.36465915041758,663.0597862808979,-1.377344581818798,48240.43341709877,10.5,10500048240.433416,47.655,-122.3035,60.0,2.4833333333333334
2026-02-06T21:46:32+00:00,SAT-63385,232.4033677977212,43.49309845944451,661.6861341698292,-1.3037749132159324,45663.71242323678,10.5,10500045663.712423,47.655,-122.3035,60.0,2.5
2026-02-06T21:46:33+00:00,SAT-63385,231.55623367657986,43.61533447467929,660.3858544972348,-1.229768326958733,43071.68872496018,10.5,10500043071.688725,47.655,-122.3035,60.0,2.5166666666666666
2026-02-06T21:46:34+00:00,SAT-63385,230.70245469430927,43.73121430133802,659.1593830094524,-1.1553464760242338,40465.120701116684,10.5,10500040465.1207,47.655,-122.3035,60.0,2.533333333333333
2026-02-06T21:46:35+00:00,SAT-63385,229.84233813245578,43.84059074102361,658.0071338578927,-1.080531656907758,37844.78926928662,10.5,10500037844.789268,47.655,-122.3035,60.0,2.55
2026-02-06T21:46:36+00:00,SAT-63385,228.9762073056463,43.943322808867215,656.9294989572439,-1.0053468246683834,35211.49841273868,10.5,10500035211.498413,47.655,-122.3035,60.0,2.566666666666667
2026-02-06T21:46:37+00:00,SAT-63385,228.10440107610654,44.03927624514566,655.9268473286745,-0.9298155379634491,32566.07325530589,10.5,10500032566.073256,47.655,-122.3035,60.0,2.5833333333333335
2026-02-06T21:46:38+00:00,SAT-63385,227.2272732925763,44.12832401149777,654.9995244978538,-0.8539619354533095,29909.359234980322,10.5,10500029909.359236,47.655,-122.3035,60.0,2.6
2026-02-06T21:46:39+00:00,SAT-63385,226.34519213013243,44.21034677136981,654.1478519165024,-0.7778106975973113,27242.22076584651,10.5,10500027242.220766,47.655,-122.3035,60.0,2.6166666666666667
2026-02-06T21:46:40+00:00,SAT-63385,225.4585393426293,44.285233349978505,653.3721264220476,-0.7013870190267122,24565.540270464306,10.5,10500024565.54027,47.655,-122.3035,60.0,2.6333333333333333
2026-02-06T21:46:41+00:00,SAT-63385,224.5677094169796,44.35288117152238,652.6726197248275,-0.6247165512674242,21880.216173776975,10.5,10500021880.216173,47.655,-122.3035,60.0,2.65
2026-02-06T21:46:42+00:00,SAT-63385,223.67310866016612,44.41319666755839,652.0495779524232,-0.5478253821893838,19187.162183341283,10.5,10500019187.162184,47.655,-122.3035,60.0,2.6666666666666665
2026-02-06T21:46:43+00:00,SAT-63385,222.7751541851556,44.46609565699661,651.5032212144833,-0.4707399764059699,16487.30520186296,10.5,10500016487.305202,47.655,-122.3035,60.0,2.683333333333333
2026-02-06T21:46:44+00:00,SAT-63385,221.87427284020458,44.511503690998076,651.0337432269922,-0.3934871448816974,13781.584262729593,10.5,10500013781.584263,47.655,-122.3035,60.0,2.7
2026-02-06T21:46:45+00:00,SAT-63385,220.97090005168096,44.549356362887075,650.6413109668445,-0.3160939898364945,11070.948600325337,10.5,10500011070.9486,47.655,-122.3035,60.0,2.716666666666667
2026-02-06T21:46:46+00:00,SAT-63385,220.06547861911687,44.5795995781731,650.3260643813738,-0.2385878637368139,8356.356213726183,10.5,10500008356.356215,47.655,-122.3035,60.0,2.7333333333333334
2026-02-06T21:46:47+00:00,SAT-63385,219.15845744528897,44.602189783850996,650.0881161387746,-0.16099631603521752,5638.772001294922,10.5,10500005638.772001,47.655,-122.3035,60.0,2.75
2026-02-06T21:46:48+00:00,SAT-63385,218.2502902368506,44.61709415390334,649.927551431645,-0.08334705463867842,2919.1664111380796,10.5,10500002919.16641,47.655,-122.3035,60.0,2.7666666666666666
2026-02-06T21:46:49+00:00,SAT-63385,217.34143414102178,44.62429073084148,649.8444278189579,-0.005667884508009464,198.513290598189,10.5,10500000198.51329,47.655,-122.3035,60.0,2.783333333333333
2026-02-06T21:46:50+00:00,SAT-63385,216.43234838855327,44.62376851993142,649.8387751292662,0.07201333359357304,-2522.211558546002,10.5,10499997477.78844,47.655,-122.3035,60.0,2.8
2026-02-06T21:46:51+00:00,SAT-63385,215.52349290327962,44.61552753720815,649.9105954050501,0.14966873492323785,-5242.032195132799,10.5,10499994757.967804,47.655,-122.3035,60.0,2.816666666666667
2026-02-06T21:46:52+00:00,SAT-63385,214.61532690726844,44.59957880987504,650.0598628987493,0.22727050131649548,-7959.97430937106,10.5,10499992040.02569,47.655,-122.3035,60.0,2.8333333333333335
2026-02-06T21:46:53+00:00,SAT-63385,213.70830753282257,44.57594432918635,650.2865241192152,0.30479091130325786,-10675.0669781166,10.5,10499989324.933022,47.655,-122.3035,60.0,2.85
2026-02-06T21:46:54+00:00,SAT-63385,212.802888451076,44.54465695627643,650.5904979281463,0.38220238608686186,-13386.344275252079,10.5,10499986613.655725,47.655,-122.3035,60.0,2.8666666666666667
2026-02-06T21:46:55+00:00,SAT-63385,211.89951853318811,44.50576028214809,650.9716756823799,0.45947754181828393,-16092.84710255113,10.5,10499983907.152897,47.655,-122.3035,60.0,2.8833333333333333
2026-02-06T21:46:56+00:00,SAT-63385,210.99864053316065,44.45930844234461,651.4299214283167,0.5365892381217264,-18793.62488924964,10.5,10499981206.37511,47.655,-122.3035,60.0,2.9
2026-02-06T21:46:57+00:00,SAT-63385,210.10068982026485,44.40536588826328,651.9650721447401,0.6135106175198928,-21487.73697288567,10.5,10499978512.263027,47.655,-122.3035,60.0,2.9166666666666665
2026-02-06T21:46:58+00:00,SAT-63385,209.2060931815783,44.34400711790452,652.5769380249587,0.6902151597295192,-24174.254500958632,10.5,10499975825.745499,47.655,-122.3035,60.0,2.933333333333333
2026-02-06T21:46:59+00:00,SAT-63385,208.31526766358974,44.27531636675297,653.2653028130949,0.7666767228558911,-26852.26187373552,10.5,10499973147.738127,47.655,-122.3035,60.0,2.95
2026-02-06T21:47:00+00:00,SAT-63385,207.42861949371775,44.1993872626071,654.0299241814582,0.8428695848995318,-29520.858197990703,10.5,10499970479.141802,47.655,-122.3035,60.0,2.966666666666667
2026-02-06T21:47:01+00:00,SAT-63385,206.54654307801076,44.11632244703772,654.8705341493165,0.9187684860564782,-32179.15876854054,10.5,10499967820.841232,47.655,-122.3035,60.0,2.9833333333333334
2026-02-06T21:47:02+00:00,SAT-63385,205.6694200783956,44.026233166330044,655.7868395438519,0.9943486632474938,-34826.296277602436,10.5,10499965173.703722,47.655,-122.3035,60.0,3.0
2026-02-06T21:47:03+00:00,SAT-63385,204.79761857849678,43.92923883575761,656.7785224955535,1.0695859004670192,-37461.42257822811,10.5,10499962538.577421,47.655,-122.3035,60.0,3.0166666666666666
2026-02-06T21:47:04+00:00,SAT-63385,203.93149232571514,43.8254665788587,657.8452409838239,1.1444565484564881,-40083.7093733463,10.5,10499959916.290627,47.655,-122.3035,60.0,3.033333333333333
2026-02-06T21:47:05+00:00,SAT-63385,203.07138008040232,43.71505074800429,658.9866294022091,1.2189375646223208,-42692.34961385976,10.5,10499957307.650387,47.655,-122.3035,60.0,3.05
2026-02-06T21:47:06+00:00,SAT-63385,202.21760504903324,43.59813242759226,660.2022991634341,1.2930065501625216,-45286.55879897578,10.5,10499954713.4412,47.655,-122.3035,60.0,3.066666666666667
2026-02-06T21:47:07+00:00,SAT-63385,201.370474405555,43.47485892348854,661.4918393414706,1.366641762835955,-47865.5754234402,10.5,10499952134.424576,47.655,-122.3035,60.0,3.0833333333333335
2026-02-06T21:47:08+00:00,SAT-63385,200.5302789171469,43.34538324430901,662.8548173263371,1.4398221577472363,-50428.66240599682,10.5,10499949571.337593,47.655,-122.3035,60.0,3.1
2026-02-06T21:47:09+00:00,SAT-63385,199.69729264890884,43.2098635750798,664.2907795195746,1.5125274092355032,-52975.10785602479,10.5,10499947024.892143,47.655,-122.3035,60.0,3.1166666666666667
2026-02-06T21:47:10+00:00,SAT-63385,198.87177275902962,43.06846274817043,665.7992520515548,1.5847379167198317,-55504.22527826978,10.5,10499944495.774721,47.655,-122.3035,60.0,3.1333333333333333
2026-02-06T21:47:11+00:00,SAT-63385,198.05395938849188,42.92134771594746,667.3797415046134,1.6564348504376178,-58015.35517479558,10.5,10499941984.644825,47.655,-122.3035,60.0,3.15
2026-02-06T21:47:12+00:00,SAT-63385,197.2440756164703,42.768689024212584,669.0317356818052,1.7276001318115404,-60507.8643573521,10.5,10499939492.135643,47.655,-122.3035,60.0,3.1666666666666665
2026-02-06T21:47:13+00:00,SAT-63385,196.44232751349944,42.610660295106335,670.7547043560721,1.7982164904122298,-62981.14794244895,10.5,10499937018.852058,47.655,-122.3035,60.0,3.183333333333333
2026-02-06T21:47:14+00:00,SAT-63385,195.6489042440227,42.44743771480528,672.5481000762273,1.868267429276462,-65434.62813665196,10.5,10499934565.371862,47.655,-122.3035,60.0,3.2
2026-02-06T21:47:15+00:00,SAT-63385,194.86397826134905,42.2791995366258,674.411358938347,1.9377372804191133,-67867.75618084658,10.5,10499932132.243818,47.655,-122.3035,60.0,3.216666666666667
2026-02-06T21:47:16+00:00,SAT-63385,194.08770554208613,42.10612559326407,676.343901412525,2.006611162224398,-70280.01085789881,10.5,10499929719.989141,47.655,-122.3035,60.0,3.2333333333333334
2026-02-06T21:47:17+00:00,SAT-63385,193.32022590099734,41.928396828794476,678.3451331271359,2.074875021247577,-72670.89995672792,10.5,10499927329.100042,47.655,-122.3035,60.0,3.25
2026-02-06T21:47:18+00:00,SAT-63385,192.56166334017598,41.74619484432123,680.414445694784,2.14251562844486,-75039.96014026152,10.5,10499924960.03986,47.655,-122.3035,60.0,3.2666666666666666
2026-02-06T21:47:19+00:00,SAT-63385,191.81212644808602,41.55970146269389,682.5512175344963,2.209520562210678,-77386.75635132928,10.5,10499922613.243649,47.655,-122.3035,60.0,3.283333333333333
2026-02-06T21:47:20+00:00,SAT-63385,191.07170884576743,41.36909831446261,684.7548146769935,2.2758782038641856,-79710.88165458101,10.5,10499920289.118345,47.655,-122.3035,60.0,3.3
2026-02-06T21:47:21+00:00,SAT-63385,190.34048966797675,41.174566444752436,687.0245915654644,2.341577771290233,-82011.95841473587,10.5,10499917988.041586,47.655,-122.3035,60.0,3.316666666666667
2026-02-06T21:47:22+00:00,SAT-63385,189.61853406111413,40.976285938460485,689.3598918898875,2.4066092644987362,-84289.63638984117,10.5,10499915710.36361,47.655,-122.3035,60.0,3.3333333333333335
2026-02-06T21:47:23+00:00,SAT-63385,188.9058937228119,40.77443557177267,691.7600493670602,2.4709634899879713,-86543.59358457809,10.5,10499913456.406416,47.655,-122.3035,60.0,3.35
2026-02-06T21:47:24+00:00,SAT-63385,188.20260745025797,40.56919248344691,694.2243885449243,2.5346320319175875,-88773.53524061858,10.5,10499911226.46476,47.655,-122.3035,60.0,3.3666666666666667
2026-02-06T21:47:25+00:00,SAT-63385,187.50870170960863,40.36073187048246,696.7522255781436,2.597607256613847,-90979.19399441793,10.5,10499909020.806005,47.655,-122.3035,60.0,3.3833333333333333
2026-02-06T21:47:26+00:00,SAT-63385,186.82419121152432,40.14922670526226,699.3428690081724,2.6598822833228484,-93160.32885286896,10.5,10499906839.671146,47.655,-122.3035,60.0,3.4
