DopplerPredictor/satellites_20260211_205844/SAT-64193.csv

timestamp,satellite,azimuth_deg,elevation_deg,distance_km,relative_velocity_kms,doppler_shift_hz,tx_freq_ghz,rx_freq_hz,ue_lat,ue_lon,ue_alt_m,time_minutes
2026-02-06T21:45:46+00:00,SAT-64193,349.5887577711573,40.05589963367444,705.7353008134453,-2.2176228311522768,77670.53208222771,10.5,10500077670.532082,47.655,-122.3035,60.0,1.7333333333333334
2026-02-06T21:45:47+00:00,SAT-64193,350.29559853169525,40.233239386670256,703.5236231230713,-2.1538081700193956,75435.47271360528,10.5,10500075435.472713,47.655,-122.3035,60.0,1.75
2026-02-06T21:45:48+00:00,SAT-64193,351.0104912764156,40.40690737508232,701.3755890155302,-2.0894027148540903,73179.72123891105,10.5,10500073179.72124,47.655,-122.3035,60.0,1.7666666666666666
2026-02-06T21:45:49+00:00,SAT-64193,351.7333534489338,40.57674956065948,699.2917877010169,-2.024417158998223,70903.65218420986,10.5,10500070903.652184,47.655,-122.3035,60.0,1.7833333333333334
2026-02-06T21:45:50+00:00,SAT-64193,352.4640906117678,40.742611763204174,697.2727977250522,-1.9588629226310197,68607.6655324855,10.5,10500068607.665533,47.655,-122.3035,60.0,1.8
2026-02-06T21:45:51+00:00,SAT-64193,353.20259613780956,40.90433998217953,695.3191862435937,-1.8927521130284395,66292.18533175578,10.5,10500066292.185331,47.655,-122.3035,60.0,1.8166666666666667
2026-02-06T21:45:52+00:00,SAT-64193,353.9487509169174,41.06178072935999,693.4315083377807,-1.8260975338749117,63957.66002120898,10.5,10500063957.66002,47.655,-122.3035,60.0,1.8333333333333333
2026-02-06T21:45:53+00:00,SAT-64193,354.7024230986497,41.21478137574054,691.6103063193924,-1.7589126821264713,61604.56232133748,10.5,10500061604.56232,47.655,-122.3035,60.0,1.85
2026-02-06T21:45:54+00:00,SAT-64193,355.4634678708058,41.3631905108212,689.8561090394367,-1.691211768290381,59233.38994421601,10.5,10500059233.389944,47.655,-122.3035,60.0,1.8666666666666667
2026-02-06T21:45:55+00:00,SAT-64193,356.23172728963453,41.506858315236116,688.16943117651,-1.6230096700607484,56844.66396962481,10.5,10500056844.663969,47.655,-122.3035,60.0,1.8833333333333333
2026-02-06T21:45:56+00:00,SAT-64193,357.0070301361249,41.645636939930874,686.5507725713994,-1.5543219492028597,54438.9294364104,10.5,10500054438.929436,47.655,-122.3035,60.0,1.9
2026-02-06T21:45:57+00:00,SAT-64193,357.78919183027284,41.77938089586449,685.0006175448457,-1.485164839282847,52016.75491272663,10.5,10500052016.754913,47.655,-122.3035,60.0,1.9166666666666667
2026-02-06T21:45:58+00:00,SAT-64193,358.5780143951019,41.90794745033751,683.5194342275441,-1.4155552287476552,49578.7319034236,10.5,10500049578.731903,47.655,-122.3035,60.0,1.9333333333333333
2026-02-06T21:45:59+00:00,SAT-64193,359.3732864717877,42.03119702791657,682.1076739070184,-1.3455106574474207,47125.47472824656,10.5,10500047125.474728,47.655,-122.3035,60.0,1.95
2026-02-06T21:46:00+00:00,SAT-64193,0.1747833971296151,42.14899361537584,680.765770377963,-1.2750492731665461,44657.61899937034,10.5,10500044657.619,47.655,-122.3035,60.0,1.9666666666666666
2026-02-06T21:46:01+00:00,SAT-64193,0.9822673230862994,42.26120516529625,679.4941393359409,-1.2041898592290539,42175.822588255585,10.5,10500042175.822588,47.655,-122.3035,60.0,1.9833333333333334
2026-02-06T21:46:02+00:00,SAT-64193,1.7954874247026114,42.367704002561155,678.2931777435462,-1.1329517718530033,39680.76343153547,10.5,10500039680.763432,47.655,-122.3035,60.0,2.0
2026-02-06T21:46:03+00:00,SAT-64193,2.6141801445124475,42.46836722377179,677.1632632590462,-1.0613549442073558,37173.13967310424,10.5,10500037173.139673,47.655,-122.3035,60.0,2.0166666666666666
2026-02-06T21:46:04+00:00,SAT-64193,3.438069516528966,42.563077093270955,676.1047536609772,-0.989419847567213,34653.668303609345,10.5,10500034653.668304,47.655,-122.3035,60.0,2.033333333333333
2026-02-06T21:46:05+00:00,SAT-64193,4.266867543833649,42.65172142978382,675.1179863114813,-0.9171674815976701,32123.084820150936,10.5,10500032123.08482,47.655,-122.3035,60.0,2.05
2026-02-06T21:46:06+00:00,SAT-64193,5.100274653029258,42.73419398399409,674.2032776293328,-0.844619331266946,29582.141717197348,10.5,10500029582.141718,47.655,-122.3035,60.0,2.066666666666667
2026-02-06T21:46:07+00:00,SAT-64193,5.937980199194274,42.81039480181345,673.3609226059353,-0.7717973525967886,27031.607987504078,10.5,10500027031.607988,47.655,-122.3035,60.0,2.0833333333333335
2026-02-06T21:46:08+00:00,SAT-64193,6.779663048141948,42.880230573650735,672.5911943355328,-0.6987239218622249,24472.267342874122,10.5,10500024472.267344,47.655,-122.3035,60.0,2.1
2026-02-06T21:46:09+00:00,SAT-64193,7.624992196306438,42.94361496414911,671.8943435960814,-0.6254218347237763,21904.918183764486,10.5,10500021904.918184,47.655,-122.3035,60.0,2.1166666666666667
2026-02-06T21:46:10+00:00,SAT-64193,8.473627488123823,43.00046892471852,671.2705984309879,-0.551914235772316,19330.371131649077,10.5,10500019330.371132,47.655,-122.3035,60.0,2.1333333333333333
2026-02-06T21:46:11+00:00,SAT-64193,9.32522034179873,43.050720980471766,670.7201638011178,-0.47822461473597133,16749.44889616836,10.5,10500016749.448896,47.655,-122.3035,60.0,2.15
2026-02-06T21:46:12+00:00,SAT-64193,10.179414570272542,43.094307495597974,670.2432212405789,-0.40437674853125377,14162.984245514825,10.5,10500014162.984245,47.655,-122.3035,60.0,2.1666666666666665
2026-02-06T21:46:13+00:00,SAT-64193,11.035847215703816,43.13117291040817,669.8399285703064,-0.3303946786749775,11571.81921530282,10.5,10500011571.819216,47.655,-122.3035,60.0,2.183333333333333
2026-02-06T21:46:14+00:00,SAT-64193,11.894149454604232,43.16126995156237,669.5104196341704,-0.25630266523484685,8976.803495723338,10.5,10500008976.803495,47.655,-122.3035,60.0,2.2
2026-02-06T21:46:15+00:00,SAT-64193,12.753947528107409,43.18455981180452,669.2548040810113,-0.1821251460643871,6378.793003778849,10.5,10500006378.793003,47.655,-122.3035,60.0,2.216666666666667
2026-02-06T21:46:16+00:00,SAT-64193,13.614863691863134,43.201012298391205,669.0731671873303,-0.10788670508850542,3778.6487725095035,10.5,10500003778.648773,47.655,-122.3035,60.0,2.2333333333333334
2026-02-06T21:46:17+00:00,SAT-64193,14.476517224017162,43.21060594989246,668.9655697116096,-0.033612024104945244,1177.2352628761764,10.5,10500001177.235264,47.655,-122.3035,60.0,2.25
2026-02-06T21:46:18+00:00,SAT-64193,15.338525424750685,43.2133281190267,668.9320477967028,0.0406741547285588,-1424.5809500980422,10.5,10499998575.41905,47.655,-122.3035,60.0,2.2666666666666666
2026-02-06T21:46:19+00:00,SAT-64193,16.20050464347566,43.209175021851806,668.9726129096356,0.11494706963393969,-4025.9326042030275,10.5,10499995974.067396,47.655,-122.3035,60.0,2.283333333333333
2026-02-06T21:46:20+00:00,SAT-64193,17.062071300834514,43.19815175266595,669.0872518220386,0.18918198159489624,-6625.953234441977,10.5,10499993374.046766,47.655,-122.3035,60.0,2.3
2026-02-06T21:46:21+00:00,SAT-64193,17.922842926188878,43.18027226432975,669.2759266328479,0.2633542144871964,-9223.778578564383,10.5,10499990776.221422,47.655,-122.3035,60.0,2.316666666666667
2026-02-06T21:46:22+00:00,SAT-64193,18.7824391745544,43.15555931439235,669.5385748310289,0.3374391972884894,-11818.548055432198,10.5,10499988181.451944,47.655,-122.3035,60.0,2.3333333333333335
2026-02-06T21:46:23+00:00,SAT-64193,19.640482836082008,43.124044377221054,669.8751094003961,0.41141249999610197,-14409.406023012996,10.5,10499985590.593977,47.655,-122.3035,60.0,2.35
2026-02-06T21:46:24+00:00,SAT-64193,20.496600816356334,43.085767523383396,670.2854189602546,0.4852498818442623,-16995.503467151113,10.5,10499983004.496532,47.655,-122.3035,60.0,2.3666666666666667
2026-02-06T21:46:25+00:00,SAT-64193,21.350425105240486,43.04077726604827,670.7693679541302,0.5589273205292777,-19575.999025156983,10.5,10499980424.000975,47.655,-122.3035,60.0,2.3833333333333333
2026-02-06T21:46:26+00:00,SAT-64193,22.201593693973933,42.98913037730575,671.3267968676447,0.6324210619622168,-22150.06072835654,10.5,10499977849.939272,47.655,-122.3035,60.0,2.4
2026-02-06T21:46:27+00:00,SAT-64193,23.049751471763905,42.930891673849764,671.957522496014,0.7057076368672407,-24716.866583434956,10.5,10499975283.133417,47.655,-122.3035,60.0,2.4166666666666665
2026-02-06T21:46:28+00:00,SAT-64193,23.894551051584624,42.86613377664421,672.6613382280946,0.7787639307228066,-27275.60702207348,10.5,10499972724.392979,47.655,-122.3035,60.0,2.433333333333333
2026-02-06T21:46:29+00:00,SAT-64193,24.735653588471166,42.79493684137659,673.4380144001886,0.8515671846566436,-29825.484932295254,10.5,10499970174.515068,47.655,-122.3035,60.0,2.45
2026-02-06T21:46:30+00:00,SAT-64193,25.57272950393025,42.71738826794159,674.2872986507394,0.9240950453604303,-32365.717406688455,10.5,10499967634.282593,47.655,-122.3035,60.0,2.466666666666667
2026-02-06T21:46:31+00:00,SAT-64193,26.4054591750789,42.63358238644358,675.2089163248081,0.9963255962737774,-34895.5368346013,10.5,10499965104.463165,47.655,-122.3035,60.0,2.4833333333333334
2026-02-06T21:46:32+00:00,SAT-64193,27.23353356248209,42.543620123561176,676.2025709096514,1.0682373920250126,-37414.19210840398,10.5,10499962585.807892,47.655,-122.3035,60.0,2.5
2026-02-06T21:46:33+00:00,SAT-64193,28.056654778688646,42.44760865117838,677.2679445046452,1.1398094767108273,-39920.94926371926,10.5,10499960079.050735,47.655,-122.3035,60.0,2.5166666666666666
2026-02-06T21:46:34+00:00,SAT-64193,28.87453658579547,42.34566102097906,678.4046983094426,1.2110214094655776,-42415.0923749675,10.5,10499957584.907625,47.655,-122.3035,60.0,2.533333333333333
2026-02-06T21:46:35+00:00,SAT-64193,29.68690482933716,42.23789578660294,679.6124731376302,1.2818533112500272,-44895.9251941064,10.5,10499955104.074806,47.655,-122.3035,60.0,2.55
2026-02-06T21:46:36+00:00,SAT-64193,30.493497821587958,42.12443661375841,680.8908899770487,1.352285863848631,-47362.771115511605,10.5,10499952637.228884,47.655,-122.3035,60.0,2.566666666666667
2026-02-06T21:46:37+00:00,SAT-64193,31.294066644344156,42.00541188482187,682.2395505491116,1.4223003463565373,-49814.97445390585,10.5,10499950185.025547,47.655,-122.3035,60.0,2.5833333333333335
2026-02-06T21:46:38+00:00,SAT-64193,32.08837539753435,41.88095429676653,683.6580379045171,1.4918786414613119,-52251.90066437153,10.5,10499947748.099335,47.655,-122.3035,60.0,2.6
2026-02-06T21:46:39+00:00,SAT-64193,32.87620137842291,41.75120045726391,685.1459170252195,1.5610032670797447,-54672.93745040551,10.5,10499945327.06255,47.655,-122.3035,60.0,2.6166666666666667
2026-02-06T21:46:40+00:00,SAT-64193,33.65733520784357,41.61629047876962,686.7027354579589,1.6296573875480882,-57077.49515584854,10.5,10499942922.504845,47.655,-122.3035,60.0,2.6333333333333333
2026-02-06T21:46:41+00:00,SAT-64193,34.43158089506895,41.476367574375544,688.3280239589438,1.6978248246313667,-59465.00715047792,10.5,10499940534.99285,47.655,-122.3035,60.0,2.65
2026-02-06T21:46:42+00:00,SAT-64193,35.198755845384305,41.331577657287134,690.0212971495201,1.7654900625781313,-61834.930007046336,10.5,10499938165.069992,47.655,-122.3035,60.0,2.6666666666666665
2026-02-06T21:46:43+00:00,SAT-64193,35.958690811969554,41.182068946135644,691.7820541768779,1.8326382723988797,-64186.74435161487,10.5,10499935813.255648,47.655,-122.3035,60.0,2.683333333333333
2026-02-06T21:46:44+00:00,SAT-64193,36.71122980416786,41.02799157609318,693.6097793989727,1.8992553192733597,-66519.95512298805,10.5,10499933480.044876,47.655,-122.3035,60.0,2.7
2026-02-06T21:46:45+00:00,SAT-64193,37.45622994804712,40.869497218713164,695.5039430768323,1.965327739156451,-68834.0907533529,10.5,10499931165.909246,47.655,-122.3035,60.0,2.716666666666667
2026-02-06T21:46:46+00:00,SAT-64193,38.193561292466036,40.706738714334804,697.4640020435353,2.030842790791917,-71128.70499002056,10.5,10499928871.29501,47.655,-122.3035,60.0,2.7333333333333334
2026-02-06T21:46:47+00:00,SAT-64193,38.92310659401221,40.539869711925235,699.4894004250613,2.095788420057613,-73403.37564664464,10.5,10499926596.624353,47.655,-122.3035,60.0,2.75
2026-02-06T21:46:48+00:00,SAT-64193,39.64476105086969,40.36904432469124,701.5795703255835,2.1601532719660774,-75657.70502353269,10.5,10499924342.294977,47.655,-122.3035,60.0,2.7666666666666666
2026-02-06T21:46:49+00:00,SAT-64193,40.35843200911891,40.19441679831852,703.7339325247287,2.2239266897299172,-77891.31987491202,10.5,10499922108.680124,47.655,-122.3035,60.0,2.783333333333333
2026-02-06T21:46:50+00:00,SAT-64193,41.064038640262815,40.016141193643655,705.9518971739055,2.287098718296729,-80103.87153273768,10.5,10499919896.128468,47.655,-122.3035,60.0,2.8
