DopplerPredictor/satellites_20260211_205844/SAT-55439.csv

timestamp,satellite,azimuth_deg,elevation_deg,distance_km,relative_velocity_kms,doppler_shift_hz,tx_freq_ghz,rx_freq_hz,ue_lat,ue_lon,ue_alt_m,time_minutes
2026-02-06T21:44:02+00:00,SAT-55439,205.64064291605874,73.42195098669414,598.0956116555209,1.2183549856468474,-42671.945233832055,10.5,10499957328.054766,47.655,-122.3035,60.0,0.0
2026-02-06T21:44:03+00:00,SAT-55439,203.72440731139793,72.99388471344973,599.3107003995843,1.3001572162277015,-45537.00537186585,10.5,10499954462.994629,47.655,-122.3035,60.0,0.016666666666666666
2026-02-06T21:44:04+00:00,SAT-55439,201.90893987409572,72.55039754977012,600.6073720737371,1.3814298424786775,-48383.516526043204,10.5,10499951616.483475,47.655,-122.3035,60.0,0.03333333333333333
2026-02-06T21:44:05+00:00,SAT-55439,200.18988925538844,72.0930668406867,601.9850984934454,1.4621446986899593,-51210.49221406555,10.5,10499948789.507786,47.655,-122.3035,60.0,0.05
2026-02-06T21:44:06+00:00,SAT-55439,198.5626552774894,71.62336635743256,603.443323383974,1.5422747086506552,-54016.98411249518,10.5,10499945983.015888,47.655,-122.3035,60.0,0.06666666666666667
2026-02-06T21:44:07+00:00,SAT-55439,197.02251930576446,71.14266734766679,604.9814634669646,1.6217938819739859,-56802.081928047875,10.5,10499943197.918072,47.655,-122.3035,60.0,0.08333333333333333
2026-02-06T21:44:08+00:00,SAT-55439,195.56474684978144,70.65224145392085,606.5989095433486,1.7006773569446603,-59564.91489828918,10.5,10499940435.085102,47.655,-122.3035,60.0,0.1
2026-02-06T21:44:09+00:00,SAT-55439,194.1846660091453,70.15326490273539,608.2950276189927,1.7789014209475298,-62304.65250713233,10.5,10499937695.347492,47.655,-122.3035,60.0,0.11666666666666667
2026-02-06T21:44:10+00:00,SAT-55439,192.87772558024503,69.64682350795222,610.069160050719,1.8564435471649938,-65020.505770136595,10.5,10499934979.49423,47.655,-122.3035,60.0,0.13333333333333333
2026-02-06T21:44:11+00:00,SAT-55439,191.63953641338836,69.1339181248462,611.9206267289233,1.9332823844827403,-67711.72688096367,10.5,10499932288.273119,47.655,-122.3035,60.0,0.15
2026-02-06T21:44:12+00:00,SAT-55439,190.46589931004613,68.61547029908306,613.8487262501262,2.009397782463411,-70377.61008606097,10.5,10499929622.389914,47.655,-122.3035,60.0,0.16666666666666666
2026-02-06T21:44:13+00:00,SAT-55439,189.35282226209608,68.09232790411082,615.8527371144316,2.0847708075964166,-73017.49225379905,10.5,10499926982.507746,47.655,-122.3035,60.0,0.18333333333333332
2026-02-06T21:44:14+00:00,SAT-55439,188.29652944168288,67.56527063248951,617.9319189391912,2.159383721763402,-75630.75212024085,10.5,10499924369.247879,47.655,-122.3035,60.0,0.2
2026-02-06T21:44:15+00:00,SAT-55439,187.29346394897198,67.03501525890735,620.0855136511913,2.233220017293332,-78216.81151691944,10.5,10499921783.188482,47.655,-122.3035,60.0,0.21666666666666667
2026-02-06T21:44:16+00:00,SAT-55439,186.34028589644095,66.50222060299426,622.312746713803,2.306264368632957,-80775.13367813292,10.5,10499919224.866322,47.655,-122.3035,60.0,0.23333333333333334
2026-02-06T21:44:17+00:00,SAT-55439,185.43386716513513,65.96749218116355,624.612828305928,2.37850265940316,-83305.22418857242,10.5,10499916694.775812,47.655,-122.3035,60.0,0.25
2026-02-06T21:44:18+00:00,SAT-55439,184.57128380774367,65.43138651565387,626.9849545279345,2.449921961257144,-85806.63024284622,10.5,10499914193.369757,47.655,-122.3035,60.0,0.26666666666666666
2026-02-06T21:44:19+00:00,SAT-55439,183.74980691328176,64.8944151130009,629.428308586503,2.520510515354799,-88278.93999663391,10.5,10499911721.060003,47.655,-122.3035,60.0,0.2833333333333333
2026-02-06T21:44:20+00:00,SAT-55439,182.96689253422733,64.35704811996764,631.9420619609965,2.590257699131237,-90721.78140277961,10.5,10499909278.218597,47.655,-122.3035,60.0,0.3
2026-02-06T21:44:21+00:00,SAT-55439,182.22017113542503,63.819717674666876,634.525375536692,2.6591540593862106,-93134.82337022372,10.5,10499906865.17663,47.655,-122.3035,60.0,0.31666666666666665
2026-02-06T21:44:22+00:00,SAT-55439,181.50743688176192,63.282820957405285,637.1774007710079,2.7271912124889406,-95517.77226875359,10.5,10499904482.227732,47.655,-122.3035,60.0,0.3333333333333333
2026-02-06T21:44:23+00:00,SAT-55439,180.82663705294092,62.746722989173335,639.8972807602088,2.794361902450225,-97870.3739629346,10.5,10499902129.626038,47.655,-122.3035,60.0,0.35
2026-02-06T21:44:24+00:00,SAT-55439,180.17586170951014,62.21175916586638,642.6841513640205,2.8606598812384676,-100192.40962027106,10.5,10499899807.59038,47.655,-122.3035,60.0,0.36666666666666664
2026-02-06T21:44:25+00:00,SAT-55439,179.5533337800777,61.67823758448582,645.5371422108883,2.926079973764211,-102483.6979872396,10.5,10499897516.302013,47.655,-122.3035,60.0,0.38333333333333336
2026-02-06T21:44:26+00:00,SAT-55439,178.95739959554484,61.14644114483085,648.4553777680418,2.99061799047739,-104744.09232807517,10.5,10499895255.907671,47.655,-122.3035,60.0,0.4
2026-02-06T21:44:27+00:00,SAT-55439,178.38651995642277,60.61662947524911,651.4379783243921,3.0542707012409016,-106973.4795097129,10.5,10499893026.52049,47.655,-122.3035,60.0,0.4166666666666667
2026-02-06T21:44:28+00:00,SAT-55439,177.83926173680416,60.08904068762428,654.4840609473722,3.117035803797848,-109171.77889737772,10.5,10499890828.221102,47.655,-122.3035,60.0,0.43333333333333335
2026-02-06T21:44:29+00:00,SAT-55439,177.3142900311347,59.56389297886173,657.592740408331,3.1789119320506973,-111338.94264455553,10.5,10499888661.057356,47.655,-122.3035,60.0,0.45
2026-02-06T21:44:30+00:00,SAT-55439,176.81036082950178,59.04138608730588,660.7631301161817,3.2398985352447363,-113474.9514614865,10.5,10499886525.048538,47.655,-122.3035,60.0,0.4666666666666667
2026-02-06T21:44:31+00:00,SAT-55439,176.32631422851668,58.521702639162626,663.9943429305595,3.299995920181566,-115579.81609366051,10.5,10499884420.183907,47.655,-122.3035,60.0,0.48333333333333334
2026-02-06T21:44:32+00:00,SAT-55439,175.8610681251954,58.005009369554976,667.2854920170785,3.3592051875091817,-117653.57509042608,10.5,10499882346.42491,47.655,-122.3035,60.0,0.5
2026-02-06T21:44:33+00:00,SAT-55439,175.41361238869416,57.49145824732314,670.6356916390503,3.4175281868852987,-119696.29323462045,10.5,10499880303.706766,47.655,-122.3035,60.0,0.5166666666666667
2026-02-06T21:44:34+00:00,SAT-55439,174.98300347763976,56.98118750992747,674.0440579044853,3.4749674944361533,-121708.06075308142,10.5,10499878291.939247,47.655,-122.3035,60.0,0.5333333333333333
2026-02-06T21:44:35+00:00,SAT-55439,174.56835947180102,56.47432261393011,677.5097094906143,3.5315263623193798,-123688.99155012594,10.5,10499876311.00845,47.655,-122.3035,60.0,0.55
2026-02-06T21:44:36+00:00,SAT-55439,174.1688554933966,55.970977113282174,681.031768318107,3.5872086937663474,-125639.22233342724,10.5,10499874360.777666,47.655,-122.3035,60.0,0.5666666666666667
2026-02-06T21:44:37+00:00,SAT-55439,173.78371948715926,55.47125346871667,684.6093602004001,3.642019023279002,-127558.91192042438,10.5,10499872441.08808,47.655,-122.3035,60.0,0.5833333333333334
2026-02-06T21:44:38+00:00,SAT-55439,173.4122283318136,54.97524379421055,688.2416154732764,3.695962442083296,-129448.23862738605,10.5,10499870551.761374,47.655,-122.3035,60.0,0.6
2026-02-06T21:44:39+00:00,SAT-55439,173.05370426449926,54.483030553752364,691.9276695500953,3.749044574311981,-131307.39943523132,10.5,10499868692.600565,47.655,-122.3035,60.0,0.6166666666666667
2026-02-06T21:44:40+00:00,SAT-55439,172.7075115868813,53.99468720619067,695.6666634532717,3.8012715900675076,-133136.61044704742,10.5,10499866863.389553,47.655,-122.3035,60.0,0.6333333333333333
2026-02-06T21:44:41+00:00,SAT-55439,172.37305362776837,53.51027879833905,699.4577443587817,3.8526501036012055,-134936.1033218943,10.5,10499865063.896679,47.655,-122.3035,60.0,0.65
2026-02-06T21:44:42+00:00,SAT-55439,172.04976995305174,53.029862525540565,703.3000660391207,3.903187167508024,-136706.12507147944,10.5,10499863293.87493,47.655,-122.3035,60.0,0.6666666666666666
2026-02-06T21:44:43+00:00,SAT-55439,171.73713379311798,52.55348825046064,707.1927893004724,3.9528902841942513,-138446.93846180628,10.5,10499861553.061539,47.655,-122.3035,60.0,0.6833333333333333
2026-02-06T21:44:44+00:00,SAT-55439,171.43464966867518,52.08119898191615,711.1350824313137,4.001767296602772,-140158.81818591015,10.5,10499859841.181814,47.655,-122.3035,60.0,0.7
2026-02-06T21:44:45+00:00,SAT-55439,171.14185120977413,51.61303133144302,715.1261215420382,4.049826413368163,-141842.0517448965,10.5,10499858157.948256,47.655,-122.3035,60.0,0.7166666666666667
2026-02-06T21:44:46+00:00,SAT-55439,170.85829913983824,51.14901593368279,719.1650909296684,4.097076139357666,-143496.93701519165,10.5,10499856503.062984,47.655,-122.3035,60.0,0.7333333333333333
2026-02-06T21:44:47+00:00,SAT-55439,170.5835794193744,50.689177844472724,723.2511833732926,4.1435253194750254,-145123.7837827387,10.5,10499854876.216217,47.655,-122.3035,60.0,0.75
2026-02-06T21:44:48+00:00,SAT-55439,170.31730152715292,50.233536905843955,727.3836004731927,4.189183033539305,-146722.91006120876,10.5,10499853277.08994,47.655,-122.3035,60.0,0.7666666666666667
2026-02-06T21:44:49+00:00,SAT-55439,170.05909687909823,49.78210809692871,731.5615528851259,4.234058589277796,-148294.64184658328,10.5,10499851705.358154,47.655,-122.3035,60.0,0.7833333333333333
2026-02-06T21:44:50+00:00,SAT-55439,169.8086173659539,49.33490186109808,735.7842605476262,4.27816152599029,-149839.31324549214,10.5,10499850160.686754,47.655,-122.3035,60.0,0.8
2026-02-06T21:44:51+00:00,SAT-55439,169.5655339992745,48.89192441019822,740.0509529129515,4.321501576775386,-151357.26515221922,10.5,10499848642.734848,47.655,-122.3035,60.0,0.8166666666666667
2026-02-06T21:44:52+00:00,SAT-55439,169.32953566022178,48.453178011946505,744.360869140367,4.3640886277198065,-152848.84381933976,10.5,10499847151.156181,47.655,-122.3035,60.0,0.8333333333333334
2026-02-06T21:44:53+00:00,SAT-55439,169.10032794242431,48.018661261953525,748.71325824872,4.4059327321359305,-154314.4013563786,10.5,10499845685.598644,47.655,-122.3035,60.0,0.85
2026-02-06T21:44:54+00:00,SAT-55439,168.87763207826347,47.58836933605286,753.1073792832198,4.447044031143165,-155754.29294823436,10.5,10499844245.707052,47.655,-122.3035,60.0,0.8666666666666667
2026-02-06T21:44:55+00:00,SAT-55439,168.66118394713908,47.16229423345468,757.5425014030077,4.487432811298809,-157168.87887365563,10.5,10499842831.121126,47.655,-122.3035,60.0,0.8833333333333333
2026-02-06T21:44:56+00:00,SAT-55439,168.45073315151953,46.740424998261375,762.0179040262049,4.527109419357136,-158558.52151974392,10.5,10499841441.47848,47.655,-122.3035,60.0,0.9
2026-02-06T21:44:57+00:00,SAT-55439,168.2460421632264,46.32274793435431,766.5328768899501,4.566084266147247,-159923.58551777207,10.5,10499840076.414482,47.655,-122.3035,60.0,0.9166666666666666
2026-02-06T21:44:58+00:00,SAT-55439,168.0468855296015,45.90924680573415,771.0867201142994,4.604367840847307,-161264.4382431286,10.5,10499838735.561756,47.655,-122.3035,60.0,0.9333333333333333
2026-02-06T21:44:59+00:00,SAT-55439,167.85304913432788,45.49990302249456,775.6787442803679,4.6419706611307285,-162581.4480692261,10.5,10499837418.551931,47.655,-122.3035,60.0,0.95
2026-02-06T21:45:00+00:00,SAT-55439,167.66432951206343,45.09469581911025,780.3082704587481,4.678903242067695,-163874.98327830114,10.5,10499836125.016722,47.655,-122.3035,60.0,0.9666666666666667
2026-02-06T21:45:01+00:00,SAT-55439,167.48053321146165,44.69360242376323,784.9746302069126,4.715176112897684,-165145.41264885882,10.5,10499834854.58735,47.655,-122.3035,60.0,0.9833333333333333
2026-02-06T21:45:02+00:00,SAT-55439,167.30147620073333,44.296598215219426,789.6771655833459,4.750799828381064,-166393.1058532539,10.5,10499833606.894146,47.655,-122.3035,60.0,1.0
2026-02-06T21:45:03+00:00,SAT-55439,167.12698331297975,43.90365686865935,794.4152291729972,4.785784885325143,-167618.43053407967,10.5,10499832381.569466,47.655,-122.3035,60.0,1.0166666666666666
2026-02-06T21:45:04+00:00,SAT-55439,166.95688773208926,43.51475049891751,799.1881840294832,4.8201417699837865,-168821.75396430338,10.5,10499831178.246037,47.655,-122.3035,60.0,1.0333333333333334
2026-02-06T21:45:05+00:00,SAT-55439,166.79103051101285,43.129849790602606,803.9954036645612,4.853880924291434,-170003.44186463841,10.5,10499829996.558136,47.655,-122.3035,60.0,1.05
2026-02-06T21:45:06+00:00,SAT-55439,166.6292601228285,42.74892412250849,808.8362720039302,4.887012739222563,-171163.85817096476,10.5,10499828836.141829,47.655,-122.3035,60.0,1.0666666666666667
2026-02-06T21:45:07+00:00,SAT-55439,166.471432041676,42.371941684493656,813.7101833364064,4.919547542162683,-172303.36459200777,10.5,10499827696.635408,47.655,-122.3035,60.0,1.0833333333333333
2026-02-06T21:45:08+00:00,SAT-55439,166.31740835090122,41.998869587756765,818.6165422505063,4.951495612634699,-173422.32116014184,10.5,10499826577.67884,47.655,-122.3035,60.0,1.1
2026-02-06T21:45:09+00:00,SAT-55439,166.16705737622988,41.6296739668156,823.55476358671,4.9828671085849185,-174521.08364961483,10.5,10499825478.916351,47.655,-122.3035,60.0,1.1166666666666667
2026-02-06T21:45:10+00:00,SAT-55439,166.0202533444624,41.264320080281955,828.5242723162121,5.013672167027608,-175600.00710154587,10.5,10499824399.992899,47.655,-122.3035,60.0,1.1333333333333333
2026-02-06T21:45:11+00:00,SAT-55439,165.87687606056767,40.90277239779502,833.5245035200467,5.043920776475217,-176659.44135589222,10.5,10499823340.558643,47.655,-122.3035,60.0,1.15
2026-02-06T21:45:12+00:00,SAT-55439,165.73681060917744,40.54499469041277,838.5549022409813,5.073622858836085,-177699.73391985364,10.5,10499822300.26608,47.655,-122.3035,60.0,1.1666666666666667
2026-02-06T21:45:13+00:00,SAT-55439,165.59994707179803,40.190950109301745,843.6149234170928,5.102788239151233,-178721.2289079265,10.5,10499821278.771091,47.655,-122.3035,60.0,1.1833333333333333
