DopplerPredictor/satellites_20260211_205844/SAT-50201.csv

timestamp,satellite,azimuth_deg,elevation_deg,distance_km,relative_velocity_kms,doppler_shift_hz,tx_freq_ghz,rx_freq_hz,ue_lat,ue_lon,ue_alt_m,time_minutes
2026-02-06T21:44:02+00:00,SAT-50201,106.2627630153091,41.86343733426518,495.0065251290724,3.4106308563731584,-119454.71954440617,10.5,10499880545.280457,47.655,-122.3035,60.0,0.0
2026-02-06T21:44:03+00:00,SAT-50201,105.38755146777518,41.47490738880366,498.40801255478675,3.4921615692992205,-122310.26998565058,10.5,10499877689.730015,47.655,-122.3035,60.0,0.016666666666666666
2026-02-06T21:44:04+00:00,SAT-50201,104.53473493272344,41.084573025946845,501.89081212083676,3.572002411958934,-125106.63402202334,10.5,10499874893.365978,47.655,-122.3035,60.0,0.03333333333333333
2026-02-06T21:44:05+00:00,SAT-50201,103.70383324638098,40.69288406865152,505.45323848726565,3.650162547653762,-127844.1325911024,10.5,10499872155.867409,47.655,-122.3035,60.0,0.05
2026-02-06T21:44:06+00:00,SAT-50201,102.89435346778119,40.300264805421094,509.0936154528515,3.7266534466150167,-130523.16742890737,10.5,10499869476.832571,47.655,-122.3035,60.0,0.06666666666666667
