DopplerPredictor/satellites_20260211_205844/SAT-52295.csv

timestamp,satellite,azimuth_deg,elevation_deg,distance_km,relative_velocity_kms,doppler_shift_hz,tx_freq_ghz,rx_freq_hz,ue_lat,ue_lon,ue_alt_m,time_minutes
2026-02-06T21:46:31+00:00,SAT-52295,349.91556312671366,40.05804934701606,807.2574543091381,-1.883990468617424,65985.31548276292,10.5,10500065985.315483,47.655,-122.3035,60.0,2.4833333333333334
2026-02-06T21:46:32+00:00,SAT-52295,350.5463448177938,40.19247052604975,805.3785145589762,-1.8280847608034112,64027.2611142066,10.5,10500064027.261114,47.655,-122.3035,60.0,2.5
2026-02-06T21:46:33+00:00,SAT-52295,351.1824912390053,40.323705099286904,803.555330641141,-1.7717954835876222,62055.772522703126,10.5,10500062055.772522,47.655,-122.3035,60.0,2.5166666666666666
2026-02-06T21:46:34+00:00,SAT-52295,351.82391658116103,40.45166076888823,801.788285096737,-1.7151310972829414,60071.1460241968,10.5,10500060071.146025,47.655,-122.3035,60.0,2.533333333333333
2026-02-06T21:46:35+00:00,SAT-52295,352.47052838000053,40.57624599428829,800.0777520292378,-1.6581004363946865,58073.69104043374,10.5,10500058073.69104,47.655,-122.3035,60.0,2.55
2026-02-06T21:46:36+00:00,SAT-52295,353.12222745763313,40.6973701578302,798.4240967312952,-1.6007126861385657,56063.72927652149,10.5,10500056063.729277,47.655,-122.3035,60.0,2.566666666666667
2026-02-06T21:46:37+00:00,SAT-52295,353.77890787316494,40.8149437323059,796.82767533497,-1.542977390220253,54041.59499340259,10.5,10500054041.594994,47.655,-122.3035,60.0,2.5833333333333335
2026-02-06T21:46:38+00:00,SAT-52295,354.4404568958851,40.9288784522303,795.2888344542018,-1.4849044237565507,52007.63405943916,10.5,10500052007.63406,47.655,-122.3035,60.0,2.6
2026-02-06T21:46:39+00:00,SAT-52295,355.1067549870575,41.039087485810505,793.8079108542884,-1.4265040283010058,49962.205177158125,10.5,10500049962.205177,47.655,-122.3035,60.0,2.6166666666666667
2026-02-06T21:46:40+00:00,SAT-52295,355.77767581920534,41.14548561168583,792.38523108643,-1.367786754054619,47905.67785922586,10.5,10500047905.677858,47.655,-122.3035,60.0,2.6333333333333333
2026-02-06T21:46:41+00:00,SAT-52295,356.4530862921241,41.24798939302828,791.0211111799081,-1.3087635038084366,45838.43396750356,10.5,10500045838.433968,47.655,-122.3035,60.0,2.65
2026-02-06T21:46:42+00:00,SAT-52295,357.13284659372005,41.34651735597666,789.7158562904441,-1.2494454871667933,43760.8661097516,10.5,10500043760.86611,47.655,-122.3035,60.0,2.6666666666666665
2026-02-06T21:46:43+00:00,SAT-52295,357.8168102641391,41.44099016511168,788.4697603942049,-1.1898442385713295,41673.37827090686,10.5,10500041673.378271,47.655,-122.3035,60.0,2.683333333333333
2026-02-06T21:46:44+00:00,SAT-52295,358.5048242956698,41.531330800118305,787.2831059638387,-1.1299715851548189,39576.38468718783,10.5,10500039576.384687,47.655,-122.3035,60.0,2.7
2026-02-06T21:46:45+00:00,SAT-52295,359.1967292423681,41.61746472919637,786.1561636765676,-1.0698396642287575,37470.31045858384,10.5,10500037470.31046,47.655,-122.3035,60.0,2.716666666666667
2026-02-06T21:46:46+00:00,SAT-52295,359.89235936907414,41.69932008229893,785.0891921048405,-1.009460881439851,35355.590083318355,10.5,10500035355.590084,47.655,-122.3035,60.0,2.7333333333333334
2026-02-06T21:46:47+00:00,SAT-52295,0.5915428036480422,41.77682781900037,784.0824374487183,-0.9488479379440163,33232.668409597456,10.5,10500033232.66841,47.655,-122.3035,60.0,2.75
2026-02-06T21:46:48+00:00,SAT-52295,1.2941017387491662,41.849921895562964,783.1361332411548,-0.8880137714098199,31101.99856930059,10.5,10500031101.99857,47.655,-122.3035,60.0,2.7666666666666666
2026-02-06T21:46:49+00:00,SAT-52295,1.9998526227483913,41.918539423878634,782.2505001121203,-0.8269715885212884,28964.043116366618,10.5,10500028964.043116,47.655,-122.3035,60.0,2.783333333333333
2026-02-06T21:46:50+00:00,SAT-52295,2.7086064063119206,41.9826208286169,781.425745520306,-0.7657348297060613,26819.272791424406,10.5,10500026819.27279,47.655,-122.3035,60.0,2.8
2026-02-06T21:46:51+00:00,SAT-52295,3.420168796509872,42.0421099966651,780.6620635200067,-0.7043171490711284,24668.165819057554,10.5,10500024668.16582,47.655,-122.3035,60.0,2.816666666666667
2026-02-06T21:46:52+00:00,SAT-52295,4.134340524671294,42.09695441931586,779.9596345480163,-0.6427324211056118,22511.20814256416,10.5,10500022511.208143,47.655,-122.3035,60.0,2.8333333333333335
2026-02-06T21:46:53+00:00,SAT-52295,4.850917655675156,42.14710532862207,779.3186252038347,-0.5809947070943022,20348.89224761676,10.5,10500020348.892248,47.655,-122.3035,60.0,2.85
2026-02-06T21:46:54+00:00,SAT-52295,5.569691899002102,42.192517824129936,778.7391880633728,-0.5191182496154163,18181.71696955055,10.5,10500018181.71697,47.655,-122.3035,60.0,2.8666666666666667
2026-02-06T21:46:55+00:00,SAT-52295,6.290450949010087,42.23315099154211,778.2214614981464,-0.4571174550079043,16010.186879294326,10.5,10500016010.18688,47.655,-122.3035,60.0,2.8833333333333333
2026-02-06T21:46:56+00:00,SAT-52295,7.012978841644588,42.26896801179198,777.765569511953,-0.3950068757846321,13834.811667405715,10.5,10500013834.811666,47.655,-122.3035,60.0,2.9
2026-02-06T21:46:57+00:00,SAT-52295,7.737056326703322,42.29993625996253,777.3716215950913,-0.3328011913740288,11656.10546956222,10.5,10500011656.105469,47.655,-122.3035,60.0,2.9166666666666665
2026-02-06T21:46:58+00:00,SAT-52295,8.462461247542233,42.32602739341526,777.0397125977848,-0.27051520091187786,9474.58661409927,10.5,10500009474.586615,47.655,-122.3035,60.0,2.933333333333333
2026-02-06T21:46:59+00:00,SAT-52295,9.188968956082608,42.347217429606616,776.7699226107956,-0.20816379357411577,7290.7765829393065,10.5,10500007290.776583,47.655,-122.3035,60.0,2.95
2026-02-06T21:47:00+00:00,SAT-52295,9.916352712618401,42.36348681143438,776.5623168756255,-0.1457619388779659,5105.199671896488,10.5,10500005105.199673,47.655,-122.3035,60.0,2.966666666666667
2026-02-06T21:47:01+00:00,SAT-52295,10.644384111122353,42.374820461318734,776.4169457043903,-0.08332466751150744,2918.3823192470977,10.5,10500002918.382318,47.655,-122.3035,60.0,2.9833333333333334
2026-02-06T21:47:02+00:00,SAT-52295,11.372833513547723,42.381207822996714,776.3338444188134,-0.020867051411968977,730.852407987109,10.5,10500000730.852407,47.655,-122.3035,60.0,3.0
2026-02-06T21:47:03+00:00,SAT-52295,12.101470481469175,42.38264289074118,776.3130333090867,0.04159581270986719,-1456.8613112128573,10.5,10499998543.138689,47.655,-122.3035,60.0,3.0166666666666666
2026-02-06T21:47:04+00:00,SAT-52295,12.83006421752618,42.37912422612066,776.3545176091629,0.10404882190914094,-3644.229869338407,10.5,10499996355.77013,47.655,-122.3035,60.0,3.033333333333333
2026-02-06T21:47:05+00:00,SAT-52295,13.558384005627062,42.37065496204226,776.4582874905392,0.1664768842364539,-5830.724682482726,10.5,10499994169.275318,47.655,-122.3035,60.0,3.05
2026-02-06T21:47:06+00:00,SAT-52295,14.286199650052493,42.357242794165046,776.6243180732229,0.2288649402478901,-8015.818305218491,10.5,10499991984.181694,47.655,-122.3035,60.0,3.066666666666667
2026-02-06T21:47:07+00:00,SAT-52295,15.013281922183568,42.33889995938452,776.8525694581493,0.2911979762783182,-10198.984895485068,10.5,10499989801.015104,47.655,-122.3035,60.0,3.0833333333333335
2026-02-06T21:47:08+00:00,SAT-52295,15.73940298501741,42.31564320216597,777.1429867728384,0.3534610444666489,-12379.70091595771,10.5,10499987620.299084,47.655,-122.3035,60.0,3.1
2026-02-06T21:47:09+00:00,SAT-52295,16.46433682295685,42.28749372836652,777.4955002370224,0.4156392836862299,-14557.445867118557,10.5,10499985442.554132,47.655,-122.3035,60.0,3.1166666666666667
2026-02-06T21:47:10+00:00,SAT-52295,17.187859665568336,42.25447714672109,777.9100252491472,0.4777179305107043,-16731.70267132736,10.5,10499983268.297329,47.655,-122.3035,60.0,3.1333333333333333
2026-02-06T21:47:11+00:00,SAT-52295,17.90975038894995,42.21662339910062,778.3864624838113,0.5396823437957113,-18901.95853377662,10.5,10499981098.041466,47.655,-122.3035,60.0,3.15
2026-02-06T21:47:12+00:00,SAT-52295,18.629790917732883,42.1739666788266,778.9246980137194,0.6015180127242595,-21067.705224274603,10.5,10499978932.294775,47.655,-122.3035,60.0,3.1666666666666665
2026-02-06T21:47:13+00:00,SAT-52295,19.34776660011753,42.12654533878035,779.5246034396613,0.6632105820327229,-23228.439960766424,10.5,10499976771.56004,47.655,-122.3035,60.0,3.183333333333333
2026-02-06T21:47:14+00:00,SAT-52295,20.063466579089692,42.07440178842578,780.1860360456465,0.7247458676143315,-25383.665955834287,10.5,10499974616.334044,47.655,-122.3035,60.0,3.2
2026-02-06T21:47:15+00:00,SAT-52295,20.776684143902404,42.01758238103798,780.9088389696046,0.7861098594545215,-27532.892519505862,10.5,10499972467.107481,47.655,-122.3035,60.0,3.216666666666667
2026-02-06T21:47:16+00:00,SAT-52295,21.48721705155077,41.95613729269001,781.6928413770091,0.847288754434235,-29675.636208164604,10.5,10499970324.363792,47.655,-122.3035,60.0,3.2333333333333334
2026-02-06T21:47:17+00:00,SAT-52295,22.194867845917713,41.89012039126658,782.5378586672184,0.9082689613028487,-31811.420998722762,10.5,10499968188.579,47.655,-122.3035,60.0,3.25
2026-02-06T21:47:18+00:00,SAT-52295,22.899444146389865,41.819589098321394,783.443692684777,0.9690371156363551,-33939.77881252012,10.5,10499966060.221188,47.655,-122.3035,60.0,3.2666666666666666
2026-02-06T21:47:19+00:00,SAT-52295,23.600758916281457,41.744604243660696,784.4101319456336,1.0295800920436549,-36060.24994284004,10.5,10499963939.750057,47.655,-122.3035,60.0,3.283333333333333
2026-02-06T21:47:20+00:00,SAT-52295,24.298630708542827,41.665229913539164,785.4369518755327,1.0898850215869347,-38172.38366504475,10.5,10499961827.616335,47.655,-122.3035,60.0,3.3
2026-02-06T21:47:21+00:00,SAT-52295,24.992883891827105,41.58153329278077,786.5239150657807,1.149939299184904,-40275.738495868005,10.5,10499959724.261503,47.655,-122.3035,60.0,3.316666666666667
2026-02-06T21:47:22+00:00,SAT-52295,25.68334885038381,41.49358450228413,787.6707715363963,1.2097306007033368,-42369.88279199818,10.5,10499957630.117208,47.655,-122.3035,60.0,3.3333333333333335
2026-02-06T21:47:23+00:00,SAT-52295,26.36986216383527,41.4014564318913,788.8772590163018,1.2692468893129005,-44454.3949727563,10.5,10499955545.605028,47.655,-122.3035,60.0,3.35
2026-02-06T21:47:24+00:00,SAT-52295,27.05226676101476,41.30522457014961,790.1431032298606,1.3284764186925924,-46528.86363229398,10.5,10499953471.136368,47.655,-122.3035,60.0,3.3666666666666667
2026-02-06T21:47:25+00:00,SAT-52295,27.73041204729616,41.20496683188283,791.4680181866042,1.387407763849203,-48592.88861902134,10.5,10499951407.111382,47.655,-122.3035,60.0,3.3833333333333333
2026-02-06T21:47:26+00:00,SAT-52295,28.4041540199064,41.10076338218812,792.8517065017008,1.4460298100771305,-50646.08064893304,10.5,10499949353.919352,47.655,-122.3035,60.0,3.4
2026-02-06T21:47:27+00:00,SAT-52295,29.073355350066613,40.99269646069471,794.2938597054093,1.5043317600131072,-52688.06155269465,10.5,10499947311.938448,47.655,-122.3035,60.0,3.4166666666666665
2026-02-06T21:47:28+00:00,SAT-52295,29.737885443587267,40.88085020534354,795.7941585595719,1.5623031570641133,-54718.465096187276,10.5,10499945281.534904,47.655,-122.3035,60.0,3.433333333333333
2026-02-06T21:47:29+00:00,SAT-52295,30.39762048697268,40.765310475101856,797.3522733974694,1.6199338886435946,-56736.93709385359,10.5,10499943263.062906,47.655,-122.3035,60.0,3.45
2026-02-06T21:47:30+00:00,SAT-52295,31.052443470573618,40.6461646737403,798.9678644669085,1.6772141633072897,-58743.13460789779,10.5,10499941256.865393,47.655,-122.3035,60.0,3.466666666666667
2026-02-06T21:47:31+00:00,SAT-52295,31.702244180576677,40.52350157712667,800.6405822504994,1.7341345654534313,-60736.72786411801,10.5,10499939263.272137,47.655,-122.3035,60.0,3.4833333333333334
2026-02-06T21:47:32+00:00,SAT-52295,32.34691919143867,40.39741115886714,802.3700678404934,1.7906860073855528,-62717.3985729431,10.5,10499937282.601427,47.655,-122.3035,60.0,3.5
2026-02-06T21:47:33+00:00,SAT-52295,32.98637181990713,40.26798442233724,804.1559532658077,1.8468597788714118,-64684.84166519567,10.5,10499935315.158335,47.655,-122.3035,60.0,3.5166666666666666
2026-02-06T21:47:34+00:00,SAT-52295,33.62051207895063,40.1353132324134,805.9978618684788,1.9026475198636588,-66638.76433665458,10.5,10499933361.235662,47.655,-122.3035,60.0,3.533333333333333
