DopplerPredictor/satellites_20260211_205844/SAT-53010.csv

timestamp,satellite,azimuth_deg,elevation_deg,distance_km,relative_velocity_kms,doppler_shift_hz,tx_freq_ghz,rx_freq_hz,ue_lat,ue_lon,ue_alt_m,time_minutes
2026-02-06T21:44:02+00:00,SAT-53010,35.8229611600933,45.22739492997296,741.0523038324243,1.6475048389441909,-57702.58839838461,10.5,10499942297.411602,47.655,-122.3035,60.0,0.0
2026-02-06T21:44:03+00:00,SAT-53010,36.572010095629786,45.078523252576154,742.6953919382509,1.7091772103948328,-59862.61572045867,10.5,10499940137.38428,47.655,-122.3035,60.0,0.016666666666666666
2026-02-06T21:44:04+00:00,SAT-53010,37.31378844714323,44.92514350565543,744.3999870804109,1.7704252927030153,-62007.7826420225,10.5,10499937992.217358,47.655,-122.3035,60.0,0.03333333333333333
2026-02-06T21:44:05+00:00,SAT-53010,38.04816186490903,44.76739413141445,746.1656661072229,1.831237962917524,-64137.69959027455,10.5,10499935862.30041,47.655,-122.3035,60.0,0.05
2026-02-06T21:44:06+00:00,SAT-53010,38.775008294593505,44.605414743382255,747.9919947738728,1.891604549692629,-66251.99280954762,10.5,10499933748.00719,47.655,-122.3035,60.0,0.06666666666666667
2026-02-06T21:44:07+00:00,SAT-53010,39.494217741637655,44.439345824374826,749.8785281928091,1.9515148933364115,-68350.30646445522,10.5,10499931649.693535,47.655,-122.3035,60.0,0.08333333333333333
2026-02-06T21:44:08+00:00,SAT-53010,40.20569202547885,44.269328429457566,751.8248113440255,2.0109593146571423,-70432.30154876008,10.5,10499929567.698452,47.655,-122.3035,60.0,0.1
2026-02-06T21:44:09+00:00,SAT-53010,40.90934449115655,44.095503902733704,753.8303795542723,2.0699286277807136,-72497.65633429475,10.5,10499927502.343666,47.655,-122.3035,60.0,0.11666666666666667
2026-02-06T21:44:10+00:00,SAT-53010,41.60509969931339,43.918013604642844,755.8947589890522,2.1284141399936005,-74546.06636546143,10.5,10499925453.933634,47.655,-122.3035,60.0,0.13333333333333333
2026-02-06T21:44:11+00:00,SAT-53010,42.29289309329456,43.73699865141834,758.0174671444577,2.186407642047804,-76577.24411967007,10.5,10499923422.75588,47.655,-122.3035,60.0,0.15
2026-02-06T21:44:12+00:00,SAT-53010,42.97267064389161,43.55259966787174,760.1980133293413,2.243901424818897,-78590.91959077376,10.5,10499921409.08041,47.655,-122.3035,60.0,0.16666666666666666
2026-02-06T21:44:13+00:00,SAT-53010,43.64438848348158,43.364956551555416,762.4358991640986,2.3008882562204,-80586.83948051221,10.5,10499919413.160519,47.655,-122.3035,60.0,0.18333333333333332
2026-02-06T21:44:14+00:00,SAT-53010,44.3080125203622,43.17420825184911,764.7306190564267,2.3573613963010787,-82564.76772728327,10.5,10499917435.232273,47.655,-122.3035,60.0,0.2
2026-02-06T21:44:15+00:00,SAT-53010,44.9635180481919,42.98049256083241,767.08166069214,2.4133145739329076,-84524.48468965663,10.5,10499915475.51531,47.655,-122.3035,60.0,0.21666666666666667
2026-02-06T21:44:16+00:00,SAT-53010,45.610889342014374,42.78394591916579,769.4885055027377,2.4687419924355356,-86465.78734336646,10.5,10499913534.212656,47.655,-122.3035,60.0,0.23333333333333334
2026-02-06T21:44:17+00:00,SAT-53010,46.25011925230021,42.584703234476784,771.950629138578,2.5236383219908536,-88388.48901563747,10.5,10499911611.510984,47.655,-122.3035,60.0,0.25
2026-02-06T21:44:18+00:00,SAT-53010,46.881208795477036,42.38289771322364,774.4675019344896,2.5779987114894687,-90292.41980009858,10.5,10499909707.5802,47.655,-122.3035,60.0,0.26666666666666666
2026-02-06T21:44:19+00:00,SAT-53010,47.50416674790554,42.178660704285655,777.0385893871974,2.6318187267875945,-92177.42439427793,10.5,10499907822.575605,47.655,-122.3035,60.0,0.2833333333333333
2026-02-06T21:44:20+00:00,SAT-53010,48.11900922815751,41.972121559853065,779.6633525711693,2.6850944032376605,-94043.3639394472,10.5,10499905956.63606,47.655,-122.3035,60.0,0.3
2026-02-06T21:44:21+00:00,SAT-53010,48.725759296920934,41.76340750419574,782.341248606855,2.7378222276383815,-95890.1153884365,10.5,10499904109.884611,47.655,-122.3035,60.0,0.31666666666666665
2026-02-06T21:44:22+00:00,SAT-53010,49.3244465585152,41.552643515655724,785.0717311109206,2.7899990743949825,-97717.56926969562,10.5,10499902282.43073,47.655,-122.3035,60.0,0.3333333333333333
2026-02-06T21:44:23+00:00,SAT-53010,49.91510675683004,41.33995222490611,787.8542505828169,2.8416222613721738,-99525.63164350127,10.5,10499900474.368357,47.655,-122.3035,60.0,0.35
2026-02-06T21:44:24+00:00,SAT-53010,50.49778139313622,41.125453819765816,790.6882548470501,2.892689518037026,-101314.22298618591,10.5,10499898685.777014,47.655,-122.3035,60.0,0.36666666666666664
2026-02-06T21:44:25+00:00,SAT-53010,51.072517347200936,40.90926596298032,793.5731894636807,2.943198959205102,-103083.27727061624,10.5,10499896916.722729,47.655,-122.3035,60.0,0.38333333333333336
2026-02-06T21:44:26+00:00,SAT-53010,51.63936650495306,40.691503721976076,796.5084981126374,2.9931490838545263,-104832.74192465685,10.5,10499895167.258076,47.655,-122.3035,60.0,0.4
2026-02-06T21:44:27+00:00,SAT-53010,52.198385398631984,40.472279508180314,799.4936229768529,3.0425387883945834,-106562.5782958927,10.5,10499893437.421703,47.655,-122.3035,60.0,0.4166666666666667
2026-02-06T21:44:28+00:00,SAT-53010,52.74963486223505,40.251703024419555,802.5280051386259,3.0913673193878153,-108272.759995757,10.5,10499891727.240004,47.655,-122.3035,60.0,0.43333333333333335
2026-02-06T21:44:29+00:00,SAT-53010,53.293179691846056,40.0298812243414,805.6110849288392,3.1396342766553693,-109963.27300829356,10.5,10499890036.726992,47.655,-122.3035,60.0,0.45
