DopplerPredictor/satellites_20260211_205933/SAT-61525.csv

timestamp,satellite,azimuth_deg,elevation_deg,distance_km,relative_velocity_kms,doppler_shift_hz,tx_freq_ghz,rx_freq_hz,ue_lat,ue_lon,ue_alt_m,time_minutes
2026-02-06T21:49:16+00:00,SAT-61525,54.40293674801885,43.59508481623276,671.9110015376541,4.915987013815256,-172178.65982826086,10.5,10499827821.340172,47.655,-122.3035,60.0,0.0
2026-02-06T21:49:17+00:00,SAT-61525,54.53505609883927,43.14189016171196,676.8138094686914,4.953889822568132,-173506.17651950868,10.5,10499826493.82348,47.655,-122.3035,60.0,0.016666666666666666
2026-02-06T21:49:18+00:00,SAT-61525,54.66345678114154,42.69465284313938,681.754418596282,4.990968628694927,-174804.83315326343,10.5,10499825195.166847,47.655,-122.3035,60.0,0.03333333333333333
2026-02-06T21:49:19+00:00,SAT-61525,54.78829659893536,42.25329677669527,686.7320071268371,5.0272410139839465,-176075.24551812254,10.5,10499823924.754482,47.655,-122.3035,60.0,0.05
2026-02-06T21:49:20+00:00,SAT-61525,54.9097246165553,41.81774508694779,691.7457708014216,5.062724419427815,-177318.02447142304,10.5,10499822681.975529,47.655,-122.3035,60.0,0.06666666666666667
2026-02-06T21:49:21+00:00,SAT-61525,55.02788175284656,41.38792026439699,696.7949227553369,5.097435959927187,-178533.76944938174,10.5,10499821466.23055,47.655,-122.3035,60.0,0.08333333333333333
2026-02-06T21:49:22+00:00,SAT-61525,55.14290132353124,40.96374432584002,701.8786931929017,5.131392622369775,-179723.07540466092,10.5,10499820276.924595,47.655,-122.3035,60.0,0.1
2026-02-06T21:49:23+00:00,SAT-61525,55.25490954626957,40.5451389454284,706.9963292597829,5.164611100369745,-180886.52701824246,10.5,10499819113.472982,47.655,-122.3035,60.0,0.11666666666666667
2026-02-06T21:49:24+00:00,SAT-61525,55.36402600255948,40.13202558839228,712.1470947505092,5.197107832302745,-182024.70003157592,10.5,10499817975.299969,47.655,-122.3035,60.0,0.13333333333333333
