DopplerPredictor/satellites_20260211_205933/SAT-64170.csv

timestamp,satellite,azimuth_deg,elevation_deg,distance_km,relative_velocity_kms,doppler_shift_hz,tx_freq_ghz,rx_freq_hz,ue_lat,ue_lon,ue_alt_m,time_minutes
2026-02-06T21:49:16+00:00,SAT-64170,37.349208133593706,41.53336593060862,682.395050739156,1.9005898866550441,-66566.69731790906,10.5,10499933433.302683,47.655,-122.3035,60.0,0.0
2026-02-06T21:49:17+00:00,SAT-64170,38.11161137892544,41.369879832832105,684.290545406606,1.9678455321877055,-68922.27451556138,10.5,10499931077.725485,47.655,-122.3035,60.0,0.016666666666666666
2026-02-06T21:49:18+00:00,SAT-64170,38.86591108182952,41.201935571801805,686.2531154164848,2.0345239172967866,-71257.63361137078,10.5,10499928742.366388,47.655,-122.3035,60.0,0.03333333333333333
2026-02-06T21:49:19+00:00,SAT-64170,39.61198407302551,41.02969816434494,688.2821850559234,2.100612369942662,-73572.33077690685,10.5,10499926427.669224,47.655,-122.3035,60.0,0.05
2026-02-06T21:49:20+00:00,SAT-64170,40.34972088695959,40.85333307402493,690.3771659739867,2.1660989685589715,-75865.9484684875,10.5,10499924134.05153,47.655,-122.3035,60.0,0.06666666666666667
2026-02-06T21:49:21+00:00,SAT-64170,41.07902541833787,40.673005842102306,692.5374579301329,2.2309725202104813,-78138.09466217477,10.5,10499921861.905338,47.655,-122.3035,60.0,0.08333333333333333
2026-02-06T21:49:22+00:00,SAT-64170,41.79981454012376,40.48888173693865,694.7624495208906,2.2952226093793815,-80388.40456247737,10.5,10499919611.595438,47.655,-122.3035,60.0,0.1
2026-02-06T21:49:23+00:00,SAT-64170,42.512017710045974,40.30112541663922,697.0515189551951,2.3588395313788455,-82616.53827021185,10.5,10499917383.46173,47.655,-122.3035,60.0,0.11666666666666667
2026-02-06T21:49:24+00:00,SAT-64170,43.21557653349128,40.10990061496904,699.4040347633103,2.4218143306788957,-84822.18212483653,10.5,10499915177.817875,47.655,-122.3035,60.0,0.13333333333333333
