DopplerPredictor/satellites_20260211_205933/SAT-52686.csv

timestamp,satellite,azimuth_deg,elevation_deg,distance_km,relative_velocity_kms,doppler_shift_hz,tx_freq_ghz,rx_freq_hz,ue_lat,ue_lon,ue_alt_m,time_minutes
2026-02-06T21:49:16+00:00,SAT-52686,49.540882871719084,40.36078112621216,801.4141425275579,4.959911230140744,-173717.07168323032,10.5,10499826282.928316,47.655,-122.3035,60.0,0.0
2026-02-06T21:49:17+00:00,SAT-52686,49.72466536805136,40.00549041436937,806.3607569201582,4.989829950264715,-174764.95181803242,10.5,10499825235.048182,47.655,-122.3035,60.0,0.016666666666666666
