DopplerPredictor/satellites_20260211_205933/SAT-60313.csv

timestamp,satellite,azimuth_deg,elevation_deg,distance_km,relative_velocity_kms,doppler_shift_hz,tx_freq_ghz,rx_freq_hz,ue_lat,ue_lon,ue_alt_m,time_minutes
2026-02-06T21:50:06+00:00,SAT-60313,147.6000895230454,40.00555793949817,535.2870739277162,-0.2960930598338522,10370.431427782776,10.5,10500010370.431427,47.655,-122.3035,60.0,0.8333333333333334
2026-02-06T21:50:07+00:00,SAT-60313,146.5658289030882,40.036974492462555,534.9917746525149,-0.19840182980024818,6948.871318512643,10.5,10500006948.871319,47.655,-122.3035,60.0,0.85
2026-02-06T21:50:08+00:00,SAT-60313,145.52980544286197,40.05851483942838,534.793904710641,-0.10060201725002671,3523.5081902069746,10.5,10500003523.50819,47.655,-122.3035,60.0,0.8666666666666667
2026-02-06T21:50:09+00:00,SAT-60313,144.49269667863734,40.07013709507122,534.6935723935162,-0.0027471421823273396,96.21653962501307,10.5,10500000096.21654,47.655,-122.3035,60.0,0.8833333333333333
2026-02-06T21:50:10+00:00,SAT-60313,143.45518441805044,40.07181928495164,534.6908326160428,0.0951091245715158,-3331.1238536925293,10.5,10499996668.876146,47.655,-122.3035,60.0,0.9
2026-02-06T21:50:11+00:00,SAT-60313,142.41795206485173,40.063559474714516,534.7856867661766,0.19291310788920554,-6756.633059917265,10.5,10499993243.36694,47.655,-122.3035,60.0,0.9166666666666666
2026-02-06T21:50:12+00:00,SAT-60313,141.38168192605124,40.04537578021104,534.9780827006455,0.290611276276497,-10178.43617968274,10.5,10499989821.56382,47.655,-122.3035,60.0,0.9333333333333333
2026-02-06T21:50:13+00:00,SAT-60313,140.34705252492873,40.01730625829699,535.2679148881945,0.3881503870456378,-13594.668428847523,10.5,10499986405.331572,47.655,-122.3035,60.0,0.95
