DopplerPredictor/satellites_20260211_205933/SAT-61673.csv

timestamp,satellite,azimuth_deg,elevation_deg,distance_km,relative_velocity_kms,doppler_shift_hz,tx_freq_ghz,rx_freq_hz,ue_lat,ue_lon,ue_alt_m,time_minutes
2026-02-06T21:50:02+00:00,SAT-61673,346.6978961600214,40.01962244880748,715.693011265444,-2.473692104087648,86639.16119237497,10.5,10500086639.161192,47.655,-122.3035,60.0,0.7666666666666667
2026-02-06T21:50:03+00:00,SAT-61673,347.37528580707857,40.21497762921962,713.2259507885179,-2.4125524203581996,84497.79084756393,10.5,10500084497.790848,47.655,-122.3035,60.0,0.7833333333333333
2026-02-06T21:50:04+00:00,SAT-61673,348.0611903575866,40.4072539892406,710.8198660882664,-2.3507867859801665,82334.49706327086,10.5,10500082334.497063,47.655,-122.3035,60.0,0.8
2026-02-06T21:50:05+00:00,SAT-61673,348.75557634789646,40.596296910003794,708.4753814372509,-2.2884030366019568,80149.55427704772,10.5,10500080149.554277,47.655,-122.3035,60.0,0.8166666666666667
2026-02-06T21:50:06+00:00,SAT-61673,349.45839965133314,40.781950355205296,706.1931132933903,-2.225409661588455,77943.25982236277,10.5,10500077943.259823,47.655,-122.3035,60.0,0.8333333333333334
2026-02-06T21:50:07+00:00,SAT-61673,350.1696050351271,40.96405712914165,703.973669647998,-2.1618158340480504,75715.93498027402,10.5,10500075715.93498,47.655,-122.3035,60.0,0.85
2026-02-06T21:50:08+00:00,SAT-61673,350.8891257382769,41.142459153913066,701.8176493438705,-2.0976314233597435,73467.92541818149,10.5,10500073467.925419,47.655,-122.3035,60.0,0.8666666666666667
2026-02-06T21:50:09+00:00,SAT-61673,351.61688307010326,41.31699776431089,699.7256413808838,-2.0328669815636573,71199.60071316538,10.5,10500071199.600714,47.655,-122.3035,60.0,0.8833333333333333
2026-02-06T21:50:10+00:00,SAT-61673,352.3527860245924,41.48751401793298,697.6982242351619,-1.9675337655593126,68911.35512946354,10.5,10500068911.35513,47.655,-122.3035,60.0,0.9
2026-02-06T21:50:11+00:00,SAT-61673,353.0967309270751,41.65384902308195,695.7359651561084,-1.9016437103023731,66603.60667970813,10.5,10500066603.60668,47.655,-122.3035,60.0,0.9166666666666666
2026-02-06T21:50:12+00:00,SAT-61673,353.84860109986323,41.815844279779235,693.8394194901665,-1.8352094723434509,64276.79864983873,10.5,10500064276.79865,47.655,-122.3035,60.0,0.9333333333333333
2026-02-06T21:50:13+00:00,SAT-61673,354.6082665784539,41.97334203913156,692.0091299611593,-1.7682443709892177,61931.39753831561,10.5,10500061931.39754,47.655,-122.3035,60.0,0.95
2026-02-06T21:50:14+00:00,SAT-61673,355.37558384237667,42.12618567148371,690.2456260093111,-1.7007624489361985,59567.89517977162,10.5,10500059567.89518,47.655,-122.3035,60.0,0.9666666666666667
2026-02-06T21:50:15+00:00,SAT-61673,356.150395614653,42.27422005254448,688.5494230697951,-1.6327784037957822,57186.806346728416,10.5,10500057186.806347,47.655,-122.3035,60.0,0.9833333333333333
2026-02-06T21:50:16+00:00,SAT-61673,356.93253067947404,42.41729195520733,686.9210219195763,-1.5643076341070403,54788.67036116006,10.5,10500054788.67036,47.655,-122.3035,60.0,1.0
2026-02-06T21:50:17+00:00,SAT-61673,357.7218037735842,42.55525045559237,685.3609079783622,-1.4953661842985617,52374.04916682359,10.5,10500052374.049168,47.655,-122.3035,60.0,1.0166666666666666
2026-02-06T21:50:18+00:00,SAT-61673,358.5180155088335,42.68794734303483,683.869550664443,-1.4259707754292652,49943.52840593236,10.5,10500049943.528406,47.655,-122.3035,60.0,1.0333333333333334
2026-02-06T21:50:19+00:00,SAT-61673,359.32095237258125,42.81523753985117,682.4474027198786,-1.3561387516456713,47497.715543863174,10.5,10500047497.715544,47.655,-122.3035,60.0,1.05
2026-02-06T21:50:20+00:00,SAT-61673,0.1303867664447519,42.93697952165656,681.0948995890791,-1.2858881030961318,45037.24067170957,10.5,10500045037.240671,47.655,-122.3035,60.0,1.0666666666666667
2026-02-06T21:50:21+00:00,SAT-61673,0.9460771290750456,43.05303574305699,679.8124587745347,-1.2152374122787055,42562.75462715746,10.5,10500042562.754627,47.655,-122.3035,60.0,1.0833333333333333
2026-02-06T21:50:22+00:00,SAT-61673,1.7677681022592548,43.1632730598203,678.6004792460554,-1.1442058692810166,40074.92952824943,10.5,10500040074.92953,47.655,-122.3035,60.0,1.1
2026-02-06T21:50:23+00:00,SAT-61673,2.595190786043894,43.267563151514466,677.4593408348095,-1.0728132196803597,37574.45694862603,10.5,10500037574.45695,47.655,-122.3035,60.0,1.1166666666666667
2026-02-06T21:50:24+00:00,SAT-61673,3.42806304155994,43.3657829362702,676.389403679323,-1.001079762030552,35062.04782950476,10.5,10500035062.047829,47.655,-122.3035,60.0,1.1333333333333333
2026-02-06T21:50:25+00:00,SAT-61673,4.266089877272646,43.45781497979485,675.3910076739853,-0.9290263201044965,32538.43150749714,10.5,10500032538.431507,47.655,-122.3035,60.0,1.15
2026-02-06T21:50:26+00:00,SAT-61673,5.108963904327869,43.54354789396118,674.4644719452394,-0.8566742050353638,30004.35438863282,10.5,10500030004.35439,47.655,-122.3035,60.0,1.1666666666666667
2026-02-06T21:50:27+00:00,SAT-61673,5.956365851738462,43.62287672159011,673.6100943655267,-0.7840451991940847,27460.579383681124,10.5,10500027460.579384,47.655,-122.3035,60.0,1.1833333333333333
2026-02-06T21:50:28+00:00,SAT-61673,6.807965160355268,43.695703306996876,672.8281510833133,-0.7111615172869046,24907.884545622885,10.5,10500024907.884546,47.655,-122.3035,60.0,1.2
2026-02-06T21:50:29+00:00,SAT-61673,7.663420635666358,43.76193664778565,672.1188960919139,-0.6380457845756254,22347.062306831172,10.5,10500022347.062307,47.655,-122.3035,60.0,1.2166666666666666
2026-02-06T21:50:30+00:00,SAT-61673,8.522381176224922,43.82149322712907,671.4825608200366,-0.5647209915917942,19778.91789297061,10.5,10500019778.917892,47.655,-122.3035,60.0,1.2333333333333334
2026-02-06T21:50:31+00:00,SAT-61673,9.384486549599732,43.87429732205496,670.9193537674917,-0.49121046916900873,17204.26844852312,10.5,10500017204.268448,47.655,-122.3035,60.0,1.25
2026-02-06T21:50:32+00:00,SAT-61673,10.249368237242427,43.92028128747315,670.4294601658036,-0.4175378471806819,14623.941591609886,10.5,10500014623.941591,47.655,-122.3035,60.0,1.2666666666666666
2026-02-06T21:50:33+00:00,SAT-61673,11.116650325927539,43.95938581237437,670.0130416799707,-0.3437270207796379,12038.774231559213,10.5,10500012038.774231,47.655,-122.3035,60.0,1.2833333333333334
2026-02-06T21:50:34+00:00,SAT-61673,11.985950451584078,43.99156014704376,669.6702361438994,-0.26980211118171493,9449.611195382395,10.5,10500009449.611195,47.655,-122.3035,60.0,1.3
2026-02-06T21:50:35+00:00,SAT-61673,12.856880784681985,44.016762299083105,669.401157334945,-0.19578742769590377,6857.303897908564,10.5,10500006857.303898,47.655,-122.3035,60.0,1.3166666666666667
2026-02-06T21:50:36+00:00,SAT-61673,13.729049058079923,44.034959196889936,669.2058947863242,-0.12170742428998076,4262.708820529428,10.5,10500004262.70882,47.655,-122.3035,60.0,1.3333333333333333
2026-02-06T21:50:37+00:00,SAT-61673,14.602059601337901,44.046126818840754,669.0845136428431,-0.047586666811984306,1666.686363156725,10.5,10500001666.686363,47.655,-122.3035,60.0,1.35
2026-02-06T21:50:38+00:00,SAT-61673,15.475514437250286,44.050250288179164,669.0370545493178,0.026550214436091436,-929.9008168476342,10.5,10499999070.099184,47.655,-122.3035,60.0,1.3666666666666667
2026-02-06T21:50:39+00:00,SAT-61673,16.3490143626218,44.04732393150646,669.063533586293,0.10067856107628653,-3526.1890787826574,10.5,10499996473.81092,47.655,-122.3035,60.0,1.3833333333333333
2026-02-06T21:50:40+00:00,SAT-61673,17.22216004182016,44.03735130147251,669.1639422420405,0.1747737301233473,-6121.315321065036,10.5,10499993878.684679,47.655,-122.3035,60.0,1.4
2026-02-06T21:50:41+00:00,SAT-61673,18.094553120992042,44.020345162790406,669.3382474279122,0.24881113238225433,-8714.418326073,10.5,10499991285.581675,47.655,-122.3035,60.0,1.4166666666666667
2026-02-06T21:50:42+00:00,SAT-61673,18.96579730933503,43.9963274422027,669.5863915319845,0.32276627768893007,-11304.640344667261,10.5,10499988695.359655,47.655,-122.3035,60.0,1.4333333333333333
2026-02-06T21:50:43+00:00,SAT-61673,19.835499470871497,43.96532914210507,669.9082925178245,0.39661480449282205,-13891.128132298216,10.5,10499986108.871868,47.655,-122.3035,60.0,1.45
2026-02-06T21:50:44+00:00,SAT-61673,20.703270663413072,43.927390220007695,670.3038440527592,0.4703325361958592,-16473.034922234507,10.5,10499983526.965078,47.655,-122.3035,60.0,1.4666666666666666
2026-02-06T21:50:45+00:00,SAT-61673,21.568727190638995,43.882559432196146,670.7729156923316,0.5438955024914569,-19049.521172945246,10.5,10499980950.478827,47.655,-122.3035,60.0,1.4833333333333334
2026-02-06T21:50:46+00:00,SAT-61673,22.43149157816565,43.830894146126994,671.3153530860386,0.6172799936788527,-21619.75647041779,10.5,10499978380.24353,47.655,-122.3035,60.0,1.5
2026-02-06T21:50:47+00:00,SAT-61673,23.291193540071575,43.77246011982658,671.9309782372387,0.690462579233075,-24182.92017855662,10.5,10499975817.07982,47.655,-122.3035,60.0,1.5166666666666666
2026-02-06T21:50:48+00:00,SAT-61673,24.147470869380058,43.707331253328,672.6195897815808,0.7634201699106705,-26738.203614388596,10.5,10499973261.796385,47.655,-122.3035,60.0,1.5333333333333334
2026-02-06T21:50:49+00:00,SAT-61673,24.99997031029638,43.63558930985135,673.3809633273679,0.8361300212692522,-29284.810171332425,10.5,10499970715.189829,47.655,-122.3035,60.0,1.55
2026-02-06T21:50:50+00:00,SAT-61673,25.848348335817057,43.55732361426426,674.2148517994361,0.9085697979453571,-31821.957570481143,10.5,10499968178.042429,47.655,-122.3035,60.0,1.5666666666666667
2026-02-06T21:50:51+00:00,SAT-61673,26.692271898772642,43.472630725225386,675.1209858471359,0.980717580422028,-34348.87809763144,10.5,10499965651.121902,47.655,-122.3035,60.0,1.5833333333333333
2026-02-06T21:50:52+00:00,SAT-61673,27.531419092836085,43.381614088688536,676.0990742590637,1.0525519107983228,-36864.8202063255,10.5,10499963135.179794,47.655,-122.3035,60.0,1.6
2026-02-06T21:50:53+00:00,SAT-61673,28.365479762331187,43.284383671427975,677.1488044234413,1.1240518244817734,-39369.04962785495,10.5,10499960630.950373,47.655,-122.3035,60.0,1.6166666666666667
2026-02-06T21:50:54+00:00,SAT-61673,29.194156044172097,43.18105557834531,678.2698428201008,1.1951968547588048,-41860.84953133628,10.5,10499958139.150469,47.655,-122.3035,60.0,1.6333333333333333
2026-02-06T21:50:55+00:00,SAT-61673,30.017162823894882,43.071751658450424,679.4618355170289,1.2659670900077036,-44339.522527551,10.5,10499955660.477472,47.655,-122.3035,60.0,1.65
2026-02-06T21:50:56+00:00,SAT-61673,30.83422814540031,42.9565990971265,680.724408723972,1.3363431710251275,-46804.39057530873,10.5,10499953195.609425,47.655,-122.3035,60.0,1.6666666666666667
2026-02-06T21:50:57+00:00,SAT-61673,31.64509353187328,42.83573000258782,682.057169343371,1.4063063352047593,-49254.79652877049,10.5,10499950745.203472,47.655,-122.3035,60.0,1.6833333333333333
2026-02-06T21:50:58+00:00,SAT-61673,32.44951425272578,42.70928098461352,683.4597055653612,1.4758384073870665,-51690.1038169686,10.5,10499948309.896183,47.655,-122.3035,60.0,1.7
2026-02-06T21:50:59+00:00,SAT-61673,33.24725950573761,42.5773927326886,684.9315874536436,1.544921845512808,-54109.6980427856,10.5,10499945890.301958,47.655,-122.3035,60.0,1.7166666666666666
2026-02-06T21:51:00+00:00,SAT-61673,34.03811255040978,42.44020959080309,686.4723675768879,1.613539745253425,-56512.98714513012,10.5,10499943487.012856,47.655,-122.3035,60.0,1.7333333333333334
2026-02-06T21:51:01+00:00,SAT-61673,34.82187077083879,42.29787913472468,688.0815816447529,1.6816758593959416,-58899.40207787811,10.5,10499941100.597921,47.655,-122.3035,60.0,1.75
2026-02-06T21:51:02+00:00,SAT-61673,35.598345680764304,42.15055175240173,689.7587491632409,1.749314585669829,-61268.396383518106,10.5,10499938731.603617,47.655,-122.3035,60.0,1.7666666666666666
2026-02-06T21:51:03+00:00,SAT-61673,36.36736286084736,41.99838023209425,691.5033740779121,1.816441017503042,-63619.44797084235,10.5,10499936380.552029,47.655,-122.3035,60.0,1.7833333333333334
2026-02-06T21:51:04+00:00,SAT-61673,37.128761860456756,41.84151935442019,693.314945467716,1.8830409263025563,-65952.05849433623,10.5,10499934047.941505,47.655,-122.3035,60.0,1.8
2026-02-06T21:51:05+00:00,SAT-61673,37.882396036779554,41.68012549589084,695.1929382211547,1.9491007577608783,-68265.7532248167,10.5,10499931734.246775,47.655,-122.3035,60.0,1.8166666666666667
2026-02-06T21:51:06+00:00,SAT-61673,38.6281323448566,41.51435624402342,697.13681370876,2.014607667416187,-70560.0822948987,10.5,10499929439.917706,47.655,-122.3035,60.0,1.8333333333333333
2026-02-06T21:51:07+00:00,SAT-61673,39.36585109691948,41.34437002191913,699.1460204910356,2.0795494977162448,-72834.61989567653,10.5,10499927165.380104,47.655,-122.3035,60.0,1.85
2026-02-06T21:51:08+00:00,SAT-61673,40.095445673434746,41.17032572838934,701.2199950035264,2.143914790743332,-75088.96472240468,10.5,10499924911.035278,47.655,-122.3035,60.0,1.8666666666666667
2026-02-06T21:51:09+00:00,SAT-61673,40.81682220418597,40.992382391475665,703.3581622545761,2.207692776729879,-77322.73957226679,10.5,10499922677.260427,47.655,-122.3035,60.0,1.8833333333333333
2026-02-06T21:51:10+00:00,SAT-61673,41.52989921529977,40.810698838157826,705.559936511633,2.2708733873941522,-79535.59181144778,10.5,10499920464.408188,47.655,-122.3035,60.0,1.9
2026-02-06T21:51:11+00:00,SAT-61673,42.23460725509209,40.6254333787738,707.8247220008561,2.3334472440537555,-81727.19295881831,10.5,10499918272.807041,47.655,-122.3035,60.0,1.9166666666666667
2026-02-06T21:51:12+00:00,SAT-61673,42.93088849423813,40.43674350871368,710.1519135948641,2.395405642758297,-83897.238165218,10.5,10499916102.761835,47.655,-122.3035,60.0,1.9333333333333333
2026-02-06T21:51:13+00:00,SAT-61673,43.61869630453855,40.244785627902154,712.5408974856603,2.456740555505177,-86045.44625603742,10.5,10499913954.553743,47.655,-122.3035,60.0,1.95
2026-02-06T21:51:14+00:00,SAT-61673,44.297994824836074,40.04971477692895,714.9910518587664,2.517444632308551,-88171.55980368188,10.5,10499911828.440197,47.655,-122.3035,60.0,1.9666666666666666
