DopplerPredictor/satellites_20260211_205933/SAT-59201.csv

timestamp,satellite,azimuth_deg,elevation_deg,distance_km,relative_velocity_kms,doppler_shift_hz,tx_freq_ghz,rx_freq_hz,ue_lat,ue_lon,ue_alt_m,time_minutes
2026-02-06T21:57:44+00:00,SAT-59201,192.91779688170317,40.01949106422402,710.7443377075973,-3.8891821547091423,136215.6102821172,10.5,10500136215.610283,47.655,-122.3035,60.0,8.466666666666667
2026-02-06T21:57:45+00:00,SAT-59201,192.4003806593278,40.330875589460675,706.8655819135379,-3.8391309354900933,134462.60486861874,10.5,10500134462.604868,47.655,-122.3035,60.0,8.483333333333333
2026-02-06T21:57:46+00:00,SAT-59201,191.8723792509214,40.64282637625228,703.0367431582856,-3.7882531803885873,132680.6506722733,10.5,10500132680.650673,47.655,-122.3035,60.0,8.5
2026-02-06T21:57:47+00:00,SAT-59201,191.333558995789,40.95522025982595,699.2586457618947,-3.736542039388872,130869.50777655373,10.5,10500130869.507776,47.655,-122.3035,60.0,8.516666666666667
2026-02-06T21:57:48+00:00,SAT-59201,190.78368430140458,41.26792717103574,695.5321208760706,-3.683991078573142,129028.95083844301,10.5,10500129028.950838,47.655,-122.3035,60.0,8.533333333333333
2026-02-06T21:57:49+00:00,SAT-59201,190.22251804603417,41.580809934254766,691.8580060691887,-3.6305943396208593,127158.77117235225,10.5,10500127158.771172,47.655,-122.3035,60.0,8.55
2026-02-06T21:57:50+00:00,SAT-59201,189.64982202574157,41.89372407387555,688.2371448519701,-3.5763463058996963,125258.775562482,10.5,10500125258.775562,47.655,-122.3035,60.0,8.566666666666666
2026-02-06T21:57:51+00:00,SAT-59201,189.06535746500305,42.206517622970814,684.6703862369809,-3.5212420727519405,123328.79222697248,10.5,10500123328.792227,47.655,-122.3035,60.0,8.583333333333334
2026-02-06T21:57:52+00:00,SAT-59201,188.46888555997336,42.51903095347717,681.1585841282945,-3.4652772165618293,121368.66623208784,10.5,10500121368.666231,47.655,-122.3035,60.0,8.6
2026-02-06T21:57:53+00:00,SAT-59201,187.86016810936746,42.83109660367004,677.7025968417423,-3.4084479533570984,119378.26504711313,10.5,10500119378.265047,47.655,-122.3035,60.0,8.616666666666667
2026-02-06T21:57:54+00:00,SAT-59201,187.23896818671957,43.14253913010536,674.3032864669822,-3.3507510887152776,117357.47678986112,10.5,10500117357.47679,47.655,-122.3035,60.0,8.633333333333333
2026-02-06T21:57:55+00:00,SAT-59201,186.6050508951636,43.45317496786556,670.9615182795322,-3.292184128972218,115306.21412166509,10.5,10500115306.21412,47.655,-122.3035,60.0,8.65
2026-02-06T21:57:56+00:00,SAT-59201,185.9581841774941,43.76281231596281,667.6781600418883,-3.2327452456652552,113224.41300202817,10.5,10500113224.413002,47.655,-122.3035,60.0,8.666666666666666
2026-02-06T21:57:57+00:00,SAT-59201,185.29813971368887,44.071251037058346,664.4540813401078,-3.1724333551275423,111112.03547635341,10.5,10500111112.035477,47.655,-122.3035,60.0,8.683333333333334
2026-02-06T21:57:58+00:00,SAT-59201,184.62469388604995,44.37828258475001,661.2901528410098,-3.1112481336839446,108969.07020816854,10.5,10500108969.070208,47.655,-122.3035,60.0,8.7
2026-02-06T21:57:59+00:00,SAT-59201,183.93762882812433,44.683689955358936,658.1872455342199,-3.049190067824407,106795.53423640922,10.5,10500106795.534237,47.655,-122.3035,60.0,8.716666666666667
2026-02-06T21:58:00+00:00,SAT-59201,183.23673355122125,44.98724767057675,655.1462299241791,-2.9862604649916733,104591.47335325084,10.5,10500104591.473352,47.655,-122.3035,60.0,8.733333333333333
2026-02-06T21:58:01+00:00,SAT-59201,182.52180516032266,45.28872179029631,652.1679752113902,-2.9224615028989396,102356.96383142122,10.5,10500102356.96383,47.655,-122.3035,60.0,8.75
2026-02-06T21:58:02+00:00,SAT-59201,181.79265015104187,45.587869962706286,649.2533484244808,-2.8577962597005686,100092.11348090674,10.5,10500100092.113482,47.655,-122.3035,60.0,8.766666666666667
2026-02-06T21:58:03+00:00,SAT-59201,181.0490857923666,45.884441513228154,646.4032135221767,-2.79226875926139,97797.06323447468,10.5,10500097797.063234,47.655,-122.3035,60.0,8.783333333333333
2026-02-06T21:58:04+00:00,SAT-59201,180.29094159021741,46.17817757742431,643.6184304501257,-2.7258839691205163,95471.98707635741,10.5,10500095471.987076,47.655,-122.3035,60.0,8.8
2026-02-06T21:58:05+00:00,SAT-59201,179.51806084304292,46.46881127652632,640.8998541997545,-2.6586478539801983,93117.09391565842,10.5,10500093117.093916,47.655,-122.3035,60.0,8.816666666666666
2026-02-06T21:58:06+00:00,SAT-59201,178.7303022718752,46.75606794493333,638.2483338137774,-2.590567400824849,90732.62846612677,10.5,10500090732.628466,47.655,-122.3035,60.0,8.833333333333334
2026-02-06T21:58:07+00:00,SAT-59201,177.92754172697116,47.03966541042663,635.664711366656,-2.5216506488329467,88318.87229379846,10.5,10500088318.872293,47.655,-122.3035,60.0,8.85
2026-02-06T21:58:08+00:00,SAT-59201,177.1096739640168,47.31931433115945,633.1498209152247,-2.4519066928397937,85876.14393827692,10.5,10500085876.143938,47.655,-122.3035,60.0,8.866666666666667
2026-02-06T21:58:09+00:00,SAT-59201,176.27661449075623,47.59471858993996,630.7044874458655,-2.381345736526019,83404.80077561922,10.5,10500083404.800776,47.655,-122.3035,60.0,8.883333333333333
2026-02-06T21:58:10+00:00,SAT-59201,175.4283014576203,47.86557575454799,628.3295257686333,-2.3099790797658253,80905.23857521848,10.5,10500080905.238575,47.655,-122.3035,60.0,8.9
2026-02-06T21:58:11+00:00,SAT-59201,174.56469760308087,48.13157759981745,626.0257394240032,-2.2378191689981786,78377.89326401558,10.5,10500078377.893265,47.655,-122.3035,60.0,8.916666666666666
2026-02-06T21:58:12+00:00,SAT-59201,173.68579221699912,48.39241070123611,623.7939195393782,-2.1648795721379006,75823.24004777985,10.5,10500075823.240047,47.655,-122.3035,60.0,8.933333333333334
2026-02-06T21:58:13+00:00,SAT-59201,172.79160313439468,48.64775709376557,621.6348437106197,-2.091175035966516,73241.79542117906,10.5,10500073241.795422,47.655,-122.3035,60.0,8.95
2026-02-06T21:58:14+00:00,SAT-59201,171.88217870806469,48.897295007179665,619.5492748263426,-2.016721455872846,70634.1161079672,10.5,10500070634.116108,47.655,-122.3035,60.0,8.966666666666667
2026-02-06T21:58:15+00:00,SAT-59201,170.95759977446014,49.14069966898262,617.5379599223854,-1.9415359022621392,68000.79998594381,10.5,10500068000.799986,47.655,-122.3035,60.0,8.983333333333333
2026-02-06T21:58:16+00:00,SAT-59201,170.0179815663192,49.37764418201407,615.6016290099454,-1.8656366026135027,65342.48545852937,10.5,10500065342.485458,47.655,-122.3035,60.0,9.0
2026-02-06T21:58:17+00:00,SAT-59201,169.06347556627628,49.60780047125127,613.7409939216057,-1.7890429730060426,62659.85255894413,10.5,10500062659.852558,47.655,-122.3035,60.0,9.016666666666667
2026-02-06T21:58:18+00:00,SAT-59201,168.0942712481367,49.83084030472531,611.9567471259223,-1.7117755667041774,59953.621149448205,10.5,10500059953.62115,47.655,-122.3035,60.0,9.033333333333333
2026-02-06T21:58:19+00:00,SAT-59201,167.11059772073017,50.04643637634529,610.2495605932874,-1.6338561077488023,57224.55209784638,10.5,10500057224.552097,47.655,-122.3035,60.0,9.05
2026-02-06T21:58:20+00:00,SAT-59201,166.11272519495546,50.254263458021725,608.6200846282915,-1.555307447618597,54473.44575958369,10.5,10500054473.445759,47.655,-122.3035,60.0,9.066666666666666
2026-02-06T21:58:21+00:00,SAT-59201,165.10096628635492,50.4539996074033,607.0689467453074,-1.4761535500184988,51701.14144497337,10.5,10500051701.141445,47.655,-122.3035,60.0,9.083333333333334
2026-02-06T21:58:22+00:00,SAT-59201,164.07567710457474,50.64532742933181,605.5967505592474,-1.3964194873703177,48908.51729628347,10.5,10500048908.517296,47.655,-122.3035,60.0,9.1
2026-02-06T21:58:23+00:00,SAT-59201,163.03725808612137,50.82793538611191,604.2040746798169,-1.3161313834789397,46096.48827966468,10.5,10500046096.48828,47.655,-122.3035,60.0,9.116666666666667
2026-02-06T21:58:24+00:00,SAT-59201,161.98615457715616,51.001519141951434,602.8914716629507,-1.235316422780148,43266.00650904819,10.5,10500043266.00651,47.655,-122.3035,60.0,9.133333333333333
2026-02-06T21:58:25+00:00,SAT-59201,160.9228570821671,51.16578294138814,601.6594669530268,-1.1540027654196419,40418.05827185366,10.5,10500040418.058271,47.655,-122.3035,60.0,9.15
2026-02-06T21:58:26+00:00,SAT-59201,159.84790122715492,51.32044099937404,600.5085579097687,-1.0722195558612617,37553.66433048576,10.5,10500037553.664331,47.655,-122.3035,60.0,9.166666666666666
2026-02-06T21:58:27+00:00,SAT-59201,158.7618673288197,51.46521890432203,599.4392128265705,-0.9899968349380334,34673.87684198963,10.5,10500034673.876842,47.655,-122.3035,60.0,9.183333333333334
2026-02-06T21:58:28+00:00,SAT-59201,157.66537963718773,51.599855009321416,598.451870036527,-0.9073655360161251,31779.77922369653,10.5,10500031779.779224,47.655,-122.3035,60.0,9.2
2026-02-06T21:58:29+00:00,SAT-59201,156.55910514481522,51.72410181003789,597.5469370222968,-0.8243573958862649,28872.483032264212,10.5,10500028872.483032,47.655,-122.3035,60.0,9.216666666666667
2026-02-06T21:58:30+00:00,SAT-59201,155.4437520439732,51.83772728441827,596.7247896148276,-0.7410049203073241,25953.12675686759,10.5,10500025953.126757,47.655,-122.3035,60.0,9.233333333333333
2026-02-06T21:58:31+00:00,SAT-59201,154.32006775955566,51.94051618779001,595.985771226453,-0.6573413165121957,23022.873455269026,10.5,10500023022.873455,47.655,-122.3035,60.0,9.25
2026-02-06T21:58:32+00:00,SAT-59201,153.1888365985607,52.032271284899664,595.3301921512971,-0.5734004370816524,20082.908788043464,10.5,10500020082.908789,47.655,-122.3035,60.0,9.266666666666667
2026-02-06T21:58:33+00:00,SAT-59201,152.05087700146723,52.112814506553235,594.7583289216583,-0.489216707654532,17134.4384866833,10.5,10500017134.438486,47.655,-122.3035,60.0,9.283333333333333
2026-02-06T21:58:34+00:00,SAT-59201,150.90703843856113,52.181988015070324,594.270423736485,-0.40482506558141923,14178.68620499086,10.5,10500014178.686205,47.655,-122.3035,60.0,9.3
2026-02-06T21:58:35+00:00,SAT-59201,149.75819794367445,52.23965516715907,593.8666839510385,-0.32026088261895436,11216.890811506075,10.5,10500011216.890812,47.655,-122.3035,60.0,9.316666666666666
2026-02-06T21:58:36+00:00,SAT-59201,148.60525635439367,52.285701359961124,593.54728164365,-0.2355599000419863,8250.30411685959,10.5,10500008250.304117,47.655,-122.3035,60.0,9.333333333333334
2026-02-06T21:58:37+00:00,SAT-59201,147.44913424299637,52.320034751203806,593.3123532471926,-0.1507581461357437,5280.1879839996145,10.5,10500005280.187984,47.655,-122.3035,60.0,9.35
2026-02-06T21:58:38+00:00,SAT-59201,146.29076765207282,52.342586841527215,593.161999262842,-0.0658918664104006,2307.8118840107923,10.5,10500002307.811884,47.655,-122.3035,60.0,9.366666666666667
2026-02-06T21:58:39+00:00,SAT-59201,145.13110360837015,52.35331291309265,593.0962840434324,0.01900255622474887,-665.5498997238387,10.5,10499999334.4501,47.655,-122.3035,60.0,9.383333333333333
2026-02-06T21:58:40+00:00,SAT-59201,143.97109552470627,52.35219231710643,593.1152356564263,0.10388867900749549,-3638.6209875189807,10.5,10499996361.379013,47.655,-122.3035,60.0,9.4
2026-02-06T21:58:41+00:00,SAT-59201,142.81169851171592,52.339228606697205,593.2188458242221,0.18873007625664234,-6610.12559793864,10.5,10499993389.874403,47.655,-122.3035,60.0,9.416666666666666
2026-02-06T21:58:42+00:00,SAT-59201,141.65386467954403,52.31444951338216,593.4070699411891,0.27349041850410977,-9578.791319337168,10.5,10499990421.208681,47.655,-122.3035,60.0,9.433333333333334
2026-02-06T21:58:43+00:00,SAT-59201,140.49853846565233,52.277906767170336,593.6798271696227,0.35813354713564793,-12543.35172409275,10.5,10499987456.648275,47.655,-122.3035,60.0,9.45
2026-02-06T21:58:44+00:00,SAT-59201,139.34665206731142,52.22967576332697,594.0370006101409,0.44262355720524843,-15502.549269118399,10.5,10499984497.450731,47.655,-122.3035,60.0,9.466666666666667
2026-02-06T21:58:45+00:00,SAT-59201,138.19912100681918,52.169855079218145,594.4784375546716,0.5269248640847358,-18455.137630212586,10.5,10499981544.86237,47.655,-122.3035,60.0,9.483333333333333
2026-02-06T21:58:46+00:00,SAT-59201,137.05683991692302,52.09856584989824,595.0039498059111,0.6110022846184611,-21399.88454443988,10.5,10499978600.115456,47.655,-122.3035,60.0,9.5
2026-02-06T21:58:47+00:00,SAT-59201,135.92067855729076,52.01595100873276,595.6133140777231,0.6948211025031056,-24335.574100008245,10.5,10499975664.4259,47.655,-122.3035,60.0,9.516666666666667
2026-02-06T21:58:48+00:00,SAT-59201,134.79147813154623,51.92217440505574,596.3062724607357,0.7783471476272675,-27261.00951507696,10.5,10499972738.990484,47.655,-122.3035,60.0,9.533333333333333
2026-02-06T21:58:49+00:00,SAT-59201,133.67004791264208,51.81741980819061,597.082532967072,0.8615468475457386,-30175.014940603527,10.5,10499969824.98506,47.655,-122.3035,60.0,9.55
2026-02-06T21:58:50+00:00,SAT-59201,132.55716224491715,51.70188981392091,597.9417701264128,0.9443873086377539,-33076.43830284889,10.5,10499966923.561697,47.655,-122.3035,60.0,9.566666666666666
2026-02-06T21:58:51+00:00,SAT-59201,131.4535578967074,51.575804662544655,598.8836256630016,1.0268363613723481,-35964.15288876165,10.5,10499964035.84711,47.655,-122.3035,60.0,9.583333333333334
2026-02-06T21:58:52+00:00,SAT-59201,130.35993182251212,51.43940098704815,599.9077092177926,1.1088626333002765,-38837.05990246393,10.5,10499961162.940098,47.655,-122.3035,60.0,9.6
2026-02-06T21:58:53+00:00,SAT-59201,129.2769393057026,51.292930501629456,601.013599143396,1.1904355825777146,-41694.08963939314,10.5,10499958305.91036,47.655,-122.3035,60.0,9.616666666666667
2026-02-06T21:58:54+00:00,SAT-59201,128.20519251901123,51.13665864979952,602.2008433324571,1.2715255729126667,-44534.20411124219,10.5,10499955465.795889,47.655,-122.3035,60.0,9.633333333333333
2026-02-06T21:58:55+00:00,SAT-59201,127.14525945498427,50.97086322026725,603.4689601207791,1.3521038987976939,-47356.39792971638,10.5,10499952643.60207,47.655,-122.3035,60.0,9.65
2026-02-06T21:58:56+00:00,SAT-59201,126.0976632572385,50.79583295042727,604.8174392156146,1.4321428391250692,-50159.70018436296,10.5,10499949840.299816,47.655,-122.3035,60.0,9.666666666666666
2026-02-06T21:58:57+00:00,SAT-59201,125.06288190639395,50.61186612624604,606.2457426774236,1.5116156816156292,-52943.175298172806,10.5,10499947056.824701,47.655,-122.3035,60.0,9.683333333333334
2026-02-06T21:58:58+00:00,SAT-59201,124.04134826085998,50.41926919407276,607.7533059259998,1.5904967802463392,-55705.92503893664,10.5,10499944294.07496,47.655,-122.3035,60.0,9.7
2026-02-06T21:58:59+00:00,SAT-59201,123.03345040115715,50.21835539085773,609.339538803867,1.668761562479972,-58447.08877245907,10.5,10499941552.911228,47.655,-122.3035,60.0,9.716666666666667
2026-02-06T21:59:00+00:00,SAT-59201,122.03953228393156,50.00944340891179,611.0038266468869,1.7463865592359726,-61165.84451226492,10.5,10499938834.155487,47.655,-122.3035,60.0,9.733333333333333
2026-02-06T21:59:01+00:00,SAT-59201,121.05989465549999,49.79285610076354,612.7455313847589,1.8233494329009878,-63861.40990064657,10.5,10499936138.5901,47.655,-122.3035,60.0,9.75
2026-02-06T21:59:02+00:00,SAT-59201,120.09479619633835,49.568919231737105,614.5639926694525,1.8996289859999893,-66533.04251236329,10.5,10499933466.957487,47.655,-122.3035,60.0,9.766666666666667
2026-02-06T21:59:03+00:00,SAT-59201,119.1444548735575,49.33796028882609,616.45852901229,1.9752051840163543,-69180.04065389703,10.5,10499930819.959347,47.655,-122.3035,60.0,9.783333333333333
2026-02-06T21:59:04+00:00,SAT-59201,118.20904946166276,49.10030734909882,618.4284389437861,2.0500591501998926,-71801.74318160756,10.5,10499928198.256819,47.655,-122.3035,60.0,9.8
2026-02-06T21:59:05+00:00,SAT-59201,117.2887212130179,48.856288014902375,620.4730021683126,2.1241731660889176,-74397.5295200176,10.5,10499925602.47048,47.655,-122.3035,60.0,9.816666666666666
2026-02-06T21:59:06+00:00,SAT-59201,116.38357564322584,48.606228417857395,622.591480719279,2.197530711489479,-76966.82106205465,10.5,10499923033.178938,47.655,-122.3035,60.0,9.833333333333334
2026-02-06T21:59:07+00:00,SAT-59201,115.49368438820858,48.35045228882003,624.7831201541902,2.27011640535454,-79509.07909838969,10.5,10499920490.920902,47.655,-122.3035,60.0,9.85
2026-02-06T21:59:08+00:00,SAT-59201,114.61908714541433,48.08928010636277,627.047150690738,2.3419160393319434,-82023.80599242896,10.5,10499917976.194008,47.655,-122.3035,60.0,9.866666666666667
2026-02-06T21:59:09+00:00,SAT-59201,113.75979363728209,47.82302831278841,629.3827883763531,2.4129165520902958,-84510.54428109764,10.5,10499915489.455719,47.655,-122.3035,60.0,9.883333333333333
2026-02-06T21:59:10+00:00,SAT-59201,112.91578559708853,47.552008603932116,631.7892362321496,2.4831060234893,-86968.87647066043,10.5,10499913031.12353,47.655,-122.3035,60.0,9.9
2026-02-06T21:59:11+00:00,SAT-59201,112.0870187504876,47.276527289034874,634.2656853910587,2.552473647339565,-89398.42408265466,10.5,10499910601.575918,47.655,-122.3035,60.0,9.916666666666666
2026-02-06T21:59:12+00:00,SAT-59201,111.27342478070427,46.996884721144205,636.8113162087911,2.621009726377702,-91798.8474778971,10.5,10499908201.152523,47.655,-122.3035,60.0,9.933333333333334
2026-02-06T21:59:13+00:00,SAT-59201,110.47491325577948,46.71337479313078,639.4252993697918,2.6887056500495,-94169.84507835668,10.5,10499905830.154922,47.655,-122.3035,60.0,9.95
2026-02-06T21:59:14+00:00,SAT-59201,109.69137350952026,46.42628449849061,642.1067969710349,2.755553858395831,-96511.15210228613,10.5,10499903488.847898,47.655,-122.3035,60.0,9.966666666666667
2026-02-06T21:59:15+00:00,SAT-59201,108.92267646916338,46.1358935552796,644.8549635698025,2.8215478452945817,-98822.54067776818,10.5,10499901177.459322,47.655,-122.3035,60.0,9.983333333333333
