DopplerPredictor/satellites_20260211_205933/SAT-60943.csv

timestamp,satellite,azimuth_deg,elevation_deg,distance_km,relative_velocity_kms,doppler_shift_hz,tx_freq_ghz,rx_freq_hz,ue_lat,ue_lon,ue_alt_m,time_minutes
2026-02-06T21:54:05+00:00,SAT-60943,312.58638399060663,40.10133719606824,713.5259676256046,-2.6586172542473476,93116.02218357725,10.5,10500093116.022184,47.655,-122.3035,60.0,4.816666666666666
2026-02-06T21:54:06+00:00,SAT-60943,313.250779794987,40.313396569121956,710.8744777573266,-2.5985399803687224,91011.86192573125,10.5,10500091011.861925,47.655,-122.3035,60.0,4.833333333333333
2026-02-06T21:54:07+00:00,SAT-60943,313.92423907545344,40.522749801639264,708.2829041040468,-2.5377982524166187,88884.42967559409,10.5,10500088884.429676,47.655,-122.3035,60.0,4.85
2026-02-06T21:54:08+00:00,SAT-60943,314.60676385424074,40.729237115639634,705.7519093385287,-2.4763981774471717,86733.93932810446,10.5,10500086733.939327,47.655,-122.3035,60.0,4.866666666666666
2026-02-06T21:54:09+00:00,SAT-60943,315.2983460619374,40.93269633646505,703.2821500428524,-2.4143465281150482,84560.62809027707,10.5,10500084560.62809,47.655,-122.3035,60.0,4.883333333333334
2026-02-06T21:54:10+00:00,SAT-60943,315.9989669975633,41.13296311659164,700.8742760445992,-2.3516507743647623,82364.75759116664,10.5,10500082364.757591,47.655,-122.3035,60.0,4.9
2026-02-06T21:54:11+00:00,SAT-60943,316.7085967973995,41.329871181062266,698.5289297214326,-2.2883191152092746,80146.61499488883,10.5,10500080146.614994,47.655,-122.3035,60.0,4.916666666666667
2026-02-06T21:54:12+00:00,SAT-60943,317.4271939180933,41.523252594934334,696.2467452739832,-2.2243604184501735,77906.51088936608,10.5,10500077906.51089,47.655,-122.3035,60.0,4.933333333333334
2026-02-06T21:54:13+00:00,SAT-60943,318.15470461048125,41.712938045133626,694.028348058853,-2.159784307086219,75644.78231272014,10.5,10500075644.782312,47.655,-122.3035,60.0,4.95
2026-02-06T21:54:14+00:00,SAT-60943,318.8910624314348,41.89875714903488,691.874353835444,-2.094601132754406,73361.79182306603,10.5,10500073361.791822,47.655,-122.3035,60.0,4.966666666666667
2026-02-06T21:54:15+00:00,SAT-60943,319.636187766262,42.08053878024113,689.7853680392716,-2.0288219600001907,71057.92694758852,10.5,10500071057.926947,47.655,-122.3035,60.0,4.983333333333333
2026-02-06T21:54:16+00:00,SAT-60943,320.3899873673892,42.25811141206152,687.7619850709685,-1.962458602461078,68733.60144984475,10.5,10500068733.60145,47.655,-122.3035,60.0,5.0
2026-02-06T21:54:17+00:00,SAT-60943,321.15235393243364,42.43130348276136,685.8047875492014,-1.8955236148565755,66389.25504921822,10.5,10500066389.255049,47.655,-122.3035,60.0,5.016666666666667
2026-02-06T21:54:18+00:00,SAT-60943,321.92316571264416,42.59994377819602,683.9143455715741,-1.828030279767233,64025.352957865085,10.5,10500064025.352959,47.655,-122.3035,60.0,5.033333333333333
2026-02-06T21:54:19+00:00,SAT-60943,322.7022861546227,42.76386183053312,682.0912159887187,-1.7599926139001063,61642.386100157055,10.5,10500061642.3861,47.655,-122.3035,60.0,5.05
2026-02-06T21:54:20+00:00,SAT-60943,323.48956358755646,42.922888333787306,680.3359416721373,-1.691425376538546,59240.871408628744,10.5,10500059240.871408,47.655,-122.3035,60.0,5.066666666666666
2026-02-06T21:54:21+00:00,SAT-60943,324.284830964187,43.07685557524248,678.6490507736165,-1.6223440413785604,56821.350837568054,10.5,10500056821.350838,47.655,-122.3035,60.0,5.083333333333333
2026-02-06T21:54:22+00:00,SAT-60943,325.0879056453848,43.22559787809531,677.0310560127294,-1.5527647950192793,54384.39131014574,10.5,10500054384.39131,47.655,-122.3035,60.0,5.1
2026-02-06T21:54:23+00:00,SAT-60943,325.8985892445486,43.3689520561061,675.4824539658442,-1.4827045393082587,51930.58480055798,10.5,10500051930.5848,47.655,-122.3035,60.0,5.116666666666666
2026-02-06T21:54:24+00:00,SAT-60943,326.7166675403484,43.506757878917014,674.0037243527923,-1.41218085844086,49460.547181707385,10.5,10500049460.547182,47.655,-122.3035,60.0,5.133333333333334
2026-02-06T21:54:25+00:00,SAT-60943,327.54191044609354,43.638858542815,672.5953293563518,-1.3412120189902326,46974.91822625318,10.5,10500046974.918226,47.655,-122.3035,60.0,5.15
2026-02-06T21:54:26+00:00,SAT-60943,328.37407205637203,43.76510114784488,671.2577129416974,-1.2698169523760205,44474.36099259113,10.5,10500044474.360992,47.655,-122.3035,60.0,5.166666666666667
2026-02-06T21:54:27+00:00,SAT-60943,329.21289076825,43.885337177369955,669.9913001933359,-1.1980152201142003,41959.56060775586,10.5,10500041959.560608,47.655,-122.3035,60.0,5.183333333333334
2026-02-06T21:54:28+00:00,SAT-60943,330.0580894695662,43.99942297596487,668.7964966867006,-1.1258270131037937,39431.224242438526,10.5,10500039431.224243,47.655,-122.3035,60.0,5.2
2026-02-06T21:54:29+00:00,SAT-60943,330.90937581875824,44.107220226272055,667.673687860455,-1.053273125064889,36890.08018067397,10.5,10500036890.080181,47.655,-122.3035,60.0,5.216666666666667
2026-02-06T21:54:30+00:00,SAT-60943,331.7664426060903,44.208596419686515,666.6232384152867,-0.9803749056927221,34336.87617909848,10.5,10500034336.876179,47.655,-122.3035,60.0,5.233333333333333
2026-02-06T21:54:31+00:00,SAT-60943,332.6289681810039,44.30342531609226,665.6454917594242,-0.9071542567963489,31772.379331709744,10.5,10500031772.379332,47.655,-122.3035,60.0,5.25
2026-02-06T21:54:32+00:00,SAT-60943,333.49661697879867,44.3915873939013,664.740769458003,-0.8336336012419704,29197.37498213077,10.5,10500029197.374983,47.655,-122.3035,60.0,5.266666666666667
2026-02-06T21:54:33+00:00,SAT-60943,334.36904013047183,44.47297028491926,663.9093707134044,-0.7598358370070721,26612.665114391428,10.5,10500026612.665113,47.655,-122.3035,60.0,5.283333333333333
2026-02-06T21:54:34+00:00,SAT-60943,335.2458761417549,44.547469189663666,663.1515718914192,-0.6857843144519447,24019.067556881026,10.5,10500024019.067556,47.655,-122.3035,60.0,5.3
2026-02-06T21:54:35+00:00,SAT-60943,336.12675165802017,44.61498727251513,662.4676260700759,-0.6115028080646981,21417.414992739177,10.5,10500021417.414993,47.655,-122.3035,60.0,5.316666666666666
2026-02-06T21:54:36+00:00,SAT-60943,337.01128231619225,44.675436033386845,661.8577626166522,-0.537015460547178,18808.553001508026,10.5,10500018808.553001,47.655,-122.3035,60.0,5.333333333333333
2026-02-06T21:54:37+00:00,SAT-60943,337.8990736445221,44.72873565047685,661.3221868204465,-0.4623467657262019,16193.339460611514,10.5,10500016193.33946,47.655,-122.3035,60.0,5.35
2026-02-06T21:54:38+00:00,SAT-60943,338.78972205592356,44.774815295371425,660.8610795425955,-0.38752151754138126,13572.642758693091,10.5,10500013572.64276,47.655,-122.3035,60.0,5.366666666666666
2026-02-06T21:54:39+00:00,SAT-60943,339.68281588778666,44.81361341475904,660.4745969167647,-0.31256477469653093,10947.340557558571,10.5,10500010947.340557,47.655,-122.3035,60.0,5.383333333333334
2026-02-06T21:54:40+00:00,SAT-60943,340.57793650645357,44.84507797812688,660.1628700850949,-0.23750181618955038,8318.318234644445,10.5,10500008318.318235,47.655,-122.3035,60.0,5.4
2026-02-06T21:54:41+00:00,SAT-60943,341.4746594522749,44.86916668858806,659.9260049784993,-0.1623581031587133,5686.467546713566,10.5,10500005686.467546,47.655,-122.3035,60.0,5.416666666666667
2026-02-06T21:54:42+00:00,SAT-60943,342.3725556370122,44.885847155777604,659.7640821350097,-0.08715923256707597,3052.6850076872106,10.5,10500003052.685007,47.655,-122.3035,60.0,5.433333333333334
2026-02-06T21:54:43+00:00,SAT-60943,343.2711925642567,44.895097028625365,659.6771565643172,-0.011930896032355915,417.87044669328236,10.5,10500000417.870447,47.655,-122.3035,60.0,5.45
2026-02-06T21:54:44+00:00,SAT-60943,344.1701355774219,44.89690408743778,659.6652576533706,0.06330116365927367,-2217.0745150045555,10.5,10499997782.925486,47.655,-122.3035,60.0,5.466666666666667
2026-02-06T21:54:45+00:00,SAT-60943,345.068949134829,44.891266294305694,659.7283891153456,0.13851119867590667,-4851.248079419729,10.5,10499995148.75192,47.655,-122.3035,60.0,5.483333333333333
2026-02-06T21:54:46+00:00,SAT-60943,345.9671980706907,44.878191801149725,659.8665289846124,0.21367349664743357,-7483.749690587789,10.5,10499992516.250309,47.655,-122.3035,60.0,5.5
2026-02-06T21:54:47+00:00,SAT-60943,346.8644488633597,44.8576989159139,660.0796296521021,0.28876242849041955,-10113.681709595927,10.5,10499989886.31829,47.655,-122.3035,60.0,5.516666666666667
2026-02-06T21:54:48+00:00,SAT-60943,347.760270906005,44.829816026455724,660.3676179483713,0.3637524884306648,-12740.150816342353,10.5,10499987259.849184,47.655,-122.3035,60.0,5.533333333333333
2026-02-06T21:54:49+00:00,SAT-60943,348.6542377285525,44.79458148350583,660.7303952665782,0.43861833624007956,-15362.2694888503,10.5,10499984637.73051,47.655,-122.3035,60.0,5.55
2026-02-06T21:54:50+00:00,SAT-60943,349.54592820474295,44.752043443451726,661.167837727588,0.5133348456131069,-17979.157697615006,10.5,10499982020.842302,47.655,-122.3035,60.0,5.566666666666666
2026-02-06T21:54:51+00:00,SAT-60943,350.4349277294896,44.702259671616495,661.6797963933201,0.5878771387965639,-20589.9441184872,10.5,10499979410.055882,47.655,-122.3035,60.0,5.583333333333333
2026-02-06T21:54:52+00:00,SAT-60943,351.3208293331769,44.64529730892893,662.2660975146347,0.6622206293579871,-23193.767630601516,10.5,10499976806.232368,47.655,-122.3035,60.0,5.6
2026-02-06T21:54:53+00:00,SAT-60943,352.2032347496135,44.58123260305991,662.9265428218715,0.7363410626954481,-25789.77873520155,10.5,10499974210.221264,47.655,-122.3035,60.0,5.616666666666666
2026-02-06T21:54:54+00:00,SAT-60943,353.0817554268697,44.51015060631949,663.6609098557929,0.8102145531537339,-28377.140855605536,10.5,10499971622.859144,47.655,-122.3035,60.0,5.633333333333334
2026-02-06T21:54:55+00:00,SAT-60943,353.9560134686579,44.43214484297932,664.4689523355394,0.8838176205953328,-30955.03161807691,10.5,10499969044.968382,47.655,-122.3035,60.0,5.65
2026-02-06T21:54:56+00:00,SAT-60943,354.82564250606805,44.34731694855565,665.3504005630607,0.9571272257441961,-33522.64408971242,10.5,10499966477.35591,47.655,-122.3035,60.0,5.666666666666667
2026-02-06T21:54:57+00:00,SAT-60943,355.69028849404293,44.25577628383445,666.3049618627961,1.0301208026979554,-36079.187917157455,10.5,10499963920.812082,47.655,-122.3035,60.0,5.683333333333334
2026-02-06T21:54:58+00:00,SAT-60943,356.5496104289332,44.157639526677045,667.3323210537787,1.1027762940359984,-38623.890556239356,10.5,10499961376.109444,47.655,-122.3035,60.0,5.7
2026-02-06T21:54:59+00:00,SAT-60943,357.40328098818526,44.05303024420862,668.4321409567535,1.1750721778363038,-41155.99821821131,10.5,10499958844.001781,47.655,-122.3035,60.0,5.716666666666667
2026-02-06T21:55:00+00:00,SAT-60943,358.2509870847439,43.942078449058556,669.6040629282409,1.2469874910999261,-43674.77669017685,10.5,10499956325.22331,47.655,-122.3035,60.0,5.733333333333333
2026-02-06T21:55:01+00:00,SAT-60943,359.0924303357667,43.82492014289562,670.8477074179613,1.3185018649692277,-46179.51256858133,10.5,10499953820.48743,47.655,-122.3035,60.0,5.75
2026-02-06T21:55:02+00:00,SAT-60943,359.92732745549984,43.70169684902753,672.1626745613839,1.3895955457717364,-48669.513996256814,10.5,10499951330.486004,47.655,-122.3035,60.0,5.766666666666667
2026-02-06T21:55:03+00:00,SAT-60943,0.7554105636441102,43.57255513824688,673.5485447932616,1.4602494111379518,-51144.11122693584,10.5,10499948855.888773,47.655,-122.3035,60.0,5.783333333333333
2026-02-06T21:55:04+00:00,SAT-60943,1.5764274093647421,43.437646151125485,675.0048794772426,1.5304450010831785,-53602.65771386876,10.5,10499946397.342287,47.655,-122.3035,60.0,5.8
2026-02-06T21:55:05+00:00,SAT-60943,2.3901415248203755,43.29712511800764,676.5312215664792,1.6001645162748772,-56044.5300491389,10.5,10499943955.469952,47.655,-122.3035,60.0,5.816666666666666
2026-02-06T21:55:06+00:00,SAT-60943,3.1963322919296124,43.15115088226863,678.1270962625088,1.669390856492832,-58469.12931070046,10.5,10499941530.87069,47.655,-122.3035,60.0,5.833333333333333
2026-02-06T21:55:07+00:00,SAT-60943,3.994794950815161,42.99988542547571,679.7920117124911,1.7381076239875919,-60875.88118000525,10.5,10499939124.11882,47.655,-122.3035,60.0,5.85
2026-02-06T21:55:08+00:00,SAT-60943,4.785340533806516,42.84349339992526,681.5254597097976,1.8062991224780085,-63264.23590689226,10.5,10499936735.764093,47.655,-122.3035,60.0,5.866666666666666
2026-02-06T21:55:09+00:00,SAT-60943,5.56779573044627,42.68214167092485,683.3269163935975,1.8739503822312467,-65633.66918799568,10.5,10499934366.330812,47.655,-122.3035,60.0,5.883333333333334
2026-02-06T21:55:10+00:00,SAT-60943,6.342002701196052,42.51599886829621,685.1958429734591,1.941047176778386,-67983.68275219602,10.5,10499932016.317247,47.655,-122.3035,60.0,5.9
2026-02-06T21:55:11+00:00,SAT-60943,7.107818839820217,42.34523494956995,687.1316864706208,2.00757599350425,-70313.80333055151,10.5,10499929686.196669,47.655,-122.3035,60.0,5.916666666666667
2026-02-06T21:55:12+00:00,SAT-60943,7.865116471230997,42.17002078036876,689.1338804299321,2.073524055013859,-72623.58340464161,10.5,10499927376.416595,47.655,-122.3035,60.0,5.933333333333334
2026-02-06T21:55:13+00:00,SAT-60943,8.613782513428998,41.99052772869629,691.2018456531009,2.1388793473135896,-74912.60219359052,10.5,10499925087.397806,47.655,-122.3035,60.0,5.95
2026-02-06T21:55:14+00:00,SAT-60943,9.35371810886271,41.806927273701945,693.3349909600494,2.2036305623447423,-77180.4636413495,10.5,10499922819.536358,47.655,-122.3035,60.0,5.966666666666667
2026-02-06T21:55:15+00:00,SAT-60943,10.084838199370026,41.61939063717363,695.5327138929575,2.267767145411873,-79426.79807783778,10.5,10499920573.201921,47.655,-122.3035,60.0,5.983333333333333
2026-02-06T21:55:16+00:00,SAT-60943,10.807071089800019,41.42808842935451,697.7944014676044,2.3312792722702147,-81651.26141644716,10.5,10499918348.738583,47.655,-122.3035,60.0,6.0
2026-02-06T21:55:17+00:00,SAT-60943,11.520357978363977,41.23319031569864,700.1194309018623,2.3941578256372886,-83853.53433137911,10.5,10499916146.465668,47.655,-122.3035,60.0,6.016666666666667
2026-02-06T21:55:18+00:00,SAT-60943,12.22465246094674,41.03486470484804,702.5071703207626,2.4563944235828177,-86033.32325197983,10.5,10499913966.676748,47.655,-122.3035,60.0,6.033333333333333
2026-02-06T21:55:19+00:00,SAT-60943,12.919920029713392,40.83327845368346,704.9569794898784,2.517981384678066,-88190.35914212257,10.5,10499911809.640858,47.655,-122.3035,60.0,6.05
2026-02-06T21:55:20+00:00,SAT-60943,13.606137550708466,40.628596594794004,707.4682105139455,2.5789117203842338,-90324.39723361706,10.5,10499909675.602766,47.655,-122.3035,60.0,6.066666666666666
2026-02-06T21:55:21+00:00,SAT-60943,14.283292733491802,40.420982083936,710.0402085278972,2.639179129899993,-92435.21684574842,10.5,10499907564.783154,47.655,-122.3035,60.0,6.083333333333333
2026-02-06T21:55:22+00:00,SAT-60943,14.951383597317276,40.210595567076396,712.6723123827564,2.698777999035531,-94522.62134584146,10.5,10499905477.378654,47.655,-122.3035,60.0,6.1
