DopplerPredictor/satellites_20260205_234138/SAT-59551.csv

timestamp,satellite,azimuth_deg,elevation_deg,distance_km,relative_velocity_kms,doppler_shift_hz,tx_freq_ghz,rx_freq_hz,ue_lat,ue_lon,ue_alt_m,time_minutes
2026-01-20T23:07:16+00:00,SAT-59551,227.0002560458891,30.02980264063883,887.835033055764,-4.165017355448169,145876.5257937402,10.5,10500145876.525793,47.655,-122.3035,60.0,7.266666666666667
2026-01-20T23:07:17+00:00,SAT-59551,226.61889903440456,30.2288917842139,883.6811815370734,-4.12878097018126,144607.37430193534,10.5,10500144607.374302,47.655,-122.3035,60.0,7.283333333333333
2026-01-20T23:07:18+00:00,SAT-59551,226.2323534862547,30.42830707258636,879.5634692589015,-4.092028611366208,143320.15123390857,10.5,10500143320.151234,47.655,-122.3035,60.0,7.3
2026-01-20T23:07:19+00:00,SAT-59551,225.84054941123472,30.628007068799416,875.4824108115423,-4.054755257220971,142014.68070561066,10.5,10500142014.680706,47.655,-122.3035,60.0,7.316666666666666
2026-01-20T23:07:20+00:00,SAT-59551,225.4434168900302,30.82794851112868,871.4385257936099,-4.016956018425779,140690.79147238148,10.5,10500140690.791471,47.655,-122.3035,60.0,7.333333333333333
2026-01-20T23:07:21+00:00,SAT-59551,225.04088615496354,31.028086273204366,867.4323386799296,-3.978626090118477,139348.31524762377,10.5,10500139348.315248,47.655,-122.3035,60.0,7.35
2026-01-20T23:07:22+00:00,SAT-59551,224.6328876818437,31.22837332224232,863.4643787373084,-3.939760819075839,137987.08905577706,10.5,10500137987.089056,47.655,-122.3035,60.0,7.366666666666666
2026-01-20T23:07:23+00:00,SAT-59551,224.21935228178486,31.42876068120713,859.5351798733013,-3.9003556560112975,136606.95356158234,10.5,10500136606.953562,47.655,-122.3035,60.0,7.383333333333334
2026-01-20T23:07:24+00:00,SAT-59551,223.80021120483374,31.629197389375797,855.6452805325547,-3.8604062228430447,135207.75542609536,10.5,10500135207.755426,47.655,-122.3035,60.0,7.4
2026-01-20T23:07:25+00:00,SAT-59551,223.37539624373613,31.829630467262792,851.795223526059,-3.8199082633853987,133789.34557968995,10.5,10500133789.34558,47.655,-122.3035,60.0,7.416666666666667
2026-01-20T23:07:26+00:00,SAT-59551,222.94483985044317,32.03000488017132,847.9855559095804,-3.778857723139823,132351.5820166768,10.5,10500132351.582016,47.655,-122.3035,60.0,7.433333333333334
2026-01-20T23:07:27+00:00,SAT-59551,222.5084752514741,32.230263507233886,844.2168287825139,-3.737250691526723,130894.32777201684,10.5,10500130894.327772,47.655,-122.3035,60.0,7.45
2026-01-20T23:07:28+00:00,SAT-59551,222.06623657760406,32.43034710901849,840.4895971443507,-3.695083449305659,129417.45258217742,10.5,10500129417.452581,47.655,-122.3035,60.0,7.466666666666667
2026-01-20T23:07:29+00:00,SAT-59551,221.61805899640999,32.63019429939267,836.804419703851,-3.6523524897289725,127920.83362602208,10.5,10500127920.833626,47.655,-122.3035,60.0,7.483333333333333
2026-01-20T23:07:30+00:00,SAT-59551,221.1638788504948,32.82974152058086,833.1618586671225,-3.609054503856781,126404.3550104793,10.5,10500126404.355011,47.655,-122.3035,60.0,7.5
2026-01-20T23:07:31+00:00,SAT-59551,220.70363380591567,33.02892301972906,829.5624795403409,-3.5651864067554495,124867.90868812389,10.5,10500124867.908688,47.655,-122.3035,60.0,7.516666666666667
2026-01-20T23:07:32+00:00,SAT-59551,220.23726300613868,33.22767082942011,826.0068509063459,-3.520745345210589,123311.39472731893,10.5,10500123311.394728,47.655,-122.3035,60.0,7.533333333333333
2026-01-20T23:07:33+00:00,SAT-59551,219.7647072337905,33.42591475144334,822.4955441935434,-3.475728726125104,121734.72230683533,10.5,10500121734.722307,47.655,-122.3035,60.0,7.55
2026-01-20T23:07:34+00:00,SAT-59551,219.28590907753667,33.62358234525901,819.0291334164825,-3.430134183131448,120137.80854647185,10.5,10500120137.808546,47.655,-122.3035,60.0,7.566666666666666
2026-01-20T23:07:35+00:00,SAT-59551,218.80081311256322,33.820598917965356,815.6081949497374,-3.3839596625388206,118520.5815172896,10.5,10500118520.581518,47.655,-122.3035,60.0,7.583333333333333
2026-01-20T23:07:36+00:00,SAT-59551,218.3093660782774,34.016887522847576,812.2333072160675,-3.3372033651632242,116882.9782042544,10.5,10500116882.978205,47.655,-122.3035,60.0,7.6
2026-01-20T23:07:37+00:00,SAT-59551,217.8115170730901,34.21236895863197,808.9050504325921,-3.28986378966629,115224.94602414596,10.5,10500115224.946024,47.655,-122.3035,60.0,7.616666666666666
2026-01-20T23:07:38+00:00,SAT-59551,217.30721775231086,34.406961775529474,805.624006313745,-3.241939770683698,113546.44416097629,10.5,10500113546.44416,47.655,-122.3035,60.0,7.633333333333334
2026-01-20T23:07:39+00:00,SAT-59551,216.79642252905154,34.60058228819957,802.3907577361988,-3.193430436684234,111847.44209003569,10.5,10500111847.442091,47.655,-122.3035,60.0,7.65
2026-01-20T23:07:40+00:00,SAT-59551,216.27908879038893,34.79314459121984,799.2058884458219,-3.144335267277154,110127.92158503906,10.5,10500110127.921585,47.655,-122.3035,60.0,7.666666666666667
2026-01-20T23:07:41+00:00,SAT-59551,215.7551771133931,34.984560583251195,796.0699827074777,-3.0946540849245228,108387.87642785694,10.5,10500108387.876429,47.655,-122.3035,60.0,7.683333333333334
2026-01-20T23:07:42+00:00,SAT-59551,215.22465149077718,35.17473999637958,792.9836249630927,-3.044387082962796,106627.31338994979,10.5,10500106627.31339,47.655,-122.3035,60.0,7.7
2026-01-20T23:07:43+00:00,SAT-59551,214.68747955995892,35.36359043314159,789.9473994617741,-2.9935348253123752,104846.25222219547,10.5,10500104846.252222,47.655,-122.3035,60.0,7.716666666666667
2026-01-20T23:07:44+00:00,SAT-59551,214.1436328398075,35.55101740986507,786.9618898902205,-2.9420982464684577,103044.72565456868,10.5,10500103044.725655,47.655,-122.3035,60.0,7.733333333333333
2026-01-20T23:07:45+00:00,SAT-59551,213.59308697494362,35.73692440661132,784.0276790031412,-2.8900787083417336,101222.7813869427,10.5,10500101222.781387,47.655,-122.3035,60.0,7.75
2026-01-20T23:07:46+00:00,SAT-59551,213.03582197640225,35.92121292763883,781.1453481969858,-2.837477979063464,99380.48134675347,10.5,10500099380.481346,47.655,-122.3035,60.0,7.766666666666667
2026-01-20T23:07:47+00:00,SAT-59551,212.47182247191662,36.103782567848874,778.3154771048122,-2.7842982208523663,97517.90126404664,10.5,10500097517.901264,47.655,-122.3035,60.0,7.783333333333333
2026-01-20T23:07:48+00:00,SAT-59551,211.90107796453597,36.28453108594914,775.5386432032565,-2.7305420712524016,95635.1335167685,10.5,10500095635.133516,47.655,-122.3035,60.0,7.8
2026-01-20T23:07:49+00:00,SAT-59551,211.32358307968218,36.463354490692765,772.8154213384827,-2.676212590977483,93732.28530406718,10.5,10500093732.285303,47.655,-122.3035,60.0,7.816666666666666
2026-01-20T23:07:50+00:00,SAT-59551,210.73933782619878,36.64014713185951,770.1463833041443,-2.621313308024319,91809.48019131072,10.5,10500091809.480192,47.655,-122.3035,60.0,7.833333333333333
2026-01-20T23:07:51+00:00,SAT-59551,210.14834785111248,36.81480180243039,767.5320973753576,-2.565848196865891,89866.85738135499,10.5,10500089866.857382,47.655,-122.3035,60.0,7.85
2026-01-20T23:07:52+00:00,SAT-59551,209.55062470077252,36.98720984790709,764.9731278634204,-2.509821746947031,87904.57411354833,10.5,10500087904.574114,47.655,-122.3035,60.0,7.866666666666666
2026-01-20T23:07:53+00:00,SAT-59551,208.94618606682116,37.157261288917944,762.4700346022214,-2.4532388955512565,85922.80331244422,10.5,10500085922.803312,47.655,-122.3035,60.0,7.883333333333334
2026-01-20T23:07:54+00:00,SAT-59551,208.3350560467457,37.32484494818667,760.0233725016021,-2.3961050903400087,83921.73577818989,10.5,10500083921.735779,47.655,-122.3035,60.0,7.9
2026-01-20T23:07:55+00:00,SAT-59551,207.71726538788116,37.48984859063501,757.6336910383471,-2.33842629041534,81901.5802237462,10.5,10500081901.580223,47.655,-122.3035,60.0,7.916666666666667
2026-01-20T23:07:56+00:00,SAT-59551,207.09285172680174,37.65215907262006,755.3015337461134,-2.2802089452970216,79862.56253857703,10.5,10500079862.562538,47.655,-122.3035,60.0,7.933333333333334
2026-01-20T23:07:57+00:00,SAT-59551,206.46185982898538,37.81166249873435,753.0274377263299,-2.2214600314223807,77804.92706702782,10.5,10500077804.927067,47.655,-122.3035,60.0,7.95
2026-01-20T23:07:58+00:00,SAT-59551,205.82434181205474,37.968244390117825,750.8119331226902,-2.162187035570456,75728.93602776957,10.5,10500075728.936028,47.655,-122.3035,60.0,7.966666666666667
2026-01-20T23:07:59+00:00,SAT-59551,205.18035736475085,38.12178986051135,748.6555426121804,-2.1023979785164544,73634.87034227782,10.5,10500073634.870342,47.655,-122.3035,60.0,7.983333333333333
2026-01-20T23:08:00+00:00,SAT-59551,204.529973948618,38.27218380273029,746.5587808725134,-2.042101408235833,71523.02939681106,10.5,10500071523.029396,47.655,-122.3035,60.0,8.0
2026-01-20T23:08:01+00:00,SAT-59551,203.87326698885116,38.41931108320874,744.5221540563431,-1.9813063951426646,69393.73087563789,10.5,10500069393.730875,47.655,-122.3035,60.0,8.016666666666667
2026-01-20T23:08:02+00:00,SAT-59551,203.21032005230524,38.56305674447287,742.5461592702255,-1.9200225398279163,67247.31103206446,10.5,10500067247.311031,47.655,-122.3035,60.0,8.033333333333333
2026-01-20T23:08:03+00:00,SAT-59551,202.54122500682064,38.703306216089075,740.6312840458638,-1.8582599875761132,65084.12519686932,10.5,10500065084.125196,47.655,-122.3035,60.0,8.05
2026-01-20T23:08:04+00:00,SAT-59551,201.86608215659837,38.83994553422023,738.7780057968746,-1.796029404706818,62904.546949682066,10.5,10500062904.54695,47.655,-122.3035,60.0,8.066666666666666
2026-01-20T23:08:05+00:00,SAT-59551,201.18500036463848,38.972861566524706,736.9867912991496,-1.7333419781854635,60708.968105352964,10.5,10500060708.968105,47.655,-122.3035,60.0,8.083333333333334
2026-01-20T23:08:06+00:00,SAT-59551,200.49809715304744,39.101942243527255,735.2580961716066,-1.6702094325770522,58497.799307743255,10.5,10500058497.799307,47.655,-122.3035,60.0,8.1
2026-01-20T23:08:07+00:00,SAT-59551,199.80549877164208,39.2270767971606,733.5923643400295,-1.6066440096340218,56271.46931480587,10.5,10500056271.469315,47.655,-122.3035,60.0,8.116666666666667
2026-01-20T23:08:08+00:00,SAT-59551,199.10734024661392,39.348156003030475,731.9900275212684,-1.5426584583360243,54030.42464973637,10.5,10500054030.42465,47.655,-122.3035,60.0,8.133333333333333
2026-01-20T23:08:09+00:00,SAT-59551,198.40376540420445,39.46507242642323,730.4515047173721,-1.4782660387321953,51775.129735545415,10.5,10500051775.129736,47.655,-122.3035,60.0,8.15
2026-01-20T23:08:10+00:00,SAT-59551,197.6949268613551,39.57772067225436,728.9772017058891,-1.4134805117117069,49506.06653678033,10.5,10500049506.066536,47.655,-122.3035,60.0,8.166666666666666
2026-01-20T23:08:11+00:00,SAT-59551,196.9809859867769,39.685997637064474,727.5675105403689,-1.3483161231005543,47223.73400252724,10.5,10500047223.734003,47.655,-122.3035,60.0,8.183333333333334
2026-01-20T23:08:12+00:00,SAT-59551,196.2621128338238,39.789802761661626,726.2228090667268,-1.282787594306881,44928.64773877084,10.5,10500044928.64774,47.655,-122.3035,60.0,8.2
2026-01-20T23:08:13+00:00,SAT-59551,195.53848604075054,39.88903828392784,724.9434604489358,-1.2169101134539435,42621.339697833246,10.5,10500042621.339697,47.655,-122.3035,60.0,8.216666666666667
2026-01-20T23:08:14+00:00,SAT-59551,194.81029269614112,39.98360949078553,723.7298127035624,-1.1506993229100468,40302.35774161968,10.5,10500040302.357742,47.655,-122.3035,60.0,8.233333333333333
2026-01-20T23:08:15+00:00,SAT-59551,194.0777281694857,40.07342496797859,722.5821982467404,-1.0841712931543621,37972.26472628875,10.5,10500037972.264727,47.655,-122.3035,60.0,8.25
2026-01-20T23:08:16+00:00,SAT-59551,193.3409959145284,40.15839684548084,721.5009334672075,-1.0173425216815846,35631.63846388903,10.5,10500035631.638464,47.655,-122.3035,60.0,8.266666666666667
2026-01-20T23:08:17+00:00,SAT-59551,192.60030722896317,40.23844103934277,720.4863183004333,-0.9502299041419118,33281.070711558976,10.5,10500033281.070711,47.655,-122.3035,60.0,8.283333333333333
2026-01-20T23:08:18+00:00,SAT-59551,191.8558809867155,40.31347748665821,719.5386358315325,-0.8828507173330884,30921.166575836367,10.5,10500030921.166576,47.655,-122.3035,60.0,8.3
2026-01-20T23:08:19+00:00,SAT-59551,191.10794333582803,40.38343037340106,718.6581519151393,-0.8152226052249973,28552.544023180435,10.5,10500028552.544024,47.655,-122.3035,60.0,8.316666666666666
2026-01-20T23:08:20+00:00,SAT-59551,190.35672735805534,40.44822835421911,717.8451148092183,-0.747363554432847,26175.833020939084,10.5,10500026175.833021,47.655,-122.3035,60.0,8.333333333333334
2026-01-20T23:08:21+00:00,SAT-59551,189.60247269758682,40.5078047622025,717.0997548333387,-0.6792918629744876,23791.674443097963,10.5,10500023791.674442,47.655,-122.3035,60.0,8.35
2026-01-20T23:08:22+00:00,SAT-59551,188.8454251679638,40.56209780695973,716.4222840581066,-0.6110261357210827,21400.71991094375,10.5,10500021400.719912,47.655,-122.3035,60.0,8.366666666666667
2026-01-20T23:08:23+00:00,SAT-59551,188.0858363105576,40.61105076203544,715.8128959991338,-0.5425852463028605,19003.630458842417,10.5,10500019003.630459,47.655,-122.3035,60.0,8.383333333333333
2026-01-20T23:08:24+00:00,SAT-59551,187.3239629370383,40.65461213796282,715.2717653489996,-0.47398831235461875,16601.075667232086,10.5,10500016601.075666,47.655,-122.3035,60.0,8.4
2026-01-20T23:08:25+00:00,SAT-59551,186.56006664742287,40.69273584100732,714.7990477338998,-0.405254678080991,14193.733051984937,10.5,10500014193.733051,47.655,-122.3035,60.0,8.416666666666666
2026-01-20T23:08:26+00:00,SAT-59551,185.79441331202955,40.72538131727917,714.3948794876857,-0.33640388035856983,11782.286877160142,10.5,10500011782.286877,47.655,-122.3035,60.0,8.433333333333334
2026-01-20T23:08:27+00:00,SAT-59551,185.02727254078883,40.752513680045105,714.0593774597065,-0.2674556243934497,9367.427302428076,10.5,10500009367.427303,47.655,-122.3035,60.0,8.45
2026-01-20T23:08:28+00:00,SAT-59551,184.25891712921384,40.77410382024297,713.7926388469333,-0.19842975564996324,6949.84939989589,10.5,10500006949.8494,47.655,-122.3035,60.0,8.466666666666667
2026-01-20T23:08:29+00:00,SAT-59551,183.48962248773984,40.79012849924073,713.5947410540751,-0.1293462314532654,4530.252159509919,10.5,10500004530.25216,47.655,-122.3035,60.0,8.483333333333333
2026-01-20T23:08:30+00:00,SAT-59551,182.71966605742597,40.800570423239826,713.4657415820186,-0.06022509243691213,2109.3374890290847,10.5,10500002109.337488,47.655,-122.3035,60.0,8.5
2026-01-20T23:08:31+00:00,SAT-59551,181.94932671518518,40.805418298865746,713.4056779447433,0.00891356615745359,-312.1907911814869,10.5,10499999687.809208,47.655,-122.3035,60.0,8.516666666666667
2026-01-20T23:08:32+00:00,SAT-59551,181.1788841673634,40.804666869580274,713.4145676148598,0.07804962397577947,-2733.627981213872,10.5,10499997266.372019,47.655,-122.3035,60.0,8.533333333333333
2026-01-20T23:08:33+00:00,SAT-59551,180.40861834853683,40.79831693263503,713.4924079985648,0.14716296402410822,-5154.269498844885,10.5,10499994845.730501,47.655,-122.3035,60.0,8.55
2026-01-20T23:08:34+00:00,SAT-59551,179.63880880691792,40.786375336536544,713.6391764389912,0.21623350245800632,-7573.411922887888,10.5,10499992426.588078,47.655,-122.3035,60.0,8.566666666666666
2026-01-20T23:08:35+00:00,SAT-59551,178.86973409928783,40.768854958937574,713.8548302492691,0.28524121871161073,-9990.354048439445,10.5,10499990009.645952,47.655,-122.3035,60.0,8.583333333333334
2026-01-20T23:08:36+00:00,SAT-59551,178.10167118645444,40.74577466506127,714.1393067756367,0.354166178875992,-12404.3977056885,10.5,10499987595.602295,47.655,-122.3035,60.0,8.6
2026-01-20T23:08:37+00:00,SAT-59551,177.33489485158032,40.717159247461176,714.492523483862,0.4229885732601535,-14814.849075461436,10.5,10499985185.150925,47.655,-122.3035,60.0,8.616666666666667
2026-01-20T23:08:38+00:00,SAT-59551,176.56967710464582,40.68303934634353,714.9143780831297,0.4916887376015822,-17221.019432105306,10.5,10499982778.980568,47.655,-122.3035,60.0,8.633333333333333
2026-01-20T23:08:39+00:00,SAT-59551,175.80628662337065,40.64345135225732,715.4047486710786,0.5602471798202094,-19622.226080524677,10.5,10499980377.77392,47.655,-122.3035,60.0,8.65
2026-01-20T23:08:40+00:00,SAT-59551,175.044988207952,40.598437291298914,715.9634939055242,0.6286446142886847,-22017.79355647162,10.5,10499977982.206444,47.655,-122.3035,60.0,8.666666666666666
2026-01-20T23:08:41+00:00,SAT-59551,174.28604224548536,40.54804469290521,716.5904532103548,0.6968619827123314,-24407.054357850055,10.5,10499975592.945642,47.655,-122.3035,60.0,8.683333333333334
2026-01-20T23:08:42+00:00,SAT-59551,173.52970420744995,40.49232644211851,717.2854470022585,0.7648804798763235,-26789.349846490786,10.5,10499973210.650154,47.655,-122.3035,60.0,8.7
2026-01-20T23:08:43+00:00,SAT-59551,172.7762241705139,40.43134061677259,718.0482769431218,0.8326815760046855,-29164.03103125829,10.5,10499970835.96897,47.655,-122.3035,60.0,8.716666666666667
2026-01-20T23:08:44+00:00,SAT-59551,172.02584636647836,40.36515031083578,718.8787262147313,0.9002470514014427,-31530.459781330283,10.5,10499968469.540218,47.655,-122.3035,60.0,8.733333333333333
2026-01-20T23:08:45+00:00,SAT-59551,171.27880875103406,40.29382344391105,719.776559828022,0.9675590085777606,-33888.00925094148,10.5,10499966111.99075,47.655,-122.3035,60.0,8.75
2026-01-20T23:08:46+00:00,SAT-59551,170.5353426144753,40.217432559776235,720.7415249444208,1.034599892170729,-36236.064577023666,10.5,10499963763.935423,47.655,-122.3035,60.0,8.766666666666667
2026-01-20T23:08:47+00:00,SAT-59551,169.7956722239735,40.13605461441087,721.7733512170554,1.101352524946414,-38574.024140184825,10.5,10499961425.97586,47.655,-122.3035,60.0,8.783333333333333
2026-01-20T23:08:48+00:00,SAT-59551,169.06001448742876,40.049770753396054,722.8717511678691,1.1678001113593004,-40901.299689375955,10.5,10499959098.70031,47.655,-122.3035,60.0,8.8
2026-01-20T23:08:49+00:00,SAT-59551,168.32857866350503,39.958666082395766,724.0364205682864,1.2339262637733845,-43217.31726026456,10.5,10499956782.68274,47.655,-122.3035,60.0,8.816666666666666
2026-01-20T23:08:50+00:00,SAT-59551,167.601566099632,39.86282943009123,725.2670388460284,1.2997150185073056,-45521.51773720308,10.5,10499954478.482264,47.655,-122.3035,60.0,8.833333333333334
2026-01-20T23:08:51+00:00,SAT-59551,166.8791700052885,39.76235310554213,726.5632695079319,1.3651508515309683,-47813.357402991,10.5,10499952186.642597,47.655,-122.3035,60.0,8.85
2026-01-20T23:08:52+00:00,SAT-59551,166.16157525977576,39.65733265114545,727.9247605784208,1.4302186947428062,-50092.30850897344,10.5,10499949907.69149,47.655,-122.3035,60.0,8.866666666666667
2026-01-20T23:08:53+00:00,SAT-59551,165.44895825318113,39.547866592298654,729.351145054213,1.494903942904439,-52357.85951792226,10.5,10499947642.140482,47.655,-122.3035,60.0,8.883333333333333
2026-01-20T23:08:54+00:00,SAT-59551,164.74148676402567,39.434056185565694,730.8420413659434,1.5591924786342866,-54609.51597941803,10.5,10499945390.48402,47.655,-122.3035,60.0,8.9
2026-01-20T23:08:55+00:00,SAT-59551,164.03931986323636,39.31600516506416,732.397053864711,1.6230706688286851,-56846.80040450248,10.5,10499943153.199596,47.655,-122.3035,60.0,8.916666666666666
2026-01-20T23:08:56+00:00,SAT-59551,163.3426078571265,39.193819490255095,734.0157733050603,1.6865253879529634,-59069.25308143048,10.5,10499940930.746918,47.655,-122.3035,60.0,8.933333333333334
2026-01-20T23:08:57+00:00,SAT-59551,162.65149225465632,39.06760709408949,735.6977773511887,1.74954401223732,-61276.43187238506,10.5,10499938723.568127,47.655,-122.3035,60.0,8.95
2026-01-20T23:08:58+00:00,SAT-59551,161.96610577049424,38.93747763462835,737.4426310773664,1.812114431509575,-63467.91262791053,10.5,10499936532.087372,47.655,-122.3035,60.0,8.966666666666667
2026-01-20T23:08:59+00:00,SAT-59551,161.28657235358463,38.8035422496476,739.2498874801568,1.874225070425165,-65643.28993047662,10.5,10499934356.71007,47.655,-122.3035,60.0,8.983333333333333
2026-01-20T23:09:00+00:00,SAT-59551,160.61300723676547,38.66591331436965,741.1190880118114,1.9358648627559196,-67802.17619396267,10.5,10499932197.823807,47.655,-122.3035,60.0,9.0
2026-01-20T23:09:01+00:00,SAT-59551,159.9455170229113,38.52470420650957,743.0497630880195,1.9970232846215383,-69944.20282756463,10.5,10499930055.797173,47.655,-122.3035,60.0,9.016666666666667
2026-01-20T23:09:02+00:00,SAT-59551,159.28419978328486,38.38002907495075,745.041432628804,2.057690329955408,-72069.01937650406,10.5,10499927930.980623,47.655,-122.3035,60.0,9.033333333333333
2026-01-20T23:09:03+00:00,SAT-59551,158.62914518703232,38.232002616886156,747.0936065749464,2.1178565392789896,-74176.294529829,10.5,10499925823.705471,47.655,-122.3035,60.0,9.05
2026-01-20T23:09:04+00:00,SAT-59551,157.98043464126556,38.08073986006942,749.2057854331076,2.1775129628308543,-76265.71482903672,10.5,10499923734.285172,47.655,-122.3035,60.0,9.066666666666666
2026-01-20T23:09:05+00:00,SAT-59551,157.338141461115,37.92635595535972,751.377460784182,2.236651203302122,-78336.98616484967,10.5,10499921663.013836,47.655,-122.3035,60.0,9.083333333333334
2026-01-20T23:09:06+00:00,SAT-59551,156.70233104245122,37.76896597424424,753.608115834266,2.2952633804661446,-80389.83253839734,10.5,10499919610.167461,47.655,-122.3035,60.0,9.1
2026-01-20T23:09:07+00:00,SAT-59551,156.07306105972515,37.60868471724824,755.8972259303555,2.353342122324937,-82423.99575112673,10.5,10499917576.00425,47.655,-122.3035,60.0,9.116666666666667
2026-01-20T23:09:08+00:00,SAT-59551,155.45038167766256,37.445626531535815,758.2442590672116,2.4108806099548694,-84439.23697548831,10.5,10499915560.763025,47.655,-122.3035,60.0,9.133333333333333
2026-01-20T23:09:09+00:00,SAT-59551,154.8343357609588,37.279905134195765,760.6486764389527,2.4678725035927074,-86435.33416615646,10.5,10499913564.665834,47.655,-122.3035,60.0,9.15
2026-01-20T23:09:10+00:00,SAT-59551,154.22495911235305,37.1116334495952,763.1099329169299,2.524311986541231,-88412.08359778993,10.5,10499911587.916403,47.655,-122.3035,60.0,9.166666666666666
2026-01-20T23:09:11+00:00,SAT-59551,153.62228070518557,36.94092345268521,765.62747757139,2.580193741966329,-90369.29905236792,10.5,10499909630.700947,47.655,-122.3035,60.0,9.183333333333334
2026-01-20T23:09:12+00:00,SAT-59551,153.02632292713292,36.767886022939,768.2007541700011,2.635512950222748,-92306.81172552664,10.5,10499907693.188274,47.655,-122.3035,60.0,9.2
2026-01-20T23:09:13+00:00,SAT-59551,152.43710182799518,36.59263080749666,770.8292016737049,2.690265257209918,-94224.46911824626,10.5,10499905775.530882,47.655,-122.3035,60.0,9.216666666666667
2026-01-20T23:09:14+00:00,SAT-59551,151.85462737650494,36.41526609533829,773.512254701017,2.7444467961984627,-96122.13580130778,10.5,10499903877.864199,47.655,-122.3035,60.0,9.233333333333333
2026-01-20T23:09:15+00:00,SAT-59551,151.27890371251328,36.23589869881974,776.2493440140885,2.7980541652433923,-97999.69262420744,10.5,10499902000.307375,47.655,-122.3035,60.0,9.25
2026-01-20T23:09:16+00:00,SAT-59551,150.70992940368455,36.05463384538687,779.0398969822463,2.8510844244464484,-99857.03661927248,10.5,10499900142.96338,47.655,-122.3035,60.0,9.266666666666667
2026-01-20T23:09:17+00:00,SAT-59551,150.14769770096544,35.871575077976495,781.8833380428006,2.903535043259939,-101694.07915601853,10.5,10499898305.920843,47.655,-122.3035,60.0,9.283333333333333
2026-01-20T23:09:18+00:00,SAT-59551,149.5921968015344,35.68682416706779,784.7790891092972,2.9554039717681206,-103510.74843772511,10.5,10499896489.251562,47.655,-122.3035,60.0,9.3
2026-01-20T23:09:19+00:00,SAT-59551,149.04341009364867,35.50048102618965,787.726570050863,3.0066895447574136,-105306.98614156878,10.5,10499894693.013859,47.655,-122.3035,60.0,9.316666666666666
2026-01-20T23:09:20+00:00,SAT-59551,148.5013164156614,35.3126436413578,790.725199075874,3.057390522223293,-107082.74883734592,10.5,10499892917.251163,47.655,-122.3035,60.0,9.333333333333334
2026-01-20T23:09:21+00:00,SAT-59551,147.96589030142368,35.123408005390075,793.7743931560271,3.107506045712691,-108838.00645839883,10.5,10499891161.993542,47.655,-122.3035,60.0,9.35
2026-01-20T23:09:22+00:00,SAT-59551,147.43710222746518,34.932868062159464,796.8735684068671,3.157035666761049,-110572.74329760163,10.5,10499889427.256702,47.655,-122.3035,60.0,9.366666666666667
2026-01-20T23:09:23+00:00,SAT-59551,146.91491884839897,34.741115655973836,800.0221404966768,3.2059792850701787,-112286.95584208753,10.5,10499887713.044157,47.655,-122.3035,60.0,9.383333333333333
2026-01-20T23:09:24+00:00,SAT-59551,146.39930323571932,34.548240491330034,803.2195249937085,3.2543371580612708,-113980.6531078355,10.5,10499886019.346891,47.655,-122.3035,60.0,9.4
2026-01-20T23:09:25+00:00,SAT-59551,145.89021510683014,34.35433009826998,806.4651377229475,3.302109913828652,-115653.85709336573,10.5,10499884346.142906,47.655,-122.3035,60.0,9.416666666666666
2026-01-20T23:09:26+00:00,SAT-59551,145.38761104409818,34.15946980290018,809.7583951357885,3.3492984830300805,-117306.60039424957,10.5,10499882693.399605,47.655,-122.3035,60.0,9.433333333333334
2026-01-20T23:09:27+00:00,SAT-59551,144.8914447162444,33.963742707542934,813.0987146117888,3.3959041442834743,-118938.92779309503,10.5,10499881061.072206,47.655,-122.3035,60.0,9.45
2026-01-20T23:09:28+00:00,SAT-59551,144.40166708394818,33.76722967342637,816.4855148056963,3.4419284478161654,-120550.8935854208,10.5,10499879449.106415,47.655,-122.3035,60.0,9.466666666666667
2026-01-20T23:09:29+00:00,SAT-59551,143.91822660808546,33.570009312742236,819.9182159183301,3.487373276371103,-122142.56371284893,10.5,10499877857.436287,47.655,-122.3035,60.0,9.483333333333333
2026-01-20T23:09:30+00:00,SAT-59551,143.44106944000436,33.37215798174598,823.3962400282046,3.5322407723358915,-123714.01321085556,10.5,10499876285.98679,47.655,-122.3035,60.0,9.5
2026-01-20T23:09:31+00:00,SAT-59551,142.97013961346275,33.17374978232199,826.9190113504791,3.5765333471700016,-125265.32653895188,10.5,10499874734.673462,47.655,-122.3035,60.0,9.516666666666667
2026-01-20T23:09:32+00:00,SAT-59551,142.50537922590996,32.9748565669189,830.4859565053071,3.6202536575250623,-126796.59674431555,10.5,10499873203.403255,47.655,-122.3035,60.0,9.533333333333333
2026-01-20T23:09:33+00:00,SAT-59551,142.04672861392368,32.7755479484296,834.0965047623713,3.6634046404796035,-128307.9266958605,10.5,10499871692.073303,47.655,-122.3035,60.0,9.55
2026-01-20T23:09:34+00:00,SAT-59551,141.59412651524582,32.57589131147608,837.7500883205596,3.7059894267476943,-129799.42604443635,10.5,10499870200.573956,47.655,-122.3035,60.0,9.566666666666666
2026-01-20T23:09:35+00:00,SAT-59551,141.1475102331727,32.37595183152653,841.4461425010807,3.7480113746846975,-131271.21241385373,10.5,10499868728.787586,47.655,-122.3035,60.0,9.583333333333334
2026-01-20T23:09:36+00:00,SAT-59551,140.70681578760804,32.17579249484758,845.1841059744955,3.789474051967977,-132723.41075926519,10.5,10499867276.589241,47.655,-122.3035,60.0,9.6
2026-01-20T23:09:37+00:00,SAT-59551,140.27197805989218,31.975474121961415,848.9634209694777,3.8303812281075156,-134156.15310485533,10.5,10499865843.846895,47.655,-122.3035,60.0,9.616666666666667
2026-01-20T23:09:38+00:00,SAT-59551,139.8429309301386,31.77505539372851,852.7835334741051,3.870736852844669,-135569.57778727383,10.5,10499864430.422213,47.655,-122.3035,60.0,9.633333333333333
2026-01-20T23:09:39+00:00,SAT-59551,139.41960740889763,31.57459288056688,856.6438934156092,3.9105450212039297,-136963.82823160035,10.5,10499863036.171768,47.655,-122.3035,60.0,9.65
2026-01-20T23:09:40+00:00,SAT-59551,139.00193976451536,31.37414107519416,860.5439548052664,3.9498100391416986,-138339.0552506422,10.5,10499861660.94475,47.655,-122.3035,60.0,9.666666666666666
2026-01-20T23:09:41+00:00,SAT-59551,138.58985963550745,31.173752423502602,864.483175948767,3.9885363374003777,-139695.4140277404,10.5,10499860304.585972,47.655,-122.3035,60.0,9.683333333333334
2026-01-20T23:09:42+00:00,SAT-59551,138.18329814490403,30.973477361215235,868.4610195706649,4.026728458738704,-141033.06366952162,10.5,10499858966.93633,47.655,-122.3035,60.0,9.7
2026-01-20T23:09:43+00:00,SAT-59551,137.78218600820486,30.773364352205054,872.476952926094,4.064391124017219,-142352.1695204914,10.5,10499857647.830479,47.655,-122.3035,60.0,9.716666666666667
2026-01-20T23:09:44+00:00,SAT-59551,137.38645362746504,30.573459924426476,876.530447978394,4.101529164232392,-143652.90078258116,10.5,10499856347.099218,47.655,-122.3035,60.0,9.733333333333333
2026-01-20T23:09:45+00:00,SAT-59551,136.99603118571176,30.37380871003229,880.6209815089481,4.138147476114599,-144935.42896000168,10.5,10499855064.57104,47.655,-122.3035,60.0,9.75
2026-01-20T23:09:46+00:00,SAT-59551,136.61084873876916,30.174453488175278,884.7480351827437,4.174251127370653,-146199.93154528207,10.5,10499853800.068455,47.655,-122.3035,60.0,9.766666666666667
