DopplerPredictor/satellites_20260205_234138/SAT-45237.csv

timestamp,satellite,azimuth_deg,elevation_deg,distance_km,relative_velocity_kms,doppler_shift_hz,tx_freq_ghz,rx_freq_hz,ue_lat,ue_lon,ue_alt_m,time_minutes
2026-01-20T23:02:28+00:00,SAT-45237,300.4237951751371,30.055080259680807,997.1742880011609,-5.80267083841553,203234.07803462175,10.5,10500203234.078035,47.655,-122.3035,60.0,2.466666666666667
2026-01-20T23:02:29+00:00,SAT-45237,300.4572827450426,30.308725198995077,991.3871733224947,-5.787448882853809,202700.9407620421,10.5,10500202700.940762,47.655,-122.3035,60.0,2.4833333333333334
2026-01-20T23:02:30+00:00,SAT-45237,300.49128393382324,30.564984007533592,985.6152397914277,-5.771951218385014,202158.1469972892,10.5,10500202158.146997,47.655,-122.3035,60.0,2.5
2026-01-20T23:02:31+00:00,SAT-45237,300.525812030267,30.823895555286693,979.85876237773,-5.756172163290136,201605.4977425297,10.5,10500201605.497742,47.655,-122.3035,60.0,2.5166666666666666
2026-01-20T23:02:32+00:00,SAT-45237,300.56088078448664,31.085499284328517,974.118021717658,-5.740105845266743,201042.78732489262,10.5,10500201042.787325,47.655,-122.3035,60.0,2.533333333333333
2026-01-20T23:02:33+00:00,SAT-45237,300.5965044275772,31.349835208509436,968.3933043040277,-5.723746294835694,200469.80666796758,10.5,10500200469.806667,47.655,-122.3035,60.0,2.55
2026-01-20T23:02:34+00:00,SAT-45237,300.6326976930429,31.616943916951946,962.6849025831314,-5.707087353295564,199886.34006797936,10.5,10500199886.340069,47.655,-122.3035,60.0,2.566666666666667
2026-01-20T23:02:35+00:00,SAT-45237,300.6694758386463,31.886866572872915,956.993115143452,-5.690122830245603,199292.17071090837,10.5,10500199292.170712,47.655,-122.3035,60.0,2.5833333333333335
2026-01-20T23:02:36+00:00,SAT-45237,300.7068546707322,32.15964491935195,951.3182467472773,-5.67284630121556,198687.0735846309,10.5,10500198687.073586,47.655,-122.3035,60.0,2.6
2026-01-20T23:02:37+00:00,SAT-45237,300.74485056820015,32.43532127510812,945.6606085641426,-5.655251291252312,198070.82190889964,10.5,10500198070.821909,47.655,-122.3035,60.0,2.6166666666666667
2026-01-20T23:02:38+00:00,SAT-45237,300.78348050939195,32.71393853846491,940.0205182211776,-5.637331107365148,197443.18126686852,10.5,10500197443.181267,47.655,-122.3035,60.0,2.6333333333333333
2026-01-20T23:02:39+00:00,SAT-45237,300.8227620989929,32.99554018266502,934.3983000205593,-5.619078991568023,196803.9149652799,10.5,10500196803.914965,47.655,-122.3035,60.0,2.65
2026-01-20T23:02:40+00:00,SAT-45237,300.862713597837,33.28017025803662,928.7942850043347,-5.600487998118305,196152.77973484644,10.5,10500196152.779736,47.655,-122.3035,60.0,2.6666666666666665
2026-01-20T23:02:41+00:00,SAT-45237,300.90335395325116,33.56787338745478,923.2088111416721,-5.581551020160961,195489.52666344293,10.5,10500195489.526663,47.655,-122.3035,60.0,2.683333333333333
2026-01-20T23:02:42+00:00,SAT-45237,300.94470283148183,33.85869476226868,917.6422234895421,-5.562260876064046,194813.90421994033,10.5,10500194813.90422,47.655,-122.3035,60.0,2.7
2026-01-20T23:02:43+00:00,SAT-45237,300.9867806526493,34.15268014195162,912.0948742672947,-5.542610174040511,194125.653512689,10.5,10500194125.653513,47.655,-122.3035,60.0,2.716666666666667
2026-01-20T23:02:44+00:00,SAT-45237,301.02960862658693,34.449875845902916,906.5671230662508,-5.522591388605808,193424.51096738726,10.5,10500193424.510967,47.655,-122.3035,60.0,2.7333333333333334
2026-01-20T23:02:45+00:00,SAT-45237,301.07320879150234,34.7503287482261,901.0593369830399,-5.502196847265705,192710.20786083254,10.5,10500192710.20786,47.655,-122.3035,60.0,2.75
2026-01-20T23:02:46+00:00,SAT-45237,301.1176040547401,35.05408627083185,895.5718907662189,-5.481418740081748,191982.47065594405,10.5,10500191982.470655,47.655,-122.3035,60.0,2.7666666666666666
2026-01-20T23:02:47+00:00,SAT-45237,301.16281823614696,35.361196376024886,890.1051669533432,-5.460249060492616,191241.01892907682,10.5,10500191241.018929,47.655,-122.3035,60.0,2.783333333333333
2026-01-20T23:02:48+00:00,SAT-45237,301.20887611342647,35.67170755460894,884.6595560670677,-5.438679727874639,190485.56966260876,10.5,10500190485.569662,47.655,-122.3035,60.0,2.8
2026-01-20T23:02:49+00:00,SAT-45237,301.2558034715457,35.98566881965651,879.2354566890056,-5.416702391701457,189715.83038578407,10.5,10500189715.830385,47.655,-122.3035,60.0,2.816666666666667
2026-01-20T23:02:50+00:00,SAT-45237,301.30362715309525,36.303129687797295,873.8332757289113,-5.394308644442742,188931.50663132692,10.5,10500188931.506632,47.655,-122.3035,60.0,2.8333333333333335
2026-01-20T23:02:51+00:00,SAT-45237,301.3523751140849,36.624140171224106,868.4534284815296,-5.3714898779092906,188132.2969040387,10.5,10500188132.296904,47.655,-122.3035,60.0,2.85
2026-01-20T23:02:52+00:00,SAT-45237,301.402076481658,36.948750759959026,863.0963388267174,-5.348237321935518,187317.89403562294,10.5,10500187317.894035,47.655,-122.3035,60.0,2.8666666666666667
2026-01-20T23:02:53+00:00,SAT-45237,301.45276161591477,37.2770124046212,857.7624393909853,-5.324542056818905,186487.9856203671,10.5,10500186487.98562,47.655,-122.3035,60.0,2.8833333333333333
2026-01-20T23:02:54+00:00,SAT-45237,301.504462175786,37.60897649819788,852.452171696634,-5.300395018686298,185642.25420309315,10.5,10500185642.254204,47.655,-122.3035,60.0,2.9
2026-01-20T23:02:55+00:00,SAT-45237,301.557211189282,37.944694856322045,847.1659863055381,-5.27578696185222,184780.37596078656,10.5,10500184780.375961,47.655,-122.3035,60.0,2.9166666666666665
2026-01-20T23:02:56+00:00,SAT-45237,301.6110431278312,38.28421969318864,841.9043430004718,-5.250708474517786,183902.02125243843,10.5,10500183902.021252,47.655,-122.3035,60.0,2.933333333333333
2026-01-20T23:02:57+00:00,SAT-45237,301.66599398573914,38.62760359622197,836.6677109507765,-5.225150046316412,183006.8569847822,10.5,10500183006.856985,47.655,-122.3035,60.0,2.95
2026-01-20T23:02:58+00:00,SAT-45237,301.72210136575023,38.97489950292944,831.4565688106637,-5.199101938826912,182094.54207711449,10.5,10500182094.542078,47.655,-122.3035,60.0,2.966666666666667
2026-01-20T23:02:59+00:00,SAT-45237,301.77940456877104,39.326160666882224,826.2714049466584,-5.172554299331255,181164.73144557283,10.5,10500181164.731445,47.655,-122.3035,60.0,2.9833333333333334
2026-01-20T23:03:00+00:00,SAT-45237,301.8379446910999,39.6814406285205,821.1127175515915,-5.145497109765155,180217.07421516965,10.5,10500180217.074215,47.655,-122.3035,60.0,3.0
2026-01-20T23:03:01+00:00,SAT-45237,301.8977647277425,40.04079317987633,815.981014809499,-5.117920222640955,179251.2149779633,10.5,10500179251.214977,47.655,-122.3035,60.0,3.0166666666666666
2026-01-20T23:03:02+00:00,SAT-45237,301.95890968331423,40.40427232886963,810.876815024702,-5.0898132991213005,178266.7916241364,10.5,10500178266.791624,47.655,-122.3035,60.0,3.033333333333333
2026-01-20T23:03:03+00:00,SAT-45237,302.0214266899407,40.77193225613958,805.8006468126415,-5.061165894934323,177263.43835110887,10.5,10500177263.43835,47.655,-122.3035,60.0,3.05
2026-01-20T23:03:04+00:00,SAT-45237,302.0853651346948,41.14382727464059,800.7530492050304,-5.031967424483803,176240.7844065241,10.5,10500176240.784407,47.655,-122.3035,60.0,3.066666666666667
2026-01-20T23:03:05+00:00,SAT-45237,302.1507767957268,41.52001178333355,795.7345717908001,-5.002207121084521,175198.4526955227,10.5,10500175198.452696,47.655,-122.3035,60.0,3.0833333333333335
2026-01-20T23:03:06+00:00,SAT-45237,302.21771598761114,41.90054021414074,790.7457748967028,-4.971874142783023,174136.06348703324,10.5,10500174136.063486,47.655,-122.3035,60.0,3.1
2026-01-20T23:03:07+00:00,SAT-45237,302.28623971910446,42.285466982901134,785.7872296623779,-4.940957497475631,173053.2317910884,10.5,10500173053.23179,47.655,-122.3035,60.0,3.1166666666666667
2026-01-20T23:03:08+00:00,SAT-45237,302.35640786136514,42.674846430700434,780.8595181901005,-4.909446033717025,171949.56703690247,10.5,10500171949.567038,47.655,-122.3035,60.0,3.1333333333333333
2026-01-20T23:03:09+00:00,SAT-45237,302.4282833287079,43.06873275989622,775.9632337036967,-4.877328548823554,170824.67685910672,10.5,10500170824.676859,47.655,-122.3035,60.0,3.15
2026-01-20T23:03:10+00:00,SAT-45237,302.5019322749334,43.46717997409773,771.098980599641,-4.8445936982648865,169678.16392426158,10.5,10500169678.163925,47.655,-122.3035,60.0,3.1666666666666665
2026-01-20T23:03:11+00:00,SAT-45237,302.57742430328403,43.87024180621351,766.2673745885269,-4.811230029032452,168509.6270995608,10.5,10500168509.6271,47.655,-122.3035,60.0,3.183333333333333
2026-01-20T23:03:12+00:00,SAT-45237,302.6548326932948,44.277971643897956,761.4690428032526,-4.777226018104562,167318.6628000425,10.5,10500167318.6628,47.655,-122.3035,60.0,3.2
2026-01-20T23:03:13+00:00,SAT-45237,302.73423464635954,44.69042245281846,756.7046238688457,-4.742570060236305,166104.8645609397,10.5,10500166104.864561,47.655,-122.3035,60.0,3.216666666666667
2026-01-20T23:03:14+00:00,SAT-45237,302.8157115507038,45.10764669330588,751.9747679844662,-4.7072504624766145,164867.82284564496,10.5,10500164867.822845,47.655,-122.3035,60.0,3.2333333333333334
2026-01-20T23:03:15+00:00,SAT-45237,302.89934926777187,45.5296962304607,747.2801370108789,-4.6712554713558685,163607.12599793493,10.5,10500163607.125998,47.655,-122.3035,60.0,3.25
2026-01-20T23:03:16+00:00,SAT-45237,302.985238442608,45.956622240225485,742.6214045308084,-4.634573306195248,162322.36140860524,10.5,10500162322.361408,47.655,-122.3035,60.0,3.2666666666666666
2026-01-20T23:03:17+00:00,SAT-45237,303.0734748409269,46.38847511187432,737.999255876076,-4.597192138753934,161013.11480262893,10.5,10500161013.114803,47.655,-122.3035,60.0,3.283333333333333
2026-01-20T23:03:18+00:00,SAT-45237,303.1641597141316,46.82530434169854,733.4143881750333,-4.559100116328964,159678.97104821136,10.5,10500159678.971048,47.655,-122.3035,60.0,3.3
2026-01-20T23:03:19+00:00,SAT-45237,303.25740019613187,47.26715842139019,728.8675103769605,-4.520285372554395,158319.51453502255,10.5,10500158319.514536,47.655,-122.3035,60.0,3.316666666666667
2026-01-20T23:03:20+00:00,SAT-45237,303.353309734798,47.714084719620644,724.3593432656904,-4.480736083806456,156934.33114974422,10.5,10500156934.33115,47.655,-122.3035,60.0,3.3333333333333335
2026-01-20T23:03:21+00:00,SAT-45237,303.4520085628948,48.16612936103385,719.8906194169831,-4.440440430019042,155523.0069036625,10.5,10500155523.006905,47.655,-122.3035,60.0,3.35
2026-01-20T23:03:22+00:00,SAT-45237,303.5536242100172,48.62333709288988,715.4620831949763,-4.399386638694404,154085.12947410851,10.5,10500154085.129475,47.655,-122.3035,60.0,3.3666666666666667
2026-01-20T23:03:23+00:00,SAT-45237,303.6582920621632,49.085751146965926,711.0744907047449,-4.3575629960403965,152620.28859453218,10.5,10500152620.288595,47.655,-122.3035,60.0,3.3833333333333333
2026-01-20T23:03:24+00:00,SAT-45237,303.7661559730038,49.55341309307853,706.7286097337529,-4.314957906342754,151128.07813397,10.5,10500151128.078135,47.655,-122.3035,60.0,3.4
2026-01-20T23:03:25+00:00,SAT-45237,303.8773689340574,50.02636268897876,702.4252196340929,-4.271559860500056,149608.0949950068,10.5,10500149608.094995,47.655,-122.3035,60.0,3.4166666666666665
2026-01-20T23:03:26+00:00,SAT-45237,303.9920938074891,50.5046377164837,698.1651112361037,-4.227357479622247,148059.94064078023,10.5,10500148059.940641,47.655,-122.3035,60.0,3.433333333333333
2026-01-20T23:03:27+00:00,SAT-45237,304.1105041308893,50.98827381113509,693.9490867185089,-4.182339553929912,146483.22245739776,10.5,10500146483.222458,47.655,-122.3035,60.0,3.45
2026-01-20T23:03:28+00:00,SAT-45237,304.23278500204,51.47730428461085,689.7779594397601,-4.136495051276987,144877.55405243838,10.5,10500144877.554052,47.655,-122.3035,60.0,3.466666666666667
2026-01-20T23:03:29+00:00,SAT-45237,304.35913405211494,51.97175993587544,685.6525537608795,-4.0898131653718,143242.55694385717,10.5,10500143242.556944,47.655,-122.3035,60.0,3.4833333333333334
2026-01-20T23:03:30+00:00,SAT-45237,304.48976251894845,52.47166885504785,681.5737048202097,-4.042283313473181,141577.8604792933,10.5,10500141577.86048,47.655,-122.3035,60.0,3.5
2026-01-20T23:03:31+00:00,SAT-45237,304.6248964307268,52.97705621330778,677.5422583104648,-3.9938951805660663,139883.10338328689,10.5,10500139883.103384,47.655,-122.3035,60.0,3.5166666666666666
2026-01-20T23:03:32+00:00,SAT-45237,304.7647779150356,53.4879440435029,673.5590702117204,-3.9446387864959362,138157.9361086106,10.5,10500138157.93611,47.655,-122.3035,60.0,3.533333333333333
2026-01-20T23:03:33+00:00,SAT-45237,304.9096666501567,54.00435101395676,669.6250064574508,-3.894504451200482,136402.01961853576,10.5,10500136402.019619,47.655,-122.3035,60.0,3.55
2026-01-20T23:03:34+00:00,SAT-45237,305.0598414719359,54.526292181525825,665.7409426352424,-3.8434828833399575,134615.02849104215,10.5,10500134615.028492,47.655,-122.3035,60.0,3.566666666666667
2026-01-20T23:03:35+00:00,SAT-45237,305.21560216193586,55.0537787386014,661.9077635991121,-3.7915651896286016,132796.65124564382,10.5,10500132796.651245,47.655,-122.3035,60.0,3.5833333333333335
2026-01-20T23:03:36+00:00,SAT-45237,305.3772714365653,55.586817742831826,658.1263630725208,-3.7387429366777423,130946.59250939627,10.5,10500130946.59251,47.655,-122.3035,60.0,3.6
2026-01-20T23:03:37+00:00,SAT-45237,305.54519716703714,56.12541183539365,654.3976431897097,-3.6850081412816853,129064.57267666719,10.5,10500129064.572678,47.655,-122.3035,60.0,3.6166666666666667
2026-01-20T23:03:38+00:00,SAT-45237,305.7197548572075,56.66955893628944,650.7225140467234,-3.6303533611564123,127150.33108718942,10.5,10500127150.331087,47.655,-122.3035,60.0,3.6333333333333333
2026-01-20T23:03:39+00:00,SAT-45237,305.90135042082227,57.21925192922347,647.1018931619396,-3.574771712899689,125203.62665509996,10.5,10500125203.626656,47.655,-122.3035,60.0,3.65
2026-01-20T23:03:40+00:00,SAT-45237,306.09042329585714,57.7744783240572,643.5367049186838,-3.5182569178463354,123224.23947498547,10.5,10500123224.239475,47.655,-122.3035,60.0,3.6666666666666665
2026-01-20T23:03:41+00:00,SAT-45237,306.28744994645444,58.335219898573754,640.0278799621146,-3.4608033280341943,121211.97173132033,10.5,10500121211.971731,47.655,-122.3035,60.0,3.683333333333333
2026-01-20T23:03:42+00:00,SAT-45237,306.49294780746453,58.90145231384856,636.5763545702122,-3.4024059856310225,119166.64977984781,10.5,10500119166.64978,47.655,-122.3035,60.0,3.7
2026-01-20T23:03:43+00:00,SAT-45237,306.70747974007656,59.473144705407684,633.1830699654965,-3.343060665459916,117088.12563700024,10.5,10500117088.125637,47.655,-122.3035,60.0,3.716666666666667
2026-01-20T23:03:44+00:00,SAT-45237,306.93165907510274,60.050259244179045,629.8489715843384,-3.2827639221366893,114976.27863084947,10.5,10500114976.278631,47.655,-122.3035,60.0,3.7333333333333334
2026-01-20T23:03:45+00:00,SAT-45237,307.16615533581034,60.632750663824375,626.5750082992555,-3.2215131198280487,112831.016443364,10.5,10500112831.016443,47.655,-122.3035,60.0,3.75
2026-01-20T23:03:46+00:00,SAT-45237,307.4117007464737,61.2205657463458,623.3621316115327,-3.159306488379638,110652.27707625051,10.5,10500110652.277077,47.655,-122.3035,60.0,3.7666666666666666
2026-01-20T23:03:47+00:00,SAT-45237,307.66909765595875,61.81364276446202,620.2112947878643,-3.0961431652041473,108440.03031805273,10.5,10500108440.030317,47.655,-122.3035,60.0,3.783333333333333
2026-01-20T23:03:48+00:00,SAT-45237,307.93922702656795,62.411910871122124,617.1234519552181,-3.03202324462958,106194.27947253626,10.5,10500106194.279472,47.655,-122.3035,60.0,3.8
2026-01-20T23:03:49+00:00,SAT-45237,308.2230581687156,63.01528942886836,614.0995571464883,-2.96694779347911,103915.06190436137,10.5,10500103915.061905,47.655,-122.3035,60.0,3.816666666666667
2026-01-20T23:03:50+00:00,SAT-45237,308.52165993276105,63.62368726162735,611.1405633306046,-2.900918964343359,101602.45300635704,10.5,10500101602.453007,47.655,-122.3035,60.0,3.8333333333333335
2026-01-20T23:03:51+00:00,SAT-45237,308.8362136259176,64.23700183577772,608.247421329678,-2.833939934461503,99256.56405887895,10.5,10500099256.564058,47.655,-122.3035,60.0,3.85
2026-01-20T23:03:52+00:00,SAT-45237,309.16802794472864,64.85511831933603,605.4210787970969,-2.7660150496840554,96877.54727199502,10.5,10500096877.547272,47.655,-122.3035,60.0,3.8666666666666667
2026-01-20T23:03:53+00:00,SAT-45237,309.51855631971614,65.47790854198587,602.6624790520511,-2.6971498022204616,94465.59500611201,10.5,10500094465.595007,47.655,-122.3035,60.0,3.8833333333333333
2026-01-20T23:03:54+00:00,SAT-45237,309.88941710566155,66.1052297979871,599.9725599362436,-2.6273508625034614,92020.9408880004,10.5,10500092020.940887,47.655,-122.3035,60.0,3.9
2026-01-20T23:03:55+00:00,SAT-45237,310.2824171720301,66.73692347273415,597.352252638828,-2.5566261834191213,89543.86346137091,10.5,10500089543.86346,47.655,-122.3035,60.0,3.9166666666666665
2026-01-20T23:03:56+00:00,SAT-45237,310.6995795760858,67.3728134744238,594.8024804173923,-2.4849849431140667,87034.68418374188,10.5,10500087034.684183,47.655,-122.3035,60.0,3.933333333333333
2026-01-20T23:03:57+00:00,SAT-45237,311.1431761145185,68.01270438726657,592.3241573759826,-2.4124376568080246,84493.77134258747,10.5,10500084493.771343,47.655,-122.3035,60.0,3.95
2026-01-20T23:03:58+00:00,SAT-45237,311.61576578872086,68.65637932989073,589.9181871316163,-2.338996143792193,81921.538899481,10.5,10500081921.5389,47.655,-122.3035,60.0,3.966666666666667
2026-01-20T23:03:59+00:00,SAT-45237,312.1202404020718,69.30359741212744,587.585461513704,-2.2646735993814673,79318.44901016625,10.5,10500079318.44901,47.655,-122.3035,60.0,3.9833333333333334
2026-01-20T23:04:00+00:00,SAT-45237,312.6598788464926,69.9540907267798,585.3268591917175,-2.1894845738615687,76685.01128719679,10.5,10500076685.011288,47.655,-122.3035,60.0,4.0
2026-01-20T23:04:01+00:00,SAT-45237,313.23841196662414,70.60756073750717,583.1432443238497,-2.113445031884049,74021.7848802004,10.5,10500074021.78488,47.655,-122.3035,60.0,4.016666666666667
2026-01-20T23:04:02+00:00,SAT-45237,313.86010039431346,71.26367393961286,581.0354651464405,-2.036572335224428,71329.37787199601,10.5,10500071329.377872,47.655,-122.3035,60.0,4.033333333333333
2026-01-20T23:04:03+00:00,SAT-45237,314.52982829562853,71.92205658579262,579.0043525805997,-1.9588852739252658,68608.44836935589,10.5,10500068608.44837,47.655,-122.3035,60.0,4.05
2026-01-20T23:04:04+00:00,SAT-45237,315.2532167407403,72.58228825124961,577.0507188077678,-1.880404043940213,65859.70372000564,10.5,10500065859.70372,47.655,-122.3035,60.0,4.066666666666666
2026-01-20T23:04:05+00:00,SAT-45237,316.0367612988532,73.24389391105476,575.1753558675738,-1.8011502807724358,63083.901690784274,10.5,10500063083.901691,47.655,-122.3035,60.0,4.083333333333333
2026-01-20T23:04:06+00:00,SAT-45237,316.8879996423162,73.90633414513917,573.3790342221453,-1.7211470291555009,60281.84940574042,10.5,10500060281.849405,47.655,-122.3035,60.0,4.1
2026-01-20T23:04:07+00:00,SAT-45237,317.81571630265626,74.56899292344586,571.6625013506566,-1.640418743923953,57454.40337662366,10.5,10500057454.403378,47.655,-122.3035,60.0,4.116666666666666
2026-01-20T23:04:08+00:00,SAT-45237,318.8301934336582,75.23116229168457,570.0264803430073,-1.5589912644551358,54602.46860772904,10.5,10500054602.468607,47.655,-122.3035,60.0,4.133333333333334
2026-01-20T23:04:09+00:00,SAT-45237,319.94351834393046,75.89202304092892,568.4716685189914,-1.4768918148028494,51726.99860057827,10.5,10500051726.9986,47.655,-122.3035,60.0,4.15
2026-01-20T23:04:10+00:00,SAT-45237,321.16996065744263,76.55062017708546,566.998736047333,-1.3941489454100746,48828.993312452796,10.5,10500048828.993313,47.655,-122.3035,60.0,4.166666666666667
2026-01-20T23:04:11+00:00,SAT-45237,322.52643377988034,77.20583159309257,565.608324622853,-1.3107925203962973,45909.4987111421,10.5,10500045909.49871,47.655,-122.3035,60.0,4.183333333333334
2026-01-20T23:04:12+00:00,SAT-45237,324.03305639080526,77.85632789895497,564.3010461563143,-1.2268536862836967,42969.60567960257,10.5,10500042969.60568,47.655,-122.3035,60.0,4.2
2026-01-20T23:04:13+00:00,SAT-45237,325.7138282325897,78.50052072085488,563.0774814954578,-1.1423648061382814,40010.447709301465,10.5,10500040010.44771,47.655,-122.3035,60.0,4.216666666666667
2026-01-20T23:04:14+00:00,SAT-45237,327.59742770197835,79.1364960235224,561.9381792117183,-1.0573594165020106,37033.199391797614,10.5,10500037033.199392,47.655,-122.3035,60.0,4.233333333333333
2026-01-20T23:04:15+00:00,SAT-45237,329.71812126719766,79.76192822282516,560.8836544298964,-0.9718721843648127,34039.07491171954,10.5,10500034039.074911,47.655,-122.3035,60.0,4.25
2026-01-20T23:04:16+00:00,SAT-45237,332.11673636068167,80.37397014836596,559.9143877007396,-0.8859388288479826,31029.325303786718,10.5,10500031029.325304,47.655,-122.3035,60.0,4.266666666666667
2026-01-20T23:04:17+00:00,SAT-45237,334.84157278576305,80.96911376598172,559.0308239516323,-0.7995960643867993,28005.236462824534,10.5,10500028005.236464,47.655,-122.3035,60.0,4.283333333333333
2026-01-20T23:04:18+00:00,SAT-45237,337.94898528077994,81.54301804274114,558.2333714939497,-0.7128815315925,24968.126722258137,10.5,10500024968.126722,47.655,-122.3035,60.0,4.3
2026-01-20T23:04:19+00:00,SAT-45237,341.50312273435253,82.0903053116296,557.5224010993658,-0.625833708716711,21919.34375322232,10.5,10500021919.343754,47.655,-122.3035,60.0,4.316666666666666
2026-01-20T23:04:20+00:00,SAT-45237,345.57392047626183,82.60433957570042,556.898245164457,-0.5384918416556733,18860.26211301343,10.5,10500018860.262114,47.655,-122.3035,60.0,4.333333333333333
2026-01-20T23:04:21+00:00,SAT-45237,350.2319248658494,83.07702478995571,556.3611969451171,-0.4508958613379131,15792.280351656103,10.5,10500015792.280352,47.655,-122.3035,60.0,4.35
2026-01-20T23:04:22+00:00,SAT-45237,355.53807641514004,83.49870381797437,555.9115098733597,-0.3630862849330515,12716.817551817932,10.5,10500012716.817553,47.655,-122.3035,60.0,4.366666666666666
2026-01-20T23:04:23+00:00,SAT-45237,1.526790545172568,83.85829841945632,555.5493969726506,-0.27510412953995234,9635.310305803288,10.5,10500009635.310307,47.655,-122.3035,60.0,4.383333333333334
2026-01-20T23:04:24+00:00,SAT-45237,8.182722398355294,84.14388281009369,555.2750303593175,-0.1869908243540223,6549.209639280633,10.5,10500006549.209639,47.655,-122.3035,60.0,4.4
2026-01-20T23:04:25+00:00,SAT-45237,15.416620290133263,84.34385958909368,555.0885408315587,-0.09878810284171616,3459.9772347775997,10.5,10500003459.977234,47.655,-122.3035,60.0,4.416666666666667
2026-01-20T23:04:26+00:00,SAT-45237,23.052455735474584,84.44870918860724,554.9900175659881,-0.010537912624976943,369.0822754528998,10.5,10500000369.082275,47.655,-122.3035,60.0,4.433333333333334
2026-01-20T23:04:27+00:00,SAT-45237,30.840302187662836,84.45289802212923,554.9795079040525,0.0777176863625116,-2722.002121902519,10.5,10499997277.997879,47.655,-122.3035,60.0,4.45
2026-01-20T23:04:28+00:00,SAT-45237,38.49923920101317,84.35618935550069,555.0570172400229,0.16593662216709634,-5811.802419507537,10.5,10499994188.19758,47.655,-122.3035,60.0,4.466666666666667
2026-01-20T23:04:29+00:00,SAT-45237,45.77473926472065,84.1637021666635,555.2225090090054,0.25407690942649785,-8898.848112377222,10.5,10499991101.151888,47.655,-122.3035,60.0,4.483333333333333
2026-01-20T23:04:30+00:00,SAT-45237,52.48365510426905,83.88468643541769,555.4759047733002,0.3420967506377446,-11981.675275154248,10.5,10499988018.324724,47.655,-122.3035,60.0,4.5
2026-01-20T23:04:31+00:00,SAT-45237,58.52969386511102,83.53063379156087,555.8170844097588,0.42995463344333307,-15058.829969481743,10.5,10499984941.17003,47.655,-122.3035,60.0,4.516666666666667
2026-01-20T23:04:32+00:00,SAT-45237,63.89219095893947,83.11349280440814,556.2458863941636,0.5176094254421661,-18128.87156468341,10.5,10499981871.128435,47.655,-122.3035,60.0,4.533333333333333
2026-01-20T23:04:33+00:00,SAT-45237,68.60235342326669,82.6444394606229,556.7621081801663,0.6050204778177881,-21190.376367262634,10.5,10499978809.623632,47.655,-122.3035,60.0,4.55
2026-01-20T23:04:34+00:00,SAT-45237,72.71964934880539,82.13325809527296,557.3655066815758,0.6921477018754549,-24241.94030155447,10.5,10499975758.059698,47.655,-122.3035,60.0,4.566666666666666
2026-01-20T23:04:35+00:00,SAT-45237,76.31429689116342,81.5881727145028,558.0557988309788,0.7789516743373939,-27282.18259761103,10.5,10499972717.817402,47.655,-122.3035,60.0,4.583333333333333
2026-01-20T23:04:36+00:00,SAT-45237,79.4565376768833,81.0159339545145,558.8326622433726,0.8653937121566276,-30309.74841149803,10.5,10499969690.251589,47.655,-122.3035,60.0,4.6
2026-01-20T23:04:37+00:00,SAT-45237,82.21111504215561,80.42201607237159,559.6957359544112,0.9514359630886623,-33323.311997498466,10.5,10499966676.688002,47.655,-122.3035,60.0,4.616666666666666
2026-01-20T23:04:38+00:00,SAT-45237,84.63506328863716,79.81083877893333,560.6446212489811,1.0370414667488195,-36321.57884659861,10.5,10499963678.421154,47.655,-122.3035,60.0,4.633333333333334
2026-01-20T23:04:39+00:00,SAT-45237,86.7773417353362,79.18597308236022,561.6788825506693,1.1221742498750453,-39303.28902299461,10.5,10499960696.710978,47.655,-122.3035,60.0,4.65
2026-01-20T23:04:40+00:00,SAT-45237,88.67937080463885,78.55031616431835,562.7980484062404,1.2067993818988851,-42267.21911042303,10.5,10499957732.78089,47.655,-122.3035,60.0,4.666666666666667
2026-01-20T23:04:41+00:00,SAT-45237,90.37592876441273,77.90623326926125,564.0016125255347,1.2908830249702525,-45212.18396423986,10.5,10499954787.816036,47.655,-122.3035,60.0,4.683333333333334
2026-01-20T23:04:42+00:00,SAT-45237,91.89612567664216,77.25566998682602,565.289034871257,1.3743925208237504,-48137.03975384657,10.5,10499951862.960247,47.655,-122.3035,60.0,4.7
2026-01-20T23:04:43+00:00,SAT-45237,93.26432076065868,76.60023993452783,566.6597428353986,1.4572964164192477,-51040.684860731555,10.5,10499948959.31514,47.655,-122.3035,60.0,4.716666666666667
2026-01-20T23:04:44+00:00,SAT-45237,94.50093008481109,75.94129285576379,568.1131324412322,1.5395645242410743,-53922.06199040297,10.5,10499946077.93801,47.655,-122.3035,60.0,4.733333333333333
2026-01-20T23:04:45+00:00,SAT-45237,95.6231124090858,75.2799674227804,569.6485696054438,1.6211679445281897,-56780.15895098332,10.5,10499943219.84105,47.655,-122.3035,60.0,4.75
2026-01-20T23:04:46+00:00,SAT-45237,96.64533973873574,74.6172322571127,571.2653914224339,1.7020791363142227,-59614.011141332114,10.5,10499940385.98886,47.655,-122.3035,60.0,4.766666666666667
2026-01-20T23:04:47+00:00,SAT-45237,97.57986658781971,73.95391788679864,572.9629075194705,1.782271896416585,-62422.70081515573,10.5,10499937577.299185,47.655,-122.3035,60.0,4.783333333333333
2026-01-20T23:04:48+00:00,SAT-45237,98.43711358814278,73.29074178862518,574.7404013908863,1.8617214274674678,-65205.35946374078,10.5,10499934794.640535,47.655,-122.3035,60.0,4.8
2026-01-20T23:04:49+00:00,SAT-45237,99.22598034470997,72.62832808767668,576.5971318001242,1.9404043212086597,-67961.16723086785,10.5,10499932038.83277,47.655,-122.3035,60.0,4.816666666666666
2026-01-20T23:04:50+00:00,SAT-45237,99.9541005035864,71.96722317039327,578.5323341651236,2.0182986000153886,-70689.35436715216,10.5,10499929310.645634,47.655,-122.3035,60.0,4.833333333333333
2026-01-20T23:04:51+00:00,SAT-45237,100.62805000396507,71.30790811712721,580.5452219851176,2.0953836853307903,-73389.20012448511,10.5,10499926610.799875,47.655,-122.3035,60.0,4.85
2026-01-20T23:04:52+00:00,SAT-45237,101.25351748434558,70.65080868550396,582.6349882359508,2.171640455592291,-76060.03478486124,10.5,10499923939.965216,47.655,-122.3035,60.0,4.866666666666666
2026-01-20T23:04:53+00:00,SAT-45237,101.8354441666647,69.99630335316274,584.800806823168,2.24705117091928,-78701.23702262196,10.5,10499921298.762978,47.655,-122.3035,60.0,4.883333333333334
2026-01-20T23:04:54+00:00,SAT-45237,102.37813904980932,69.34472987477798,587.0418339599911,2.3215995277537282,-81312.23581820108,10.5,10499918687.764181,47.655,-122.3035,60.0,4.9
2026-01-20T23:04:55+00:00,SAT-45237,102.8853741559716,68.69639062915859,589.3572095997918,2.395270620415386,-83892.50911162533,10.5,10499916107.490889,47.655,-122.3035,60.0,4.916666666666667
2026-01-20T23:04:56+00:00,SAT-45237,103.36046356978834,68.05155703090705,591.7460588302212,2.468050905989399,-86441.58257273,10.5,10499913558.417427,47.655,-122.3035,60.0,4.933333333333334
2026-01-20T23:04:57+00:00,SAT-45237,103.80632929125775,67.41047319414962,594.2074932323226,2.539928221033008,-88959.03018629836,10.5,10499911040.969814,47.655,-122.3035,60.0,4.95
2026-01-20T23:04:58+00:00,SAT-45237,104.22555632895339,66.77335898306151,596.7406122563051,2.6108917369876528,-91444.47269040487,10.5,10499908555.52731,47.655,-122.3035,60.0,4.966666666666667
2026-01-20T23:04:59+00:00,SAT-45237,104.62043896485055,66.1404125826575,599.3445045528489,2.680931925740096,-93897.57637022011,10.5,10499906102.42363,47.655,-122.3035,60.0,4.983333333333333
2026-01-20T23:05:00+00:00,SAT-45237,104.99301975897549,65.51181267812001,602.0182492700648,2.7500405344974324,-96318.05217802724,10.5,10499903681.947823,47.655,-122.3035,60.0,5.0
2026-01-20T23:05:01+00:00,SAT-45237,105.345122560632,64.8877203130105,604.7609173253946,2.8182105771904293,-98705.65543213068,10.5,10499901294.344568,47.655,-122.3035,60.0,5.016666666666667
2026-01-20T23:05:02+00:00,SAT-45237,105.67838055292732,64.2682804809881,607.5715726689407,2.8854362537641554,-101060.18299007253,10.5,10499898939.81701,47.655,-122.3035,60.0,5.033333333333333
2026-01-20T23:05:03+00:00,SAT-45237,105.9942601573683,63.65362351362529,610.4492734662988,2.9517129509126177,-103381.47327436264,10.5,10499896618.526726,47.655,-122.3035,60.0,5.05
2026-01-20T23:05:04+00:00,SAT-45237,106.29408148962318,63.04386628269082,613.3930732821262,3.0170371775244296,-105669.40401151289,10.5,10499894330.59599,47.655,-122.3035,60.0,5.066666666666666
2026-01-20T23:05:05+00:00,SAT-45237,106.57903591825429,62.439113261520646,616.4020221993288,3.081406539704063,-107923.89135717571,10.5,10499892076.108643,47.655,-122.3035,60.0,5.083333333333333
2026-01-20T23:05:06+00:00,SAT-45237,106.85020118971161,61.83945746095306,619.4751679133341,3.1448196954593586,-110144.88830910905,10.5,10499889855.11169,47.655,-122.3035,60.0,5.1
2026-01-20T23:05:07+00:00,SAT-45237,107.10855449749157,61.24498126397131,622.6115567811754,3.207276318670137,-112332.38344520476,10.5,10499887667.616554,47.655,-122.3035,60.0,5.116666666666666
2026-01-20T23:05:08+00:00,SAT-45237,107.35498381011695,60.65575717321933,625.8102348346391,3.2687770092294848,-114486.39777625624,10.5,10499885513.602224,47.655,-122.3035,60.0,5.133333333333334
2026-01-20T23:05:09+00:00,SAT-45237,107.59029771644212,60.07184849422385,629.070248703798,3.3293233304447862,-116606.98605590091,10.5,10499883393.013945,47.655,-122.3035,60.0,5.15
2026-01-20T23:05:10+00:00,SAT-45237,107.81523401435585,59.49330994169351,632.3906465778405,3.388917694294791,-118694.23276183721,10.5,10499881305.767239,47.655,-122.3035,60.0,5.166666666666667
2026-01-20T23:05:11+00:00,SAT-45237,108.03046721561007,58.92018820590286,635.7704790514675,3.447563351173354,-120748.25173660713,10.5,10499879251.748264,47.655,-122.3035,60.0,5.183333333333334
2026-01-20T23:05:12+00:00,SAT-45237,108.23661512683441,58.352522467189544,639.2087999610601,3.5052643208580743,-122769.18376982579,10.5,10499877230.81623,47.655,-122.3035,60.0,5.2
2026-01-20T23:05:13+00:00,SAT-45237,108.434244632678,57.79034487505659,642.7046671520005,3.562025401192465,-124757.19690226791,10.5,10499875242.803099,47.655,-122.3035,60.0,5.216666666666667
2026-01-20T23:05:14+00:00,SAT-45237,108.6238767938142,57.23368098422963,646.257143254652,3.61785203429507,-126712.48173994503,10.5,10499873287.518261,47.655,-122.3035,60.0,5.233333333333333
2026-01-20T23:05:15+00:00,SAT-45237,108.80599134609542,56.68255017484672,649.8652963269066,3.6727503535741066,-128635.25310075718,10.5,10499871364.746899,47.655,-122.3035,60.0,5.25
2026-01-20T23:05:16+00:00,SAT-45237,108.98103068758668,56.136966031331326,653.5282005436221,3.7267271111266265,-130525.7474717045,10.5,10499869474.25253,47.655,-122.3035,60.0,5.266666666666667
2026-01-20T23:05:17+00:00,SAT-45237,109.14940341520777,55.59693670252235,657.2449368136523,3.779789591123886,-132384.21997527638,10.5,10499867615.780025,47.655,-122.3035,60.0,5.283333333333333
2026-01-20T23:05:18+00:00,SAT-45237,109.31148746814499,55.06246524672044,661.0145933104933,3.831945645735626,-134210.94562767175,10.5,10499865789.054373,47.655,-122.3035,60.0,5.3
2026-01-20T23:05:19+00:00,SAT-45237,109.46763293214507,54.53354994606847,664.8362660387612,3.8832035923597745,-136006.2157393487,10.5,10499863993.78426,47.655,-122.3035,60.0,5.316666666666666
2026-01-20T23:05:20+00:00,SAT-45237,109.61816454131048,54.01018461240595,668.709059298172,3.933572212196382,-137770.33786507737,10.5,10499862229.662134,47.655,-122.3035,60.0,5.333333333333333
2026-01-20T23:05:21+00:00,SAT-45237,109.76338391824727,53.4923588715883,672.6320861461002,3.9830606960730472,-139503.6339065174,10.5,10499860496.366093,47.655,-122.3035,60.0,5.35
2026-01-20T23:05:22+00:00,SAT-45237,109.90357158141319,52.98005843520322,676.6044688061097,4.031678626445806,-141206.439481813,10.5,10499858793.560518,47.655,-122.3035,60.0,5.366666666666666
2026-01-20T23:05:23+00:00,SAT-45237,110.0389887489322,52.47326535604877,680.6253390585297,4.079435913979142,-142879.1017043564,10.5,10499857120.898296,47.655,-122.3035,60.0,5.383333333333334
2026-01-20T23:05:24+00:00,SAT-45237,110.16987896052659,51.9719582743504,684.6938385677857,4.126342775751631,-144521.97841945753,10.5,10499855478.02158,47.655,-122.3035,60.0,5.4
2026-01-20T23:05:25+00:00,SAT-45237,110.29646954003474,51.47611265016541,688.8091191879906,4.172409740379671,-146135.43838379867,10.5,10499853864.561617,47.655,-122.3035,60.0,5.416666666666667
2026-01-20T23:05:26+00:00,SAT-45237,110.41897291664979,50.985700979957365,692.970343273649,4.217647549453606,-147719.85781331046,10.5,10499852280.142187,47.655,-122.3035,60.0,5.433333333333334
2026-01-20T23:05:27+00:00,SAT-45237,110.53758781816225,50.50069301057399,697.176683892058,4.262067177747962,-149275.62109102024,10.5,10499850724.378908,47.655,-122.3035,60.0,5.45
2026-01-20T23:05:28+00:00,SAT-45237,110.65250035302151,50.021055936906784,701.4273250558676,4.305679806312369,-150803.11982458172,10.5,10499849196.880175,47.655,-122.3035,60.0,5.466666666666667
2026-01-20T23:05:29+00:00,SAT-45237,110.76388499194128,49.54675458990258,705.7214619288031,4.348496744044219,-152302.7500994181,10.5,10499847697.2499,47.655,-122.3035,60.0,5.483333333333333
2026-01-20T23:05:30+00:00,SAT-45237,110.87190545862934,49.07775162100454,710.0583009531689,4.390529472369696,-153774.91404364086,10.5,10499846225.085957,47.655,-122.3035,60.0,5.5
2026-01-20T23:05:31+00:00,SAT-45237,110.97671554175183,48.614007669911636,714.4370600219162,4.431789589191591,-155220.0178648647,10.5,10499844779.982136,47.655,-122.3035,60.0,5.516666666666667
2026-01-20T23:05:32+00:00,SAT-45237,111.0784598340003,48.155481527570956,718.8569685948064,4.472288750936229,-156638.46982044628,10.5,10499843361.53018,47.655,-122.3035,60.0,5.533333333333333
2026-01-20T23:05:33+00:00,SAT-45237,111.17727440586954,47.70213029459207,723.317267756777,4.512038723774791,-158030.6820114711,10.5,10499841969.31799,47.655,-122.3035,60.0,5.55
2026-01-20T23:05:34+00:00,SAT-45237,111.27328742253461,47.253909524297754,727.817210327395,4.551051306022209,-159397.06766483493,10.5,10499840602.932335,47.655,-122.3035,60.0,5.566666666666666
2026-01-20T23:05:35+00:00,SAT-45237,111.36661970719813,46.810773364304026,732.3560608929106,4.5893383376311006,-160738.04146576146,10.5,10499839261.958534,47.655,-122.3035,60.0,5.583333333333333
2026-01-20T23:05:36+00:00,SAT-45237,111.45738525743977,46.37267468801597,736.9330958477872,4.626911656238887,-162054.01801838627,10.5,10499837945.981981,47.655,-122.3035,60.0,5.6
2026-01-20T23:05:37+00:00,SAT-45237,111.54569171859498,45.93956522176063,741.5476033923895,4.6637831308480315,-163345.4130253815,10.5,10499836654.586975,47.655,-122.3035,60.0,5.616666666666666
2026-01-20T23:05:38+00:00,SAT-45237,111.63164081893296,45.51139566055833,746.198883564266,4.6999645648340636,-164612.63989088635,10.5,10499835387.36011,47.655,-122.3035,60.0,5.633333333333334
2026-01-20T23:05:39+00:00,SAT-45237,111.71532876864917,45.088115785162316,750.8862481726967,4.735467778788462,-165856.1126220155,10.5,10499834143.887379,47.655,-122.3035,60.0,5.65
2026-01-20T23:05:40+00:00,SAT-45237,111.79684662836448,44.66967456399718,755.6090208158648,4.770304540063252,-167076.24336121272,10.5,10499832923.75664,47.655,-122.3035,60.0,5.666666666666667
2026-01-20T23:05:41+00:00,SAT-45237,111.876280647938,44.256020254645136,760.3665368277582,4.804486514641326,-168273.440700546,10.5,10499831726.5593,47.655,-122.3035,60.0,5.683333333333334
2026-01-20T23:05:42+00:00,SAT-45237,111.95371257833993,43.84710050264368,765.1581431770729,4.838025343415401,-169448.11235331916,10.5,10499830551.887648,47.655,-122.3035,60.0,5.7
2026-01-20T23:05:43+00:00,SAT-45237,112.02921996095066,43.44286242723206,769.9831984421902,4.8709325942742066,-170600.6634759276,10.5,10499829399.336525,47.655,-122.3035,60.0,5.716666666666667
2026-01-20T23:05:44+00:00,SAT-45237,112.10287639418061,43.04325270539154,774.841072738368,4.903219723773429,-171731.49532541278,10.5,10499828268.504675,47.655,-122.3035,60.0,5.733333333333333
2026-01-20T23:05:45+00:00,SAT-45237,112.17475178008814,42.64821765328603,779.731147606706,4.9348980622827465,-172841.0047392481,10.5,10499827158.99526,47.655,-122.3035,60.0,5.75
2026-01-20T23:05:46+00:00,SAT-45237,112.24491255245604,42.25770330324315,784.6528158882999,4.965978900709334,-173929.58717276336,10.5,10499826070.412827,47.655,-122.3035,60.0,5.766666666666667
2026-01-20T23:05:47+00:00,SAT-45237,112.31342188945256,41.87165546868323,789.6054816848815,4.996473392290109,-174997.6332594936,10.5,10499825002.366741,47.655,-122.3035,60.0,5.783333333333333
2026-01-20T23:05:48+00:00,SAT-45237,112.38033990980222,41.4900198121604,794.5885602215202,5.026392527087613,-176045.52791791692,10.5,10499823954.472082,47.655,-122.3035,60.0,5.8
2026-01-20T23:05:49+00:00,SAT-45237,112.44572385485289,41.11274191045908,799.6014776838848,5.055747220878291,-177073.6534646981,10.5,10499822926.346535,47.655,-122.3035,60.0,5.816666666666666
2026-01-20T23:05:50+00:00,SAT-45237,112.50962825871359,40.739767308490514,804.6436711441571,5.084548244966695,-178082.38715648509,10.5,10499821917.612844,47.655,-122.3035,60.0,5.833333333333333
2026-01-20T23:05:51+00:00,SAT-45237,112.57210510594602,40.37104157447929,809.7145884169468,5.112806235694156,-179072.10152294303,10.5,10499820927.898478,47.655,-122.3035,60.0,5.85
2026-01-20T23:05:52+00:00,SAT-45237,112.63320397839149,40.00651035045769,814.8136879246903,5.140531656759112,-180043.16304705263,10.5,10499819956.836952,47.655,-122.3035,60.0,5.866666666666666
2026-01-20T23:05:53+00:00,SAT-45237,112.69297219189819,39.64611940167316,819.940438525471,5.1677348865572235,-180995.93522413043,10.5,10499819004.064775,47.655,-122.3035,60.0,5.883333333333334
2026-01-20T23:05:54+00:00,SAT-45237,112.75145492439624,39.28981465629757,825.0943194279448,5.194426111427006,-181930.7748228395,10.5,10499818069.225178,47.655,-122.3035,60.0,5.9
2026-01-20T23:05:55+00:00,SAT-45237,112.80869533471409,38.93754224941337,830.2748199997977,5.220615367935376,-182848.0333662078,10.5,10499817151.966633,47.655,-122.3035,60.0,5.916666666666667
2026-01-20T23:05:56+00:00,SAT-45237,112.86473467384245,38.58924856076956,835.4814396183767,5.246312580730995,-183748.05845741273,10.5,10499816251.941542,47.655,-122.3035,60.0,5.933333333333334
2026-01-20T23:05:57+00:00,SAT-45237,112.91961238929353,38.24488024714125,840.7136875590696,5.271527476164956,-184631.19075441197,10.5,10499815368.809246,47.655,-122.3035,60.0,5.95
2026-01-20T23:05:58+00:00,SAT-45237,112.97336622200315,37.90438427769806,845.9710827975421,5.29626964585675,-185497.76619629262,10.5,10499814502.233803,47.655,-122.3035,60.0,5.966666666666667
2026-01-20T23:05:59+00:00,SAT-45237,113.026032297696,37.567707962482785,851.2531538753635,5.32054852672885,-186348.11530399785,10.5,10499813651.884695,47.655,-122.3035,60.0,5.983333333333333
2026-01-20T23:06:00+00:00,SAT-45237,113.07764521208792,37.23479897979545,856.5594387457279,5.344373378344949,-187182.56238661602,10.5,10499812817.437613,47.655,-122.3035,60.0,6.0
2026-01-20T23:06:01+00:00,SAT-45237,113.128238110823,36.90560540266504,861.8894845965689,5.367753330607888,-188001.42721196418,10.5,10499811998.572788,47.655,-122.3035,60.0,6.016666666666667
2026-01-20T23:06:02+00:00,SAT-45237,113.17784276464594,36.580075720170875,867.2428477212475,5.390697331187013,-188805.02316527136,10.5,10499811194.976835,47.655,-122.3035,60.0,6.033333333333333
2026-01-20T23:06:03+00:00,SAT-45237,113.22648963971808,36.25815885999882,872.6190933368058,5.413214198626362,-189593.65910925218,10.5,10499810406.34089,47.655,-122.3035,60.0,6.05
2026-01-20T23:06:04+00:00,SAT-45237,113.27420796386669,35.939804205860234,878.0177954551892,5.435312540101501,-190367.6365036033,10.5,10499809632.363497,47.655,-122.3035,60.0,6.066666666666666
2026-01-20T23:06:05+00:00,SAT-45237,113.32102578855603,35.62496161800243,883.4385366724439,5.457000882150541,-191127.2539837566,10.5,10499808872.746016,47.655,-122.3035,60.0,6.083333333333333
2026-01-20T23:06:06+00:00,SAT-45237,113.36697004768585,35.31358144436386,888.8809080882954,5.478287503100365,-191872.80149173678,10.5,10499808127.19851,47.655,-122.3035,60.0,6.1
2026-01-20T23:06:07+00:00,SAT-45237,113.41206661220531,35.005614539904414,894.3445090586036,5.499180607123889,-192604.56637238298,10.5,10499807395.433628,47.655,-122.3035,60.0,6.116666666666666
2026-01-20T23:06:08+00:00,SAT-45237,113.45634034228208,34.70101227444792,899.8289471214068,5.519688199152568,-193322.82899225559,10.5,10499806677.171007,47.655,-122.3035,60.0,6.133333333333334
2026-01-20T23:06:09+00:00,SAT-45237,113.49981513596387,34.399726546337035,905.3338377982144,5.539818145585153,-194027.8648659137,10.5,10499805972.135134,47.655,-122.3035,60.0,6.15
2026-01-20T23:06:10+00:00,SAT-45237,113.5425139752171,34.101709791356605,910.8588044558462,5.559578145552689,-194719.94364949383,10.5,10499805280.05635,47.655,-122.3035,60.0,6.166666666666667
2026-01-20T23:06:11+00:00,SAT-45237,113.58445896927476,33.806914992057386,916.4034781396125,5.578975766216415,-195399.33037699157,10.5,10499804600.669622,47.655,-122.3035,60.0,6.183333333333334
2026-01-20T23:06:12+00:00,SAT-45237,113.62567139569765,33.515295684075625,921.9674974416982,5.59801839108918,-196066.2836502591,10.5,10499803933.71635,47.655,-122.3035,60.0,6.2
2026-01-20T23:06:13+00:00,SAT-45237,113.66617173891287,33.22680596415412,927.5505083180075,5.616713319186322,-196721.05911168843,10.5,10499803278.940887,47.655,-122.3035,60.0,6.216666666666667
2026-01-20T23:06:14+00:00,SAT-45237,113.7059797270259,32.94140049206601,933.1521640038916,5.635067649713657,-197363.90540549692,10.5,10499802636.094595,47.655,-122.3035,60.0,6.233333333333333
2026-01-20T23:06:15+00:00,SAT-45237,113.74511436614668,32.65903449765769,938.7721248148757,5.6530883278790425,-197995.06578224176,10.5,10499802004.934217,47.655,-122.3035,60.0,6.25
2026-01-20T23:06:16+00:00,SAT-45237,113.78359397300596,32.3796637846038,944.4100579930741,5.670782215142706,-198614.78055928418,10.5,10499801385.21944,47.655,-122.3035,60.0,6.266666666666667
2026-01-20T23:06:17+00:00,SAT-45237,113.82143620612896,32.10324472996653,950.0656376236658,5.688155973565865,-199223.28307018845,10.5,10499800776.71693,47.655,-122.3035,60.0,6.283333333333333
2026-01-20T23:06:18+00:00,SAT-45237,113.85865809486897,31.82973428882061,955.738544436032,5.705216180768133,-199820.8036910168,10.5,10499800179.196308,47.655,-122.3035,60.0,6.3
2026-01-20T23:06:19+00:00,SAT-45237,113.89527606735763,31.559089992584564,961.4284657195393,5.721969189787697,-200407.56493203982,10.5,10499799592.435068,47.655,-122.3035,60.0,6.316666666666666
2026-01-20T23:06:20+00:00,SAT-45237,113.9313059763901,31.291269953485347,967.135095099561,5.738421361612698,-200983.78958196918,10.5,10499799016.210419,47.655,-122.3035,60.0,6.333333333333333
2026-01-20T23:06:21+00:00,SAT-45237,113.96676312496595,31.02623285748788,972.8581325454055,5.754578773184456,-201549.69048099534,10.5,10499798450.309519,47.655,-122.3035,60.0,6.35
2026-01-20T23:06:22+00:00,SAT-45237,114.00166228923871,30.763937970468902,978.5972840870309,5.770447464207408,-202105.4791651156,10.5,10499797894.520834,47.655,-122.3035,60.0,6.366666666666666
2026-01-20T23:06:23+00:00,SAT-45237,114.03601774137469,30.504345132362275,984.3522617779083,5.78603333829833,-202651.36240396174,10.5,10499797348.637596,47.655,-122.3035,60.0,6.383333333333334
2026-01-20T23:06:24+00:00,SAT-45237,114.0698432707243,30.24741475558484,990.1227835592995,5.801342121698061,-203187.5407547099,10.5,10499796812.459246,47.655,-122.3035,60.0,6.4
