DopplerPredictor/satellites_20260205_234138/SAT-45217.csv

timestamp,satellite,azimuth_deg,elevation_deg,distance_km,relative_velocity_kms,doppler_shift_hz,tx_freq_ghz,rx_freq_hz,ue_lat,ue_lon,ue_alt_m,time_minutes
2026-01-20T23:11:53+00:00,SAT-45217,320.68130211920567,30.185448572717352,995.9956541825148,-4.537304506432111,158915.59659428513,10.5,10500158915.596594,47.655,-122.3035,60.0,11.883333333333333
2026-01-20T23:11:54+00:00,SAT-45217,320.9849546985118,30.38468817569966,991.4705135633169,-4.5092856888201425,157934.25908203298,10.5,10500157934.259083,47.655,-122.3035,60.0,11.9
2026-01-20T23:11:55+00:00,SAT-45217,321.2925928472001,30.584700115661967,986.9733166471467,-4.48087695794145,156939.2651578487,10.5,10500156939.265158,47.655,-122.3035,60.0,11.916666666666666
2026-01-20T23:11:56+00:00,SAT-45217,321.60427963277283,30.785465957016783,982.5044523019684,-4.452073680577991,155930.4525468379,10.5,10500155930.452547,47.655,-122.3035,60.0,11.933333333333334
2026-01-20T23:11:57+00:00,SAT-45217,321.92007889167854,30.98696616648265,978.0643140165421,-4.422871270796105,154907.66063020538,10.5,10500154907.66063,47.655,-122.3035,60.0,11.95
2026-01-20T23:11:58+00:00,SAT-45217,322.240055216731,31.189180078493056,973.6532998532665,-4.393265098859564,153870.72725500457,10.5,10500153870.727255,47.655,-122.3035,60.0,11.966666666666667
2026-01-20T23:11:59+00:00,SAT-45217,322.56427393552667,31.392085855730198,969.2718124918665,-4.36325059050877,152819.49221131534,10.5,10500152819.49221,47.655,-122.3035,60.0,11.983333333333333
2026-01-20T23:12:00+00:00,SAT-45217,322.89280109330446,31.595660453416787,964.9202591740623,-4.332823170990646,151753.7952719337,10.5,10500151753.795273,47.655,-122.3035,60.0,12.0
2026-01-20T23:12:01+00:00,SAT-45217,323.2257034289513,31.799879580362415,960.5990517040634,-4.301978306647782,150673.4776489998,10.5,10500150673.47765,47.655,-122.3035,60.0,12.016666666666667
2026-01-20T23:12:02+00:00,SAT-45217,323.56304835110154,32.00471766126672,956.3086064075826,-4.270711509687442,149578.38216102868,10.5,10500149578.38216,47.655,-122.3035,60.0,12.033333333333333
2026-01-20T23:12:03+00:00,SAT-45217,323.90490391159307,32.21014779866291,952.0493440860946,-4.23901829095016,148468.35157866674,10.5,10500148468.351578,47.655,-122.3035,60.0,12.05
2026-01-20T23:12:04+00:00,SAT-45217,324.2513387717396,32.416141732009486,947.821690018198,-4.206894214124081,147343.2305235072,10.5,10500147343.230524,47.655,-122.3035,60.0,12.066666666666666
2026-01-20T23:12:05+00:00,SAT-45217,324.6024221692715,32.62266979880902,943.6260739069105,-4.174334913794903,146202.86610027554,10.5,10500146202.8661,47.655,-122.3035,60.0,12.083333333333334
2026-01-20T23:12:06+00:00,SAT-45217,324.95822388314645,32.82970089617713,939.4629298089611,-4.141336062492895,145047.10674267664,10.5,10500145047.106743,47.655,-122.3035,60.0,12.1
2026-01-20T23:12:07+00:00,SAT-45217,325.3188141917367,33.03720244039959,935.3326960969474,-4.107893353873756,143875.80162431716,10.5,10500143875.801624,47.655,-122.3035,60.0,12.116666666666667
2026-01-20T23:12:08+00:00,SAT-45217,325.6842638250601,33.245140325236605,931.2358154382662,-4.074002609845235,142688.80441073328,10.5,10500142688.80441,47.655,-122.3035,60.0,12.133333333333333
2026-01-20T23:12:09+00:00,SAT-45217,326.0546439221173,33.45347888533835,927.1727346672054,-4.039659682149998,141485.96981240597,10.5,10500141485.969812,47.655,-122.3035,60.0,12.15
2026-01-20T23:12:10+00:00,SAT-45217,326.43002597493427,33.66218085454673,923.1439047551903,-4.004860502469489,140267.1553396104,10.5,10500140267.15534,47.655,-122.3035,60.0,12.166666666666666
2026-01-20T23:12:11+00:00,SAT-45217,326.81048177207794,33.87120732659072,919.1497807310573,-3.969601081152739,139032.22125789354,10.5,10500139032.221258,47.655,-122.3035,60.0,12.183333333333334
2026-01-20T23:12:12+00:00,SAT-45217,327.19608333688274,34.08051771570787,915.1908216025979,-3.9338775353711144,137781.03157417223,10.5,10500137781.031574,47.655,-122.3035,60.0,12.2
2026-01-20T23:12:13+00:00,SAT-45217,327.5869028630808,34.290069718848095,911.267490250024,-3.8976860609064,136513.45304863274,10.5,10500136513.453049,47.655,-122.3035,60.0,12.216666666666667
2026-01-20T23:12:14+00:00,SAT-45217,327.98301264201893,34.499819276609514,907.3802533475662,-3.8610229772140086,135229.35677303493,10.5,10500135229.356773,47.655,-122.3035,60.0,12.233333333333333
2026-01-20T23:12:15+00:00,SAT-45217,328.3844849884966,34.70972053690004,903.5295812401328,-3.8238846777541515,133928.6164310998,10.5,10500133928.61643,47.655,-122.3035,60.0,12.25
2026-01-20T23:12:16+00:00,SAT-45217,328.791392155268,34.91972581638066,899.7159478695036,-3.7862677174000594,132611.11135991494,10.5,10500132611.11136,47.655,-122.3035,60.0,12.266666666666667
2026-01-20T23:12:17+00:00,SAT-45217,329.2038062502602,35.129785567249606,895.9398306133493,-3.7481687501674554,131276.72436895754,10.5,10500131276.72437,47.655,-122.3035,60.0,12.283333333333333
2026-01-20T23:12:18+00:00,SAT-45217,329.6217991405931,35.339848341412235,892.2017101863535,-3.7095845804053753,129925.34353301322,10.5,10500129925.343533,47.655,-122.3035,60.0,12.3
2026-01-20T23:12:19+00:00,SAT-45217,330.0454423551791,35.54986075837266,888.5020704902853,-3.6705121191694405,128556.86066418364,10.5,10500128556.860664,47.655,-122.3035,60.0,12.316666666666666
2026-01-20T23:12:20+00:00,SAT-45217,330.4748069750764,35.75976747175118,884.8413985075769,-3.6309484762232325,127171.17453416369,10.5,10500127171.174534,47.655,-122.3035,60.0,12.333333333333334
2026-01-20T23:12:21+00:00,SAT-45217,330.9099635270405,35.969511142274264,881.2201841031474,-3.590890890403283,125768.18843532905,10.5,10500125768.188435,47.655,-122.3035,60.0,12.35
2026-01-20T23:12:22+00:00,SAT-45217,331.3509818613266,36.179032408293786,877.6389198956783,-3.550336775285427,124347.81178016488,10.5,10500124347.81178,47.655,-122.3035,60.0,12.366666666666667
2026-01-20T23:12:23+00:00,SAT-45217,331.7979310269234,36.38826986055558,874.098101083341,-3.5092837195767586,122909.96011499382,10.5,10500122909.960115,47.655,-122.3035,60.0,12.383333333333333
2026-01-20T23:12:24+00:00,SAT-45217,332.25087913864263,36.597160018876615,870.5982252691354,-3.4677294975351525,121454.55548491183,10.5,10500121454.555485,47.655,-122.3035,60.0,12.4
2026-01-20T23:12:25+00:00,SAT-45217,332.70989323721597,36.80563731153108,867.1397922758364,-3.42567207995279,119981.52681847752,10.5,10500119981.52682,47.655,-122.3035,60.0,12.416666666666666
2026-01-20T23:12:26+00:00,SAT-45217,333.17503914221845,37.01363405761689,863.723303949987,-3.3831096291520932,118490.80975244872,10.5,10500118490.809752,47.655,-122.3035,60.0,12.433333333333334
2026-01-20T23:12:27+00:00,SAT-45217,333.64638129553344,37.221080451688096,860.3492639708815,-3.3400405370133974,116982.34796367251,10.5,10500116982.347963,47.655,-122.3035,60.0,12.45
2026-01-20T23:12:28+00:00,SAT-45217,334.1239826011028,37.4279045535158,857.0181776216223,-3.2964634028127606,115456.0923928713,10.5,10500115456.092392,47.655,-122.3035,60.0,12.466666666666667
2026-01-20T23:12:29+00:00,SAT-45217,334.6079042526497,37.63403227959208,853.7305515822804,-3.2523770701020713,113912.00253634047,10.5,10500113912.002537,47.655,-122.3035,60.0,12.483333333333333
2026-01-20T23:12:30+00:00,SAT-45217,335.09820555746853,37.8393874002631,850.4868936862754,-3.207780606165282,112350.04572641871,10.5,10500112350.045727,47.655,-122.3035,60.0,12.5
2026-01-20T23:12:31+00:00,SAT-45217,335.5949437480629,38.04389153921902,847.2877126972413,-3.162673336216644,110770.19832925472,10.5,10500110770.19833,47.655,-122.3035,60.0,12.516666666666667
2026-01-20T23:12:32+00:00,SAT-45217,336.09817378956944,38.24746417903707,844.1335180517901,-3.1170548523884487,109172.44605959604,10.5,10500109172.44606,47.655,-122.3035,60.0,12.533333333333333
2026-01-20T23:12:33+00:00,SAT-45217,336.60794817961647,38.450022671544374,841.0248195933075,-3.070925001159447,107556.78354047918,10.5,10500107556.78354,47.655,-122.3035,60.0,12.55
2026-01-20T23:12:34+00:00,SAT-45217,337.12431673694925,38.6514822518757,837.9621273182883,-3.0242839070702914,105923.21513384455,10.5,10500105923.215134,47.655,-122.3035,60.0,12.566666666666666
2026-01-20T23:12:35+00:00,SAT-45217,337.6473263847666,38.851756058857724,834.9459510990216,-2.9771319942374928,104271.75569404641,10.5,10500104271.755693,47.655,-122.3035,60.0,12.583333333333334
2026-01-20T23:12:36+00:00,SAT-45217,338.17702092900043,39.05075516194085,831.9768003848164,-2.9294699745258783,102602.4301536022,10.5,10500102602.430153,47.655,-122.3035,60.0,12.6
2026-01-20T23:12:37+00:00,SAT-45217,338.7134408260219,39.24838859278529,829.0551839150253,-2.881298857072502,100915.27385676016,10.5,10500100915.273857,47.655,-122.3035,60.0,12.616666666666667
2026-01-20T23:12:38+00:00,SAT-45217,339.2566229434824,39.4445633831798,826.1816094225695,-2.8326199797572644,99210.33366173368,10.5,10500099210.333662,47.655,-122.3035,60.0,12.633333333333333
2026-01-20T23:12:39+00:00,SAT-45217,339.806600319139,39.639184611119035,823.3565833060761,-2.783434992352251,97487.66735051967,10.5,10500097487.66735,47.655,-122.3035,60.0,12.65
2026-01-20T23:12:40+00:00,SAT-45217,340.3634019090483,39.832155452075995,820.5806103188246,-2.7337458800680623,95747.3444535908,10.5,10500095747.344454,47.655,-122.3035,60.0,12.666666666666666
2026-01-20T23:12:41+00:00,SAT-45217,340.9270523333242,40.02337723849148,817.8541932342039,-2.683554957533823,93989.44603904993,10.5,10500093989.44604,47.655,-122.3035,60.0,12.683333333333334
2026-01-20T23:12:42+00:00,SAT-45217,341.4975716142462,40.21274952573403,815.1778325171806,-2.6328648954474647,92214.06564603563,10.5,10500092214.065645,47.655,-122.3035,60.0,12.7
2026-01-20T23:12:43+00:00,SAT-45217,342.0749749142279,40.4001701670848,812.5520259691824,-2.5816787269880623,90421.30950930946,10.5,10500090421.30951,47.655,-122.3035,60.0,12.716666666666667
2026-01-20T23:12:44+00:00,SAT-45217,342.6592722706682,40.58553539662051,809.9772683665898,-2.529999824308891,88611.29573594329,10.5,10500088611.295736,47.655,-122.3035,60.0,12.733333333333333
2026-01-20T23:12:45+00:00,SAT-45217,343.2504683214427,40.76873991805249,807.4540511226699,-2.477831936944356,86784.15565049251,10.5,10500086784.155651,47.655,-122.3035,60.0,12.75
2026-01-20T23:12:46+00:00,SAT-45217,343.84856203583246,40.94967700415566,804.9828619112077,-2.425179201557266,84940.03413638676,10.5,10500084940.034136,47.655,-122.3035,60.0,12.766666666666667
2026-01-20T23:12:47+00:00,SAT-45217,344.45354644643635,41.1282386049901,802.5641842804149,-2.3720461079174586,83079.08844435745,10.5,10500083079.088444,47.655,-122.3035,60.0,12.783333333333333
2026-01-20T23:12:48+00:00,SAT-45217,345.06540837180404,41.30431546183075,800.1984973007704,-2.3184375709105716,81201.49071448956,10.5,10500081201.490715,47.655,-122.3035,60.0,12.8
2026-01-20T23:12:49+00:00,SAT-45217,345.684128158173,41.47779723474156,797.8862751410433,-2.2643588493844917,79307.425133881,10.5,10500079307.425135,47.655,-122.3035,60.0,12.816666666666666
2026-01-20T23:12:50+00:00,SAT-45217,346.30967940195467,41.64857263256619,795.6279867252523,-2.2098156415584698,77397.09127827336,10.5,10500077397.091278,47.655,-122.3035,60.0,12.833333333333334
2026-01-20T23:12:51+00:00,SAT-45217,346.9420287015227,41.81652955851264,793.4240952944741,-2.154814016466813,75470.70171092008,10.5,10500075470.701712,47.655,-122.3035,60.0,12.85
2026-01-20T23:12:52+00:00,SAT-45217,347.58113539551016,41.98155525911187,791.2750580370212,-2.0993604501429926,73528.48324990692,10.5,10500073528.48325,47.655,-122.3035,60.0,12.866666666666667
2026-01-20T23:12:53+00:00,SAT-45217,348.22695131800367,42.1435364843455,789.1813256825333,-2.0434618337967683,71570.67725454943,10.5,10500071570.677254,47.655,-122.3035,60.0,12.883333333333333
2026-01-20T23:12:54+00:00,SAT-45217,348.8794205652715,42.30235965679772,787.1433420879151,-1.9871254494173551,69597.53877091274,10.5,10500069597.53877,47.655,-122.3035,60.0,12.9
2026-01-20T23:12:55+00:00,SAT-45217,349.538479265669,42.45791104717738,785.1615438476043,-1.930359005394421,67609.33777940946,10.5,10500067609.33778,47.655,-122.3035,60.0,12.916666666666666
2026-01-20T23:12:56+00:00,SAT-45217,350.2040553736696,42.6100769606545,783.2363598683137,-1.873170601220442,65606.3579585269,10.5,10500065606.357958,47.655,-122.3035,60.0,12.933333333333334
2026-01-20T23:12:57+00:00,SAT-45217,350.87606846712595,42.758743928255385,781.3682109789776,-1.8155687539665415,63588.89761212299,10.5,10500063588.897612,47.655,-122.3035,60.0,12.95
2026-01-20T23:12:58+00:00,SAT-45217,351.5544295702609,42.90379890782676,779.5575095142918,-1.7575623795324795,61557.269012721576,10.5,10500061557.269012,47.655,-122.3035,60.0,12.966666666666667
2026-01-20T23:12:59+00:00,SAT-45217,352.23904098914556,43.04512949064363,777.8046589169553,-1.6991608088150354,59511.798967797484,10.5,10500059511.798967,47.655,-122.3035,60.0,12.983333333333333
2026-01-20T23:13:00+00:00,SAT-45217,352.92979617463055,43.18262411600594,776.1100533237847,-1.6403737627129924,57452.82794434548,10.5,10500057452.827944,47.655,-122.3035,60.0,13.0
2026-01-20T23:13:01+00:00,SAT-45217,353.6265795991183,43.316172290021214,774.4740771767576,-1.5812113714781162,55380.710746633325,10.5,10500055380.710747,47.655,-122.3035,60.0,13.016666666666667
2026-01-20T23:13:02+00:00,SAT-45217,354.32926666686495,43.445664811575746,772.8971048147592,-1.5216841466742554,53295.81553409086,10.5,10500053295.815535,47.655,-122.3035,60.0,13.033333333333333
2026-01-20T23:13:03+00:00,SAT-45217,355.03772364040094,43.57099400102873,771.3795000932898,-1.4618030037612295,51198.52461229332,10.5,10500051198.524612,47.655,-122.3035,60.0,13.05
2026-01-20T23:13:04+00:00,SAT-45217,355.7518076075278,43.692053935059285,769.921615981653,-1.4015792232503237,49089.23307246241,10.5,10500049089.233072,47.655,-122.3035,60.0,13.066666666666666
2026-01-20T23:13:05+00:00,SAT-45217,356.4713664624611,43.80874068187717,768.523794198882,-1.3410244696356002,46968.34945452097,10.5,10500046968.349455,47.655,-122.3035,60.0,13.083333333333334
2026-01-20T23:13:06+00:00,SAT-45217,357.1962389301899,43.92095254072046,767.1863648307882,-1.2801507759348698,44836.29520565236,10.5,10500044836.295206,47.655,-122.3035,60.0,13.1
2026-01-20T23:13:07+00:00,SAT-45217,357.9262546203445,44.0285902819501,765.9096459624229,-1.218970524104556,42693.50399434611,10.5,10500042693.503994,47.655,-122.3035,60.0,13.116666666666667
2026-01-20T23:13:08+00:00,SAT-45217,358.6612341082319,44.13155738645205,764.6939433300755,-1.1574964566550532,40540.42211721704,10.5,10500040540.422117,47.655,-122.3035,60.0,13.133333333333333
2026-01-20T23:13:09+00:00,SAT-45217,359.40098906331974,44.2297602859843,763.5395499616861,-1.0957416381349145,38377.50715001844,10.5,10500038377.50715,47.655,-122.3035,60.0,13.15
2026-01-20T23:13:10+00:00,SAT-45217,0.145322395806556,44.323108599248656,762.4467458556707,-1.033719474171431,36205.22861452381,10.5,10500036205.228615,47.655,-122.3035,60.0,13.166666666666666
2026-01-20T23:13:11+00:00,SAT-45217,0.8940284595101168,44.411515367492015,761.4157976407561,-0.9714436706380952,34024.06654839862,10.5,10500034024.06655,47.655,-122.3035,60.0,13.183333333333334
2026-01-20T23:13:12+00:00,SAT-45217,1.6468932715451159,44.49489728348795,760.4469582765398,-0.908928239360385,31834.511705041103,10.5,10500031834.511705,47.655,-122.3035,60.0,13.2
2026-01-20T23:13:13+00:00,SAT-45217,2.403694781833738,44.57317491676263,759.5404667483568,-0.8461874821549941,29637.064994568467,10.5,10500029637.064995,47.655,-122.3035,60.0,13.216666666666667
2026-01-20T23:13:14+00:00,SAT-45217,3.164203179018788,44.646272932116744,758.6965477780677,-0.7832359636287674,27432.236531120663,10.5,10500027432.23653,47.655,-122.3035,60.0,13.233333333333333
2026-01-20T23:13:15+00:00,SAT-45217,3.9281812213402643,44.71412029936662,757.9154115619709,-0.7200885065476751,25220.545470662204,10.5,10500025220.545471,47.655,-122.3035,60.0,13.25
2026-01-20T23:13:16+00:00,SAT-45217,4.6953846110981745,44.77665049514679,757.197253513337,-0.6567601798116972,23002.519589811764,10.5,10500023002.51959,47.655,-122.3035,60.0,13.266666666666667
2026-01-20T23:13:17+00:00,SAT-45217,5.465562410453944,44.83380169507155,756.5422540169343,-0.593266264793777,20778.69410688997,10.5,10500020778.694107,47.655,-122.3035,60.0,13.283333333333333
2026-01-20T23:13:18+00:00,SAT-45217,6.238457470619239,44.885516953322266,755.9505782171259,-0.5296222548920795,18549.61166623756,10.5,10500018549.611666,47.655,-122.3035,60.0,13.3
2026-01-20T23:13:19+00:00,SAT-45217,7.013806912655753,44.93174437153975,755.4223758064112,-0.46584382564946414,16315.821291672964,10.5,10500016315.821291,47.655,-122.3035,60.0,13.316666666666666
2026-01-20T23:13:20+00:00,SAT-45217,7.79134262212464,44.972437253497446,754.9577808437721,-0.4019468250312405,14077.878045978146,10.5,10500014077.878046,47.655,-122.3035,60.0,13.333333333333334
2026-01-20T23:13:21+00:00,SAT-45217,8.570791785364577,45.007554246422615,754.5569115827099,-0.3379472462659043,11836.342079666309,10.5,10500011836.34208,47.655,-122.3035,60.0,13.35
2026-01-20T23:13:22+00:00,SAT-45217,9.351877437073245,45.03705946660365,754.2198703263743,-0.27386121296026894,9591.778109650857,10.5,10500009591.77811,47.655,-122.3035,60.0,13.366666666666667
2026-01-20T23:13:23+00:00,SAT-45217,10.134319037622939,45.06092260960961,753.9467432975331,-0.2097049583792195,7344.754693534701,10.5,10500007344.754694,47.655,-122.3035,60.0,13.383333333333333
2026-01-20T23:13:24+00:00,SAT-45217,10.91783306820342,45.07911904394599,753.7376005292081,-0.14549480549160632,5095.843530733072,10.5,10500005095.84353,47.655,-122.3035,60.0,13.4
2026-01-20T23:13:25+00:00,SAT-45217,11.702133647772762,45.09162988764026,753.5924957752117,-0.08124714370864532,2845.618647753893,10.5,10500002845.618649,47.655,-122.3035,60.0,13.416666666666666
2026-01-20T23:13:26+00:00,SAT-45217,12.486933146692039,45.098442067001955,753.5114664438831,-0.016978411914713994,594.6558038644753,10.5,10500000594.655804,47.655,-122.3035,60.0,13.433333333333334
2026-01-20T23:13:27+00:00,SAT-45217,13.271942829611087,45.09954835773927,753.4945335487477,0.04729492496602686,-1656.4683296445103,10.5,10499998343.53167,47.655,-122.3035,60.0,13.45
2026-01-20T23:13:28+00:00,SAT-45217,14.056873493650782,45.094947407609126,753.5417016825465,0.11155639647566545,-3907.176887667025,10.5,10499996092.823112,47.655,-122.3035,60.0,13.466666666666667
2026-01-20T23:13:29+00:00,SAT-45217,14.841436110609612,45.0846437407245,753.6529590117179,0.17578954682275028,-6156.893518778507,10.5,10499993843.106482,47.655,-122.3035,60.0,13.483333333333333
2026-01-20T23:13:30+00:00,SAT-45217,15.62534246740201,45.06864774351218,753.8282772910246,0.23997795681934206,-8405.04315356423,10.5,10499991594.956846,47.655,-122.3035,60.0,13.5
2026-01-20T23:13:31+00:00,SAT-45217,16.40830580549627,45.046975632255254,754.0676119000589,0.3041052637654936,-10651.052701057886,10.5,10499989348.947298,47.655,-122.3035,60.0,13.516666666666667
2026-01-20T23:13:32+00:00,SAT-45217,17.19004144876336,45.01964940260867,754.3709018995787,0.36815518353038224,-12894.351822116265,10.5,10499987105.648178,47.655,-122.3035,60.0,13.533333333333333
2026-01-20T23:13:33+00:00,SAT-45217,17.970267422821966,44.98669676120279,754.7380701098673,0.43211153088732607,-15134.373641637521,10.5,10499984865.626358,47.655,-122.3035,60.0,13.55
2026-01-20T23:13:34+00:00,SAT-45217,18.748705059194265,44.94815103991558,755.1690232093716,0.4959582361473089,-17370.555331137595,10.5,10499982629.44467,47.655,-122.3035,60.0,13.566666666666666
2026-01-20T23:13:35+00:00,SAT-45217,19.52507957519394,44.90405109366125,755.66365184993,0.5596793695799567,-19602.33896407609,10.5,10499980397.661036,47.655,-122.3035,60.0,13.583333333333334
2026-01-20T23:13:36+00:00,SAT-45217,20.29912064209215,44.85444118162926,756.221830796356,0.6232591612701917,-21829.17221132031,10.5,10499978170.82779,47.655,-122.3035,60.0,13.6
2026-01-20T23:13:37+00:00,SAT-45217,21.0705629276318,44.79937083309302,756.8434190858244,0.686682011434332,-24050.50870245871,10.5,10499975949.491297,47.655,-122.3035,60.0,13.616666666666667
2026-01-20T23:13:38+00:00,SAT-45217,21.839146602861117,44.73889469941713,757.5282601975484,0.7499325228995273,-26265.809163368067,10.5,10499973734.190836,47.655,-122.3035,60.0,13.633333333333333
2026-01-20T23:13:39+00:00,SAT-45217,22.604617836611485,44.67307239118435,758.2761822548445,0.8129955067190785,-28474.541612885823,10.5,10499971525.458387,47.655,-122.3035,60.0,13.65
2026-01-20T23:13:40+00:00,SAT-45217,23.366729245286376,44.60196830373499,759.0869982328036,0.8758560067848873,-30676.182224842083,10.5,10499969323.817776,47.655,-122.3035,60.0,13.666666666666666
2026-01-20T23:13:41+00:00,SAT-45217,24.125240318372352,44.525651430437655,759.9605061905024,0.9384993083112939,-32870.21562519957,10.5,10499967129.784374,47.655,-122.3035,60.0,13.683333333333334
2026-01-20T23:13:42+00:00,SAT-45217,24.879917803081444,44.44419516612965,760.8964895116809,1.0009109660915898,-35056.13588171619,10.5,10499964943.864119,47.655,-122.3035,60.0,13.7
2026-01-20T23:13:43+00:00,SAT-45217,25.630536064443202,44.35767710007038,761.8947171735981,1.0630768081916309,-37233.44663331098,10.5,10499962766.553368,47.655,-122.3035,60.0,13.716666666666667
2026-01-20T23:13:44+00:00,SAT-45217,26.376877399981634,44.26617880163513,762.9549440195717,1.1249829586107216,-39401.66188374417,10.5,10499960598.338116,47.655,-122.3035,60.0,13.733333333333333
2026-01-20T23:13:45+00:00,SAT-45217,27.11873232448296,44.16978559820278,764.0769110541178,1.1866158457310227,-41560.30629755115,10.5,10499958439.693703,47.655,-122.3035,60.0,13.75
2026-01-20T23:13:46+00:00,SAT-45217,27.855899814328087,44.0685863475753,765.2603457465193,1.2479622134238069,-43708.9155890305,10.5,10499956291.084412,47.655,-122.3035,60.0,13.766666666666667
2026-01-20T23:13:47+00:00,SAT-45217,28.588187514660433,43.96267320578804,766.5049623454679,1.3090091429247583,-45847.03728840958,10.5,10499954152.962711,47.655,-122.3035,60.0,13.783333333333333
2026-01-20T23:13:48+00:00,SAT-45217,29.315411915881295,43.85214139049038,767.8104622155236,1.3697440548920126,-47974.23081392572,10.5,10499952025.769186,47.655,-122.3035,60.0,13.8
2026-01-20T23:13:49+00:00,SAT-45217,30.03739848886351,43.737088942638444,769.1765341756292,1.430154719329145,-50090.0678193713,10.5,10499949909.93218,47.655,-122.3035,60.0,13.816666666666666
2026-01-20T23:13:50+00:00,SAT-45217,30.753981785233595,43.61761648686639,770.602854847517,1.4902292704298905,-52194.13271401861,10.5,10499947805.867287,47.655,-122.3035,60.0,13.833333333333334
2026-01-20T23:13:51+00:00,SAT-45217,31.46500550655514,43.493826991100335,772.0890890189246,1.5499562173137769,-54286.023038627136,10.5,10499945713.976961,47.655,-122.3035,60.0,13.85
2026-01-20T23:13:52+00:00,SAT-45217,32.170322540934485,43.365825526737794,773.6348900175136,1.6093244386386145,-56365.34927675016,10.5,10499943634.650723,47.655,-122.3035,60.0,13.866666666666667
2026-01-20T23:13:53+00:00,SAT-45217,32.86979496234577,43.233719031610704,775.239900079419,1.6683232035588447,-58431.73558878479,10.5,10499941568.264412,47.655,-122.3035,60.0,13.883333333333333
2026-01-20T23:13:54+00:00,SAT-45217,33.5632940060885,43.09761607439041,776.9037507386978,1.726942167126404,-60484.81965089076,10.5,10499939515.18035,47.655,-122.3035,60.0,13.9
2026-01-20T23:13:55+00:00,SAT-45217,34.25070001123531,42.957626623340865,778.6260632121921,1.7851713943844085,-62524.25349885316,10.5,10499937475.746502,47.655,-122.3035,60.0,13.916666666666666
2026-01-20T23:13:56+00:00,SAT-45217,34.931902343386554,42.813861817800586,780.4064488084217,1.8430013266240277,-64549.702346255464,10.5,10499935450.297653,47.655,-122.3035,60.0,13.933333333333334
2026-01-20T23:13:57+00:00,SAT-45217,35.60679927799092,42.66643374774394,782.2445093028233,1.900422818493168,-66560.84588418253,10.5,10499933439.154116,47.655,-122.3035,60.0,13.95
2026-01-20T23:13:58+00:00,SAT-45217,36.27529787357342,42.51545523625706,784.1398373499984,1.9574271507602852,-68557.37872826339,10.5,10499931442.621271,47.655,-122.3035,60.0,13.966666666666667
2026-01-20T23:13:59+00:00,SAT-45217,36.93731382598671,42.36103962752052,786.0920169086925,2.0140059780086608,-70539.00858670346,10.5,10499929460.991413,47.655,-122.3035,60.0,13.983333333333333
2026-01-20T23:14:00+00:00,SAT-45217,37.592771284878616,42.20330058586792,788.1006236146067,2.070151373210196,-72505.45782144746,10.5,10499927494.54218,47.655,-122.3035,60.0,14.0
2026-01-20T23:14:01+00:00,SAT-45217,38.24160266806372,42.04235189861746,790.1652251976664,2.1258558400658796,-74456.46388039466,10.5,10499925543.53612,47.655,-122.3035,60.0,14.016666666666667
2026-01-20T23:14:02+00:00,SAT-45217,38.883748462735056,41.87830728566444,792.2853819115932,2.1811122502534745,-76391.7770995476,10.5,10499923608.2229,47.655,-122.3035,60.0,14.033333333333333
2026-01-20T23:14:03+00:00,SAT-45217,39.51915699426988,41.711280221890796,794.4606469008972,2.2359139195052307,-78311.16336757518,10.5,10499921688.836632,47.655,-122.3035,60.0,14.05
2026-01-20T23:14:04+00:00,SAT-45217,40.147784205909026,41.541383761850405,796.6905666437402,2.290254533156728,-80214.40151821847,10.5,10499919785.598482,47.655,-122.3035,60.0,14.066666666666666
2026-01-20T23:14:05+00:00,SAT-45217,40.76959340739284,41.3687303785075,798.9746813205488,2.3441282061258373,-82101.28543100737,10.5,10499917898.71457,47.655,-122.3035,60.0,14.083333333333334
2026-01-20T23:14:06+00:00,SAT-45217,41.38455503222027,41.19343180583413,801.3125252424436,2.3975294401706706,-83971.62253425347,10.5,10499916028.377466,47.655,-122.3035,60.0,14.1
2026-01-20T23:14:07+00:00,SAT-45217,41.99264637714619,41.015598893159954,803.7036272370444,2.4504531093863915,-85825.23329708686,10.5,10499914174.766703,47.655,-122.3035,60.0,14.116666666666667
2026-01-20T23:14:08+00:00,SAT-45217,42.59385133409047,40.83534146905697,806.147511019807,2.502894514255018,-87661.95312250881,10.5,10499912338.046877,47.655,-122.3035,60.0,14.133333333333333
2026-01-20T23:14:09+00:00,SAT-45217,43.18816013241127,40.65276820969517,808.6436956192688,2.5548493136109354,-89481.62996453642,10.5,10499910518.370035,47.655,-122.3035,60.0,14.15
2026-01-20T23:14:10+00:00,SAT-45217,43.775569062947625,40.467986520635044,811.1916957344389,2.6063135524720233,-91284.12530296625,10.5,10499908715.874697,47.655,-122.3035,60.0,14.166666666666666
2026-01-20T23:14:11+00:00,SAT-45217,44.356080208988985,40.28110242483165,813.7910221199481,2.6572836408998772,-93069.31340296997,10.5,10499906930.686598,47.655,-122.3035,60.0,14.183333333333334
2026-01-20T23:14:12+00:00,SAT-45217,44.92970117357749,40.092220460305214,816.4411819501119,2.707756357608802,-94837.0814414965,10.5,10499905162.918558,47.655,-122.3035,60.0,14.2
2026-01-20T23:14:13+00:00,SAT-45217,45.49644481012985,39.90144358550876,819.1416791865962,2.75772885032309,-96587.32951978546,10.5,10499903412.67048,47.655,-122.3035,60.0,14.216666666666667
2026-01-20T23:14:14+00:00,SAT-45217,46.05632895609834,39.70887309244753,821.8920149464382,2.8071985920762206,-98319.96913278023,10.5,10499901680.030867,47.655,-122.3035,60.0,14.233333333333333
2026-01-20T23:14:15+00:00,SAT-45217,46.609376162463406,39.51460853039833,824.6916878264827,2.8561634239654827,-100034.92466657574,10.5,10499899965.075333,47.655,-122.3035,60.0,14.25
2026-01-20T23:14:16+00:00,SAT-45217,47.15561343680953,39.31874763391472,827.540194270459,2.904621509722339,-101732.13180728036,10.5,10499898267.868193,47.655,-122.3035,60.0,14.266666666666667
2026-01-20T23:14:17+00:00,SAT-45217,47.69507198341014,39.12138626104301,830.4370288907513,2.9525713422195414,-103411.53776892273,10.5,10499896588.46223,47.655,-122.3035,60.0,14.283333333333333
2026-01-20T23:14:18+00:00,SAT-45217,48.22778695132075,38.92261833781598,833.3816847966573,3.0000117320753197,-105073.10089432221,10.5,10499894926.899105,47.655,-122.3035,60.0,14.3
2026-01-20T23:14:19+00:00,SAT-45217,48.75379718755762,38.72253581000159,836.3736539112804,3.0469418004680477,-106716.79040342804,10.5,10499893283.209597,47.655,-122.3035,60.0,14.316666666666666
2026-01-20T23:14:20+00:00,SAT-45217,49.27314499655352,38.5212286015048,839.4124272812595,3.09336096559917,-108342.58591919375,10.5,10499891657.414082,47.655,-122.3035,60.0,14.333333333333334
2026-01-20T23:14:21+00:00,SAT-45217,49.785875905537715,38.318784579547334,842.4974953729936,3.139268951455672,-109950.47777447608,10.5,10499890049.522226,47.655,-122.3035,60.0,14.35
2026-01-20T23:14:22+00:00,SAT-45217,50.292038439555895,38.11528952485433,845.6283483776097,3.18466573440343,-111540.46514150803,10.5,10499888459.534859,47.655,-122.3035,60.0,14.366666666666667
2026-01-20T23:14:23+00:00,SAT-45217,50.79168389667816,37.910827110582986,848.8044764626629,3.2295516022507282,-113112.55810055317,10.5,10499886887.4419,47.655,-122.3035,60.0,14.383333333333333
2026-01-20T23:14:24+00:00,SAT-45217,51.284866141419286,37.70547888238433,852.025370082746,3.273927073523144,-114666.77481257054,10.5,10499885333.225187,47.655,-122.3035,60.0,14.4
2026-01-20T23:14:25+00:00,SAT-45217,51.77164139458312,37.49932424833281,855.290520209587,3.317792950046247,-116203.14336088333,10.5,10499883796.85664,47.655,-122.3035,60.0,14.416666666666666
2026-01-20T23:14:26+00:00,SAT-45217,52.25206804019027,37.29244046984637,858.5994186145896,3.361150243702114,-117721.6991858821,10.5,10499882278.300814,47.655,-122.3035,60.0,14.433333333333334
2026-01-20T23:14:27+00:00,SAT-45217,52.72620643094917,37.08490266129023,861.9515580783274,3.4040002434859997,-119222.48743363317,10.5,10499880777.512566,47.655,-122.3035,60.0,14.45
2026-01-20T23:14:28+00:00,SAT-45217,53.194118712323494,36.87678378916041,865.3464326669125,3.4463444325911814,-120705.56005183895,10.5,10499879294.439949,47.655,-122.3035,60.0,14.466666666666667
2026-01-20T23:14:29+00:00,SAT-45217,53.65586864411136,36.668154679919034,868.7835379256754,3.488184529091682,-122170.9772147192,10.5,10499877829.022785,47.655,-122.3035,60.0,14.483333333333333
2026-01-20T23:14:30+00:00,SAT-45217,54.11152143672625,36.45908402851883,872.2623711134139,3.5295224439530415,-123618.8058523705,10.5,10499876381.194147,47.655,-122.3035,60.0,14.5
2026-01-20T23:14:31+00:00,SAT-45217,54.561143590793996,36.249638412431956,875.7824313947691,3.570360305703578,-125049.12051485822,10.5,10499874950.879486,47.655,-122.3035,60.0,14.516666666666667
2026-01-20T23:14:32+00:00,SAT-45217,55.00480274865906,36.039882306895414,879.3432200572025,3.610700419966256,-126462.00195485134,10.5,10499873537.998045,47.655,-122.3035,60.0,14.533333333333333
2026-01-20T23:14:33+00:00,SAT-45217,55.44256754940901,35.82987810501973,882.9442406876195,3.6505452768925366,-127857.53738798737,10.5,10499872142.462612,47.655,-122.3035,60.0,14.55
2026-01-20T23:14:34+00:00,SAT-45217,55.874507493257354,35.61968613964975,886.5849993564001,3.689897534757807,-129235.81991831488,10.5,10499870764.180082,47.655,-122.3035,60.0,14.566666666666666
2026-01-20T23:14:35+00:00,SAT-45217,56.30069281225292,35.40936470816236,890.265004785073,3.728760029408429,-130596.94886916905,10.5,10499869403.05113,47.655,-122.3035,60.0,14.583333333333334
2026-01-20T23:14:36+00:00,SAT-45217,56.72119434991058,35.19897009849762,893.9837685234116,3.767135730476568,-131941.02824962983,10.5,10499868058.97175,47.655,-122.3035,60.0,14.6
2026-01-20T23:14:37+00:00,SAT-45217,57.136083443842516,34.98855661923584,897.7408050828593,3.8050277688081766,-133268.16771516597,10.5,10499866731.832285,47.655,-122.3035,60.0,14.616666666666667
2026-01-20T23:14:38+00:00,SAT-45217,57.545431818827794,34.778176629469755,901.5356320973132,3.8424394121849605,-134578.48171731553,10.5,10499865421.518282,47.655,-122.3035,60.0,14.633333333333333
2026-01-20T23:14:39+00:00,SAT-45217,57.949311484609396,34.56788057123158,905.3677704596905,3.879374046178341,-135872.0888331106,10.5,10499864127.911167,47.655,-122.3035,60.0,14.65
2026-01-20T23:14:40+00:00,SAT-45217,58.347794638660545,34.35771700395943,909.2367444394048,3.9158352019107037,-137149.1127373938,10.5,10499862850.887262,47.655,-122.3035,60.0,14.666666666666666
2026-01-20T23:14:41+00:00,SAT-45217,58.740953578595416,34.14773263828176,913.1420818275246,3.9518264986378737,-138409.68019181347,10.5,10499861590.319809,47.655,-122.3035,60.0,14.683333333333334
2026-01-20T23:14:42+00:00,SAT-45217,59.128860615263825,33.93797237360038,917.0833140246714,3.9873516825486437,-139653.9224037476,10.5,10499860346.077597,47.655,-122.3035,60.0,14.7
2026-01-20T23:14:43+00:00,SAT-45217,59.51158799604173,33.72847933409975,921.0599761676137,4.022414600942131,-140881.97412188526,10.5,10499859118.025879,47.655,-122.3035,60.0,14.716666666666667
2026-01-20T23:14:44+00:00,SAT-45217,59.889207831412854,33.519294906561626,925.0716072301043,4.057019183076023,-142093.97296545145,10.5,10499857906.027035,47.655,-122.3035,60.0,14.733333333333333
2026-01-20T23:14:45+00:00,SAT-45217,60.26179202560985,33.3104587794428,929.1177501046188,4.091169426682741,-143290.05895194595,10.5,10499856709.941048,47.655,-122.3035,60.0,14.75
2026-01-20T23:14:46+00:00,SAT-45217,60.62941221161795,33.10200898276007,933.19795167065,4.124869461868044,-144470.37673514275,10.5,10499855529.623264,47.655,-122.3035,60.0,14.766666666666667
2026-01-20T23:14:47+00:00,SAT-45217,60.99213969700936,32.89398192476893,937.3117629267228,4.158123439280947,-145635.07168832762,10.5,10499854364.928312,47.655,-122.3035,60.0,14.783333333333333
2026-01-20T23:14:48+00:00,SAT-45217,61.350045404819724,32.68641243430739,941.4587390108841,4.19093561457528,-146784.29286249902,10.5,10499853215.707138,47.655,-122.3035,60.0,14.8
2026-01-20T23:14:49+00:00,SAT-45217,61.7031998266566,32.47933379868508,945.6384393054258,4.2233102614958415,-147918.1899422778,10.5,10499852081.810059,47.655,-122.3035,60.0,14.816666666666666
2026-01-20T23:14:50+00:00,SAT-45217,62.05167297287988,32.2727778056885,949.8504274549273,4.255251759230838,-149036.9163053588,10.5,10499850963.083694,47.655,-122.3035,60.0,14.833333333333334
2026-01-20T23:14:51+00:00,SAT-45217,62.395534334334954,32.06677478094471,954.0942714714164,4.286764500198576,-150140.62579281113,10.5,10499849859.374207,47.655,-122.3035,60.0,14.85
2026-01-20T23:14:52+00:00,SAT-45217,62.73485284053985,31.861353629456662,958.3695437475634,4.31785292366735,-151229.4738865885,10.5,10499848770.526114,47.655,-122.3035,60.0,14.866666666666667
2026-01-20T23:14:53+00:00,SAT-45217,63.06969682459575,31.656541874998375,962.6758211034064,4.34852153056992,-152303.61822839506,10.5,10499847696.381771,47.655,-122.3035,60.0,14.883333333333333
2026-01-20T23:14:54+00:00,SAT-45217,63.40013399272034,31.45236569833245,967.0126848478487,4.378774821080271,-153363.2164333595,10.5,10499846636.783567,47.655,-122.3035,60.0,14.9
2026-01-20T23:14:55+00:00,SAT-45217,63.726231392556805,31.24884997782389,971.3797207779045,4.408617370657907,-154408.42875342787,10.5,10499845591.571247,47.655,-122.3035,60.0,14.916666666666666
2026-01-20T23:14:56+00:00,SAT-45217,64.04805539028953,31.046018325878045,975.7765192537807,4.438053724216796,-155439.41437071227,10.5,10499844560.585629,47.655,-122.3035,60.0,14.933333333333334
2026-01-20T23:14:57+00:00,SAT-45217,64.3656716432084,30.843893129662337,980.2026751684143,4.467088494346216,-156456.33483760044,10.5,10499843543.665163,47.655,-122.3035,60.0,14.95
2026-01-20T23:14:58+00:00,SAT-45217,64.67914508208085,30.642495586593554,984.6577880149655,4.495726268643993,-157459.35083117374,10.5,10499842540.649168,47.655,-122.3035,60.0,14.966666666666667
2026-01-20T23:14:59+00:00,SAT-45217,64.98853988984803,30.441845743363416,989.1414618618937,4.523971695043415,-158448.62514171674,10.5,10499841551.374859,47.655,-122.3035,60.0,14.983333333333333
