DopplerPredictor/satellites_20260205_234138/SAT-54185.csv

timestamp,satellite,azimuth_deg,elevation_deg,distance_km,relative_velocity_kms,doppler_shift_hz,tx_freq_ghz,rx_freq_hz,ue_lat,ue_lon,ue_alt_m,time_minutes
2026-01-20T23:09:37+00:00,SAT-54185,293.7827560486625,30.059291017670514,985.6290148256998,-5.791047618856203,202826.98371948412,10.5,10500202826.983719,47.655,-122.3035,60.0,9.616666666666667
2026-01-20T23:09:38+00:00,SAT-54185,293.72828890637226,30.31466963799259,979.8534922063449,-5.775256488247575,202273.91152915373,10.5,10500202273.91153,47.655,-122.3035,60.0,9.633333333333333
2026-01-20T23:09:39+00:00,SAT-54185,293.67283155952174,30.57268656928889,974.093718383757,-5.7591769114367,201710.73673269447,10.5,10500201710.736732,47.655,-122.3035,60.0,9.65
2026-01-20T23:09:40+00:00,SAT-54185,293.6163583219909,30.8333804959443,968.3499810308535,-5.742802844304746,201137.24763949812,10.5,10500201137.247639,47.655,-122.3035,60.0,9.666666666666666
2026-01-20T23:09:41+00:00,SAT-54185,293.5588426151304,31.096790628117933,962.6225738484676,-5.726128121979733,200553.22832967064,10.5,10500200553.22833,47.655,-122.3035,60.0,9.683333333333334
2026-01-20T23:09:42+00:00,SAT-54185,293.500256928784,31.362956701522684,956.9117966857772,-5.709146460249518,199958.45870352062,10.5,10500199958.458704,47.655,-122.3035,60.0,9.7
2026-01-20T23:09:43+00:00,SAT-54185,293.44057278018425,31.63191897673765,951.2179556593253,-5.691851395387172,199352.71237398943,10.5,10500199352.712374,47.655,-122.3035,60.0,9.716666666666667
2026-01-20T23:09:44+00:00,SAT-54185,293.379760671243,31.90371823507312,945.5413633320538,-5.674236413684894,198735.76120347693,10.5,10500198735.761204,47.655,-122.3035,60.0,9.733333333333333
2026-01-20T23:09:45+00:00,SAT-54185,293.3177900423027,32.178395779902054,939.8823387631492,-5.656294719784696,198107.36718980205,10.5,10500198107.36719,47.655,-122.3035,60.0,9.75
2026-01-20T23:09:46+00:00,SAT-54185,293.2546292256059,32.45599342616788,934.2412077889398,-5.638019532317213,197467.29282072445,10.5,10500197467.29282,47.655,-122.3035,60.0,9.766666666666667
2026-01-20T23:09:47+00:00,SAT-54185,293.1902453933351,32.736553503340204,928.6183030089416,-5.619403813610863,196815.29160721603,10.5,10500196815.291607,47.655,-122.3035,60.0,9.783333333333333
2026-01-20T23:09:48+00:00,SAT-54185,293.1246045054575,33.020118844422626,923.0139640414773,-5.600440428217151,196151.11363568756,10.5,10500196151.113636,47.655,-122.3035,60.0,9.8
2026-01-20T23:09:49+00:00,SAT-54185,293.05767125306676,33.30673278173451,917.4285376211876,-5.581122079124651,195474.50333393257,10.5,10500195474.503334,47.655,-122.3035,60.0,9.816666666666666
2026-01-20T23:09:50+00:00,SAT-54185,292.989408999248,33.59643913856535,911.8623777601621,-5.561441336910353,194785.20049213083,10.5,10500194785.200493,47.655,-122.3035,60.0,9.833333333333334
2026-01-20T23:09:51+00:00,SAT-54185,292.91977971617746,33.88928222123328,906.3158458799974,-5.541390593591537,194082.93864654572,10.5,10500194082.938646,47.655,-122.3035,60.0,9.85
2026-01-20T23:09:52+00:00,SAT-54185,292.84874391928,34.185306807577525,900.7893109898753,-5.52096209566031,193367.44623653358,10.5,10500193367.446236,47.655,-122.3035,60.0,9.866666666666667
2026-01-20T23:09:53+00:00,SAT-54185,292.77626059708723,34.48455813587918,895.2831498317005,-5.500147964628134,192638.4473240998,10.5,10500192638.447325,47.655,-122.3035,60.0,9.883333333333333
2026-01-20T23:09:54+00:00,SAT-54185,292.70228713689716,34.7870818936033,889.797747004745,-5.478940136121664,191895.65946077762,10.5,10500191895.65946,47.655,-122.3035,60.0,9.9
2026-01-20T23:09:55+00:00,SAT-54185,292.6267792467019,35.092924201414455,884.3334951510346,-5.457330351114427,191138.7933805242,10.5,10500191138.79338,47.655,-122.3035,60.0,9.916666666666666
2026-01-20T23:09:56+00:00,SAT-54185,292.54969087269507,35.40213159499284,878.8907951494797,-5.435310300037617,190367.55804709066,10.5,10500190367.558046,47.655,-122.3035,60.0,9.933333333333334
2026-01-20T23:09:57+00:00,SAT-54185,292.47097411002403,35.714751013336645,873.4700561662838,-5.41287138673464,189581.6523867112,10.5,10500189581.652388,47.655,-122.3035,60.0,9.95
2026-01-20T23:09:58+00:00,SAT-54185,292.3905791111722,36.03082977194458,868.0716959407607,-5.390004962179555,188780.77347391218,10.5,10500188780.773474,47.655,-122.3035,60.0,9.966666666666667
2026-01-20T23:09:59+00:00,SAT-54185,292.3084539857532,36.350415547380805,862.6961408380641,-5.3667021603476375,187964.6107830044,10.5,10500187964.610783,47.655,-122.3035,60.0,9.983333333333333
2026-01-20T23:10:00+00:00,SAT-54185,292.22454469633993,36.67355635039697,857.3438260656034,-5.342953925688973,187132.84715032496,10.5,10500187132.84715,47.655,-122.3035,60.0,10.0
2026-01-20T23:10:01+00:00,SAT-54185,292.13879494748613,37.000300498252024,852.0151958620617,-5.318751125058399,186285.16269449712,10.5,10500186285.162695,47.655,-122.3035,60.0,10.016666666666667
2026-01-20T23:10:02+00:00,SAT-54185,292.0511460662875,37.330696591517565,846.7107035747819,-5.294084384603258,185421.2291035494,10.5,10500185421.229103,47.655,-122.3035,60.0,10.033333333333333
2026-01-20T23:10:03+00:00,SAT-54185,291.96153687768015,37.664793478487326,841.4308118998299,-5.268944234502358,184540.7147042864,10.5,10500184540.714705,47.655,-122.3035,60.0,10.05
2026-01-20T23:10:04+00:00,SAT-54185,291.869903569775,38.00264022578665,836.1759929777062,-5.243320984226478,183643.28009338386,10.5,10500183643.280094,47.655,-122.3035,60.0,10.066666666666666
2026-01-20T23:10:05+00:00,SAT-54185,291.77617955232984,38.34428607832002,830.9467286134599,-5.217204821255607,182728.58159488413,10.5,10500182728.581594,47.655,-122.3035,60.0,10.083333333333334
2026-01-20T23:10:06+00:00,SAT-54185,291.6802953046296,38.6897804223766,825.7435103983559,-5.190585760933543,181796.26950389193,10.5,10500181796.269505,47.655,-122.3035,60.0,10.1
2026-01-20T23:10:07+00:00,SAT-54185,291.58217821411955,39.03917274230613,820.5668398815467,-5.163453680966861,180845.98929487428,10.5,10500180845.989294,47.655,-122.3035,60.0,10.116666666666667
2026-01-20T23:10:08+00:00,SAT-54185,291.48175240386405,39.392512576006624,815.4172287073417,-5.135798272742543,179877.37991659783,10.5,10500179877.379917,47.655,-122.3035,60.0,10.133333333333333
2026-01-20T23:10:09+00:00,SAT-54185,291.37893854924613,39.749849463417995,810.2951988010283,-5.107609117436048,178890.07645775564,10.5,10500178890.076458,47.655,-122.3035,60.0,10.15
2026-01-20T23:10:10+00:00,SAT-54185,291.2736536810808,40.1112328962793,805.201282478786,-5.07887559394908,177883.70692255822,10.5,10500177883.706923,47.655,-122.3035,60.0,10.166666666666666
2026-01-20T23:10:11+00:00,SAT-54185,291.1658109768899,40.47671225729198,800.1360226494195,-5.049586993980077,176857.89626098867,10.5,10500176857.896261,47.655,-122.3035,60.0,10.183333333333334
2026-01-20T23:10:12+00:00,SAT-54185,291.0553195357286,40.84633676291351,795.0999729013272,-5.019732432630503,175812.26323785735,10.5,10500175812.263237,47.655,-122.3035,60.0,10.2
2026-01-20T23:10:13+00:00,SAT-54185,290.9420841390081,41.22015539510872,790.0936976786255,-4.989300903157155,174746.42235045863,10.5,10500174746.42235,47.655,-122.3035,60.0,10.216666666666667
2026-01-20T23:10:14+00:00,SAT-54185,290.8260049935601,41.59821683194885,785.1177724026661,-4.958281257675429,173659.98315271828,10.5,10500173659.983152,47.655,-122.3035,60.0,10.233333333333333
2026-01-20T23:10:15+00:00,SAT-54185,290.7069774566872,41.98056937143822,780.1727836127997,-4.926662216266499,172552.550574165,10.5,10500172552.550573,47.655,-122.3035,60.0,10.25
2026-01-20T23:10:16+00:00,SAT-54185,290.58489174150907,42.36726085025412,775.2593290980556,-4.894432413691094,171423.7265560446,10.5,10500171423.726557,47.655,-122.3035,60.0,10.266666666666667
2026-01-20T23:10:17+00:00,SAT-54185,290.45963259973905,42.75833856010088,770.3780179822338,-4.86158034797621,170273.10825060916,10.5,10500170273.10825,47.655,-122.3035,60.0,10.283333333333333
2026-01-20T23:10:18+00:00,SAT-54185,290.33107898244157,43.153849153658264,765.5294708602725,-4.82809440947194,169100.2890388102,10.5,10500169100.28904,47.655,-122.3035,60.0,10.3
2026-01-20T23:10:19+00:00,SAT-54185,290.19910367497897,43.553838545865304,760.7143199056353,-4.793962906920351,167904.85944334092,10.5,10500167904.859444,47.655,-122.3035,60.0,10.316666666666666
2026-01-20T23:10:20+00:00,SAT-54185,290.063572903999,43.958351810068834,755.9332089517017,-4.759174051074549,166686.4065549066,10.5,10500166686.406555,47.655,-122.3035,60.0,10.333333333333334
2026-01-20T23:10:21+00:00,SAT-54185,289.92434591500324,44.36743306509803,751.186793589492,-4.723716020112148,165444.51632328107,10.5,10500165444.516323,47.655,-122.3035,60.0,10.35
2026-01-20T23:10:22+00:00,SAT-54185,289.7812745159108,44.78112535974235,746.4757412001567,-4.687576845884252,164178.76957326476,10.5,10500164178.769573,47.655,-122.3035,60.0,10.366666666666667
2026-01-20T23:10:23+00:00,SAT-54185,289.63420258822663,45.199470538616566,741.8007311009108,-4.6507445840739186,162888.74796435385,10.5,10500162888.747965,47.655,-122.3035,60.0,10.383333333333333
2026-01-20T23:10:24+00:00,SAT-54185,289.4829655553041,45.62250911347894,737.162454521264,-4.613207243412445,161574.0315115955,10.5,10500161574.031511,47.655,-122.3035,60.0,10.4
2026-01-20T23:10:25+00:00,SAT-54185,289.3273898102714,46.050280118756895,732.5616146498487,-4.574952773717915,160234.1981666467,10.5,10500160234.198166,47.655,-122.3035,60.0,10.416666666666666
2026-01-20T23:10:26+00:00,SAT-54185,289.16729209855885,46.48282095529003,727.9989266931735,-4.535969125131385,158868.82589247642,10.5,10500158868.825893,47.655,-122.3035,60.0,10.433333333333334
2026-01-20T23:10:27+00:00,SAT-54185,289.00247884845487,46.920167228203844,723.4751178753029,-4.496244304013562,157477.49462110354,10.5,10500157477.494621,47.655,-122.3035,60.0,10.45
2026-01-20T23:10:28+00:00,SAT-54185,288.8327454447974,47.362352578457845,718.9909273817866,-4.4557662757520955,156059.7828494972,10.5,10500156059.78285,47.655,-122.3035,60.0,10.466666666666667
2026-01-20T23:10:29+00:00,SAT-54185,288.65787544547544,47.80940849235195,714.547106400524,-4.414523106283121,154615.2725962598,10.5,10500154615.272596,47.655,-122.3035,60.0,10.483333333333333
2026-01-20T23:10:30+00:00,SAT-54185,288.4776397271729,48.2613641112759,710.1444180214845,-4.372502876332729,153143.54639800065,10.5,10500153143.546398,47.655,-122.3035,60.0,10.5
2026-01-20T23:10:31+00:00,SAT-54185,288.29179556131487,48.71824601858947,705.7836372219579,-4.32969380369338,151644.1915919729,10.5,10500151644.191591,47.655,-122.3035,60.0,10.516666666666667
2026-01-20T23:10:32+00:00,SAT-54185,288.1000856057674,49.18007802355196,701.4655507298545,-4.286084192004103,150116.79852213987,10.5,10500150116.798523,47.655,-122.3035,60.0,10.533333333333333
2026-01-20T23:10:33+00:00,SAT-54185,287.90223681029306,49.64688092372326,697.1909569380896,-4.24166246052914,148560.96158214883,10.5,10500148560.961582,47.655,-122.3035,60.0,10.55
2026-01-20T23:10:34+00:00,SAT-54185,287.69795922419587,50.11867225269706,692.9606657892676,-4.1964172165830655,146976.2817519652,10.5,10500146976.281752,47.655,-122.3035,60.0,10.566666666666666
2026-01-20T23:10:35+00:00,SAT-54185,287.4869446938876,50.595466016916816,688.7754985881367,-4.150337253714795,145362.3665342687,10.5,10500145362.366535,47.655,-122.3035,60.0,10.583333333333334
2026-01-20T23:10:36+00:00,SAT-54185,287.2688654424609,51.07727241233503,684.6362878158524,-4.1034115418652695,143718.82960973398,10.5,10500143718.829609,47.655,-122.3035,60.0,10.6
2026-01-20T23:10:37+00:00,SAT-54185,287.0433725190808,51.564097518032646,680.5438769540601,-4.055629349045181,142045.29509869925,10.5,10500142045.2951,47.655,-122.3035,60.0,10.616666666666667
2026-01-20T23:10:38+00:00,SAT-54185,286.81009409828096,52.05594298061869,676.4991201876227,-4.0069801564413075,140341.39458783093,10.5,10500140341.394588,47.655,-122.3035,60.0,10.633333333333333
2026-01-20T23:10:39+00:00,SAT-54185,286.56863362313163,52.552805663455764,672.5028821920178,-3.9574538222346756,138606.7728677287,10.5,10500138606.772867,47.655,-122.3035,60.0,10.65
2026-01-20T23:10:40+00:00,SAT-54185,286.3185677623601,53.05467728842759,668.556037757352,-3.907040471245717,136841.08406783213,10.5,10500136841.084068,47.655,-122.3035,60.0,10.666666666666666
2026-01-20T23:10:41+00:00,SAT-54185,286.0594441759825,53.5615440346915,664.6594715224379,-3.8557306492054004,135043.9970596482,10.5,10500135043.997059,47.655,-122.3035,60.0,10.683333333333334
2026-01-20T23:10:42+00:00,SAT-54185,285.7907790531426,54.07338612456831,660.8140775550122,-3.80351532538285,133215.1955487817,10.5,10500133215.195549,47.655,-122.3035,60.0,10.7
2026-01-20T23:10:43+00:00,SAT-54185,285.5120544049383,54.59017737546496,657.0207589293315,-3.7503858492535134,131354.37655727114,10.5,10500131354.376556,47.655,-122.3035,60.0,10.716666666666667
2026-01-20T23:10:44+00:00,SAT-54185,285.2227150884279,55.111884707598705,653.2804273469867,-3.6963341502693017,129461.25742038402,10.5,10500129461.25742,47.655,-122.3035,60.0,10.733333333333333
2026-01-20T23:10:45+00:00,SAT-54185,284.9221655135911,55.63846763719774,649.59400255848,-3.641352614185591,127535.57145506547,10.5,10500127535.571455,47.655,-122.3035,60.0,10.75
2026-01-20T23:10:46+00:00,SAT-54185,284.60976601971686,56.169877707240644,645.9624119081464,-3.5854342284611245,125577.07305245752,10.5,10500125577.073053,47.655,-122.3035,60.0,10.766666666666667
2026-01-20T23:10:47+00:00,SAT-54185,284.28482886257547,56.7060578880243,642.3865897340618,-3.52857258585671,123585.5378039412,10.5,10500123585.537804,47.655,-122.3035,60.0,10.783333333333333
2026-01-20T23:10:48+00:00,SAT-54185,283.94661377713874,57.24694192301954,638.8674767643648,-3.4707619335372604,121560.76422089722,10.5,10500121560.764221,47.655,-122.3035,60.0,10.8
2026-01-20T23:10:49+00:00,SAT-54185,283.5943230615337,57.79245362041807,635.4060194646063,-3.4119972144117834,119502.57518260759,10.5,10500119502.575182,47.655,-122.3035,60.0,10.816666666666666
2026-01-20T23:10:50+00:00,SAT-54185,283.22709612544617,58.342506082556035,632.0031693438706,-3.352274129002788,117410.82010318377,10.5,10500117410.820103,47.655,-122.3035,60.0,10.833333333333334
2026-01-20T23:10:51+00:00,SAT-54185,282.84400343591324,58.897000868866634,628.6598821991938,-3.291589133983118,115285.37488032051,10.5,10500115285.37488,47.655,-122.3035,60.0,10.85
2026-01-20T23:10:52+00:00,SAT-54185,282.44403979401073,59.45582707310672,625.3771173614397,-3.2299395631652925,113126.14613285425,10.5,10500113126.146133,47.655,-122.3035,60.0,10.866666666666667
2026-01-20T23:10:53+00:00,SAT-54185,282.0261168470931,60.018860324795014,622.1558368205115,-3.167323584116052,110933.0696812211,10.5,10500110933.069681,47.655,-122.3035,60.0,10.883333333333333
2026-01-20T23:10:54+00:00,SAT-54185,281.5890547617681,60.58596167557655,618.9970043938338,-3.10374033143255,108706.11521535268,10.5,10500108706.115215,47.655,-122.3035,60.0,10.9
2026-01-20T23:10:55+00:00,SAT-54185,281.1315729334018,61.15697638679647,615.9015847619136,-3.0391898821666214,106445.28543393017,10.5,10500106445.285435,47.655,-122.3035,60.0,10.916666666666666
2026-01-20T23:10:56+00:00,SAT-54185,280.65227963417755,61.731732575067106,612.8705425284129,-2.9736733295015285,104150.61862485562,10.5,10500104150.618626,47.655,-122.3035,60.0,10.933333333333334
2026-01-20T23:10:57+00:00,SAT-54185,280.1496604579887,62.31003971421512,609.9048412067407,-2.907192850013832,101822.19102104708,10.5,10500101822.191021,47.655,-122.3035,60.0,10.95
2026-01-20T23:10:58+00:00,SAT-54185,279.6220654167147,62.891686971771776,607.0054421395653,-2.8397516920882686,99460.11639467868,10.5,10500099460.116394,47.655,-122.3035,60.0,10.966666666666667
2026-01-20T23:10:59+00:00,SAT-54185,279.0676945404642,63.47644133944732,604.1733034298776,-2.771354287312406,97064.54995869265,10.5,10500097064.54996,47.655,-122.3035,60.0,10.983333333333333
2026-01-20T23:11:00+00:00,SAT-54185,278.4845817866163,64.06404555259985,601.4093787609626,-2.7020061994517635,94635.68657969213,10.5,10500094635.686579,47.655,-122.3035,60.0,11.0
2026-01-20T23:11:01+00:00,SAT-54185,277.870577096154,64.6542157317209,598.7146162672548,-2.6317142758982808,92173.76608230734,10.5,10500092173.766083,47.655,-122.3035,60.0,11.016666666666667
2026-01-20T23:11:02+00:00,SAT-54185,277.2233263563422,65.24663874857856,596.0899572541535,-2.5604865825025747,89679.07096674538,10.5,10500089679.070967,47.655,-122.3035,60.0,11.033333333333333
2026-01-20T23:11:03+00:00,SAT-54185,276.54024909943735,65.84096922537724,593.5363349828314,-2.488332519058743,87151.93045355665,10.5,10500087151.930454,47.655,-122.3035,60.0,11.05
2026-01-20T23:11:04+00:00,SAT-54185,275.81851368537275,66.43682615271278,591.0546733398663,-2.4152627668867095,84592.7186477468,10.5,10500084592.718647,47.655,-122.3035,60.0,11.066666666666666
2026-01-20T23:11:05+00:00,SAT-54185,275.05500979941047,67.03378902686352,588.6458855591515,-2.341289407223797,82001.85868535048,10.5,10500082001.858685,47.655,-122.3035,60.0,11.083333333333334
2026-01-20T23:11:06+00:00,SAT-54185,274.2463180380026,67.6313934753767,586.3108728257305,-2.2664258921348606,79379.82171458108,10.5,10500079379.821714,47.655,-122.3035,60.0,11.1
2026-01-20T23:11:07+00:00,SAT-54185,273.3886764834531,68.229126255518,584.0505229086455,-2.190687063741674,76727.12756932524,10.5,10500076727.12757,47.655,-122.3035,60.0,11.116666666666667
2026-01-20T23:11:08+00:00,SAT-54185,272.4779442058615,68.82641954399516,581.865708774607,-2.1140892049333524,74044.3465452363,10.5,10500074044.346546,47.655,-122.3035,60.0,11.133333333333333
2026-01-20T23:11:09+00:00,SAT-54185,271.50956176052637,69.42264442359479,579.7572871510878,-2.036650033822436,71332.09920556299,10.5,10500071332.099205,47.655,-122.3035,60.0,11.15
2026-01-20T23:11:10+00:00,SAT-54185,270.47850899131436,70.01710343832215,577.7260970949484,-1.9583887071976078,68591.05650207812,10.5,10500068591.056501,47.655,-122.3035,60.0,11.166666666666666
2026-01-20T23:11:11+00:00,SAT-54185,269.3792607415651,70.60902209558893,575.7729585576169,-1.8793258340343386,65821.94024827854,10.5,10500065821.940248,47.655,-122.3035,60.0,11.183333333333334
2026-01-20T23:11:12+00:00,SAT-54185,268.20574152827425,71.19753918974035,573.8986709367967,-1.7994834809689149,63025.5233111088,10.5,10500063025.523312,47.655,-122.3035,60.0,11.2
2026-01-20T23:11:13+00:00,SAT-54185,266.9512808923067,71.7816958178416,572.1040116227115,-1.71888516049536,60202.629197567345,10.5,10500060202.629198,47.655,-122.3035,60.0,11.216666666666667
2026-01-20T23:11:14+00:00,SAT-54185,265.6085720619968,72.36042296782973,570.3897345561253,-1.6375558028324808,57354.13106937149,10.5,10500057354.13107,47.655,-122.3035,60.0,11.233333333333333
2026-01-20T23:11:15+00:00,SAT-54185,264.16963783827197,72.93252758900564,568.7565688144175,-1.5555217852077428,54480.95276860267,10.5,10500054480.952768,47.655,-122.3035,60.0,11.25
2026-01-20T23:11:16+00:00,SAT-54185,262.62580925467904,73.4966771392345,567.205217168454,-1.4728108426610202,51584.06569367636,10.5,10500051584.065693,47.655,-122.3035,60.0,11.266666666666667
2026-01-20T23:11:17+00:00,SAT-54185,260.96772495877536,74.05138264204336,565.7363547284141,-1.3894521105987236,48664.49028976773,10.5,10500048664.49029,47.655,-122.3035,60.0,11.283333333333333
2026-01-20T23:11:18+00:00,SAT-54185,259.1853619347369,74.59498053257187,564.3506275471796,-1.3054760408337998,45723.29310817718,10.5,10500045723.293108,47.655,-122.3035,60.0,11.3
2026-01-20T23:11:19+00:00,SAT-54185,257.2681119490433,75.12561372048401,563.0486513074553,-1.2209143728744891,42761.585800741304,10.5,10500042761.5858,47.655,-122.3035,60.0,11.316666666666666
2026-01-20T23:11:20+00:00,SAT-54185,255.2049220464401,75.64121271110616,561.8310100375285,-1.1358001078046904,39780.52420501269,10.5,10500039780.524204,47.655,-122.3035,60.0,11.333333333333334
2026-01-20T23:11:21+00:00,SAT-54185,252.9845217540016,76.13947809585339,560.6982548530724,-1.0501674248512987,36781.30542209516,10.5,10500036781.305422,47.655,-122.3035,60.0,11.35
2026-01-20T23:11:22+00:00,SAT-54185,250.59576352890494,76.61786634223456,559.6509027821639,-0.9640516503052329,33765.16672812678,10.5,10500033765.166729,47.655,-122.3035,60.0,11.366666666666667
2026-01-20T23:11:23+00:00,SAT-54185,248.02810464949056,77.07358166739871,558.6894356212941,-0.8774891819610995,30733.38292783718,10.5,10500030733.382927,47.655,-122.3035,60.0,11.383333333333333
2026-01-20T23:11:24+00:00,SAT-54185,245.27225657957314,77.50357766981116,557.8142988667363,-0.7905174176962427,27687.26385308382,10.5,10500027687.263853,47.655,-122.3035,60.0,11.4
2026-01-20T23:11:25+00:00,SAT-54185,242.3210181486556,77.90457335313339,557.0259007171455,-0.7031746906694837,24628.15209323771,10.5,10500024628.152094,47.655,-122.3035,60.0,11.416666666666666
2026-01-20T23:11:26+00:00,SAT-54185,239.17028819520183,78.2730889002324,556.3246111407835,-0.6155001822411574,21557.41994527478,10.5,10500021557.419945,47.655,-122.3035,60.0,11.433333333333334
2026-01-20T23:11:27+00:00,SAT-54185,235.82021841075024,78.60550667361946,555.7107610295919,-0.5275338467151041,18476.46677792205,10.5,10500018476.466778,47.655,-122.3035,60.0,11.45
2026-01-20T23:11:28+00:00,SAT-54185,232.27641703141234,78.89816198099456,555.1846414283201,-0.4393163171184075,15386.715731665536,10.5,10500015386.715733,47.655,-122.3035,60.0,11.466666666666667
2026-01-20T23:11:29+00:00,SAT-54185,228.55105429043502,79.14746555782139,554.7465028576222,-0.3508888196697249,12289.610723069329,10.5,10500012289.610723,47.655,-122.3035,60.0,11.483333333333333
2026-01-20T23:11:30+00:00,SAT-54185,224.66366474392782,79.35005521585745,554.3965547224556,-0.2622930735080968,9186.612932854421,10.5,10500009186.612932,47.655,-122.3035,60.0,11.5
2026-01-20T23:11:31+00:00,SAT-54185,220.64141361116188,79.502967839723,554.134964820481,-0.17357120203280205,6079.197700645363,10.5,10500006079.1977,47.655,-122.3035,60.0,11.516666666666667
2026-01-20T23:11:32+00:00,SAT-54185,216.5186206585163,79.60381601319415,553.9618589388879,-0.08476562631576039,2968.850791821734,10.5,10500002968.850792,47.655,-122.3035,60.0,11.533333333333333
2026-01-20T23:11:33+00:00,SAT-54185,212.33543465599098,79.65094795049976,553.8773205575187,0.004081031588867472,-142.93498898864377,10.5,10499999857.06501,47.655,-122.3035,60.0,11.55
2026-01-20T23:11:34+00:00,SAT-54185,208.13571516198107,79.64356755716278,553.8813906484249,0.0929260508869348,-3254.6633788659733,10.5,10499996745.33662,47.655,-122.3035,60.0,11.566666666666666
2026-01-20T23:11:35+00:00,SAT-54185,203.96436546185524,79.58179503950859,553.9740675773932,0.18172671559275272,-6364.838283302989,10.5,10499993635.161716,47.655,-122.3035,60.0,11.583333333333334
2026-01-20T23:11:36+00:00,SAT-54185,199.86450512366378,79.46665751926685,554.1553071087397,0.2704404166319662,-9471.967352279575,10.5,10499990528.032648,47.655,-122.3035,60.0,11.6
2026-01-20T23:11:37+00:00,SAT-54185,195.87491506874963,79.30001132067608,554.4250225119356,0.3590247521518758,-12574.565493554532,10.5,10499987425.434507,47.655,-122.3035,60.0,11.616666666666667
2026-01-20T23:11:38+00:00,SAT-54185,192.028113137012,79.08440929373359,554.7830847682723,0.44743762950831234,-15671.158444677349,10.5,10499984328.841555,47.655,-122.3035,60.0,11.633333333333333
2026-01-20T23:11:39+00:00,SAT-54185,188.34925563774908,78.82293426772304,555.2293228792423,0.5356373644170266,-18760.286245689273,10.5,10499981239.713755,47.655,-122.3035,60.0,11.65
2026-01-20T23:11:40+00:00,SAT-54185,184.85587382411657,78.51902180575753,555.7635242738033,0.6235827784621321,-21840.50665428143,10.5,10499978159.493345,47.655,-122.3035,60.0,11.666666666666666
2026-01-20T23:11:41+00:00,SAT-54185,181.5583046203929,78.17629236244596,556.3854353128908,0.7112332864281454,-24910.398204532306,10.5,10499975089.601795,47.655,-122.3035,60.0,11.683333333333334
2026-01-20T23:11:42+00:00,SAT-54185,178.46059559340046,77.79840678221117,557.0947618810283,0.7985489992459983,-27968.56381251253,10.5,10499972031.436188,47.655,-122.3035,60.0,11.7
2026-01-20T23:11:43+00:00,SAT-54185,175.5616543192912,77.38895216309855,557.8911700806069,0.8854907985340128,-31013.633387025147,10.5,10499968986.366613,47.655,-122.3035,60.0,11.716666666666667
2026-01-20T23:11:44+00:00,SAT-54185,172.85645063054793,76.95135927591886,558.7742870005077,0.9720204242986549,-34044.26690125699,10.5,10499965955.733099,47.655,-122.3035,60.0,11.733333333333333
2026-01-20T23:11:45+00:00,SAT-54185,170.33713869830885,76.48884871116194,559.7437015721878,1.0581005563113193,-37059.15724293789,10.5,10499962940.842756,47.655,-122.3035,60.0,11.75
2026-01-20T23:11:46+00:00,SAT-54185,167.9940242374584,76.00440083911751,560.7989655069254,1.1436948863932521,-40057.03274606443,10.5,10499959942.967255,47.655,-122.3035,60.0,11.766666666666667
2026-01-20T23:11:47+00:00,SAT-54185,165.81634831209996,75.50074405482565,561.9395943051582,1.2287681752611397,-43036.65918187297,10.5,10499956963.340818,47.655,-122.3035,60.0,11.783333333333333
2026-01-20T23:11:48+00:00,SAT-54185,163.79289019824077,74.98035611329163,563.1650683225114,1.31328633960631,-45996.842808721536,10.5,10499954003.157192,47.655,-122.3035,60.0,11.8
2026-01-20T23:11:49+00:00,SAT-54185,161.91240904994558,74.44547414891082,564.4748339226749,1.3972164793896267,-48936.43132807258,10.5,10499951063.568672,47.655,-122.3035,60.0,11.816666666666666
2026-01-20T23:11:50+00:00,SAT-54185,160.16395162497074,73.89810996605664,565.868304657499,1.4805269550231759,-51854.31658772198,10.5,10499948145.683413,47.655,-122.3035,60.0,11.833333333333334
2026-01-20T23:11:51+00:00,SAT-54185,158.5370540695272,73.34006804574223,567.3448625240685,1.5631874237469827,-54749.43585586572,10.5,10499945250.564144,47.655,-122.3035,60.0,11.85
2026-01-20T23:11:52+00:00,SAT-54185,157.02186340147864,72.77296451876444,568.9038592580522,1.6451688663984099,-57620.77275867728,10.5,10499942379.227242,47.655,-122.3035,60.0,11.866666666666667
2026-01-20T23:11:53+00:00,SAT-54185,155.60920023866552,72.19824594251699,570.544617653753,1.726443644317842,-60467.359273385526,10.5,10499939532.640726,47.655,-122.3035,60.0,11.883333333333333
2026-01-20T23:11:54+00:00,SAT-54185,154.29057998505297,71.61720715273717,572.2664329409097,1.806985516964662,-63288.276345260674,10.5,10499936711.723654,47.655,-122.3035,60.0,11.9
2026-01-20T23:11:55+00:00,SAT-54185,153.05820579026272,71.03100780465984,574.0685741790674,1.8867696505844336,-66082.65419117565,10.5,10499933917.345808,47.655,-122.3035,60.0,11.916666666666666
2026-01-20T23:11:56+00:00,SAT-54185,151.90494318605502,70.44068742155909,575.9502856605928,1.9657726552288948,-68849.67359620299,10.5,10499931150.326405,47.655,-122.3035,60.0,11.933333333333334
2026-01-20T23:11:57+00:00,SAT-54185,150.8242835751894,69.84717889842398,577.9107883506096,2.0439725887374847,-71588.56605306458,10.5,10499928411.433947,47.655,-122.3035,60.0,11.95
2026-01-20T23:11:58+00:00,SAT-54185,149.81030169879986,69.2513205161558,579.9492813309049,2.1213489552138873,-74298.61370877388,10.5,10499925701.386292,47.655,-122.3035,60.0,11.966666666666667
2026-01-20T23:11:59+00:00,SAT-54185,148.857610599698,68.65386656158205,582.064943242316,2.1978827130678464,-76979.14964629426,10.5,10499923020.850353,47.655,-122.3035,60.0,11.983333333333333
2026-01-20T23:12:00+00:00,SAT-54185,147.96131643234818,68.05549666973172,584.2569337351379,2.273556257202575,-79629.55726066677,10.5,10499920370.44274,47.655,-122.3035,60.0,12.0
2026-01-20T23:12:01+00:00,SAT-54185,147.11697464793278,67.45682402409054,586.5243949017656,2.3483534396112473,-82249.27098038637,10.5,10499917750.72902,47.655,-122.3035,60.0,12.016666666666667
2026-01-20T23:12:02+00:00,SAT-54185,146.3205484607483,66.85840253213522,588.8664527298781,2.42225950505823,-84837.77401468657,10.5,10499915162.225985,47.655,-122.3035,60.0,12.033333333333333
2026-01-20T23:12:03+00:00,SAT-54185,145.5683701375078,66.26073311945296,591.2822184914751,2.49526113366396,-87394.59984504207,10.5,10499912605.400154,47.655,-122.3035,60.0,12.05
2026-01-20T23:12:04+00:00,SAT-54185,144.85710529565586,65.66426922581,593.7707901743859,2.567346355996798,-89919.3292513262,10.5,10499910080.670748,47.655,-122.3035,60.0,12.066666666666666
2026-01-20T23:12:05+00:00,SAT-54185,144.1837202964914,65.06942163576062,596.331253829096,2.638504578116316,-92411.59118893283,10.5,10499907588.408812,47.655,-122.3035,60.0,12.083333333333334
2026-01-20T23:12:06+00:00,SAT-54185,143.5454526164832,64.47656270529862,598.962684940552,2.7087265382047425,-94871.0612698262,10.5,10499905128.93873,47.655,-122.3035,60.0,12.1
2026-01-20T23:12:07+00:00,SAT-54185,142.9397840679452,63.88603008006553,601.664149756712,2.778004226020619,-97297.45894146709,10.5,10499902702.541058,47.655,-122.3035,60.0,12.116666666666667
2026-01-20T23:12:08+00:00,SAT-54185,142.36441668343286,63.29812998037794,604.4347065367672,2.8463309509146018,-99690.54986901411,10.5,10499900309.45013,47.655,-122.3035,60.0,12.133333333333333
2026-01-20T23:12:09+00:00,SAT-54185,141.81725101707352,62.71314008020515,607.2734068671961,2.913701199927141,-102050.14096530402,10.5,10499897949.859035,47.655,-122.3035,60.0,12.15
2026-01-20T23:12:10+00:00,SAT-54185,141.29636669856842,62.131312076958295,610.179296836297,2.980110656852566,-104376.08105855667,10.5,10499895623.918941,47.655,-122.3035,60.0,12.166666666666666
2026-01-20T23:12:11+00:00,SAT-54185,140.80000499038837,61.55287396109635,613.1514182277338,3.0455561602086703,-106668.25942029215,10.5,10499893331.74058,47.655,-122.3035,60.0,12.183333333333334
2026-01-20T23:12:12+00:00,SAT-54185,140.32655316447642,60.978032037265635,616.1888096721638,3.1100356122544524,-108926.60257874714,10.5,10499891073.39742,47.655,-122.3035,60.0,12.2
2026-01-20T23:12:13+00:00,SAT-54185,139.87453051866262,60.40697273836127,619.2905077081266,3.1735480069502024,-111151.07529815551,10.5,10499888848.924702,47.655,-122.3035,60.0,12.216666666666667
2026-01-20T23:12:14+00:00,SAT-54185,139.44257584163552,59.83986423788267,622.4555478708199,3.23609335431611,-113341.67792946665,10.5,10499886658.322071,47.655,-122.3035,60.0,12.233333333333333
2026-01-20T23:12:15+00:00,SAT-54185,139.02943618900352,59.276857904904375,625.6829657054337,3.2976725842215546,-115498.44304063955,10.5,10499884501.55696,47.655,-122.3035,60.0,12.25
2026-01-20T23:12:16+00:00,SAT-54185,138.63395683014852,58.71808962468865,628.971797684536,3.358287585384628,-117621.43678257108,10.5,10499882378.563217,47.655,-122.3035,60.0,12.266666666666667
2026-01-20T23:12:17+00:00,SAT-54185,138.25507222047952,58.16368097912883,632.3210821643478,3.4179411404497184,-119710.75661523826,10.5,10499880289.243385,47.655,-122.3035,60.0,12.283333333333333
2026-01-20T23:12:18+00:00,SAT-54185,137.89179790217338,57.61374032146498,635.7298602762758,3.4766367984288005,-121766.52684005281,10.5,10499878233.47316,47.655,-122.3035,60.0,12.3
2026-01-20T23:12:19+00:00,SAT-54185,137.54322323762807,57.06836376746564,639.1971766912241,3.534378953307026,-123788.90135296123,10.5,10499876211.098646,47.655,-122.3035,60.0,12.316666666666666
2026-01-20T23:12:20+00:00,SAT-54185,137.2085048617992,56.527636081102784,642.7220804623016,3.5911727100358393,-125778.05895095704,10.5,10499874221.94105,47.655,-122.3035,60.0,12.333333333333334
2026-01-20T23:12:21+00:00,SAT-54185,136.88686079872608,55.991631499261544,646.3036257338837,3.647023876537793,-127734.20305205553,10.5,10499872265.796947,47.655,-122.3035,60.0,12.35
2026-01-20T23:12:22+00:00,SAT-54185,136.57756515694842,55.46041448350416,649.9408724426978,3.7019389002244374,-129657.55947188169,10.5,10499870342.440529,47.655,-122.3035,60.0,12.366666666666667
2026-01-20T23:12:23+00:00,SAT-54185,136.2799433463176,54.93404041502925,653.6328869555982,3.7559248575559576,-131548.37605800462,10.5,10499868451.623941,47.655,-122.3035,60.0,12.383333333333333
2026-01-20T23:12:24+00:00,SAT-54185,135.99336775646606,54.412556231510294,657.3787426969285,3.808989362913052,-133406.91949824517,10.5,10499866593.080502,47.655,-122.3035,60.0,12.4
2026-01-20T23:12:25+00:00,SAT-54185,135.7172538539494,53.89600102299445,661.1775206850003,3.861140593868415,-135233.4762057902,10.5,10499864766.523794,47.655,-122.3035,60.0,12.416666666666666
2026-01-20T23:12:26+00:00,SAT-54185,135.45105664485376,53.384406575412235,665.0283100937739,3.912387167497986,-137028.3479870893,10.5,10499862971.652014,47.655,-122.3035,60.0,12.433333333333334
2026-01-20T23:12:27+00:00,SAT-54185,135.19426747598064,52.87779788651709,668.9302086911854,3.962738182568022,-138791.8535194245,10.5,10499861208.14648,47.655,-122.3035,60.0,12.45
2026-01-20T23:12:28+00:00,SAT-54185,134.94641112713234,52.37619363551416,672.8823233195438,4.012203130577829,-140524.32523525058,10.5,10499859475.674765,47.655,-122.3035,60.0,12.466666666666667
2026-01-20T23:12:29+00:00,SAT-54185,134.707043173955,51.879606627430675,676.8837702872124,4.0607918845907465,-142226.10893100864,10.5,10499857773.89107,47.655,-122.3035,60.0,12.483333333333333
2026-01-20T23:12:30+00:00,SAT-54185,134.47574758874998,51.388044204829875,680.93367574915,4.108514624274019,-143897.56114170555,10.5,10499856102.438858,47.655,-122.3035,60.0,12.5
2026-01-20T23:12:31+00:00,SAT-54185,134.2521345587195,50.90150863746276,685.0311760126913,4.155381888578823,-145539.05098599126,10.5,10499854460.949015,47.655,-122.3035,60.0,12.516666666666667
2026-01-20T23:12:32+00:00,SAT-54185,134.03583849272886,50.419997476834936,689.1754178958696,4.201404442965312,-147150.9555158181,10.5,10499852849.044485,47.655,-122.3035,60.0,12.533333333333333
2026-01-20T23:12:33+00:00,SAT-54185,133.8265162087534,49.943503900107714,693.3655589533172,4.246593296221513,-148733.66030551004,10.5,10499851266.339695,47.655,-122.3035,60.0,12.55
2026-01-20T23:12:34+00:00,SAT-54185,133.6238452755898,49.472017027038795,697.6007677189414,4.290959705223316,-150287.55961847716,10.5,10499849712.440382,47.655,-122.3035,60.0,12.566666666666666
2026-01-20T23:12:35+00:00,SAT-54185,133.42752249481777,49.005522213773304,701.8802239533472,4.334515059114869,-151813.05235072368,10.5,10499848186.947649,47.655,-122.3035,60.0,12.583333333333334
2026-01-20T23:12:36+00:00,SAT-54185,133.237262515924,48.544001338255214,706.2031187757517,4.37727094780924,-153310.5444300304,10.5,10499846689.45557,47.655,-122.3035,60.0,12.6
2026-01-20T23:12:37+00:00,SAT-54185,133.05279656246236,48.08743305823759,710.5686548642133,4.419239063004477,-154780.44534911888,10.5,10499845219.554651,47.655,-122.3035,60.0,12.616666666666667
2026-01-20T23:12:38+00:00,SAT-54185,132.87387126726716,47.635793061564264,714.976046557145,4.460431211507233,-156223.16863230077,10.5,10499843776.831367,47.655,-122.3035,60.0,12.633333333333333
2026-01-20T23:12:39+00:00,SAT-54185,132.7002476010296,47.189054297640894,719.4245199681135,4.5008593118215865,-157639.13171600422,10.5,10499842360.868284,47.655,-122.3035,60.0,12.65
2026-01-20T23:12:40+00:00,SAT-54185,132.53169988683953,46.7471871933241,723.9133130972389,4.54053530037755,-159028.75266449922,10.5,10499840971.247335,47.655,-122.3035,60.0,12.666666666666666
2026-01-20T23:12:41+00:00,SAT-54185,132.36801489649062,46.3101598630719,728.4416758490701,4.579471184067769,-160392.45200995542,10.5,10499839607.54799,47.655,-122.3035,60.0,12.683333333333334
2026-01-20T23:12:42+00:00,SAT-54185,132.2089910151197,45.87793829960116,733.0088701028601,4.617679002769878,-161730.65143981614,10.5,10499838269.34856,47.655,-122.3035,60.0,12.7
2026-01-20T23:12:43+00:00,SAT-54185,132.05443747197918,45.450486555110494,737.6141697454634,4.655170775965383,-163043.7719271661,10.5,10499836956.228073,47.655,-122.3035,60.0,12.716666666666667
2026-01-20T23:12:44+00:00,SAT-54185,131.90417363197398,45.02776691500065,742.2568606509918,4.691958537972755,-164332.2349647433,10.5,10499835667.765036,47.655,-122.3035,60.0,12.733333333333333
2026-01-20T23:12:45+00:00,SAT-54185,131.75802833929976,44.609740056571155,746.9362406956149,4.728054302683463,-165596.4613298456,10.5,10499834403.53867,47.655,-122.3035,60.0,12.75
2026-01-20T23:12:46+00:00,SAT-54185,131.61583931154362,44.19636520008666,751.6516197371841,4.76347000517578,-166836.86903939955,10.5,10499833163.13096,47.655,-122.3035,60.0,12.766666666666667
2026-01-20T23:12:47+00:00,SAT-54185,131.47745258041496,43.787600254550505,756.402319536635,4.798217589008131,-168053.87640734238,10.5,10499831946.123592,47.655,-122.3035,60.0,12.783333333333333
2026-01-20T23:12:48+00:00,SAT-54185,131.34272197053915,43.38340194614338,761.187673766441,4.83230887740902,-169247.89753314844,10.5,10499830752.102467,47.655,-122.3035,60.0,12.8
2026-01-20T23:12:49+00:00,SAT-54185,131.21150862001213,42.98372594867306,766.0070278906085,4.865755645363044,-170419.34482658654,10.5,10499829580.655174,47.655,-122.3035,60.0,12.816666666666666
2026-01-20T23:12:50+00:00,SAT-54185,131.08368053316858,42.588526999137905,770.8597391165605,4.898569592061191,-171568.62804281258,10.5,10499828431.371958,47.655,-122.3035,60.0,12.833333333333334
2026-01-20T23:12:51+00:00,SAT-54185,130.95911216559966,42.19775900764258,775.7451763195479,4.930762290677546,-172696.15252333746,10.5,10499827303.847477,47.655,-122.3035,60.0,12.85
2026-01-20T23:12:52+00:00,SAT-54185,130.83768404006,41.81137516369869,780.6627199169694,4.962345245271991,-173802.3211890004,10.5,10499826197.67881,47.655,-122.3035,60.0,12.866666666666667
2026-01-20T23:12:53+00:00,SAT-54185,130.71928238704172,41.42932803076829,785.6117617994425,4.993329813219984,-174887.53182313158,10.5,10499825112.468178,47.655,-122.3035,60.0,12.883333333333333
2026-01-20T23:12:54+00:00,SAT-54185,130.60379881246595,41.051569640173135,790.5917051845129,5.023727263279466,-175952.17910530086,10.5,10499824047.820894,47.655,-122.3035,60.0,12.9
2026-01-20T23:12:55+00:00,SAT-54185,130.49112998617403,40.67805157410132,795.6019645282737,5.053548725336308,-176996.6528511909,10.5,10499823003.347149,47.655,-122.3035,60.0,12.916666666666666
2026-01-20T23:12:56+00:00,SAT-54185,130.3811773528963,40.308725046517424,800.6419653868671,5.082805185326437,-178021.3378347483,10.5,10499821978.662165,47.655,-122.3035,60.0,12.933333333333334
2026-01-20T23:12:57+00:00,SAT-54185,130.27384686242937,39.943540978711845,805.711144272919,5.1115075227023015,-179026.61510041778,10.5,10499820973.3849,47.655,-122.3035,60.0,12.95
2026-01-20T23:12:58+00:00,SAT-54185,130.16904871681274,39.582450066840664,810.8089485493407,5.139666436891188,-180012.85938740152,10.5,10499819987.140612,47.655,-122.3035,60.0,12.966666666666667
2026-01-20T23:12:59+00:00,SAT-54185,130.06669713571378,39.225402849766915,815.9348362497885,5.167292538871846,-180980.44233705968,10.5,10499819019.557663,47.655,-122.3035,60.0,12.983333333333333
2026-01-20T23:13:00+00:00,SAT-54185,129.9667101349408,38.8723497657433,821.0882759904503,5.194396212382721,-181929.72763183582,10.5,10499818070.272367,47.655,-122.3035,60.0,13.0
2026-01-20T23:13:01+00:00,SAT-54185,129.86900932219896,38.5232412143249,826.2687467434142,5.220987763685171,-182861.0762405981,10.5,10499817138.92376,47.655,-122.3035,60.0,13.016666666666667
2026-01-20T23:13:02+00:00,SAT-54185,129.77351970262325,38.17802760379656,831.4757377594011,5.24707731004328,-183774.8425127307,10.5,10499816225.157488,47.655,-122.3035,60.0,13.033333333333333
2026-01-20T23:13:03+00:00,SAT-54185,129.68016949889542,37.83665940238872,836.7087483792731,5.2726748078572445,-184671.37516348416,10.5,10499815328.624836,47.655,-122.3035,60.0,13.05
2026-01-20T23:13:04+00:00,SAT-54185,129.5888899819651,37.49908718383025,841.9672878735993,5.29779005977529,-185551.01752306437,10.5,10499814448.982477,47.655,-122.3035,60.0,13.066666666666666
2026-01-20T23:13:05+00:00,SAT-54185,129.49961531209465,37.165261668990176,847.2508752893197,5.32243274079112,-186414.10845067608,10.5,10499813585.89155,47.655,-122.3035,60.0,13.083333333333334
2026-01-20T23:13:06+00:00,SAT-54185,129.4122823891634,36.8351337627267,852.5590393224284,5.3466123112475,-187260.97928754016,10.5,10499812739.020712,47.655,-122.3035,60.0,13.1
2026-01-20T23:13:07+00:00,SAT-54185,129.32683071370252,36.5086545931623,857.8913181039018,5.370338097240949,-188091.95667300597,10.5,10499811908.043327,47.655,-122.3035,60.0,13.116666666666667
2026-01-20T23:13:08+00:00,SAT-54185,129.2432022547621,36.18577554301528,863.2472590658107,5.393619291795462,-188907.36258566033,10.5,10499811092.637415,47.655,-122.3035,60.0,13.133333333333333
2026-01-20T23:13:09+00:00,SAT-54185,129.16134132562183,35.86644827836361,868.6264188086044,5.416464865352947,-189707.5112083238,10.5,10499810292.488792,47.655,-122.3035,60.0,13.15
2026-01-20T23:13:10+00:00,SAT-54185,129.08119446858666,35.550624780245876,874.0283628791256,5.438883683904078,-190492.71306549286,10.5,10499809507.286934,47.655,-122.3035,60.0,13.166666666666666
2026-01-20T23:13:11+00:00,SAT-54185,129.00271034421033,35.23825736687575,879.452665666439,5.460884418616025,-191263.27185812077,10.5,10499808736.728142,47.655,-122.3035,60.0,13.183333333333334
2026-01-20T23:13:12+00:00,SAT-54185,128.92583962878678,34.929298719046145,884.8989102075309,5.482475571475182,-192019.4853617345,10.5,10499807980.514639,47.655,-122.3035,60.0,13.2
2026-01-20T23:13:13+00:00,SAT-54185,128.85053491710215,34.62370190190557,890.3666880185802,5.503665545883731,-192761.6478990248,10.5,10499807238.3521,47.655,-122.3035,60.0,13.216666666666667
2026-01-20T23:13:14+00:00,SAT-54185,128.7767506296691,34.321420380936075,895.8555989966414,5.524462511598836,-193490.0456094455,10.5,10499806509.954391,47.655,-122.3035,60.0,13.233333333333333
2026-01-20T23:13:15+00:00,SAT-54185,128.70444292740066,34.02240804370484,901.3652511866227,5.544874517591226,-194204.96040199875,10.5,10499805795.039598,47.655,-122.3035,60.0,13.25
2026-01-20T23:13:16+00:00,SAT-54185,128.63356962931684,33.72661921361853,906.8952606608248,5.564909462715838,-194906.66892799654,10.5,10499805093.331072,47.655,-122.3035,60.0,13.266666666666667
2026-01-20T23:13:17+00:00,SAT-54185,128.5640901351836,33.4340086638361,912.4452513692288,5.58457507580929,-195595.4418839901,10.5,10499804404.558117,47.655,-122.3035,60.0,13.283333333333333
2026-01-20T23:13:18+00:00,SAT-54185,128.49596535288572,33.144531630789764,918.0148549699312,5.603878947931092,-196271.54514099372,10.5,10499803728.454859,47.655,-122.3035,60.0,13.3
2026-01-20T23:13:19+00:00,SAT-54185,128.42915762914328,32.8581438246541,923.6037106917382,5.622828474256846,-196935.23770933854,10.5,10499803064.762291,47.655,-122.3035,60.0,13.316666666666666
2026-01-20T23:13:20+00:00,SAT-54185,128.36363068500188,32.574801441546086,929.2114651388059,5.641430987585422,-197586.77641465864,10.5,10499802413.223585,47.655,-122.3035,60.0,13.333333333333334
2026-01-20T23:13:21+00:00,SAT-54185,128.29934955276724,32.29446116778464,934.8377722284312,5.659693566240265,-198226.40916978233,10.5,10499801773.59083,47.655,-122.3035,60.0,13.35
2026-01-20T23:13:22+00:00,SAT-54185,128.2362805191108,32.01708019278883,940.4822929372577,5.67762323489041,-198854.38200833357,10.5,10499801145.617992,47.655,-122.3035,60.0,13.366666666666667
2026-01-20T23:13:23+00:00,SAT-54185,128.17439106834047,31.742616210898056,946.1446952477677,5.695226815644626,-199470.93386941898,10.5,10499800529.06613,47.655,-122.3035,60.0,13.383333333333333
2026-01-20T23:13:24+00:00,SAT-54185,128.11364983077394,31.47102742969005,951.8246539462609,5.712511003271376,-200076.29923214897,10.5,10499799923.700768,47.655,-122.3035,60.0,13.4
2026-01-20T23:13:25+00:00,SAT-54185,128.0540265327446,31.202272573699968,957.5218504958589,5.7294823922151465,-200670.70906186386,10.5,10499799329.290937,47.655,-122.3035,60.0,13.416666666666666
2026-01-20T23:13:26+00:00,SAT-54185,127.99549194887705,30.93631088615596,963.2359729364492,5.746147355542552,-201254.38657031461,10.5,10499798745.61343,47.655,-122.3035,60.0,13.433333333333334
2026-01-20T23:13:27+00:00,SAT-54185,127.93801785838149,30.67310213564304,968.9667156638999,5.762512214202536,-201827.5531438707,10.5,10499798172.446856,47.655,-122.3035,60.0,13.45
2026-01-20T23:13:28+00:00,SAT-54185,127.88157700145305,30.41260661418694,974.7137793780828,5.778583117058402,-202390.42414173484,10.5,10499797609.57586,47.655,-122.3035,60.0,13.466666666666667
2026-01-20T23:13:29+00:00,SAT-54185,127.82614303934736,30.154785140338365,980.4768709112487,5.794366071307203,-202943.2099613581,10.5,10499797056.79004,47.655,-122.3035,60.0,13.483333333333333
