DopplerPredictor/satellites_20260205_234138/SAT-58034.csv

timestamp,satellite,azimuth_deg,elevation_deg,distance_km,relative_velocity_kms,doppler_shift_hz,tx_freq_ghz,rx_freq_hz,ue_lat,ue_lon,ue_alt_m,time_minutes
2026-01-20T23:07:36+00:00,SAT-58034,202.1727486207215,30.121029948605134,872.7080302366329,-5.018985082435723,175786.0878727479,10.5,10500175786.087873,47.655,-122.3035,60.0,7.6
2026-01-20T23:07:37+00:00,SAT-58034,201.87855277242352,30.3659753254232,867.7025003605831,-4.989998927128519,174770.87010257423,10.5,10500174770.870102,47.655,-122.3035,60.0,7.616666666666666
2026-01-20T23:07:38+00:00,SAT-58034,201.57940631498874,30.6126476205756,862.7258789319586,-4.9605025111543055,173737.78084544145,10.5,10500173737.780846,47.655,-122.3035,60.0,7.633333333333334
2026-01-20T23:07:39+00:00,SAT-58034,201.27520088135287,30.861038600843724,857.7786748434872,-4.930487079838422,172686.51347561064,10.5,10500172686.513475,47.655,-122.3035,60.0,7.65
2026-01-20T23:07:40+00:00,SAT-58034,200.9658255819739,31.11113844212858,852.8614057191027,-4.8999438012482885,171616.7586614438,10.5,10500171616.758661,47.655,-122.3035,60.0,7.666666666666667
2026-01-20T23:07:41+00:00,SAT-58034,200.65116696590303,31.362935642666386,847.974597990993,-4.8688637626958355,170528.20424290418,10.5,10500170528.204243,47.655,-122.3035,60.0,7.683333333333334
2026-01-20T23:07:42+00:00,SAT-58034,200.33110898461618,31.616416932388702,843.1187869801422,-4.837238038185389,169420.53759386632,10.5,10500169420.537594,47.655,-122.3035,60.0,7.7
2026-01-20T23:07:43+00:00,SAT-58034,200.0055329534658,31.87156718207597,838.2945169095981,-4.805057595998858,168293.4423853585,10.5,10500168293.442385,47.655,-122.3035,60.0,7.716666666666667
2026-01-20T23:07:44+00:00,SAT-58034,199.6743175228255,32.128369303918575,833.5023410099164,-4.772313371995762,167146.60115283984,10.5,10500167146.601152,47.655,-122.3035,60.0,7.733333333333333
2026-01-20T23:07:45+00:00,SAT-58034,199.33733864729987,32.38680415197716,828.7428215514916,-4.738996243854239,165979.69439401143,10.5,10500165979.694393,47.655,-122.3035,60.0,7.75
2026-01-20T23:07:46+00:00,SAT-58034,198.99446956093433,32.64685041733623,824.0165299025857,-4.7050971066890686,164792.40321727912,10.5,10500164792.403217,47.655,-122.3035,60.0,7.766666666666667
2026-01-20T23:07:47+00:00,SAT-58034,198.6455807508425,32.90848452340064,819.3240465119364,-4.67060676632882,163584.4056038682,10.5,10500163584.405603,47.655,-122.3035,60.0,7.783333333333333
2026-01-20T23:07:48+00:00,SAT-58034,198.29053994411137,33.17168051131192,814.6659609978043,-4.635516048282621,162355.3802243001,10.5,10500162355.380224,47.655,-122.3035,60.0,7.8
2026-01-20T23:07:49+00:00,SAT-58034,197.92921209162517,33.43640992724693,810.042872128346,-4.599815758775071,161105.00507367082,10.5,10500161105.005074,47.655,-122.3035,60.0,7.816666666666666
2026-01-20T23:07:50+00:00,SAT-58034,197.5614593613987,33.7026417034963,805.4553878408458,-4.563496723350235,159832.95882372555,10.5,10500159832.958824,47.655,-122.3035,60.0,7.833333333333333
2026-01-20T23:07:51+00:00,SAT-58034,197.18714113523245,33.97034203764408,800.9041252224482,-4.5265497587568015,158538.9198381582,10.5,10500158538.919838,47.655,-122.3035,60.0,7.85
2026-01-20T23:07:52+00:00,SAT-58034,196.80611401566762,34.239474266030385,796.3897105189307,-4.48896572335192,157222.56793796716,10.5,10500157222.567938,47.655,-122.3035,60.0,7.866666666666666
2026-01-20T23:07:53+00:00,SAT-58034,196.4182318369146,34.509998736084,791.9127790932058,-4.450735502846651,155883.58390220022,10.5,10500155883.583902,47.655,-122.3035,60.0,7.883333333333334
2026-01-20T23:07:54+00:00,SAT-58034,196.02334568640563,34.78187267382003,787.4739753980409,-4.411850064175738,154521.65135470236,10.5,10500154521.651354,47.655,-122.3035,60.0,7.9
2026-01-20T23:07:55+00:00,SAT-58034,195.6213039314567,35.055050050698014,783.073952895052,-4.372300398980777,153136.45478465693,10.5,10500153136.454784,47.655,-122.3035,60.0,7.916666666666667
2026-01-20T23:07:56+00:00,SAT-58034,195.21195226262748,35.32948144320348,778.7133740300635,-4.332077590708054,151727.68189663588,10.5,10500151727.681896,47.655,-122.3035,60.0,7.933333333333334
2026-01-20T23:07:57+00:00,SAT-58034,194.79513374306768,35.60511389280568,774.3929101415492,-4.291172839842929,150295.02449441457,10.5,10500150295.024494,47.655,-122.3035,60.0,7.95
2026-01-20T23:07:58+00:00,SAT-58034,194.37068886866547,35.88189076406157,770.1132413439082,-4.2495774543103275,148838.17814475653,10.5,10500148838.178144,47.655,-122.3035,60.0,7.966666666666667
2026-01-20T23:07:59+00:00,SAT-58034,193.93845564365225,36.15975159884716,765.8750564203114,-4.207282835405691,147356.84168465558,10.5,10500147356.841684,47.655,-122.3035,60.0,7.983333333333333
2026-01-20T23:08:00+00:00,SAT-58034,193.49826967393656,36.43863196651432,761.6790527295823,-4.164280556093349,145850.71996367624,10.5,10500145850.719963,47.655,-122.3035,60.0,8.0
2026-01-20T23:08:01+00:00,SAT-58034,193.0499642695119,36.71846331631965,757.5259360349892,-4.120562381265176,144319.52455349744,10.5,10500144319.524553,47.655,-122.3035,60.0,8.016666666666667
2026-01-20T23:08:02+00:00,SAT-58034,192.5933705630232,36.99917282886966,753.4164203128306,-4.076120204918019,142762.97154760043,10.5,10500142762.971548,47.655,-122.3035,60.0,8.033333333333333
2026-01-20T23:08:03+00:00,SAT-58034,192.12831765589337,37.28068326121579,749.3512276236773,-4.030946176729769,141180.78599449815,10.5,10500141180.785994,47.655,-122.3035,60.0,8.05
2026-01-20T23:08:04+00:00,SAT-58034,191.6546327717298,37.56291279885458,745.3310878573769,-3.985032611245447,139572.69871704775,10.5,10500139572.698717,47.655,-122.3035,60.0,8.066666666666666
2026-01-20T23:08:05+00:00,SAT-58034,191.17214144440544,37.845774900309294,741.3567385686276,-3.9383721530805187,137938.45209856963,10.5,10500137938.452099,47.655,-122.3035,60.0,8.083333333333334
2026-01-20T23:08:06+00:00,SAT-58034,190.68066771089278,38.12917815265629,737.4289246477944,-3.8909576340357925,136277.7950784066,10.5,10500136277.795078,47.655,-122.3035,60.0,8.1
2026-01-20T23:08:07+00:00,SAT-58034,190.18003434922514,38.41302611697829,733.5483981342234,-3.8427822247884453,134590.48846478545,10.5,10500134590.488464,47.655,-122.3035,60.0,8.116666666666667
2026-01-20T23:08:08+00:00,SAT-58034,189.67006312654047,38.69721718524201,729.7159178782757,-3.793839421851738,132876.3044780908,10.5,10500132876.304478,47.655,-122.3035,60.0,8.133333333333333
2026-01-20T23:08:09+00:00,SAT-58034,189.15057507894042,38.98164443783867,725.932249216364,-3.7441230128136715,131135.025533376,10.5,10500131135.025534,47.655,-122.3035,60.0,8.15
2026-01-20T23:08:10+00:00,SAT-58034,188.6213908299745,39.26619550072519,722.1981636806586,-3.693627215034484,129366.44909813604,10.5,10500129366.449099,47.655,-122.3035,60.0,8.166666666666666
2026-01-20T23:08:11+00:00,SAT-58034,188.0823309240219,39.550752416122236,718.5144385704671,-3.6423465709010285,127570.3840236728,10.5,10500127570.384024,47.655,-122.3035,60.0,8.183333333333334
2026-01-20T23:08:12+00:00,SAT-58034,187.53321621276038,39.8351915094842,714.8818566280789,-3.5902761187428602,125746.6565312995,10.5,10500125746.65653,47.655,-122.3035,60.0,8.2
2026-01-20T23:08:13+00:00,SAT-58034,186.97386825422066,40.11938327485435,711.3012055441523,-3.5374112798868764,123895.10625651632,10.5,10500123895.106256,47.655,-122.3035,60.0,8.216666666666667
2026-01-20T23:08:14+00:00,SAT-58034,186.40410977124964,40.40319225795217,707.773277575744,-3.483747980553826,122015.59051834176,10.5,10500122015.590519,47.655,-122.3035,60.0,8.233333333333333
2026-01-20T23:08:15+00:00,SAT-58034,185.82376513352426,40.686476956465114,704.2988690427688,-3.4292826432133605,120107.98401653016,10.5,10500120107.984016,47.655,-122.3035,60.0,8.25
2026-01-20T23:08:16+00:00,SAT-58034,185.23266088643956,40.969089728815625,700.8787798330812,-3.3740122214866686,118172.18005400931,10.5,10500118172.180054,47.655,-122.3035,60.0,8.266666666666667
2026-01-20T23:08:17+00:00,SAT-58034,184.6306263206745,41.25087671626869,697.5138128727465,-3.317934228377952,116208.09152566639,10.5,10500116208.091526,47.655,-122.3035,60.0,8.283333333333333
2026-01-20T23:08:18+00:00,SAT-58034,184.01749408614018,41.531677779438695,694.2047735681599,-3.2610467627989244,114215.65184734802,10.5,10500114215.651848,47.655,-122.3035,60.0,8.3
2026-01-20T23:08:19+00:00,SAT-58034,183.39310085111768,41.81132645071754,690.9524692217075,-3.203348551574448,112194.81642707538,10.5,10500112194.816427,47.655,-122.3035,60.0,8.316666666666666
2026-01-20T23:08:20+00:00,SAT-58034,182.7572880052576,42.08964990572077,687.7577084055379,-3.1448389517628095,110145.56274630997,10.5,10500110145.562746,47.655,-122.3035,60.0,8.333333333333334
2026-01-20T23:08:21+00:00,SAT-58034,182.10990241514057,42.36646895217352,684.6213003330171,-3.085518008685268,108067.89239239405,10.5,10500108067.892393,47.655,-122.3035,60.0,8.35
2026-01-20T23:08:22+00:00,SAT-58034,181.4507972216463,42.64159804295705,681.5440541723117,-3.025386455941432,105961.831059089,10.5,10500105961.831059,47.655,-122.3035,60.0,8.366666666666667
2026-01-20T23:08:23+00:00,SAT-58034,180.77983269150275,42.91484531026021,678.5267783599553,-2.964445783818814,103827.43094256741,10.5,10500103827.430943,47.655,-122.3035,60.0,8.383333333333333
2026-01-20T23:08:24+00:00,SAT-58034,180.0968771079148,43.18601262894854,675.5702798461894,-2.902698216865347,101664.76995590777,10.5,10500101664.769957,47.655,-122.3035,60.0,8.4
2026-01-20T23:08:25+00:00,SAT-58034,179.40180771965845,43.45489570310737,672.6753633626711,-2.8401467830211238,99473.95415038025,10.5,10500099473.954151,47.655,-122.3035,60.0,8.416666666666666
2026-01-20T23:08:26+00:00,SAT-58034,178.69451172677657,43.72128418611421,669.8428306212351,-2.776795299461295,97255.1172196053,10.5,10500097255.11722,47.655,-122.3035,60.0,8.433333333333334
2026-01-20T23:08:27+00:00,SAT-58034,177.97488732073862,43.984961828761925,667.0734795267738,-2.7126484579822066,95008.42349013721,10.5,10500095008.42349,47.655,-122.3035,60.0,8.45
2026-01-20T23:08:28+00:00,SAT-58034,177.24284475090224,44.24570666684567,664.368103304962,-2.647711779986717,92734.06634485957,10.5,10500092734.066345,47.655,-122.3035,60.0,8.466666666666667
2026-01-20T23:08:29+00:00,SAT-58034,176.49830744791822,44.50329123803989,661.7274896748734,-2.5819916834396133,90432.27056804724,10.5,10500090432.270569,47.655,-122.3035,60.0,8.483333333333333
2026-01-20T23:08:30+00:00,SAT-58034,175.7412131707849,44.75748284060567,659.152419954822,-2.515495498681251,88103.29289922674,10.5,10500088103.2929,47.655,-122.3035,60.0,8.5
2026-01-20T23:08:31+00:00,SAT-58034,174.97151518475889,45.00804383110173,656.6436681524347,-2.448231471698199,85747.42214772824,10.5,10500085747.422148,47.655,-122.3035,60.0,8.516666666666667
2026-01-20T23:08:32+00:00,SAT-58034,174.18918346897848,45.25473196158145,654.2020000514558,-2.380208793395562,83364.98021792596,10.5,10500083364.980217,47.655,-122.3035,60.0,8.533333333333333
2026-01-20T23:08:33+00:00,SAT-58034,173.39420593830127,45.4973007604534,651.8281722693667,-2.311437623514301,80956.32294692403,10.5,10500080956.322947,47.655,-122.3035,60.0,8.55
2026-01-20T23:08:34+00:00,SAT-58034,172.5865896726888,45.73549995796697,649.5229312911428,-2.241929097745556,78521.8403537301,10.5,10500078521.840353,47.655,-122.3035,60.0,8.566666666666666
2026-01-20T23:08:35+00:00,SAT-58034,171.76636214899503,45.9690759558335,647.287012495922,-2.1716953225202476,76061.95645676515,10.5,10500076061.956457,47.655,-122.3035,60.0,8.583333333333334
2026-01-20T23:08:36+00:00,SAT-58034,170.93357247171417,46.19777234050575,645.1211391888678,-2.100749420737798,73577.1308754768,10.5,10500073577.130875,47.655,-122.3035,60.0,8.6
2026-01-20T23:08:37+00:00,SAT-58034,170.08829256972552,46.4213304460254,643.0260215874235,-2.029105503121093,71067.85782706876,10.5,10500071067.857826,47.655,-122.3035,60.0,8.616666666666667
2026-01-20T23:08:38+00:00,SAT-58034,169.2306183759674,46.63948995885322,641.0023558361396,-1.956778700216282,68534.66724726932,10.5,10500068534.667248,47.655,-122.3035,60.0,8.633333333333333
2026-01-20T23:08:39+00:00,SAT-58034,168.36067095114146,46.85198957082346,639.050822989583,-1.8837851454492376,65978.1241968969,10.5,10500065978.124197,47.655,-122.3035,60.0,8.65
2026-01-20T23:08:40+00:00,SAT-58034,167.4785975576277,47.058567674316855,637.1720880121467,-1.8101419805400056,63398.82905149688,10.5,10500063398.829052,47.655,-122.3035,60.0,8.666666666666666
2026-01-20T23:08:41+00:00,SAT-58034,166.5845726578485,47.25896310083048,635.3667987724567,-1.7358673569052347,60797.41755046074,10.5,10500060797.417551,47.655,-122.3035,60.0,8.683333333333334
2026-01-20T23:08:42+00:00,SAT-58034,165.67879882236983,47.45291590077284,633.6355850363857,-1.6609804142735605,58174.56004804625,10.5,10500058174.560047,47.655,-122.3035,60.0,8.7
2026-01-20T23:08:43+00:00,SAT-58034,164.76150754120633,47.64016815965458,631.9790574813876,-1.5855012786926213,55530.96144357482,10.5,10500055530.961443,47.655,-122.3035,60.0,8.716666666666667
2026-01-20T23:08:44+00:00,SAT-58034,163.83295991341734,47.820464849856045,630.3978067128243,-1.5094510545099862,52867.3609005696,10.5,10500052867.3609,47.655,-122.3035,60.0,8.733333333333333
2026-01-20T23:08:45+00:00,SAT-58034,162.89344719663066,47.99355471383096,628.892402288287,-1.432851788675669,50184.5305964786,10.5,10500050184.530596,47.655,-122.3035,60.0,8.75
2026-01-20T23:08:46+00:00,SAT-58034,161.94329121896521,48.15919117140547,627.463391777523,-1.3557264744146553,47483.27585130204,10.5,10500047483.275852,47.655,-122.3035,60.0,8.766666666666667
2026-01-20T23:08:47+00:00,SAT-58034,160.9828446089049,48.31713325090158,626.1112998186961,-1.278098996585142,44764.433213806835,10.5,10500044764.433214,47.655,-122.3035,60.0,8.783333333333333
2026-01-20T23:08:48+00:00,SAT-58034,160.01249086855185,48.467146532009096,624.8366272291432,-1.1999941369635172,42028.87064662891,10.5,10500042028.870647,47.655,-122.3035,60.0,8.8
2026-01-20T23:08:49+00:00,SAT-58034,159.03264422956306,48.60900410138523,623.6398501108619,-1.1214375117008015,39277.48533573322,10.5,10500039277.485336,47.655,-122.3035,60.0,8.816666666666666
2026-01-20T23:08:50+00:00,SAT-58034,158.04374933232322,48.74248750662438,622.5214190183715,-1.0424555617890805,36511.203356507875,10.5,10500036511.203356,47.655,-122.3035,60.0,8.833333333333334
2026-01-20T23:08:51+00:00,SAT-58034,157.04628067108993,48.86738770786494,621.4817581360847,-0.9630755002788167,33730.97782509117,10.5,10500033730.977825,47.655,-122.3035,60.0,8.85
2026-01-20T23:08:52+00:00,SAT-58034,156.04074183371972,48.983506014618364,620.5212645083178,-0.8833252772176567,30937.787670380276,10.5,10500030937.78767,47.655,-122.3035,60.0,8.866666666666667
2026-01-20T23:08:53+00:00,SAT-58034,155.0276645117701,49.09065500227688,619.6403073042693,-0.8032335323861195,28132.635978635106,10.5,10500028132.635979,47.655,-122.3035,60.0,8.883333333333333
2026-01-20T23:08:54+00:00,SAT-58034,154.00760728984767,49.18865939899816,618.8392271301374,-0.7228295510939117,25316.548445278342,10.5,10500025316.548445,47.655,-122.3035,60.0,8.9
2026-01-20T23:08:55+00:00,SAT-58034,152.98115420641537,49.27735693541706,618.1183353853195,-0.6421432147095617,22490.5716422339,10.5,10500022490.571642,47.655,-122.3035,60.0,8.916666666666666
2026-01-20T23:08:56+00:00,SAT-58034,151.9489130957481,49.356599148627296,617.4779136679529,-0.5612049445763349,19655.77105362509,10.5,10500019655.771053,47.655,-122.3035,60.0,8.933333333333334
2026-01-20T23:08:57+00:00,SAT-58034,150.91151372224448,49.42625213188561,616.9182132363868,-0.4800456505684495,16813.22927399568,10.5,10500016813.229275,47.655,-122.3035,60.0,8.95
2026-01-20T23:08:58+00:00,SAT-58034,149.86960571041448,49.48619722312752,616.4394545219611,-0.3986966715200982,13964.04392188222,10.5,10500013964.043922,47.655,-122.3035,60.0,8.966666666666667
2026-01-20T23:08:59+00:00,SAT-58034,148.82385629407833,49.53633162425398,616.0418267011971,-0.31718971974893784,11109.325696792035,10.5,10500011109.325697,47.655,-122.3035,60.0,8.983333333333333
2026-01-20T23:09:00+00:00,SAT-58034,147.7749478895955,49.57656894519976,615.7254873233151,-0.23555681717947385,8250.196141973911,10.5,10500008250.196142,47.655,-122.3035,60.0,9.0
2026-01-20T23:09:01+00:00,SAT-58034,146.7235755245164,49.60683966592399,615.4905620014553,-0.15383023430929524,5387.785506757477,10.5,10500005387.785507,47.655,-122.3035,60.0,9.016666666666667
2026-01-20T23:09:02+00:00,SAT-58034,145.67044415034732,49.62709151160518,615.3371441647756,-0.07204242801491845,2523.2305682507986,10.5,10500002523.230568,47.655,-122.3035,60.0,9.033333333333333
2026-01-20T23:09:03+00:00,SAT-58034,144.61626584407227,49.63728973679594,615.2652948725685,0.009774023979340124,-342.3276638369312,10.5,10499999657.672337,47.655,-122.3035,60.0,9.05
2026-01-20T23:09:04+00:00,SAT-58034,143.5617569363973,49.63741731491771,615.2750426937382,0.09158648597704332,-3207.7461493676224,10.5,10499996792.25385,47.655,-122.3035,60.0,9.066666666666666
2026-01-20T23:09:05+00:00,SAT-58034,142.50763511818246,49.627475031264,615.3663836489853,0.17336233106429969,-6071.8821558050895,10.5,10499993928.117844,47.655,-122.3035,60.0,9.083333333333334
2026-01-20T23:09:06+00:00,SAT-58034,141.45461650285532,49.60748147804139,615.5392812195641,0.25506900544619365,-8933.595511548972,10.5,10499991066.404488,47.655,-122.3035,60.0,9.1
2026-01-20T23:09:07+00:00,SAT-58034,140.40341272682915,49.57747295173395,615.7936664202063,0.3366740902981475,-11791.750772231062,10.5,10499988208.249228,47.655,-122.3035,60.0,9.116666666666667
2026-01-20T23:09:08+00:00,SAT-58034,139.35472809045638,49.53750325428479,616.1294379337295,0.4181453710085777,-14645.219645886042,10.5,10499985354.780354,47.655,-122.3035,60.0,9.133333333333333
2026-01-20T23:09:09+00:00,SAT-58034,138.3092567642892,49.48764339942959,616.5464623147021,0.4994508934085847,-17492.882962353036,10.5,10499982507.117037,47.655,-122.3035,60.0,9.15
2026-01-20T23:09:10+00:00,SAT-58034,137.26768011014863,49.42798122902604,617.04457424919,0.5805590329570529,-20333.633096430513,10.5,10499979666.366903,47.655,-122.3035,60.0,9.166666666666666
2026-01-20T23:09:11+00:00,SAT-58034,136.23066411410443,49.358620942055865,617.6235768834969,0.6614385464985145,-23166.37578065557,10.5,10499976833.62422,47.655,-122.3035,60.0,9.183333333333334
2026-01-20T23:09:12+00:00,SAT-58034,135.19885698314428,49.2796825435263,618.2832422045307,0.7420586403133954,-25990.03248871141,10.5,10499974009.967512,47.655,-122.3035,60.0,9.2
2026-01-20T23:09:13+00:00,SAT-58034,134.1728868972452,49.19130121720722,619.0233114880335,0.822389015288334,-28803.542017482996,10.5,10499971196.457983,47.655,-122.3035,60.0,9.216666666666667
2026-01-20T23:09:14+00:00,SAT-58034,133.15335996350478,49.09362663150212,619.8434957918615,0.902399936470503,-31605.862923143588,10.5,10499968394.137077,47.655,-122.3035,60.0,9.233333333333333
2026-01-20T23:09:15+00:00,SAT-58034,132.14085835326802,48.98682218265573,620.7434765186335,0.9820622656126066,-34395.97466101822,10.5,10499965604.02534,47.655,-122.3035,60.0,9.25
2026-01-20T23:09:16+00:00,SAT-58034,131.13593867307964,48.871064187198876,621.7229060108364,1.0613475269701873,-37172.879890083714,10.5,10499962827.12011,47.655,-122.3035,60.0,9.266666666666667
2026-01-20T23:09:17+00:00,SAT-58034,130.13913053722777,48.74654102746058,622.781408211553,1.1402279446498083,-39935.605781059996,10.5,10499960064.394218,47.655,-122.3035,60.0,9.283333333333333
2026-01-20T23:09:18+00:00,SAT-58034,129.15093537392403,48.61345226144859,623.9185793624346,1.2186764925108968,-42683.20576418376,10.5,10499957316.794235,47.655,-122.3035,60.0,9.3
2026-01-20T23:09:19+00:00,SAT-58034,128.17182545086303,48.472007703557466,625.1339887514465,1.29666692496145,-45414.760607804295,10.5,10499954585.239391,47.655,-122.3035,60.0,9.316666666666666
2026-01-20T23:09:20+00:00,SAT-58034,127.20224313220537,48.32242648616219,626.4271794913219,1.3741738214712231,-48129.37997742373,10.5,10499951870.620022,47.655,-122.3035,60.0,9.333333333333334
2026-01-20T23:09:21+00:00,SAT-58034,126.24260034697147,48.164936108114766,627.797669342414,1.4511726233715452,-50826.203724582105,10.5,10499949173.796276,47.655,-122.3035,60.0,9.35
2026-01-20T23:09:22+00:00,SAT-58034,125.29327826864265,47.99977147836499,629.2449515722442,1.527639649860681,-53504.402447432985,10.5,10499946495.597553,47.655,-122.3035,60.0,9.366666666666667
2026-01-20T23:09:23+00:00,SAT-58034,124.3546272050312,47.82717396397041,630.7684958310176,1.6035521455082777,-56163.17915455004,10.5,10499943836.820845,47.655,-122.3035,60.0,9.383333333333333
2026-01-20T23:09:24+00:00,SAT-58034,123.42696666661774,47.64739044533698,632.3677490745141,1.6788882813930162,-58801.769304772395,10.5,10499941198.230696,47.655,-122.3035,60.0,9.4
2026-01-20T23:09:25+00:00,SAT-58034,122.51058562556267,47.46067238985247,634.0421364881112,1.7536271982817209,-61419.442319519825,10.5,10499938580.55768,47.655,-122.3035,60.0,9.416666666666666
2026-01-20T23:09:26+00:00,SAT-58034,121.60574292586985,47.267274944508664,635.791062453875,1.8277489999317902,-64015.50134821536,10.5,10499935984.498652,47.655,-122.3035,60.0,9.433333333333334
2026-01-20T23:09:27+00:00,SAT-58034,120.71266785474556,47.067456057792256,637.6139115109673,1.9012347927186137,-66589.28465620521,10.5,10499933410.715343,47.655,-122.3035,60.0,9.45
2026-01-20T23:09:28+00:00,SAT-58034,119.83156083437648,46.86147562985325,639.5100493555769,1.9740666568665226,-69140.16461714487,10.5,10499930859.835382,47.655,-122.3035,60.0,9.466666666666667
2026-01-20T23:09:29+00:00,SAT-58034,118.96259424863594,46.649594701895886,641.4788238121578,2.0462277208102355,-71667.55031745152,10.5,10499928332.449682,47.655,-122.3035,60.0,9.483333333333333
2026-01-20T23:09:30+00:00,SAT-58034,118.10591334336334,46.43207467650641,643.519565878828,2.1177020635528794,-74170.88413646896,10.5,10499925829.115864,47.655,-122.3035,60.0,9.5
2026-01-20T23:09:31+00:00,SAT-58034,117.26163725428547,46.20917658971842,645.6315906753912,2.1884748270864938,-76649.64568390904,10.5,10499923350.354317,47.655,-122.3035,60.0,9.516666666666667
2026-01-20T23:09:32+00:00,SAT-58034,116.42986006161608,45.981160413976816,647.814198503476,2.258532124603217,-79103.34858501937,10.5,10499920896.651415,47.655,-122.3035,60.0,9.533333333333333
2026-01-20T23:09:33+00:00,SAT-58034,115.61065193645139,45.74828441498776,650.0666758151303,2.3278611012173847,-81531.54260732784,10.5,10499918468.457392,47.655,-122.3035,60.0,9.55
2026-01-20T23:09:34+00:00,SAT-58034,114.80406030623821,45.510804546942,652.3882962419804,2.396449864152398,-83933.81121549156,10.5,10499916066.188784,47.655,-122.3035,60.0,9.566666666666666
2026-01-20T23:09:35+00:00,SAT-58034,114.01011107228622,45.2689738999502,654.7783215547569,2.464287520492812,-86309.77289353465,10.5,10499913690.227106,47.655,-122.3035,60.0,9.583333333333334
2026-01-20T23:09:36+00:00,SAT-58034,113.22880982931717,45.0230421882961,657.2360026604791,2.5313641691060544,-88659.0808619127,10.5,10499911340.919138,47.655,-122.3035,60.0,9.6
2026-01-20T23:09:37+00:00,SAT-58034,112.46014309290625,44.773255283807025,659.7605805915761,2.5976708224340115,-90981.42033832325,10.5,10499909018.579662,47.655,-122.3035,60.0,9.616666666666667
2026-01-20T23:09:38+00:00,SAT-58034,111.70407954381642,44.51985480025721,662.3512874170136,2.6631994750061336,-93276.51093732452,10.5,10499906723.489063,47.655,-122.3035,60.0,9.633333333333333
2026-01-20T23:09:39+00:00,SAT-58034,110.96057123655902,44.263077713028814,665.0073472217487,2.727943011002139,-95544.10343279036,10.5,10499904455.896566,47.655,-122.3035,60.0,9.65
2026-01-20T23:09:40+00:00,SAT-58034,110.22955481102433,44.00315602852332,667.7279769939945,2.7918952514291626,-97783.98141025352,10.5,10499902216.018589,47.655,-122.3035,60.0,9.666666666666666
2026-01-20T23:09:41+00:00,SAT-58034,109.51095266113632,43.740316488004275,670.5123875595363,2.8550508437205444,-99995.95740018821,10.5,10499900004.0426,47.655,-122.3035,60.0,9.683333333333334
2026-01-20T23:09:42+00:00,SAT-58034,108.80467409560985,43.47478031919221,673.3597844059417,2.917405352190811,-102179.87604612629,10.5,10499897820.123955,47.655,-122.3035,60.0,9.7
2026-01-20T23:09:43+00:00,SAT-58034,108.11061643515083,43.206763014613415,676.2693685969851,2.978955118500133,-104335.60921753207,10.5,10499895664.390783,47.655,-122.3035,60.0,9.716666666666667
2026-01-20T23:09:44+00:00,SAT-58034,107.42866609854511,42.93647415634559,679.2403375479086,3.0396973411355717,-106463.05879357211,10.5,10499893536.941206,47.655,-122.3035,60.0,9.733333333333333
2026-01-20T23:09:45+00:00,SAT-58034,106.75869962196916,42.66411726464081,682.2718858799507,3.0996299578933915,-108562.1525471485,10.5,10499891437.847452,47.655,-122.3035,60.0,9.75
2026-01-20T23:09:46+00:00,SAT-58034,106.10058465442408,42.38988968647077,685.3632061576761,3.1587516679878904,-110632.8449192436,10.5,10499889367.15508,47.655,-122.3035,60.0,9.766666666666667
2026-01-20T23:09:47+00:00,SAT-58034,105.45418089533405,42.11398250902716,688.5134896483496,3.21706191552168,-112675.11643997942,10.5,10499887324.88356,47.655,-122.3035,60.0,9.783333333333333
2026-01-20T23:09:48+00:00,SAT-58034,104.81934098331992,41.83658049975603,691.7219270648303,3.2745608274888425,-114688.97155722592,10.5,10499885311.028442,47.655,-122.3035,60.0,9.8
2026-01-20T23:09:49+00:00,SAT-58034,104.19591134365281,41.55786207477795,694.98770924663,3.3312491852735873,-116674.43763836335,10.5,10499883325.56236,47.655,-122.3035,60.0,9.816666666666666
2026-01-20T23:09:50+00:00,SAT-58034,103.58373298723403,41.27799929059309,698.3100278125503,3.3871284306084912,-118631.5651789651,10.5,10499881368.43482,47.655,-122.3035,60.0,9.833333333333334
2026-01-20T23:09:51+00:00,SAT-58034,102.98264225519503,40.99715785425678,701.68807581926,3.4422006181311677,-120560.42614113147,10.5,10499879439.573858,47.655,-122.3035,60.0,9.85
2026-01-20T23:09:52+00:00,SAT-58034,102.39247152050574,40.715497154711365,705.1210483725578,3.496468352155756,-122461.11173895988,10.5,10499877538.888262,47.655,-122.3035,60.0,9.866666666666667
2026-01-20T23:09:53+00:00,SAT-58034,101.81304984832072,40.43317031458113,708.6081431755738,3.5499348359313587,-124333.73416378362,10.5,10499875666.265837,47.655,-122.3035,60.0,9.883333333333333
2026-01-20T23:09:54+00:00,SAT-58034,101.24420359888094,40.15032425149798,712.1485611261011,3.602603744097431,-126178.42211702012,10.5,10499873821.577883,47.655,-122.3035,60.0,9.9
2026-01-20T23:09:55+00:00,SAT-58034,100.68575700236573,39.867099761705454,715.74150678672,3.6544793096498394,-127995.32385609018,10.5,10499872004.676144,47.655,-122.3035,60.0,9.916666666666666
2026-01-20T23:09:56+00:00,SAT-58034,100.13753267397499,39.583631607097416,719.3861889416586,3.705566166902095,-129784.6016942561,10.5,10499870215.398306,47.655,-122.3035,60.0,9.933333333333334
2026-01-20T23:09:57+00:00,SAT-58034,99.5993521077869,39.30004862361631,723.0818209970355,3.7558694348589365,-131546.43492071718,10.5,10499868453.565079,47.655,-122.3035,60.0,9.95
2026-01-20T23:09:58+00:00,SAT-58034,99.07103611557874,39.01647383065715,726.8276214642495,3.805394639219841,-133281.01706884278,10.5,10499866718.982931,47.655,-122.3035,60.0,9.966666666666667
2026-01-20T23:09:59+00:00,SAT-58034,98.5524052363189,38.73302455292917,730.6228143655859,3.8541476799080967,-134988.55477890314,10.5,10499865011.44522,47.655,-122.3035,60.0,9.983333333333333
2026-01-20T23:10:00+00:00,SAT-58034,98.04328011129205,38.44981254988983,734.4666296074366,3.9021348199756103,-136669.26740946868,10.5,10499863330.73259,47.655,-122.3035,60.0,10.0
2026-01-20T23:10:01+00:00,SAT-58034,97.54348182382752,38.166944150064495,738.3583033424544,3.949362654954075,-138323.3859639584,10.5,10499861676.614037,47.655,-122.3035,60.0,10.016666666666667
2026-01-20T23:10:02+00:00,SAT-58034,97.05283220850525,37.88452039073092,742.2970783011425,3.9958381251827286,-139951.15352241,10.5,10499860048.846478,47.655,-122.3035,60.0,10.033333333333333
2026-01-20T23:10:03+00:00,SAT-58034,96.57115412650641,37.60263715897911,746.2822041357373,4.041568411207707,-141552.82157792282,10.5,10499858447.178423,47.655,-122.3035,60.0,10.05
2026-01-20T23:10:04+00:00,SAT-58034,96.09827172298225,37.32138534163226,750.3129376597713,4.086560973228791,-143128.65141824985,10.5,10499856871.348581,47.655,-122.3035,60.0,10.066666666666666
2026-01-20T23:10:05+00:00,SAT-58034,95.63401065068206,37.040850972887846,754.3885431269762,4.130823528270937,-144678.91332624797,10.5,10499855321.086674,47.655,-122.3035,60.0,10.083333333333334
2026-01-20T23:10:06+00:00,SAT-58034,95.17819826989225,36.76111538358549,758.5082924874214,4.174363995219417,-146203.88465477634,10.5,10499853796.115345,47.655,-122.3035,60.0,10.1
2026-01-20T23:10:07+00:00,SAT-58034,94.73066382931873,36.482255353598234,762.671465588832,4.217190514721585,-147703.85052374014,10.5,10499852296.149477,47.655,-122.3035,60.0,10.116666666666667
2026-01-20T23:10:08+00:00,SAT-58034,94.29123862176009,36.20434326166285,766.8773503977558,4.259311369514271,-149179.1010296191,10.5,10499850820.89897,47.655,-122.3035,60.0,10.133333333333333
2026-01-20T23:10:09+00:00,SAT-58034,93.85975612625265,35.92744723884337,771.1252431412732,4.300735040199002,-150629.93319895165,10.5,10499849370.066801,47.655,-122.3035,60.0,10.15
2026-01-20T23:10:10+00:00,SAT-58034,93.43605212480027,35.65163131616893,775.414448504331,4.341470134178896,-152056.64849940423,10.5,10499847943.351501,47.655,-122.3035,60.0,10.166666666666666
2026-01-20T23:10:11+00:00,SAT-58034,93.01996480765658,35.37695557449873,779.744279756203,4.38152537198146,-153459.55236073793,10.5,10499846540.44764,47.655,-122.3035,60.0,10.183333333333334
2026-01-20T23:10:12+00:00,SAT-58034,92.61133486275894,35.10347629239023,784.1140588633127,4.420909600012737,-154838.95462151268,10.5,10499845161.045378,47.655,-122.3035,60.0,10.2
2026-01-20T23:10:13+00:00,SAT-58034,92.21000554831794,34.83124609007746,788.5231166147734,4.459631758043446,-156195.16839031415,10.5,10499843804.83161,47.655,-122.3035,60.0,10.216666666666667
2026-01-20T23:10:14+00:00,SAT-58034,91.81582275423075,34.56031407222315,792.9707927155023,4.497700841349906,-157528.5087197691,10.5,10499842471.49128,47.655,-122.3035,60.0,10.233333333333333
2026-01-20T23:10:15+00:00,SAT-58034,91.42863505326451,34.29072596944149,797.4564358415797,4.53512592823249,-158839.29357035775,10.5,10499841160.70643,47.655,-122.3035,60.0,10.25
2026-01-20T23:10:16+00:00,SAT-58034,91.04829373807381,34.02252427445335,801.9794037230457,4.571916120749956,-160127.84173467944,10.5,10499839872.158266,47.655,-122.3035,60.0,10.266666666666667
2026-01-20T23:10:17+00:00,SAT-58034,90.6746528519193,33.755748377991466,806.5390631676004,4.608080600332281,-161394.47478524945,10.5,10499838605.525215,47.655,-122.3035,60.0,10.283333333333333
2026-01-20T23:10:18+00:00,SAT-58034,90.3075692050899,33.49043469752153,811.134790139758,4.643628516088068,-162639.51316255165,10.5,10499837360.486837,47.655,-122.3035,60.0,10.3
2026-01-20T23:10:19+00:00,SAT-58034,89.9469023909204,33.226616808502456,815.7659697286153,4.678569072745232,-163863.27925509366,10.5,10499836136.720745,47.655,-122.3035,60.0,10.316666666666666
2026-01-20T23:10:20+00:00,SAT-58034,89.59251478675327,32.96432556647548,820.4319962033195,4.712911455522659,-165066.09476809425,10.5,10499834933.905231,47.655,-122.3035,60.0,10.333333333333334
2026-01-20T23:10:21+00:00,SAT-58034,89.24427155317248,32.703589229430044,825.1322729936112,4.746664849534921,-166248.2814031188,10.5,10499833751.718597,47.655,-122.3035,60.0,10.35
2026-01-20T23:10:22+00:00,SAT-58034,88.90204062513129,32.44443357495597,829.8662126897243,4.779838399405198,-167410.1594435527,10.5,10499832589.840557,47.655,-122.3035,60.0,10.366666666666667
2026-01-20T23:10:23+00:00,SAT-58034,88.56569269974025,32.186882015540164,834.6332370019983,4.812441263719117,-168552.04966180545,10.5,10499831447.950338,47.655,-122.3035,60.0,10.383333333333333
2026-01-20T23:10:24+00:00,SAT-58034,88.2351012150677,31.930955706851716,839.4327767748064,4.844482527613624,-169674.270257803,10.5,10499830325.729742,47.655,-122.3035,60.0,10.4
2026-01-20T23:10:25+00:00,SAT-58034,87.91014233002026,31.676673656745972,844.264271913302,4.875971240928148,-170777.1381952029,10.5,10499829222.861805,47.655,-122.3035,60.0,10.416666666666666
2026-01-20T23:10:26+00:00,SAT-58034,87.59069489733722,31.42405282818837,849.1271713482173,4.906916410164568,-171860.9689197984,10.5,10499828139.03108,47.655,-122.3035,60.0,10.433333333333334
2026-01-20T23:10:27+00:00,SAT-58034,87.27664043333411,31.17310823870951,854.0209329926405,4.937326967690238,-172926.07528087814,10.5,10499827073.924719,47.655,-122.3035,60.0,10.45
2026-01-20T23:10:28+00:00,SAT-58034,86.96786308629997,30.92385305758702,858.9450236680815,4.967211832394902,-173972.76965568785,10.5,10499826027.230345,47.655,-122.3035,60.0,10.466666666666667
2026-01-20T23:10:29+00:00,SAT-58034,86.66424959831532,30.676298696184144,863.898919091029,4.996579777568171,-175001.35932194063,10.5,10499824998.640678,47.655,-122.3035,60.0,10.483333333333333
2026-01-20T23:10:30+00:00,SAT-58034,86.36568927247923,30.430454901240033,868.8821037277415,5.02543954312931,-176012.150388579,10.5,10499823987.849611,47.655,-122.3035,60.0,10.5
2026-01-20T23:10:31+00:00,SAT-58034,86.0720739311368,30.18632983883622,873.8940707609663,5.053799811954998,-177005.4469666728,10.5,10499822994.553034,47.655,-122.3035,60.0,10.516666666666667
