DopplerPredictor/satellites_20260205_234138/SAT-54184.csv

timestamp,satellite,azimuth_deg,elevation_deg,distance_km,relative_velocity_kms,doppler_shift_hz,tx_freq_ghz,rx_freq_hz,ue_lat,ue_lon,ue_alt_m,time_minutes
2026-01-20T23:00:00+00:00,SAT-54184,4.337142217887209,85.90153175838566,546.7385710882348,-0.15619259894053852,5470.525508936101,10.5,10500005470.525509,47.655,-122.3035,60.0,0.0
2026-01-20T23:00:01+00:00,SAT-54184,14.804962005756703,86.1448085304899,546.5827972200974,-0.06635044013790684,2323.8730757130047,10.5,10500002323.873075,47.655,-122.3035,60.0,0.016666666666666666
2026-01-20T23:00:02+00:00,SAT-54184,26.247883903285228,86.24578771407009,546.5166246563331,0.023524819537320642,-823.9386900849478,10.5,10499999176.06131,47.655,-122.3035,60.0,0.03333333333333333
2026-01-20T23:00:03+00:00,SAT-54184,37.83828151170601,86.19298945953189,546.5400864090757,0.1133888759110907,-3971.3580688759434,10.5,10499996028.641932,47.655,-122.3035,60.0,0.05
2026-01-20T23:00:04+00:00,SAT-54184,48.68559814521289,85.99253820903523,546.653171305058,0.2031974509741555,-7116.834257480329,10.5,10499992883.165743,47.655,-122.3035,60.0,0.06666666666666667
2026-01-20T23:00:05+00:00,SAT-54184,58.19572058546994,85.66508438330132,546.8558240117075,0.2929064046120289,-10258.8212823763,10.5,10499989741.178719,47.655,-122.3035,60.0,0.08333333333333333
2026-01-20T23:00:06+00:00,SAT-54184,66.18258187754518,85.23709979968386,547.1479451746698,0.38247184098129156,-13395.781725448081,10.5,10499986604.218275,47.655,-122.3035,60.0,0.1
2026-01-20T23:00:07+00:00,SAT-54184,72.74518594812002,84.73348942703092,547.5293916614264,0.4718502144103305,-16526.190433077772,10.5,10499983473.809566,47.655,-122.3035,60.0,0.11666666666666667
2026-01-20T23:00:08+00:00,SAT-54184,78.10199857319326,84.17436562400981,547.9999769105273,0.560998435720375,-19648.538239957783,10.5,10499980351.46176,47.655,-122.3035,60.0,0.13333333333333333
2026-01-20T23:00:09+00:00,SAT-54184,82.48601691470606,83.5747970936539,548.5594713868593,0.6498739730181197,-22761.33549927482,10.5,10499977238.664501,47.655,-122.3035,60.0,0.15
2026-01-20T23:00:10+00:00,SAT-54184,86.10083611180391,82.945726893625,549.2076031374385,0.7384349495379388,-25863.11550955814,10.5,10499974136.884491,47.655,-122.3035,60.0,0.16666666666666666
2026-01-20T23:00:11+00:00,SAT-54184,89.11033892042633,82.29504942940984,549.9440584447806,0.8266402453516559,-28952.438076985873,10.5,10499971047.561922,47.655,-122.3035,60.0,0.18333333333333332
2026-01-20T23:00:12+00:00,SAT-54184,91.64188648065394,81.62849825590698,550.7684825817106,0.9144495755283598,-32027.89225287241,10.5,10499967972.107748,47.655,-122.3035,60.0,0.2
2026-01-20T23:00:13+00:00,SAT-54184,93.79320632084215,80.95029500510347,551.6804806441211,1.001823589177035,-35088.099802560304,10.5,10499964911.900198,47.655,-122.3035,60.0,0.21666666666666667
2026-01-20T23:00:14+00:00,SAT-54184,95.63919240098787,80.26360159732234,552.6796184825072,1.0887239439160699,-38131.717813657386,10.5,10499961868.282187,47.655,-122.3035,60.0,0.23333333333333334
2026-01-20T23:00:15+00:00,SAT-54184,97.23750969180553,79.57083028675491,553.7654237077737,1.1751133878459263,-41157.44156706646,10.5,10499958842.558434,47.655,-122.3035,60.0,0.25
2026-01-20T23:00:16+00:00,SAT-54184,98.6329015782802,78.87385601837514,554.9373867787923,1.2609558196839912,-44164.006643162145,10.5,10499955835.993357,47.655,-122.3035,60.0,0.26666666666666666
2026-01-20T23:00:17+00:00,SAT-54184,99.86040411246812,78.17416287178912,556.1949621499356,1.3462163679253958,-47150.191694337605,10.5,10499952849.808306,47.655,-122.3035,60.0,0.2833333333333333
2026-01-20T23:00:18+00:00,SAT-54184,100.94771856030121,77.47294612134556,557.5375694975565,1.4308614328645954,-50114.81991677807,10.5,10499949885.180082,47.655,-122.3035,60.0,0.3
2026-01-20T23:00:19+00:00,SAT-54184,101.91696018530908,76.77118426986497,558.9645949883785,1.514858756589809,-53056.761501962115,10.5,10499946943.238499,47.655,-122.3035,60.0,0.31666666666666665
2026-01-20T23:00:20+00:00,SAT-54184,102.78595207500881,76.06969054794159,560.4753926176925,1.5981774499390606,-55974.93458077633,10.5,10499944025.06542,47.655,-122.3035,60.0,0.3333333333333333
2026-01-20T23:00:21+00:00,SAT-54184,103.56918857167835,75.36915023465463,562.0692855744364,1.6807880519204081,-58868.30730466303,10.5,10499941131.692696,47.655,-122.3035,60.0,0.35
2026-01-20T23:00:22+00:00,SAT-54184,104.27855841749927,74.67014803942058,563.7455676655386,1.762662545231196,-61735.89838917014,10.5,10499938264.10161,47.655,-122.3035,60.0,0.36666666666666664
2026-01-20T23:00:23+00:00,SAT-54184,104.92389223561362,73.97318845585202,565.5035047557334,1.8437743893234058,-64576.77827203966,10.5,10499935423.221727,47.655,-122.3035,60.0,0.38333333333333336
2026-01-20T23:00:24+00:00,SAT-54184,105.51338072759613,73.27871106519092,567.3423362403598,1.9240985501005885,-67390.0701533198,10.5,10499932609.929846,47.655,-122.3035,60.0,0.4
2026-01-20T23:00:25+00:00,SAT-54184,106.05389695636,72.58710217320946,569.2612765477732,2.0036115000840526,-70174.95000118566,10.5,10499929825.05,47.655,-122.3035,60.0,0.4166666666666667
2026-01-20T23:00:26+00:00,SAT-54184,106.55124686900686,71.89870376406168,571.259516641924,2.082291231089325,-72930.64699592248,10.5,10499927069.353004,47.655,-122.3035,60.0,0.43333333333333335
2026-01-20T23:00:27+00:00,SAT-54184,107.01036568122663,71.21382045800196,573.3362255375788,2.1601172751550255,-75656.4442629433,10.5,10499924343.555737,47.655,-122.3035,60.0,0.45
2026-01-20T23:00:28+00:00,SAT-54184,107.43547306886259,70.53272496960203,575.4905518364155,2.237070654527431,-78351.67712103693,10.5,10499921648.32288,47.655,-122.3035,60.0,0.4666666666666667
2026-01-20T23:00:29+00:00,SAT-54184,107.83019674283284,69.85566245199337,577.7216252132338,2.313133939872351,-81015.73512119404,10.5,10499918984.26488,47.655,-122.3035,60.0,0.48333333333333334
2026-01-20T23:00:30+00:00,SAT-54184,108.19767158973353,69.18285395890113,580.0285579602258,2.388291171578503,-83648.05929031837,10.5,10499916351.94071,47.655,-122.3035,60.0,0.5
2026-01-20T23:00:31+00:00,SAT-54184,108.54061974645558,68.51449926541385,582.4104464527574,2.462527893682071,-86248.14331940848,10.5,10499913751.85668,47.655,-122.3035,60.0,0.5166666666666667
2026-01-20T23:00:32+00:00,SAT-54184,108.86141572030346,67.85077916063558,584.8663726489856,2.5358310991676496,-88815.53164776521,10.5,10499911184.468351,47.655,-122.3035,60.0,0.5333333333333333
2026-01-20T23:00:33+00:00,SAT-54184,109.16213967046127,67.19185735040006,587.395405534921,2.608189223979758,-91349.81925324973,10.5,10499908650.180746,47.655,-122.3035,60.0,0.55
2026-01-20T23:00:34+00:00,SAT-54184,109.44462126977444,66.53788204072112,589.9966025635214,2.6795921094868778,-93850.65033761528,10.5,10499906149.349663,47.655,-122.3035,60.0,0.5666666666666667
2026-01-20T23:00:35+00:00,SAT-54184,109.71047601403156,65.88898727582837,592.6690110563463,2.7500309437926105,-96317.71627097572,10.5,10499903682.28373,47.655,-122.3035,60.0,0.5833333333333334
2026-01-20T23:00:36+00:00,SAT-54184,109.96113543964447,65.24529408526163,595.411669546683,2.8194982970179474,-98750.75682753984,10.5,10499901249.243172,47.655,-122.3035,60.0,0.6
2026-01-20T23:00:37+00:00,SAT-54184,110.1978724080907,64.6069114566165,598.2236091578575,2.887987987631976,-101149.55550394717,10.5,10499898850.444496,47.655,-122.3035,60.0,0.6166666666666667
2026-01-20T23:00:38+00:00,SAT-54184,110.42182235292005,63.97393720437817,601.1038548482369,2.9554951417709066,-103513.94159687139,10.5,10499896486.058403,47.655,-122.3035,60.0,0.6333333333333333
2026-01-20T23:00:39+00:00,SAT-54184,110.63400122998249,63.34645871341734,604.0514267153909,3.0220160474634925,-105843.78509737784,10.5,10499894156.214903,47.655,-122.3035,60.0,0.65
2026-01-20T23:00:40+00:00,SAT-54184,110.83532073654023,62.72455362221147,607.0653411548693,3.0875481991688694,-108138.998250827,10.5,10499891861.001749,47.655,-122.3035,60.0,0.6666666666666666
2026-01-20T23:00:41+00:00,SAT-54184,111.02660127998017,62.108290418386254,610.144612063398,3.152090203429874,-110399.53225245472,10.5,10499889600.467747,47.655,-122.3035,60.0,0.6833333333333333
2026-01-20T23:00:42+00:00,SAT-54184,111.20858306526154,61.49772898876362,613.2882519479807,3.215641733762952,-112625.37566742588,10.5,10499887374.624332,47.655,-122.3035,60.0,0.7
2026-01-20T23:00:43+00:00,SAT-54184,111.38193561355972,60.892921121962964,616.4952729900142,3.278203509720389,-114816.55369750524,10.5,10499885183.446302,47.655,-122.3035,60.0,0.7166666666666667
2026-01-20T23:00:44+00:00,SAT-54184,111.54726596394512,60.293910966832954,619.7646880885171,3.3397772172623132,-116973.12539214808,10.5,10499883026.874607,47.655,-122.3035,60.0,0.7333333333333333
2026-01-20T23:00:45+00:00,SAT-54184,111.70512576318636,59.70073546392061,623.0955118239493,3.4003654922941853,-119095.18307191352,10.5,10499880904.816929,47.655,-122.3035,60.0,0.75
2026-01-20T23:00:46+00:00,SAT-54184,111.85601741679552,59.11342474291539,626.4867614056088,3.4599718246125,-121182.84896423662,10.5,10499878817.151035,47.655,-122.3035,60.0,0.7666666666666667
2026-01-20T23:00:47+00:00,SAT-54184,112.00039944023506,58.53200250421289,629.9374575232358,3.5186005718371236,-123236.27569139781,10.5,10499876763.724308,47.655,-122.3035,60.0,0.7833333333333333
2026-01-20T23:00:48+00:00,SAT-54184,112.13869113172785,57.956486368500784,633.4466252125067,3.5762568520155624,-125255.64250907008,10.5,10499874744.35749,47.655,-122.3035,60.0,0.8
2026-01-20T23:00:49+00:00,SAT-54184,112.27127666103996,57.386888217932615,637.0132946134253,3.632946543900704,-127241.15531604664,10.5,10499872758.844685,47.655,-122.3035,60.0,0.8166666666666667
2026-01-20T23:00:50+00:00,SAT-54184,112.39850866040062,56.82321451271305,640.6365017289885,3.688676207125502,-129193.04385842079,10.5,10499870806.956142,47.655,-122.3035,60.0,0.8333333333333334
2026-01-20T23:00:51+00:00,SAT-54184,112.52071138437492,56.26546659818893,644.3152891042399,3.7434530517133475,-131111.56066171,10.5,10499868888.439339,47.655,-122.3035,60.0,0.85
2026-01-20T23:00:52+00:00,SAT-54184,112.63818349888443,55.71364099575849,648.048706474918,3.797284889322893,-132996.9793232436,10.5,10499867003.020678,47.655,-122.3035,60.0,0.8666666666666667
2026-01-20T23:00:53+00:00,SAT-54184,112.75120054870625,55.167729681835986,651.8358113674782,3.850180093674888,-134849.593126143,10.5,10499865150.406874,47.655,-122.3035,60.0,0.8833333333333333
2026-01-20T23:00:54+00:00,SAT-54184,112.86001714568602,54.62772035452026,655.6756696596468,3.9021475436146615,-136669.7130451292,10.5,10499863330.286955,47.655,-122.3035,60.0,0.9
2026-01-20T23:00:55+00:00,SAT-54184,112.96486891361708,54.09359669128271,659.5673560841934,3.95319659552571,-138457.6667803296,10.5,10499861542.33322,47.655,-122.3035,60.0,0.9166666666666666
2026-01-20T23:00:56+00:00,SAT-54184,113.0659742210123,53.565338594226134,663.5099547051875,4.003337063329071,-140213.7980567718,10.5,10499859786.201942,47.655,-122.3035,60.0,0.9333333333333333
2026-01-20T23:00:57+00:00,SAT-54184,113.16353572853508,53.04292242293362,667.5025593743103,4.052579116208816,-141938.46304229763,10.5,10499858061.536957,47.655,-122.3035,60.0,0.95
2026-01-20T23:00:58+00:00,SAT-54184,113.25774177195919,52.52632122625793,671.5442740851644,4.1009333002211585,-143632.03110440544,10.5,10499856367.968895,47.655,-122.3035,60.0,0.9666666666666667
2026-01-20T23:00:59+00:00,SAT-54184,113.34876760320302,52.015504957003984,675.6342133491366,4.148410506579009,-145294.88369944115,10.5,10499854705.1163,47.655,-122.3035,60.0,0.9833333333333333
2026-01-20T23:01:00+00:00,SAT-54184,113.43677650456137,51.51044067764614,679.7715025396283,4.195021874045568,-146927.41095400896,10.5,10499853072.589046,47.655,-122.3035,60.0,1.0
2026-01-20T23:01:01+00:00,SAT-54184,113.52192079065098,51.011092765303175,683.9552781389425,4.240778800521485,-148530.01207080265,10.5,10499851469.987928,47.655,-122.3035,60.0,1.0166666666666666
2026-01-20T23:01:02+00:00,SAT-54184,113.6043427118987,50.51742310264489,688.1846879967272,4.285692965076184,-150103.09610023588,10.5,10499849896.9039,47.655,-122.3035,60.0,1.0333333333333334
2026-01-20T23:01:03+00:00,SAT-54184,113.68417527139238,50.02939125480622,692.4588916103897,4.329776161018253,-151647.07609386108,10.5,10499848352.923906,47.655,-122.3035,60.0,1.05
2026-01-20T23:01:04+00:00,SAT-54184,113.76154296158562,49.546954654398796,696.7770602390292,4.373040394112599,-153162.37254434964,10.5,10499846837.627455,47.655,-122.3035,60.0,1.0666666666666667
2026-01-20T23:01:05+00:00,SAT-54184,113.83656243356396,49.070068764050546,701.1383771153249,4.41549779425198,-154649.41029185528,10.5,10499845350.589708,47.655,-122.3035,60.0,1.0833333333333333
2026-01-20T23:01:06+00:00,SAT-54184,113.90934310343053,48.598687238662215,705.5420375693292,4.4571606193126145,-156108.61865905396,10.5,10499843891.38134,47.655,-122.3035,60.0,1.1
2026-01-20T23:01:07+00:00,SAT-54184,113.97998770379813,48.132762077178704,709.9872491561097,4.498041186669404,-157540.4290525172,10.5,10499842459.570948,47.655,-122.3035,60.0,1.1166666666666667
2026-01-20T23:01:08+00:00,SAT-54184,114.04859278505374,47.672243771989,714.4732317150872,4.538151929249784,-158945.276925955,10.5,10499841054.723074,47.655,-122.3035,60.0,1.1333333333333333
2026-01-20T23:01:09+00:00,SAT-54184,114.11524917330446,47.21708144327212,718.9992174852797,4.577505256142633,-160323.59689815025,10.5,10499839676.403101,47.655,-122.3035,60.0,1.15
2026-01-20T23:01:10+00:00,SAT-54184,114.18004238690204,46.767222978755775,723.5644510815263,4.616113667662022,-161675.82678297805,10.5,10499838324.173218,47.655,-122.3035,60.0,1.1666666666666667
2026-01-20T23:01:11+00:00,SAT-54184,114.24305301859593,46.322615153286385,728.168189585469,4.653989640126045,-163002.40355387283,10.5,10499836997.596447,47.655,-122.3035,60.0,1.1833333333333333
2026-01-20T23:01:12+00:00,SAT-54184,114.30435708421666,45.88320375189787,732.8097025216206,4.691145638534745,-164303.76378786293,10.5,10499835696.236212,47.655,-122.3035,60.0,1.2
2026-01-20T23:01:13+00:00,SAT-54184,114.36402634256405,45.448933683666105,737.4882718460764,4.727594093345988,-165580.34285216365,10.5,10499834419.657148,47.655,-122.3035,60.0,1.2166666666666666
2026-01-20T23:01:14+00:00,SAT-54184,114.42212858870394,45.01974909027204,742.2031919120662,4.763347424802168,-166832.5757562012,10.5,10499833167.424244,47.655,-122.3035,60.0,1.2333333333333334
2026-01-20T23:01:15+00:00,SAT-54184,114.47872792383322,44.595593445298725,746.9537694597644,4.798417978052275,-168060.8948793131,10.5,10499831939.105122,47.655,-122.3035,60.0,1.25
2026-01-20T23:01:16+00:00,SAT-54184,114.53388500288561,44.17640965273442,751.739323541399,4.832818007632759,-169265.7294272025,10.5,10499830734.270573,47.655,-122.3035,60.0,1.2666666666666666
2026-01-20T23:01:17+00:00,SAT-54184,114.58765726265068,43.762140140158785,756.5591854308822,4.8665597256653195,-170447.50712002852,10.5,10499829552.49288,47.655,-122.3035,60.0,1.2833333333333334
2026-01-20T23:01:18+00:00,SAT-54184,114.64009913229772,43.352726941578105,761.4126985815084,4.899655218404423,-171606.65126954744,10.5,10499828393.34873,47.655,-122.3035,60.0,1.3
2026-01-20T23:01:19+00:00,SAT-54184,114.69126222726808,42.94811178160432,766.2992185004247,4.932116526256127,-172743.58358171018,10.5,10499827256.416418,47.655,-122.3035,60.0,1.3166666666666667
2026-01-20T23:01:20+00:00,SAT-54184,114.74119552884068,42.548236147319024,771.2181127029062,4.96395550672048,-173858.71935632563,10.5,10499826141.280643,47.655,-122.3035,60.0,1.3333333333333333
2026-01-20T23:01:21+00:00,SAT-54184,114.78994554941693,42.15304136614905,776.1687605299388,4.995183932115577,-174952.47090977037,10.5,10499825047.52909,47.655,-122.3035,60.0,1.35
2026-01-20T23:01:22+00:00,SAT-54184,114.83755648613639,41.76246867049726,781.1505530632677,5.025813456818349,-176025.24642762248,10.5,10499823974.753572,47.655,-122.3035,60.0,1.3666666666666667
2026-01-20T23:01:23+00:00,SAT-54184,114.88407036305833,41.37645926038106,786.1628930077707,5.055855607178816,-177077.4496114161,10.5,10499822922.550388,47.655,-122.3035,60.0,1.3833333333333333
2026-01-20T23:01:24+00:00,SAT-54184,114.92952716292196,40.99495436234741,791.205194563775,5.085321726277613,-178109.47774381613,10.5,10499821890.522257,47.655,-122.3035,60.0,1.4
2026-01-20T23:01:25+00:00,SAT-54184,114.97396494927295,40.617895288180335,796.2768832442786,5.1142230698101585,-179121.72504688782,10.5,10499820878.274954,47.655,-122.3035,60.0,1.4166666666666667
2026-01-20T23:01:26+00:00,SAT-54184,115.01741998037463,40.24522348225504,801.3773957878014,5.142570713682527,-180114.57944571288,10.5,10499819885.420555,47.655,-122.3035,60.0,1.4333333333333333
2026-01-20T23:01:27+00:00,SAT-54184,115.05992681472199,39.87688057202944,806.5061799790753,5.170375580164176,-181088.4234843688,10.5,10499818911.576515,47.655,-122.3035,60.0,1.45
2026-01-20T23:01:28+00:00,SAT-54184,115.101518409396,39.51280841282541,811.6626944958209,5.197648425599191,-182043.63389552484,10.5,10499817956.366104,47.655,-122.3035,60.0,1.4666666666666666
2026-01-20T23:01:29+00:00,SAT-54184,115.1422262116125,39.152949129991875,816.8464087432668,5.2243998914471845,-182980.58338810992,10.5,10499817019.416613,47.655,-122.3035,60.0,1.4833333333333334
2026-01-20T23:01:30+00:00,SAT-54184,115.1820802442983,38.79724515431165,822.0568027395718,5.250640388714246,-183899.6365995958,10.5,10499816100.3634,47.655,-122.3035,60.0,1.5
2026-01-20T23:01:31+00:00,SAT-54184,115.22110918549099,38.44563926230312,827.2933668859924,5.276380231814212,-184801.15478438494,10.5,10499815198.845215,47.655,-122.3035,60.0,1.5166666666666666
2026-01-20T23:01:32+00:00,SAT-54184,115.25934044297757,38.09807460442871,832.5556018705457,5.301629518742011,-185685.4916169743,10.5,10499814314.508383,47.655,-122.3035,60.0,1.5333333333333334
2026-01-20T23:01:33+00:00,SAT-54184,115.29680022360694,37.75449473871662,837.8430184521729,5.326398202588193,-186552.99569669637,10.5,10499813447.004303,47.655,-122.3035,60.0,1.55
2026-01-20T23:01:34+00:00,SAT-54184,115.33351359837003,37.414843656970895,843.1551373162229,5.350696062913059,-187404.00954512044,10.5,10499812595.990456,47.655,-122.3035,60.0,1.5666666666666667
2026-01-20T23:01:35+00:00,SAT-54184,115.36950456322414,37.07906581048802,848.4914889013874,5.374532715163225,-188238.8699358603,10.5,10499811761.130064,47.655,-122.3035,60.0,1.5833333333333333
2026-01-20T23:01:36+00:00,SAT-54184,115.40479609602933,36.74710613290289,853.8516132360264,5.397917581513896,-189057.90687334738,10.5,10499810942.093126,47.655,-122.3035,60.0,1.6
2026-01-20T23:01:37+00:00,SAT-54184,115.43941020988544,36.41891006268654,859.2350597454171,5.420859956628071,-189861.4458959963,10.5,10499810138.554104,47.655,-122.3035,60.0,1.6166666666666667
2026-01-20T23:01:38+00:00,SAT-54184,115.47336800331348,36.0944235596178,864.6413871245801,5.443368942622697,-190649.80579844443,10.5,10499809350.194202,47.655,-122.3035,60.0,1.6333333333333333
2026-01-20T23:01:39+00:00,SAT-54184,115.50668970716362,35.77359312341715,870.0701631462525,5.4654534496870495,-191423.29865321034,10.5,10499808576.701347,47.655,-122.3035,60.0,1.65
2026-01-20T23:01:40+00:00,SAT-54184,115.53939472861498,35.456365810470366,875.5209644694737,5.487122266030548,-192182.23226056193,10.5,10499807817.76774,47.655,-122.3035,60.0,1.6666666666666667
2026-01-20T23:01:41+00:00,SAT-54184,115.57150169283979,35.14268924482758,880.9933765179318,5.508383971196977,-192926.90711241396,10.5,10499807073.092888,47.655,-122.3035,60.0,1.6833333333333333
2026-01-20T23:01:42+00:00,SAT-54184,115.6030284817891,34.83251163276577,886.4869932718589,5.529247011113425,-193657.61902085927,10.5,10499806342.38098,47.655,-122.3035,60.0,1.7
2026-01-20T23:01:43+00:00,SAT-54184,115.63399227100203,34.52578177158134,892.0014171347718,5.549719643807711,-194374.65721696362,10.5,10499805625.342783,47.655,-122.3035,60.0,1.7166666666666666
2026-01-20T23:01:44+00:00,SAT-54184,115.66440956402319,34.22244906016755,897.5362587460758,5.569809987472642,-195078.30603417894,10.5,10499804921.693966,47.655,-122.3035,60.0,1.7333333333333334
2026-01-20T23:01:45+00:00,SAT-54184,115.69429622501545,33.92246350567767,903.0911368416059,5.589525975480166,-195768.84333274906,10.5,10499804231.156668,47.655,-122.3035,60.0,1.75
2026-01-20T23:01:46+00:00,SAT-54184,115.7236675092963,33.62577573152396,908.6656780693004,5.6088753846296395,-196446.54148908312,10.5,10499803553.458511,47.655,-122.3035,60.0,1.7666666666666666
2026-01-20T23:01:47+00:00,SAT-54184,115.75253809232662,33.33233698274124,914.2595168330487,5.627865844378733,-197111.6677190615,10.5,10499802888.332281,47.655,-122.3035,60.0,1.7833333333333334
2026-01-20T23:01:48+00:00,SAT-54184,115.78092209694506,33.042099129912124,919.8722951457439,5.6465048078651305,-197764.4830630925,10.5,10499802235.516937,47.655,-122.3035,60.0,1.8
2026-01-20T23:01:49+00:00,SAT-54184,115.80883311910887,32.755014673692685,925.503662453437,5.664799632848155,-198405.24522103096,10.5,10499801594.75478,47.655,-122.3035,60.0,1.8166666666666667
2026-01-20T23:01:50+00:00,SAT-54184,115.83628425233216,32.471036744385366,931.1532755402119,5.682757431709599,-199034.20329857263,10.5,10499800965.796701,47.655,-122.3035,60.0,1.8333333333333333
2026-01-20T23:01:51+00:00,SAT-54184,115.8632881104946,32.19011910834878,936.8207982834675,5.7003852413840015,-199651.60375893116,10.5,10499800348.39624,47.655,-122.3035,60.0,1.85
2026-01-20T23:01:52+00:00,SAT-54184,115.88985684967581,31.912216165078522,942.5059015786725,5.717689919981911,-200257.68680214786,10.5,10499799742.313198,47.655,-122.3035,60.0,1.8666666666666667
2026-01-20T23:01:53+00:00,SAT-54184,115.91600218875249,31.637282948880483,948.2082631610203,5.7346781913086735,-200852.68792432753,10.5,10499799147.312077,47.655,-122.3035,60.0,1.8833333333333333
2026-01-20T23:01:54+00:00,SAT-54184,115.94173542881815,31.365275127722192,953.9275674714836,5.7513566102676235,-201436.83670591222,10.5,10499798563.163294,47.655,-122.3035,60.0,1.9
2026-01-20T23:01:55+00:00,SAT-54184,115.96706747161662,31.096149003186866,959.6635054883662,5.767731646240394,-202010.35973201215,10.5,10499797989.640268,47.655,-122.3035,60.0,1.9166666666666667
2026-01-20T23:01:56+00:00,SAT-54184,115.99200883708781,30.82986150601201,965.4157746420102,5.783809564817451,-202573.4764501088,10.5,10499797426.52355,47.655,-122.3035,60.0,1.9333333333333333
2026-01-20T23:01:57+00:00,SAT-54184,116.01656967984137,30.566370196730894,971.1840786115497,5.799596531056272,-203126.4027865933,10.5,10499796873.597214,47.655,-122.3035,60.0,1.95
2026-01-20T23:01:58+00:00,SAT-54184,116.040759804887,30.305633261054027,976.9681272246507,5.815098585495281,-203669.35030667266,10.5,10499796330.649693,47.655,-122.3035,60.0,1.9666666666666666
2026-01-20T23:01:59+00:00,SAT-54184,116.06458868260684,30.04760950606655,982.7676363333218,5.8303215978147565,-204202.52459137895,10.5,10499795797.475409,47.655,-122.3035,60.0,1.9833333333333334
