DopplerPredictor/satellites_20260205_234138/SAT-48293.csv

timestamp,satellite,azimuth_deg,elevation_deg,distance_km,relative_velocity_kms,doppler_shift_hz,tx_freq_ghz,rx_freq_hz,ue_lat,ue_lon,ue_alt_m,time_minutes
2026-01-20T23:06:52+00:00,SAT-48293,220.66380602384328,30.183196478814885,1000.7323649722834,-5.573798870732746,195218.0135989073,10.5,10500195218.0136,47.655,-122.3035,60.0,6.866666666666666
2026-01-20T23:06:53+00:00,SAT-48293,220.53102303478718,30.428217109058554,995.1735086871388,-5.555854153730964,194589.5137034272,10.5,10500194589.513704,47.655,-122.3035,60.0,6.883333333333334
2026-01-20T23:06:54+00:00,SAT-48293,220.39602526047128,30.675489697118874,989.6325490116861,-5.537600239066717,193950.1843979028,10.5,10500193950.184399,47.655,-122.3035,60.0,6.9
2026-01-20T23:06:55+00:00,SAT-48293,220.25875928812968,30.925039470134507,984.1097943146718,-5.519031176163596,193299.81726797728,10.5,10500193299.817268,47.655,-122.3035,60.0,6.916666666666667
2026-01-20T23:06:56+00:00,SAT-48293,220.11917003169728,31.17689169099854,978.605558899465,-5.500140986387898,192638.20291660883,10.5,10500192638.202917,47.655,-122.3035,60.0,6.933333333333334
2026-01-20T23:06:57+00:00,SAT-48293,219.9772006659524,31.43107164283419,973.1201630320422,-5.48092348287088,191965.12465348357,10.5,10500191965.124653,47.655,-122.3035,60.0,6.95
2026-01-20T23:06:58+00:00,SAT-48293,219.83279256286113,31.687604603932243,967.6539331486616,-5.461372462346589,191280.3652139881,10.5,10500191280.365213,47.655,-122.3035,60.0,6.966666666666667
2026-01-20T23:06:59+00:00,SAT-48293,219.68588521958793,31.94651583007371,962.2072018722171,-5.441481521746419,190583.7003355748,10.5,10500190583.700336,47.655,-122.3035,60.0,6.983333333333333
2026-01-20T23:07:00+00:00,SAT-48293,219.53641618867667,32.20783052682822,956.7803082115058,-5.421244244704945,189874.90528998539,10.5,10500189874.90529,47.655,-122.3035,60.0,7.0
2026-01-20T23:07:01+00:00,SAT-48293,219.38432099945723,32.47157382906396,951.3735975744895,-5.400654036455349,189153.74910059,10.5,10500189153.7491,47.655,-122.3035,60.0,7.016666666666667
2026-01-20T23:07:02+00:00,SAT-48293,219.2295330810615,32.737770770957106,945.9874219462155,-5.379704162520686,188419.99589751923,10.5,10500188419.995897,47.655,-122.3035,60.0,7.033333333333333
2026-01-20T23:07:03+00:00,SAT-48293,219.07198368079122,33.0064462559103,940.6221400281554,-5.358387876826436,187673.4094047075,10.5,10500187673.409405,47.655,-122.3035,60.0,7.05
2026-01-20T23:07:04+00:00,SAT-48293,218.91160177464255,33.27762503099677,935.2781172497693,-5.336698205045274,186913.74535171056,10.5,10500186913.745352,47.655,-122.3035,60.0,7.066666666666666
2026-01-20T23:07:05+00:00,SAT-48293,218.74831398087264,33.55133164862939,929.9557259961475,-5.314628187539969,186140.75998259327,10.5,10500186140.759983,47.655,-122.3035,60.0,7.083333333333333
2026-01-20T23:07:06+00:00,SAT-48293,218.58204446154286,33.82759043835901,924.6553455933597,-5.292170582765942,185354.19966783284,10.5,10500185354.199667,47.655,-122.3035,60.0,7.1
2026-01-20T23:07:07+00:00,SAT-48293,218.41271482975623,34.10642546123619,919.3773625896066,-5.269318209160108,184553.81287871205,10.5,10500184553.81288,47.655,-122.3035,60.0,7.116666666666666
2026-01-20T23:07:08+00:00,SAT-48293,218.24024404074999,34.387860479472636,914.1221706953993,-5.246063667867992,183739.34047604998,10.5,10500183739.340477,47.655,-122.3035,60.0,7.133333333333334
2026-01-20T23:07:09+00:00,SAT-48293,218.06454828779934,34.671918909235224,908.890171000268,-5.222399461836254,182910.51988132624,10.5,10500182910.519882,47.655,-122.3035,60.0,7.15
2026-01-20T23:07:10+00:00,SAT-48293,217.88554088919585,34.958623776919076,903.681772070698,-5.198318023424025,182067.08604374653,10.5,10500182067.086044,47.655,-122.3035,60.0,7.166666666666667
2026-01-20T23:07:11+00:00,SAT-48293,217.7031321688805,35.247997674231705,898.4973900205266,-5.173811625241461,181208.7683174316,10.5,10500181208.768318,47.655,-122.3035,60.0,7.183333333333334
2026-01-20T23:07:12+00:00,SAT-48293,217.51722933510928,35.54006270544887,893.3374486702666,-5.148872466903112,180335.29349988743,10.5,10500180335.293499,47.655,-122.3035,60.0,7.2
2026-01-20T23:07:13+00:00,SAT-48293,217.32773635011932,35.834840436321926,888.2023796199031,-5.123492622924469,179446.3840071218,10.5,10500179446.384007,47.655,-122.3035,60.0,7.216666666666667
2026-01-20T23:07:14+00:00,SAT-48293,217.13455379588837,36.13235183681739,883.0926223736586,-5.0976640572983465,178541.75838417068,10.5,10500178541.758385,47.655,-122.3035,60.0,7.233333333333333
2026-01-20T23:07:15+00:00,SAT-48293,216.93757873326408,36.43261722116575,878.0086244502202,-5.071378670153135,177621.13293926802,10.5,10500177621.132938,47.655,-122.3035,60.0,7.25
2026-01-20T23:07:16+00:00,SAT-48293,216.73670455246778,36.73565618702403,872.9508414464316,-5.0446281819229135,176684.21768699263,10.5,10500176684.217688,47.655,-122.3035,60.0,7.266666666666667
2026-01-20T23:07:17+00:00,SAT-48293,216.5318208218632,37.04148754390838,867.9197372165058,-5.017404313759365,175730.722667057,10.5,10500175730.722668,47.655,-122.3035,60.0,7.283333333333333
2026-01-20T23:07:18+00:00,SAT-48293,216.3228131218643,37.350129248317145,862.9157838713098,-4.9896985879346945,174760.350953573,10.5,10500174760.350954,47.655,-122.3035,60.0,7.3
2026-01-20T23:07:19+00:00,SAT-48293,216.10956288012378,37.661598322532456,857.939461976711,-4.961502520089599,173772.805388389,10.5,10500173772.805387,47.655,-122.3035,60.0,7.316666666666666
2026-01-20T23:07:20+00:00,SAT-48293,215.89194719046972,37.97591078060177,852.9912605601903,-4.932807507080728,172767.78465303368,10.5,10500172767.784653,47.655,-122.3035,60.0,7.333333333333333
2026-01-20T23:07:21+00:00,SAT-48293,215.66983862864225,38.29308154275403,848.0716772293086,-4.903604831023321,171744.98341030604,10.5,10500171744.98341,47.655,-122.3035,60.0,7.35
2026-01-20T23:07:22+00:00,SAT-48293,215.4431050597429,38.61312434488723,843.1812182861399,-4.873885732991074,170704.0948855567,10.5,10500170704.094885,47.655,-122.3035,60.0,7.366666666666666
2026-01-20T23:07:23+00:00,SAT-48293,215.21160943305054,38.93605164750417,838.3203987682027,-4.843641377342799,169644.80961725657,10.5,10500169644.809618,47.655,-122.3035,60.0,7.383333333333334
2026-01-20T23:07:24+00:00,SAT-48293,214.97520956954332,39.261874536884356,833.4897425249702,-4.812862818162641,168566.81428159119,10.5,10500168566.814281,47.655,-122.3035,60.0,7.4
2026-01-20T23:07:25+00:00,SAT-48293,214.7337579414418,39.59060261807269,828.6897823278481,-4.781541094203911,167469.79501779552,10.5,10500167469.795017,47.655,-122.3035,60.0,7.416666666666667
2026-01-20T23:07:26+00:00,SAT-48293,214.48710143707953,39.922243908083615,823.921059885465,-4.749667166603076,166353.43524663418,10.5,10500166353.435247,47.655,-122.3035,60.0,7.433333333333334
2026-01-20T23:07:27+00:00,SAT-48293,214.23508111833405,40.2568047184934,819.1841259210814,-4.71723195256748,165217.41685028828,10.5,10500165217.416851,47.655,-122.3035,60.0,7.45
2026-01-20T23:07:28+00:00,SAT-48293,213.97753196579487,40.594289533516154,814.4795402164008,-4.684226278590291,164061.4185337446,10.5,10500164061.418533,47.655,-122.3035,60.0,7.466666666666667
2026-01-20T23:07:29+00:00,SAT-48293,213.714282615312,40.934700877521706,809.8078717020402,-4.650641023164706,162885.12082325105,10.5,10500162885.120823,47.655,-122.3035,60.0,7.483333333333333
2026-01-20T23:07:30+00:00,SAT-48293,213.44515507477146,41.278039185316096,805.1696984056705,-4.616466962035224,161688.20064636134,10.5,10500161688.200645,47.655,-122.3035,60.0,7.5
2026-01-20T23:07:31+00:00,SAT-48293,213.16996443786442,41.624302653410744,800.5656075544878,-4.581694904145551,160470.33609340593,10.5,10500160470.336094,47.655,-122.3035,60.0,7.516666666666667
2026-01-20T23:07:32+00:00,SAT-48293,212.88851857747784,41.97348709289814,795.9961955421064,-4.546315580343287,159231.20251945936,10.5,10500159231.20252,47.655,-122.3035,60.0,7.533333333333333
2026-01-20T23:07:33+00:00,SAT-48293,212.6006178333514,42.325585765289304,791.4620680064427,-4.510319836008065,157970.4792909923,10.5,10500157970.479292,47.655,-122.3035,60.0,7.55
2026-01-20T23:07:34+00:00,SAT-48293,212.3060546741014,42.680589223959814,786.9638397154908,-4.473698402283016,156687.84177343003,10.5,10500156687.841774,47.655,-122.3035,60.0,7.566666666666666
2026-01-20T23:07:35+00:00,SAT-48293,212.00461336111908,43.03848512842671,782.502134681254,-4.4364421394115485,155382.96985383556,10.5,10500155382.969854,47.655,-122.3035,60.0,7.583333333333333
2026-01-20T23:07:36+00:00,SAT-48293,211.69606958226288,43.399258067527235,778.0775860309893,-4.398541883636263,154055.54257866205,10.5,10500154055.542578,47.655,-122.3035,60.0,7.6
2026-01-20T23:07:37+00:00,SAT-48293,211.38019008228588,43.76288936014758,773.690836031144,-4.3599885414302655,152705.24145413222,10.5,10500152705.241455,47.655,-122.3035,60.0,7.616666666666666
2026-01-20T23:07:38+00:00,SAT-48293,211.05673227253337,44.12935685242356,769.3425360173151,-4.320773091677187,151331.7505225914,10.5,10500151331.750523,47.655,-122.3035,60.0,7.633333333333334
2026-01-20T23:07:39+00:00,SAT-48293,210.7254438260921,44.49863470376915,765.03334632203,-4.280886580844605,149934.75619346087,10.5,10500149934.756193,47.655,-122.3035,60.0,7.65
2026-01-20T23:07:40+00:00,SAT-48293,210.3860622593529,44.87069316051558,760.7639362073463,-4.240320151304222,148513.94823512985,10.5,10500148513.948235,47.655,-122.3035,60.0,7.666666666666667
2026-01-20T23:07:41+00:00,SAT-48293,210.03831449705342,45.24549831938399,756.5349837692033,-4.199065067070393,147069.02067642784,10.5,10500147069.020676,47.655,-122.3035,60.0,7.683333333333334
2026-01-20T23:07:42+00:00,SAT-48293,209.6819164214414,45.62301188018927,752.3471758161069,-4.157112713959075,145599.67181219175,10.5,10500145599.671812,47.655,-122.3035,60.0,7.7
2026-01-20T23:07:43+00:00,SAT-48293,209.31657240765372,46.00319088495384,748.2012077476525,-4.11445461293444,144105.60467072064,10.5,10500144105.604671,47.655,-122.3035,60.0,7.716666666666667
2026-01-20T23:07:44+00:00,SAT-48293,208.94197484545433,46.385987443969114,744.0977834197407,-4.071082465297238,142586.5285964632,10.5,10500142586.528597,47.655,-122.3035,60.0,7.733333333333333
2026-01-20T23:07:45+00:00,SAT-48293,208.55780364425092,46.771348451223496,740.0376149647235,-4.026988173486733,141042.15997858992,10.5,10500141042.159979,47.655,-122.3035,60.0,7.75
2026-01-20T23:07:46+00:00,SAT-48293,208.16372572492256,47.15921528658907,736.0214225908055,-3.982163790321628,139472.22047319514,10.5,10500139472.220472,47.655,-122.3035,60.0,7.766666666666667
2026-01-20T23:07:47+00:00,SAT-48293,207.75939450706167,47.549523497157175,732.0499344320673,-3.9366016531610546,137876.44170218275,10.5,10500137876.441702,47.655,-122.3035,60.0,7.783333333333333
2026-01-20T23:07:48+00:00,SAT-48293,207.34444937438118,47.94220247494197,728.1238862646871,-3.8902943142561086,136254.5628138822,10.5,10500136254.562815,47.655,-122.3035,60.0,7.8
2026-01-20T23:07:49+00:00,SAT-48293,206.91851514080886,48.33717511090365,724.244021292627,-3.8432346164099234,134606.33313298426,10.5,10500134606.333134,47.655,-122.3035,60.0,7.816666666666666
2026-01-20T23:07:50+00:00,SAT-48293,206.48120150516166,48.7343574388126,720.4110898578575,-3.795415674805888,132931.5115240885,10.5,10500132931.511524,47.655,-122.3035,60.0,7.833333333333333
2026-01-20T23:07:51+00:00,SAT-48293,206.03210250691853,49.13365825916362,716.6258491687084,-3.7468309495785097,131229.8689334418,10.5,10500131229.868933,47.655,-122.3035,60.0,7.85
2026-01-20T23:07:52+00:00,SAT-48293,205.57079597669104,49.53497875195059,712.8890629558431,-3.697474216347343,129501.18735691176,10.5,10500129501.187357,47.655,-122.3035,60.0,7.866666666666666
2026-01-20T23:07:53+00:00,SAT-48293,205.09684299760454,49.93821206731321,709.2015011576182,-3.6473396555745983,127745.26296966845,10.5,10500127745.26297,47.655,-122.3035,60.0,7.883333333333334
2026-01-20T23:07:54+00:00,SAT-48293,204.60978736776218,50.34324290627724,705.5639395163274,-3.5964218126515983,125961.90472824297,10.5,10500125961.904728,47.655,-122.3035,60.0,7.9
2026-01-20T23:07:55+00:00,SAT-48293,204.10915508654153,50.74994707745815,701.9771592142494,-3.5447156690243835,124150.93686164723,10.5,10500124150.936861,47.655,-122.3035,60.0,7.916666666666667
2026-01-20T23:07:56+00:00,SAT-48293,203.59445385724442,51.15819104150503,698.441946438763,-3.4922166573687816,122312.19940286891,10.5,10500122312.199404,47.655,-122.3035,60.0,7.933333333333334
2026-01-20T23:07:57+00:00,SAT-48293,203.06517262131783,51.56783143723739,694.9590919323267,-3.4389207066697454,120445.54976774075,10.5,10500120445.549768,47.655,-122.3035,60.0,7.95
2026-01-20T23:07:58+00:00,SAT-48293,202.52078112930488,51.97871459298426,691.5293904975005,-3.384824206402794,118550.86150042285,10.5,10500118550.8615,47.655,-122.3035,60.0,7.966666666666667
2026-01-20T23:07:59+00:00,SAT-48293,201.96072957303164,52.39067601369714,688.1536405376892,-3.3299241324760755,116628.02868442672,10.5,10500116628.028685,47.655,-122.3035,60.0,7.983333333333333
2026-01-20T23:08:00+00:00,SAT-48293,201.3844482649321,52.803539863511865,684.8326434722828,-3.2742180025653482,114676.96437825717,10.5,10500114676.964378,47.655,-122.3035,60.0,8.0
2026-01-20T23:08:01+00:00,SAT-48293,200.791347407169,53.21711842427019,681.5672031963403,-3.2177039237278193,112697.60228305045,10.5,10500112697.602283,47.655,-122.3035,60.0,8.016666666666667
2026-01-20T23:08:02+00:00,SAT-48293,200.1808169526809,53.6312115417639,678.358125492789,-3.1603806385674305,110689.89835947783,10.5,10500110689.89836,47.655,-122.3035,60.0,8.033333333333333
2026-01-20T23:08:03+00:00,SAT-48293,199.5522265763292,54.0456060611357,675.2062173985809,-3.102247553275757,108653.83180985643,10.5,10500108653.83181,47.655,-122.3035,60.0,8.05
2026-01-20T23:08:04+00:00,SAT-48293,198.9049257808153,54.46007525100499,672.1122865428856,-3.0433047194127116,106589.40444003255,10.5,10500106589.40444,47.655,-122.3035,60.0,8.066666666666666
2026-01-20T23:08:05+00:00,SAT-48293,198.23824417286357,54.87437821215371,669.0771405034494,-2.9835529572767636,104496.64498032842,10.5,10500104496.64498,47.655,-122.3035,60.0,8.083333333333334
2026-01-20T23:08:06+00:00,SAT-48293,197.55149190548678,55.288259292464964,666.1015860399207,-2.922993748214189,102375.60531375669,10.5,10500102375.605314,47.655,-122.3035,60.0,8.1
2026-01-20T23:08:07+00:00,SAT-48293,196.84396036959097,55.70144748024857,663.1864284345725,-2.8616294272587544,100226.3672230771,10.5,10500100226.367224,47.655,-122.3035,60.0,8.116666666666667
2026-01-20T23:08:08+00:00,SAT-48293,196.11492309904202,56.11365582118349,660.3324706409034,-2.799463069321366,98049.03840467641,10.5,10500098049.038404,47.655,-122.3035,60.0,8.133333333333333
2026-01-20T23:08:09+00:00,SAT-48293,195.36363699974225,56.52458082149479,657.5405125457451,-2.7364985794116556,95843.75562851012,10.5,10500095843.755629,47.655,-122.3035,60.0,8.15
2026-01-20T23:08:10+00:00,SAT-48293,194.58934389627288,56.93390187135146,654.8113501413878,-2.6727407310228033,93610.68608250123,10.5,10500093610.686083,47.655,-122.3035,60.0,8.166666666666666
2026-01-20T23:08:11+00:00,SAT-48293,193.7912724512331,57.341280688657406,652.1457746594267,-2.6081951413525206,91350.02650467434,10.5,10500091350.026505,47.655,-122.3035,60.0,8.183333333333334
2026-01-20T23:08:12+00:00,SAT-48293,192.9686405267208,57.746360781740165,649.5445717293172,-2.5428683541784483,89062.00608580254,10.5,10500089062.006086,47.655,-122.3035,60.0,8.2
2026-01-20T23:08:13+00:00,SAT-48293,192.1206580063637,58.14876695660027,647.0085204542806,-2.476767788200918,86746.88466015259,10.5,10500086746.88466,47.655,-122.3035,60.0,8.216666666666667
2026-01-20T23:08:14+00:00,SAT-48293,191.2465301779858,58.54810485898618,644.5383925387259,-2.4099018441695863,84404.95645751254,10.5,10500084404.956457,47.655,-122.3035,60.0,8.233333333333333
2026-01-20T23:08:15+00:00,SAT-48293,190.34546167931774,58.94396058864863,642.134951308834,-2.3422798435406667,82036.54795470872,10.5,10500082036.547955,47.655,-122.3035,60.0,8.25
2026-01-20T23:08:16+00:00,SAT-48293,189.41666112596045,59.33590037342709,639.7989507943196,-2.2739121016871353,79642.02043973675,10.5,10500079642.02044,47.655,-122.3035,60.0,8.266666666666667
2026-01-20T23:08:17+00:00,SAT-48293,188.45934643057737,59.723470340746,637.5311347371771,-2.2048098921441985,77221.76875948654,10.5,10500077221.768759,47.655,-122.3035,60.0,8.283333333333333
2026-01-20T23:08:18+00:00,SAT-48293,187.47275091485116,60.10619638672638,635.33223563609,-2.134985527268978,74776.22414478577,10.5,10500074776.224144,47.655,-122.3035,60.0,8.3
2026-01-20T23:08:19+00:00,SAT-48293,186.45613021561977,60.48358418260645,633.2029737103915,-2.0644522778983374,72305.85139647691,10.5,10500072305.851397,47.655,-122.3035,60.0,8.316666666666666
2026-01-20T23:08:20+00:00,SAT-48293,185.40877010664238,60.85511931278,631.1440559441559,-1.9932244749226986,69811.15244296218,10.5,10500069811.152443,47.655,-122.3035,60.0,8.333333333333334
2026-01-20T23:08:21+00:00,SAT-48293,184.3299951857286,61.22026759993061,629.1561750289853,-1.9213174170970104,67292.66311135355,10.5,10500067292.66311,47.655,-122.3035,60.0,8.35
2026-01-20T23:08:22+00:00,SAT-48293,183.21917854830858,61.578475608607405,627.2400083987419,-1.8487474767388976,64750.95682946909,10.5,10500064750.95683,47.655,-122.3035,60.0,8.366666666666667
2026-01-20T23:08:23+00:00,SAT-48293,182.07575234455052,61.929171389927724,625.3962171588611,-1.7755319941682404,62186.64092866047,10.5,10500062186.640928,47.655,-122.3035,60.0,8.383333333333333
2026-01-20T23:08:24+00:00,SAT-48293,180.8992193228869,62.27176545676408,623.6254451209459,-1.701689353387701,59600.35929446518,10.5,10500059600.359295,47.655,-122.3035,60.0,8.4
2026-01-20T23:08:25+00:00,SAT-48293,179.68916520343666,62.605652051371436,621.9283177618813,-1.627238927811592,56992.7904658019,10.5,10500056992.790466,47.655,-122.3035,60.0,8.416666666666666
2026-01-20T23:08:26+00:00,SAT-48293,178.44527187983715,62.930210709358654,620.3054412370764,-1.5522010860575424,54364.647837819175,10.5,10500054364.647839,47.655,-122.3035,60.0,8.433333333333334
2026-01-20T23:08:27+00:00,SAT-48293,177.1673312882558,63.24480815805558,618.7574013879265,-1.4765971749320672,51716.67906597805,10.5,10500051716.679066,47.655,-122.3035,60.0,8.45
2026-01-20T23:08:28+00:00,SAT-48293,175.85525978980178,63.54880056940088,617.2847627662501,-1.4004494938588516,49049.66517042247,10.5,10500049049.66517,47.655,-122.3035,60.0,8.466666666666667
2026-01-20T23:08:29+00:00,SAT-48293,174.50911285438212,63.84153618607171,615.8880676842224,-1.3237812898083712,46364.42035839306,10.5,10500046364.420359,47.655,-122.3035,60.0,8.483333333333333
2026-01-20T23:08:30+00:00,SAT-48293,173.12909975336535,64.12235834029755,614.5678352693701,-1.2466167114179694,43661.79041731823,10.5,10500043661.790417,47.655,-122.3035,60.0,8.5
2026-01-20T23:08:31+00:00,SAT-48293,171.71559797002746,64.39060886503496,613.3245605653225,-1.168980797166602,40942.65230064367,10.5,10500040942.6523,47.655,-122.3035,60.0,8.516666666666667
2026-01-20T23:08:32+00:00,SAT-48293,170.2691669110925,64.64563190378493,612.1587136443534,-1.0908994246923644,38207.91235271778,10.5,10500038207.912354,47.655,-122.3035,60.0,8.533333333333333
2026-01-20T23:08:33+00:00,SAT-48293,168.7905605301285,64.88677809936718,611.0707387704747,-1.0123992993607251,35458.50590840285,10.5,10500035458.505909,47.655,-122.3035,60.0,8.55
2026-01-20T23:08:34+00:00,SAT-48293,167.28073834100647,65.11340914634081,610.0610535739248,-0.9335078898026914,32695.395035348953,10.5,10500032695.395035,47.655,-122.3035,60.0,8.566666666666666
2026-01-20T23:08:35+00:00,SAT-48293,165.7408743892282,65.32490265790474,609.1300482899503,-0.8542534080435442,29919.567838018174,10.5,10500029919.567839,47.655,-122.3035,60.0,8.583333333333334
2026-01-20T23:08:36+00:00,SAT-48293,164.172363608843,65.52065730465377,608.278085017407,-0.7746647422914087,27132.036103656057,10.5,10500027132.036104,47.655,-122.3035,60.0,8.6
2026-01-20T23:08:37+00:00,SAT-48293,162.5768251418792,65.70009814688791,607.505497044386,-0.694771429697818,24333.834348251312,10.5,10500024333.834349,47.655,-122.3035,60.0,8.616666666666667
2026-01-20T23:08:38+00:00,SAT-48293,160.95610209003019,65.86268208670012,606.8125882010125,-0.6146035904083212,21526.01750670917,10.5,10500021526.017508,47.655,-122.3035,60.0,8.633333333333333
2026-01-20T23:08:39+00:00,SAT-48293,159.3122573769168,66.0079033343092,606.1996322780147,-0.5341918760485652,18709.65912861602,10.5,10500018709.659128,47.655,-122.3035,60.0,8.65
2026-01-20T23:08:40+00:00,SAT-48293,157.6475654055327,66.13529878325909,605.6668724966673,-0.4535674229171266,15885.849738854435,10.5,10500015885.84974,47.655,-122.3035,60.0,8.666666666666666
2026-01-20T23:08:41+00:00,SAT-48293,155.96449930894084,66.2444531781635,605.2145210254189,-0.3727617819713785,13055.694385412038,10.5,10500013055.694386,47.655,-122.3035,60.0,8.683333333333334
2026-01-20T23:08:42+00:00,SAT-48293,154.26571384344388,66.33500394711861,604.8427585663438,-0.291806863677132,10220.31070778267,10.5,10500010220.310707,47.655,-122.3035,60.0,8.7
2026-01-20T23:08:43+00:00,SAT-48293,152.55402401863,66.4066455796801,604.5517339965991,-0.210734877112855,7380.82680413854,10.5,10500007380.826803,47.655,-122.3035,60.0,8.716666666666667
2026-01-20T23:08:44+00:00,SAT-48293,150.83237979912835,66.45913343151635,604.3415640706102,-0.12957826562892177,4538.378977844995,10.5,10500004538.378979,47.655,-122.3035,60.0,8.733333333333333
2026-01-20T23:08:45+00:00,SAT-48293,149.10383736003135,66.49228684793736,604.2123331864296,-0.04836964109210692,1694.1094344245398,10.5,10500001694.109434,47.655,-122.3035,60.0,8.75
2026-01-20T23:08:46+00:00,SAT-48293,147.37152759037676,66.50599151475494,604.1640932176701,0.03285827945028705,-1150.8359367333185,10.5,10499998849.164062,47.655,-122.3035,60.0,8.766666666666667
2026-01-20T23:08:47+00:00,SAT-48293,145.63862254260167,66.50020096656247,604.1968634086077,0.11407273951424704,-3995.309864998652,10.5,10499996004.690134,47.655,-122.3035,60.0,8.783333333333333
2026-01-20T23:08:48+00:00,SAT-48293,143.90830082732347,66.47493720562252,604.3106303348493,0.1952410106477648,-6838.1660615409155,10.5,10499993161.833939,47.655,-122.3035,60.0,8.8
2026-01-20T23:08:49+00:00,SAT-48293,142.18371276913842,66.43029041191635,604.5053479312909,0.27633045548795054,-9678.261427855801,10.5,10499990321.738573,47.655,-122.3035,60.0,8.816666666666666
2026-01-20T23:08:50+00:00,SAT-48293,140.46794637631857,66.36641775415198,604.7809375829613,0.35730859787033115,-12514.458511289424,10.5,10499987485.541489,47.655,-122.3035,60.0,8.833333333333334
2026-01-20T23:08:51+00:00,SAT-48293,138.76399495674633,66.28354133661111,605.1372882857893,0.4381431778145445,-15345.627430869914,10.5,10499984654.37257,47.655,-122.3035,60.0,8.85
2026-01-20T23:08:52+00:00,SAT-48293,137.07472728263357,66.18194534727706,605.574256862208,0.518802228881487,-18170.648586681968,10.5,10499981829.351414,47.655,-122.3035,60.0,8.866666666666667
2026-01-20T23:08:53+00:00,SAT-48293,135.4028609072371,66.06197248615288,606.0916682539083,0.5992541268420898,-20988.414364453234,10.5,10499979011.585636,47.655,-122.3035,60.0,8.883333333333333
2026-01-20T23:08:54+00:00,SAT-48293,133.7509392980666,65.9240197822513,606.6893158631336,0.6794676589588551,-23797.83156208679,10.5,10499976202.168438,47.655,-122.3035,60.0,8.9
2026-01-20T23:08:55+00:00,SAT-48293,132.12131308736878,65.76853390879172,607.3669619630653,0.7594120773095435,-26597.823257282234,10.5,10499973402.176743,47.655,-122.3035,60.0,8.916666666666666
2026-01-20T23:08:56+00:00,SAT-48293,130.51612569557977,65.59600612170216,608.1243381613945,0.8390571634190077,-29387.331071215875,10.5,10499970612.668928,47.655,-122.3035,60.0,8.933333333333334
2026-01-20T23:08:57+00:00,SAT-48293,128.93730334051162,65.40696694197945,608.9611459283482,0.9183732713366612,-32165.31667729594,10.5,10499967834.683323,47.655,-122.3035,60.0,8.95
2026-01-20T23:08:58+00:00,SAT-48293,127.3865493537683,65.20198070665118,609.8770571676799,0.9973313841815201,-34930.76378160908,10.5,10499965069.236217,47.655,-122.3035,60.0,8.966666666666667
2026-01-20T23:08:59+00:00,SAT-48293,125.86534252354278,64.9816400976076,610.8717148440521,1.0759031706483608,-37682.68010200506,10.5,10499962317.319899,47.655,-122.3035,60.0,8.983333333333333
2026-01-20T23:09:00+00:00,SAT-48293,124.37493911097377,64.74656074984281,611.9447336667747,1.1540610188557952,-40420.09855359953,10.5,10499959579.901447,47.655,-122.3035,60.0,9.0
2026-01-20T23:09:01+00:00,SAT-48293,122.9163781367106,64.49737603228814,613.0957008072992,1.2317780854355957,-43142.07896808984,10.5,10499956857.921032,47.655,-122.3035,60.0,9.016666666666667
2026-01-20T23:09:02+00:00,SAT-48293,121.49048942501327,64.23473207120323,614.3241766656732,1.30902833495518,-45847.70947449715,10.5,10499954152.290525,47.655,-122.3035,60.0,9.033333333333333
2026-01-20T23:09:03+00:00,SAT-48293,120.09790391515638,63.95928307635673,615.6296956763083,1.3857865729117416,-48536.10765476057,10.5,10499951463.892345,47.655,-122.3035,60.0,9.05
2026-01-20T23:09:04+00:00,SAT-48293,118.73906573843315,63.6716870143453,617.0117671466566,1.462028491877847,-51206.42215995105,10.5,10499948793.57784,47.655,-122.3035,60.0,9.066666666666666
2026-01-20T23:09:05+00:00,SAT-48293,117.4142455653228,63.372601655065246,618.4698761419074,1.5377306738384815,-53857.83279212467,10.5,10499946142.167208,47.655,-122.3035,60.0,9.083333333333334
2026-01-20T23:09:06+00:00,SAT-48293,116.12355481373082,63.06268101622011,620.0034843720166,1.6128706464619056,-56489.552475166034,10.5,10499943510.447525,47.655,-122.3035,60.0,9.1
2026-01-20T23:09:07+00:00,SAT-48293,114.86696026805228,62.742572199195386,621.6120311348513,1.6874268906674272,-59100.82751984369,10.5,10499940899.17248,47.655,-122.3035,60.0,9.116666666666667
2026-01-20T23:09:08+00:00,SAT-48293,113.64429880316382,62.412912621336204,623.2949342668898,1.7613788547859308,-61690.93811977176,10.5,10499938309.06188,47.655,-122.3035,60.0,9.133333333333333
2026-01-20T23:09:09+00:00,SAT-48293,112.45529191167829,62.0743276303136,625.0515911080362,1.834706980240729,-64259.19925086193,10.5,10499935740.800749,47.655,-122.3035,60.0,9.15
2026-01-20T23:09:10+00:00,SAT-48293,111.29955978600967,61.72742847949397,626.8813794920526,1.9073927141066904,-66804.9611111973,10.5,10499933195.038889,47.655,-122.3035,60.0,9.166666666666666
2026-01-20T23:09:11+00:00,SAT-48293,110.17663477993607,61.372810643873045,628.7836587495129,1.9794185070762174,-69327.60904979231,10.5,10499930672.390951,47.655,-122.3035,60.0,9.183333333333334
2026-01-20T23:09:12+00:00,SAT-48293,109.08597411716238,61.01105245307943,630.7577707087316,2.0507678332272135,-71826.56425895057,10.5,10499928173.435741,47.655,-122.3035,60.0,9.2
2026-01-20T23:09:13+00:00,SAT-48293,108.02697173825416,60.64271400961681,632.8030407164036,2.1214251818786125,-74301.28348901102,10.5,10499925698.71651,47.655,-122.3035,60.0,9.216666666666667
2026-01-20T23:09:14+00:00,SAT-48293,106.99896924173834,60.26833636905609,634.9187786501265,2.1913760524132657,-76751.25886702356,10.5,10499923248.741133,47.655,-122.3035,60.0,9.233333333333333
2026-01-20T23:09:15+00:00,SAT-48293,106.00126588763409,59.888440953205084,637.104279925753,2.2606069778066145,-79176.01872082269,10.5,10499920823.98128,47.655,-122.3035,60.0,9.25
2026-01-20T23:09:16+00:00,SAT-48293,105.03312764831777,59.503529163858616,639.3588265282158,2.3291054781083176,-81575.12594975733,10.5,10499918424.87405,47.655,-122.3035,60.0,9.266666666666667
2026-01-20T23:09:17+00:00,SAT-48293,104.09379535471597,59.114082183175356,641.6816879959538,2.3968600905200947,-83948.1790781441,10.5,10499916051.82092,47.655,-122.3035,60.0,9.283333333333333
2026-01-20T23:09:18+00:00,SAT-48293,103.18249193654951,58.72056092285569,644.0721224353379,2.4638603186113572,-86294.81047658395,10.5,10499913705.189524,47.655,-122.3035,60.0,9.3
2026-01-20T23:09:19+00:00,SAT-48293,102.29842883337464,58.32340611315211,646.5293774844479,2.5300966753602148,-88614.68786944018,10.5,10499911385.31213,47.655,-122.3035,60.0,9.316666666666666
2026-01-20T23:09:20+00:00,SAT-48293,101.44081159331905,57.923038495488015,649.0526913197747,2.595560584841281,-90907.51089152967,10.5,10499909092.489109,47.655,-122.3035,60.0,9.333333333333334
2026-01-20T23:09:21+00:00,SAT-48293,100.60884476452284,57.519859122816406,651.6412935648755,2.6602444518305663,-93173.01352598052,10.5,10499906826.986473,47.655,-122.3035,60.0,9.35
2026-01-20T23:09:22+00:00,SAT-48293,99.80173608164651,57.11424972391855,654.2944062684443,2.7241415786381067,-95410.96119135899,10.5,10499904589.038809,47.655,-122.3035,60.0,9.366666666666667
2026-01-20T23:09:23+00:00,SAT-48293,99.0187000569953,56.70657314109796,657.0112447994416,2.7872461860813043,-97621.15147624459,10.5,10499902378.848524,47.655,-122.3035,60.0,9.383333333333333
2026-01-20T23:09:24+00:00,SAT-48293,98.25896100180528,56.297173811740535,659.7910187631379,2.8495533315290245,-99803.41126878768,10.5,10499900196.588732,47.655,-122.3035,60.0,9.4
2026-01-20T23:09:25+00:00,SAT-48293,97.52175556283053,55.886378297761084,662.6329328354235,2.9110589809662746,-101957.59928071934,10.5,10499898042.400719,47.655,-122.3035,60.0,9.416666666666666
2026-01-20T23:09:26+00:00,SAT-48293,96.80633478753747,55.474495830277554,665.536187668988,2.971759882891025,-104083.60163068467,10.5,10499895916.398369,47.655,-122.3035,60.0,9.433333333333334
2026-01-20T23:09:27+00:00,SAT-48293,96.1119658196448,55.061818889972905,668.4999806737358,3.031653603322678,-106181.33307038737,10.5,10499893818.66693,47.655,-122.3035,60.0,9.45
2026-01-20T23:09:28+00:00,SAT-48293,95.43793322997244,54.64862379220433,671.5235068321164,3.090738478126348,-108250.73531478451,10.5,10499891749.264685,47.655,-122.3035,60.0,9.466666666666667
2026-01-20T23:09:29+00:00,SAT-48293,94.7835400468132,54.23517128271185,674.6059594669047,3.1490135895366698,-110291.77621985084,10.5,10499889708.22378,47.655,-122.3035,60.0,9.483333333333333
2026-01-20T23:09:30+00:00,SAT-48293,94.14810851942298,53.82170713516338,677.7465309855716,3.2064787295030825,-112304.44849877566,10.5,10499887695.5515,47.655,-122.3035,60.0,9.5
2026-01-20T23:09:31+00:00,SAT-48293,93.53098065218937,53.408462747941236,680.944413588095,3.2631344017277883,-114288.76979334076,10.5,10499885711.230207,47.655,-122.3035,60.0,9.516666666666667
2026-01-20T23:09:32+00:00,SAT-48293,92.93151853523993,52.99565573155377,684.1987999768043,3.318981731037846,-116244.77949974775,10.5,10499883755.2205,47.655,-122.3035,60.0,9.533333333333333
2026-01-20T23:09:33+00:00,SAT-48293,92.34910451637624,52.583490495653194,687.5088839758407,3.3740224972925756,-118172.53995619879,10.5,10499881827.460043,47.655,-122.3035,60.0,9.55
2026-01-20T23:09:34+00:00,SAT-48293,91.78314121759944,52.17215881723051,690.873861184433,3.428259089795359,-120072.13484620505,10.5,10499879927.865154,47.655,-122.3035,60.0,9.566666666666666
2026-01-20T23:09:35+00:00,SAT-48293,91.23305143385791,51.76184039856191,694.2929295847082,3.4816944330730917,-121943.66659906921,10.5,10499878056.3334,47.655,-122.3035,60.0,9.583333333333334
2026-01-20T23:09:36+00:00,SAT-48293,90.69827793732533,51.352703416495245,697.7652900754803,3.534332025737469,-123787.25775097191,10.5,10499876212.742249,47.655,-122.3035,60.0,9.6
2026-01-20T23:09:37+00:00,SAT-48293,90.17828318715627,50.94490504839533,701.2901470447945,3.5861758615551476,-125603.04818051509,10.5,10499874396.95182,47.655,-122.3035,60.0,9.616666666666667
2026-01-20T23:09:38+00:00,SAT-48293,89.6725489787346,50.538591988182944,704.8667088637571,3.6372304371678577,-127391.19537911293,10.5,10499872608.80462,47.655,-122.3035,60.0,9.633333333333333
2026-01-20T23:09:39+00:00,SAT-48293,89.18057603258535,50.13390094165062,708.4941883880606,3.6875006669621677,-129151.87146937085,10.5,10499870848.12853,47.655,-122.3035,60.0,9.65
2026-01-20T23:09:40+00:00,SAT-48293,88.7018835472927,49.73095911130478,712.1718033746097,3.7369919448106783,-130885.26536752343,10.5,10499869114.734632,47.655,-122.3035,60.0,9.666666666666666
2026-01-20T23:09:41+00:00,SAT-48293,88.23600870739146,49.329884654199724,715.8987769597213,3.7857100345542336,-132591.57894765804,10.5,10499867408.421053,47.655,-122.3035,60.0,9.683333333333334
2026-01-20T23:09:42+00:00,SAT-48293,87.78250617707033,48.93078713186526,719.6743380281008,3.8336610773089657,-134271.0272976385,10.5,10499865728.972702,47.655,-122.3035,60.0,9.7
2026-01-20T23:09:43+00:00,SAT-48293,87.34094757166132,48.53376793939213,723.4977215891068,3.8808515531279846,-135923.83737633532,10.5,10499864076.162624,47.655,-122.3035,60.0,9.716666666666667
2026-01-20T23:09:44+00:00,SAT-48293,86.91092091925749,48.13892071894445,727.3681691147785,3.9272883024746674,-137550.24876571115,10.5,10499862449.751234,47.655,-122.3035,60.0,9.733333333333333
2026-01-20T23:09:45+00:00,SAT-48293,86.49203011130149,47.74633175195513,731.2849288992797,3.9729784356970455,-139150.5105002307,10.5,10499860849.4895,47.655,-122.3035,60.0,9.75
2026-01-20T23:09:46+00:00,SAT-48293,86.08389435885331,47.35608034184596,735.2472563280619,4.0179293374151195,-140724.8812205234,10.5,10499859275.11878,47.655,-122.3035,60.0,9.766666666666667
2026-01-20T23:09:47+00:00,SAT-48293,85.68614764751615,46.968239177832245,739.2544141513974,4.0621486521207215,-142273.62866902933,10.5,10499857726.37133,47.655,-122.3035,60.0,9.783333333333333
2026-01-20T23:09:48+00:00,SAT-48293,85.29843819688628,46.58287468238354,743.3056727435584,4.105644261387917,-143797.02889181132,10.5,10499856202.971107,47.655,-122.3035,60.0,9.8
2026-01-20T23:09:49+00:00,SAT-48293,84.92042792778753,46.20004734372718,747.4003103392605,4.148424246184828,-145295.3649185554,10.5,10499854704.635082,47.655,-122.3035,60.0,9.816666666666666
2026-01-20T23:09:50+00:00,SAT-48293,84.55179194082847,45.81981203524462,751.5376132325237,4.190496877907104,-146768.92644852525,10.5,10499853231.073551,47.655,-122.3035,60.0,9.833333333333334
2026-01-20T23:09:51+00:00,SAT-48293,84.1922180049856,45.442218319558876,755.7168759665899,4.231870594718908,-148218.00902192318,10.5,10499851781.990978,47.655,-122.3035,60.0,9.85
2026-01-20T23:09:52+00:00,SAT-48293,83.84140605944212,45.06731073926881,759.9374015002423,4.272553990310571,-149642.91362613597,10.5,10499850357.086374,47.655,-122.3035,60.0,9.866666666666667
2026-01-20T23:09:53+00:00,SAT-48293,83.49906772813881,44.69512909376825,764.1985013629172,4.312555802661612,-151043.94630216793,10.5,10499848956.053698,47.655,-122.3035,60.0,9.883333333333333
2026-01-20T23:09:54+00:00,SAT-48293,83.16492584847323,44.32570870275539,768.4994957986045,4.351884826940757,-152421.41509403134,10.5,10499847578.584906,47.655,-122.3035,60.0,9.9
2026-01-20T23:09:55+00:00,SAT-48293,82.83871401973603,43.959080663394744,772.8397138228844,4.390550043585452,-153775.63453463276,10.5,10499846224.365465,47.655,-122.3035,60.0,9.916666666666666
2026-01-20T23:09:56+00:00,SAT-48293,82.5201761562152,43.595272083287576,777.2184934076989,4.42856045070369,-155106.9197757762,10.5,10499844893.080225,47.655,-122.3035,60.0,9.933333333333334
2026-01-20T23:09:57+00:00,SAT-48293,82.2090660666579,43.23430631507615,781.6351814989755,4.465925129197677,-156415.58886906892,10.5,10499843584.41113,47.655,-122.3035,60.0,9.95
2026-01-20T23:09:58+00:00,SAT-48293,81.90514704322395,42.876203173231026,786.0891340991996,4.502653212522714,-157701.96170675015,10.5,10499842298.038294,47.655,-122.3035,60.0,9.966666666666667
2026-01-20T23:09:59+00:00,SAT-48293,81.6081914668208,42.52097914175231,790.5797163198257,4.5387538904235125,-158966.36015255222,10.5,10499841033.639847,47.655,-122.3035,60.0,9.983333333333333
2026-01-20T23:10:00+00:00,SAT-48293,81.31798042661447,42.1686475704948,795.1063024374168,4.574236375768398,-160209.1068800943,10.5,10499839790.89312,47.655,-122.3035,60.0,10.0
2026-01-20T23:10:01+00:00,SAT-48293,81.03430335569304,41.81921886353623,799.6682759167065,4.609109865392126,-161430.52400143212,10.5,10499838569.475998,47.655,-122.3035,60.0,10.016666666666667
2026-01-20T23:10:02+00:00,SAT-48293,80.75695768286488,41.472700660320896,804.2650293946066,4.643383595349664,-162630.93500227903,10.5,10499837369.064999,47.655,-122.3035,60.0,10.033333333333333
2026-01-20T23:10:03+00:00,SAT-48293,80.48574849469145,41.12909800285583,808.8959647193241,4.677066792564028,-163810.663048509,10.5,10499836189.336952,47.655,-122.3035,60.0,10.05
2026-01-20T23:10:04+00:00,SAT-48293,80.22048821384597,40.78841349744659,813.5604929412525,4.710168642235299,-164970.0298446822,10.5,10499835029.970156,47.655,-122.3035,60.0,10.066666666666666
2026-01-20T23:10:05+00:00,SAT-48293,79.96099629195382,40.45064746992979,818.258034271361,4.742698337561158,-166109.3573754686,10.5,10499833890.642624,47.655,-122.3035,60.0,10.083333333333334
2026-01-20T23:10:06+00:00,SAT-48293,79.70709891244407,40.11579810887922,822.9880180891718,4.774664999940921,-167228.9651108557,10.5,10499832771.03489,47.655,-122.3035,60.0,10.1
2026-01-20T23:10:07+00:00,SAT-48293,79.4586287096728,39.78386160654936,827.7498828711515,4.806077754843979,-168329.17266338225,10.5,10499831670.827337,47.655,-122.3035,60.0,10.116666666666667
2026-01-20T23:10:08+00:00,SAT-48293,79.2154244960494,39.454832286822814,832.5430761947734,4.836945635601767,-169410.29641852615,10.5,10499830589.70358,47.655,-122.3035,60.0,10.133333333333333
2026-01-20T23:10:09+00:00,SAT-48293,78.97733100524259,39.12870273264034,837.3670546466246,4.867277636653952,-170472.6513996109,10.5,10499829527.3486,47.655,-122.3035,60.0,10.15
2026-01-20T23:10:10+00:00,SAT-48293,78.74419864380327,38.8054639027684,842.2212837836189,4.897082692988263,-171516.5505477018,10.5,10499828483.449451,47.655,-122.3035,60.0,10.166666666666666
2026-01-20T23:10:11+00:00,SAT-48293,78.51588325428999,38.48510524345651,847.105238073705,4.92636967527151,-172542.30455107332,10.5,10499827457.69545,47.655,-122.3035,60.0,10.183333333333334
2026-01-20T23:10:12+00:00,SAT-48293,78.292245888855,38.167614794185006,852.0184008317159,4.955147357963223,-173550.2207284142,10.5,10499826449.779272,47.655,-122.3035,60.0,10.2
2026-01-20T23:10:13+00:00,SAT-48293,78.07315259391478,37.85297928952578,856.9602641234228,4.9834244501122535,-174540.60410745445,10.5,10499825459.395893,47.655,-122.3035,60.0,10.216666666666667
2026-01-20T23:10:14+00:00,SAT-48293,77.85847420292234,37.54118425332285,861.9303287002966,5.0112095795934515,-175513.75687286715,10.5,10499824486.243128,47.655,-122.3035,60.0,10.233333333333333
2026-01-20T23:10:15+00:00,SAT-48293,77.6480861386928,37.23221408856935,866.9281039185545,5.038511292373154,-176469.9783405429,10.5,10499823530.02166,47.655,-122.3035,60.0,10.25
2026-01-20T23:10:16+00:00,SAT-48293,77.44186822457537,36.92605216225168,871.9531076574671,5.065338019660151,-177409.56380707744,10.5,10499822590.436193,47.655,-122.3035,60.0,10.266666666666667
2026-01-20T23:10:17+00:00,SAT-48293,77.23970450499262,36.622680887351436,877.0048662049131,5.091698119850841,-178332.80601886866,10.5,10499821667.193981,47.655,-122.3035,60.0,10.283333333333333
2026-01-20T23:10:18+00:00,SAT-48293,77.04148307232978,36.32208179768092,882.0829141847589,5.117599817392678,-179239.99303085578,10.5,10499820760.00697,47.655,-122.3035,60.0,10.3
2026-01-20T23:10:19+00:00,SAT-48293,76.84709590362453,36.02423562201725,887.1867944232699,5.143051311824505,-180131.41202557302,10.5,10499819868.587975,47.655,-122.3035,60.0,10.316666666666666
2026-01-20T23:10:20+00:00,SAT-48293,76.65643870059229,35.72912234771707,892.3160579242688,5.168060614312361,-181007.34358794236,10.5,10499818992.656412,47.655,-122.3035,60.0,10.333333333333334
2026-01-20T23:10:21+00:00,SAT-48293,76.46941074239145,35.4367212899695,897.4702636812663,5.192635676199865,-181868.06620765151,10.5,10499818131.933792,47.655,-122.3035,60.0,10.35
2026-01-20T23:10:22+00:00,SAT-48293,76.2859147404415,35.14701114980123,902.6489786178018,5.216784322635222,-182713.85395449086,10.5,10499817286.146046,47.655,-122.3035,60.0,10.366666666666667
2026-01-20T23:10:23+00:00,SAT-48293,76.10585670180163,34.859970072408835,907.8517774615842,5.240514307017566,-183544.97838529496,10.5,10499816455.021614,47.655,-122.3035,60.0,10.383333333333333
2026-01-20T23:10:24+00:00,SAT-48293,75.92914579687007,34.57557569912717,913.0782426729357,5.263833204103987,-184361.70480009826,10.5,10499815638.2952,47.655,-122.3035,60.0,10.4
2026-01-20T23:10:25+00:00,SAT-48293,75.75569423621926,34.293805222092566,918.3279642666286,5.2867485648717185,-185164.29766606417,10.5,10499814835.702333,47.655,-122.3035,60.0,10.416666666666666
2026-01-20T23:10:26+00:00,SAT-48293,75.58541714805878,34.01463542748018,923.6005397881693,5.3092677453992705,-185953.01462417823,10.5,10499814046.985376,47.655,-122.3035,60.0,10.433333333333334
2026-01-20T23:10:27+00:00,SAT-48293,75.41823246624922,33.73804274514178,928.8955741194218,5.331398049559419,-186728.1114869604,10.5,10499813271.888514,47.655,-122.3035,60.0,10.45
2026-01-20T23:10:28+00:00,SAT-48293,75.25406081897457,33.464003287921415,934.2126794265433,5.353146621378265,-187489.838468424,10.5,10499812510.161531,47.655,-122.3035,60.0,10.466666666666667
2026-01-20T23:10:29+00:00,SAT-48293,75.09282542537998,33.19249289410426,939.5514750005641,5.374520538727065,-188238.4434655597,10.5,10499811761.556534,47.655,-122.3035,60.0,10.483333333333333
2026-01-20T23:10:30+00:00,SAT-48293,74.93445199409665,32.923487162615935,944.9115871914103,5.39552673295249,-188974.16924344757,10.5,10499811025.830757,47.655,-122.3035,60.0,10.5
2026-01-20T23:10:31+00:00,SAT-48293,74.77886862837985,32.65696149007681,950.2926492617745,5.416172036741779,-189697.2551116969,10.5,10499810302.744888,47.655,-122.3035,60.0,10.516666666666667
2026-01-20T23:10:32+00:00,SAT-48293,74.62600573408972,32.39289110325921,955.6943012887174,5.436463145410494,-190407.93556857988,10.5,10499809592.064432,47.655,-122.3035,60.0,10.533333333333333
2026-01-20T23:10:33+00:00,SAT-48293,74.47579593262257,32.131251091420346,961.1161900266671,5.456406689392444,-191106.44283993513,10.5,10499808893.55716,47.655,-122.3035,60.0,10.55
2026-01-20T23:10:34+00:00,SAT-48293,74.32817397578751,31.87201643320218,966.5579688427094,5.476009133696798,-191793.00335773083,10.5,10499808206.996643,47.655,-122.3035,60.0,10.566666666666666
2026-01-20T23:10:35+00:00,SAT-48293,74.18307666684149,31.61516202657821,972.019297551608,5.495276875933125,-192467.84119331586,10.5,10499807532.158806,47.655,-122.3035,60.0,10.583333333333334
2026-01-20T23:10:36+00:00,SAT-48293,74.04044278255762,31.3606627123852,977.499842348585,5.514216157725894,-193131.17495478116,10.5,10499806868.825045,47.655,-122.3035,60.0,10.6
2026-01-20T23:10:37+00:00,SAT-48293,73.90021300066103,31.108493300415862,982.9992756537539,5.532833159516779,-193783.22110733745,10.5,10499806216.778893,47.655,-122.3035,60.0,10.616666666666667
2026-01-20T23:10:38+00:00,SAT-48293,73.76232982821452,30.85862858957924,988.5172760511007,5.551133927594203,-194424.19141758108,10.5,10499805575.808582,47.655,-122.3035,60.0,10.633333333333333
2026-01-20T23:10:39+00:00,SAT-48293,73.62673753470366,30.61104339001878,994.0535281546915,5.569124371110602,-195054.292849026,10.5,10499804945.707151,47.655,-122.3035,60.0,10.65
2026-01-20T23:10:40+00:00,SAT-48293,73.4933820880282,30.36571254391565,999.6077224719024,5.5868103489365435,-195673.73060410246,10.5,10499804326.269396,47.655,-122.3035,60.0,10.666666666666666
2026-01-20T23:10:41+00:00,SAT-48293,73.3622110912251,30.12261094116621,1005.1795553532734,5.604197570490154,-196282.70465078417,10.5,10499803717.29535,47.655,-122.3035,60.0,10.683333333333334
