DopplerPredictor/satellites_20260205_234138/SAT-51865.csv

timestamp,satellite,azimuth_deg,elevation_deg,distance_km,relative_velocity_kms,doppler_shift_hz,tx_freq_ghz,rx_freq_hz,ue_lat,ue_lon,ue_alt_m,time_minutes
2026-01-20T23:00:22+00:00,SAT-51865,306.5341335928749,30.07613875712061,985.5657739966696,-5.686678203389892,199171.52530766427,10.5,10500199171.525309,47.655,-122.3035,60.0,0.36666666666666664
2026-01-20T23:00:23+00:00,SAT-51865,306.64061658083574,30.327137720661206,979.8943409927814,-5.669887719859607,198583.4515507587,10.5,10500198583.451551,47.655,-122.3035,60.0,0.38333333333333336
2026-01-20T23:00:24+00:00,SAT-51865,306.748837981766,30.580613616485397,974.239653459454,-5.65279660765034,197984.84850585726,10.5,10500197984.848505,47.655,-122.3035,60.0,0.4
2026-01-20T23:00:25+00:00,SAT-51865,306.85884164677026,30.83659914811107,968.6020112194229,-5.635398754705459,197375.5021028825,10.5,10500197375.502104,47.655,-122.3035,60.0,0.4166666666666667
2026-01-20T23:00:26+00:00,SAT-51865,306.97067288770063,31.095127308229785,962.9817201910939,-5.617687983580264,196755.19598159063,10.5,10500196755.195982,47.655,-122.3035,60.0,0.43333333333333335
2026-01-20T23:00:27+00:00,SAT-51865,307.084378538631,31.356231370764668,957.3790924537564,-5.599657888981283,196123.70580150976,10.5,10500196123.705801,47.655,-122.3035,60.0,0.45
2026-01-20T23:00:28+00:00,SAT-51865,307.2000070168424,31.619944874407864,951.7944464748227,-5.581302088293715,195480.80801647122,10.5,10500195480.808016,47.655,-122.3035,60.0,0.4666666666666667
2026-01-20T23:00:29+00:00,SAT-51865,307.31760839235864,31.886301616706074,946.2281070872082,-5.562613929669531,194826.26965061968,10.5,10500194826.269651,47.655,-122.3035,60.0,0.48333333333333334
2026-01-20T23:00:30+00:00,SAT-51865,307.43723445446983,32.15533563331809,940.6804057578436,-5.543586717722398,194159.85620320434,10.5,10500194159.856203,47.655,-122.3035,60.0,0.5
2026-01-20T23:00:31+00:00,SAT-51865,307.558938786697,32.42708118660334,935.1516806310962,-5.524213576299455,193481.3268422659,10.5,10500193481.326841,47.655,-122.3035,60.0,0.5166666666666667
2026-01-20T23:00:32+00:00,SAT-51865,307.6827768423746,32.7015727463322,929.6422767090534,-5.504487530151212,192790.43726506198,10.5,10500192790.437265,47.655,-122.3035,60.0,0.5333333333333333
2026-01-20T23:00:33+00:00,SAT-51865,307.8088060260538,32.97884497289154,924.1525459503514,-5.4844014546042,192086.9379353903,10.5,10500192086.937935,47.655,-122.3035,60.0,0.55
2026-01-20T23:00:34+00:00,SAT-51865,307.93708577785094,33.2589326964992,918.6828474191994,-5.463948069962543,191370.57388750822,10.5,10500191370.573887,47.655,-122.3035,60.0,0.5666666666666667
2026-01-20T23:00:35+00:00,SAT-51865,308.0676776619758,33.54187089441226,913.2335474399877,-5.443120007903067,190641.0870515702,10.5,10500190641.087051,47.655,-122.3035,60.0,0.5833333333333334
2026-01-20T23:00:36+00:00,SAT-51865,308.20064546160495,33.82769466979831,907.805019685675,-5.421909718341352,189898.21299168307,10.5,10500189898.212992,47.655,-122.3035,60.0,0.6
2026-01-20T23:00:37+00:00,SAT-51865,308.33605527623433,34.11643922394556,902.3976453590651,-5.400309518480029,189141.68262378467,10.5,10500189141.682623,47.655,-122.3035,60.0,0.6166666666666667
2026-01-20T23:00:38+00:00,SAT-51865,308.47397562548946,34.4081398289397,897.0118133251614,-5.378311613512248,188371.22294076727,10.5,10500188371.22294,47.655,-122.3035,60.0,0.6333333333333333
2026-01-20T23:00:39+00:00,SAT-51865,308.6144775589472,34.702831799369044,891.6479202228778,-5.355908022941889,187586.5544318991,10.5,10500187586.554432,47.655,-122.3035,60.0,0.65
2026-01-20T23:00:40+00:00,SAT-51865,308.75763476980876,35.000550457758116,886.3063706502302,-5.333090694734798,186787.39508088416,10.5,10500186787.39508,47.655,-122.3035,60.0,0.6666666666666666
2026-01-20T23:00:41+00:00,SAT-51865,308.9035237178306,35.301331103833526,880.9875772356812,-5.309851368531061,185973.45557497695,10.5,10500185973.455574,47.655,-122.3035,60.0,0.6833333333333333
2026-01-20T23:00:42+00:00,SAT-51865,309.0522237550382,35.60520897366607,875.69196084591,-5.286181661053365,185144.44229634467,10.5,10500185144.442297,47.655,-122.3035,60.0,0.7
2026-01-20T23:00:43+00:00,SAT-51865,309.2038172605734,35.91221920071377,870.4199507083968,-5.2620730910055755,184300.05819412088,10.5,10500184300.058193,47.655,-122.3035,60.0,0.7166666666666667
2026-01-20T23:00:44+00:00,SAT-51865,309.358389783823,36.22239677550484,865.1719845091822,-5.2375169780486805,183439.9992461156,10.5,10500183439.999247,47.655,-122.3035,60.0,0.7333333333333333
2026-01-20T23:00:45+00:00,SAT-51865,309.5160301921974,36.535776496336354,859.9485085913741,-5.212504531400147,182563.95756193955,10.5,10500182563.957561,47.655,-122.3035,60.0,0.75
2026-01-20T23:00:46+00:00,SAT-51865,309.6768308298562,36.852392921770026,854.7499780652971,-5.187026844369917,181671.6211916316,10.5,10500181671.621191,47.655,-122.3035,60.0,0.7666666666666667
2026-01-20T23:00:47+00:00,SAT-51865,309.84088768507394,37.17228031941153,849.5768569240872,-5.161074834222512,180762.67201937537,10.5,10500180762.67202,47.655,-122.3035,60.0,0.7833333333333333
2026-01-20T23:00:48+00:00,SAT-51865,310.00830056498273,37.495472607284114,844.4296182192667,-5.13463931950343,179836.78847179675,10.5,10500179836.788471,47.655,-122.3035,60.0,0.8
2026-01-20T23:00:49+00:00,SAT-51865,310.1791732827158,37.82200329594605,839.3087441591987,-5.107710924379228,178893.6421675488,10.5,10500178893.642168,47.655,-122.3035,60.0,0.8166666666666667
2026-01-20T23:00:50+00:00,SAT-51865,310.3536138517358,38.15190542037101,834.2147263029436,-5.080280235733716,177932.903419485,10.5,10500177932.90342,47.655,-122.3035,60.0,0.8333333333333334
2026-01-20T23:00:51+00:00,SAT-51865,310.5317346968506,38.48521147734779,829.1480655974432,-5.052337655981537,176954.23607956857,10.5,10500176954.23608,47.655,-122.3035,60.0,0.85
2026-01-20T23:00:52+00:00,SAT-51865,310.7136528719841,38.82195334879712,824.1092725614948,-5.023873454753741,175957.29934911933,10.5,10500175957.299349,47.655,-122.3035,60.0,0.8666666666666667
2026-01-20T23:00:53+00:00,SAT-51865,310.8994902922205,39.16216222320153,819.0988674181788,-4.994877808032737,174941.74914948575,10.5,10500174941.74915,47.655,-122.3035,60.0,0.8833333333333333
2026-01-20T23:00:54+00:00,SAT-51865,311.0893739808305,39.50586851431364,814.1173801882562,-4.965340757824165,173907.23670958306,10.5,10500173907.23671,47.655,-122.3035,60.0,0.9
2026-01-20T23:00:55+00:00,SAT-51865,311.28343632900425,39.853101771492994,809.1653508237866,-4.9352522649187485,172853.41041383657,10.5,10500172853.410414,47.655,-122.3035,60.0,0.9166666666666666
2026-01-20T23:00:56+00:00,SAT-51865,311.4818153729623,40.20389058764998,804.2433292891254,-4.904602144433003,171779.91354454463,10.5,10500171779.913544,47.655,-122.3035,60.0,0.9333333333333333
2026-01-20T23:00:57+00:00,SAT-51865,311.68465508453636,40.558262496280015,799.3518757062064,-4.873380129008778,170686.38649539396,10.5,10500170686.386496,47.655,-122.3035,60.0,0.95
2026-01-20T23:00:58+00:00,SAT-51865,311.89210568163963,40.91624386608731,794.4915604367972,-4.841575871969809,169572.4668820154,10.5,10500169572.466883,47.655,-122.3035,60.0,0.9666666666666667
2026-01-20T23:00:59+00:00,SAT-51865,312.10432395720727,41.277859788742596,789.6629641616024,-4.809178902835463,168437.787983887,10.5,10500168437.787983,47.655,-122.3035,60.0,0.9833333333333333
2026-01-20T23:01:00+00:00,SAT-51865,312.321473625794,41.64313395567565,784.8666780037388,-4.776178698806168,167281.9812480565,10.5,10500167281.981249,47.655,-122.3035,60.0,1.0
2026-01-20T23:01:01+00:00,SAT-51865,312.5437256940374,42.01208853202101,780.1033035809115,-4.7425646501781715,166104.67507781932,10.5,10500166104.675077,47.655,-122.3035,60.0,1.0166666666666666
2026-01-20T23:01:02+00:00,SAT-51865,312.77125885191344,42.384744019404316,775.3734530920865,-4.7083261073421765,164905.49647881018,10.5,10500164905.496479,47.655,-122.3035,60.0,1.0333333333333334
2026-01-20T23:01:03+00:00,SAT-51865,313.00425988974763,42.761119113233896,770.6777493572891,-4.673452359567327,163684.07031592814,10.5,10500163684.070316,47.655,-122.3035,60.0,1.05
2026-01-20T23:01:04+00:00,SAT-51865,313.2429241395832,43.14123054873254,766.0168258785615,-4.637932600875013,162440.01811809302,10.5,10500162440.018118,47.655,-122.3035,60.0,1.0666666666666667
2026-01-20T23:01:05+00:00,SAT-51865,313.48745594126,43.52509293375116,761.3913269349547,-4.60175607421434,161172.9631278802,10.5,10500161172.963127,47.655,-122.3035,60.0,1.0833333333333333
2026-01-20T23:01:06+00:00,SAT-51865,313.7380691448779,43.91271858243917,756.8019075337329,-4.564911965960024,159882.52660639066,10.5,10500159882.526606,47.655,-122.3035,60.0,1.1
2026-01-20T23:01:07+00:00,SAT-51865,313.9949876381658,44.30411732890743,752.2492334667955,-4.527389445084829,158568.3292052354,10.5,10500158568.329205,47.655,-122.3035,60.0,1.1166666666666667
2026-01-20T23:01:08+00:00,SAT-51865,314.2584459083541,44.69929633170156,747.7339813280332,-4.489177710094802,157229.9926104059,10.5,10500157229.99261,47.655,-122.3035,60.0,1.1333333333333333
2026-01-20T23:01:09+00:00,SAT-51865,314.5286896412526,45.098259869332885,743.2568384838729,-4.450265943734193,155867.13795584886,10.5,10500155867.137957,47.655,-122.3035,60.0,1.15
2026-01-20T23:01:10+00:00,SAT-51865,314.80597635446395,45.50100911802894,738.8185030889971,-4.410643427517726,154479.3898348708,10.5,10500154479.389835,47.655,-122.3035,60.0,1.1666666666666667
2026-01-20T23:01:11+00:00,SAT-51865,315.09057607691886,45.9075419250564,734.4196839878398,-4.370299447684287,153066.37300623825,10.5,10500153066.373007,47.655,-122.3035,60.0,1.1833333333333333
2026-01-20T23:01:12+00:00,SAT-51865,315.38277206420054,46.317852558148296,730.061100709873,-4.329223366703438,151627.71489863866,10.5,10500151627.7149,47.655,-122.3035,60.0,1.2
2026-01-20T23:01:13+00:00,SAT-51865,315.68286156254385,46.7319314447543,725.7434833935831,-4.287404675841988,150163.0474517837,10.5,10500150163.047451,47.655,-122.3035,60.0,1.2166666666666666
2026-01-20T23:01:14+00:00,SAT-51865,315.9911566239063,47.14976489890416,721.4675726580152,-4.244832928266261,148672.00477336804,10.5,10500148672.004774,47.655,-122.3035,60.0,1.2333333333333334
2026-01-20T23:01:15+00:00,SAT-51865,316.3079849660563,47.57133482309595,717.2341195410427,-4.201497839467341,147154.226656386,10.5,10500147154.226656,47.655,-122.3035,60.0,1.25
2026-01-20T23:01:16+00:00,SAT-51865,316.6336908930361,47.99661840005218,713.0438853374762,-4.157389263859074,145609.35775949468,10.5,10500145609.35776,47.655,-122.3035,60.0,1.2666666666666666
2026-01-20T23:01:17+00:00,SAT-51865,316.96863626996657,48.4255877612951,708.8976414605138,-4.112497258594718,144037.04984214294,10.5,10500144037.049843,47.655,-122.3035,60.0,1.2833333333333334
2026-01-20T23:01:18+00:00,SAT-51865,317.3132015625158,48.8582096399131,704.7961692395447,-4.066812049712773,142436.96057885524,10.5,10500142436.960579,47.655,-122.3035,60.0,1.3
2026-01-20T23:01:19+00:00,SAT-51865,317.667786936067,49.29444499615049,700.7402597517172,-4.0203241119343405,140808.75635407268,10.5,10500140808.756353,47.655,-122.3035,60.0,1.3166666666666667
2026-01-20T23:01:20+00:00,SAT-51865,318.032813427767,49.7342486260829,696.7307135739222,-3.9730241527325996,139152.1117041987,10.5,10500139152.111704,47.655,-122.3035,60.0,1.3333333333333333
2026-01-20T23:01:21+00:00,SAT-51865,318.4087241865145,50.177568741838705,692.7683405506658,-3.924903198534503,137466.71233674692,10.5,10500137466.712337,47.655,-122.3035,60.0,1.35
2026-01-20T23:01:22+00:00,SAT-51865,318.79598579395275,50.62434653281039,688.8539594759698,-3.875952538122876,135752.2531480435,10.5,10500135752.253147,47.655,-122.3035,60.0,1.3666666666666667
2026-01-20T23:01:23+00:00,SAT-51865,319.1950896558517,51.07451569026529,684.9883978317202,-3.8261638444056256,134008.4424880998,10.5,10500134008.442488,47.655,-122.3035,60.0,1.3833333333333333
2026-01-20T23:01:24+00:00,SAT-51865,319.60655348488285,51.52800191345575,681.1724914045708,-3.775529114744388,132235.00007066914,10.5,10500132235.00007,47.655,-122.3035,60.0,1.4
2026-01-20T23:01:25+00:00,SAT-51865,320.03092285887976,51.98472237457301,677.4070839623599,-3.72404080855845,130431.66179271837,10.5,10500130431.661793,47.655,-122.3035,60.0,1.4166666666666667
2026-01-20T23:01:26+00:00,SAT-51865,320.4687728787679,52.44458516348928,673.6930267932918,-3.671691762768176,128598.17677289885,10.5,10500128598.176773,47.655,-122.3035,60.0,1.4333333333333333
2026-01-20T23:01:27+00:00,SAT-51865,320.9207099029014,52.907488683591914,670.0311783294458,-3.618475322843402,126734.31194141555,10.5,10500126734.311941,47.655,-122.3035,60.0,1.45
2026-01-20T23:01:28+00:00,SAT-51865,321.3873733840496,53.37332102225248,666.4224036395933,-3.5643853230105678,124839.85134679727,10.5,10500124839.851347,47.655,-122.3035,60.0,1.4666666666666666
2026-01-20T23:01:29+00:00,SAT-51865,321.86943779168,53.841959275147445,662.8675739417488,-3.509416138186806,122914.59797484786,10.5,10500122914.597975,47.655,-122.3035,60.0,1.4833333333333334
2026-01-20T23:01:30+00:00,SAT-51865,322.36761462703777,54.31326883050057,659.3675660639288,-3.4535627374436433,120958.37562117139,10.5,10500120958.375622,47.655,-122.3035,60.0,1.5
2026-01-20T23:01:31+00:00,SAT-51865,322.88265452938055,54.7871026109747,655.9232618515927,-3.3968206621444024,118971.02812545147,10.5,10500118971.028126,47.655,-122.3035,60.0,1.5166666666666666
2026-01-20T23:01:32+00:00,SAT-51865,323.41534945735026,55.263300260018006,652.5355475968822,-3.339186154920344,116952.4238887411,10.5,10500116952.42389,47.655,-122.3035,60.0,1.5333333333333334
2026-01-20T23:01:33+00:00,SAT-51865,323.96653496138657,55.741687290268025,649.2053133392354,-3.280656106360445,114902.4540063135,10.5,10500114902.454006,47.655,-122.3035,60.0,1.55
2026-01-20T23:01:34+00:00,SAT-51865,324.53709250877984,56.222074165948534,645.9334522191657,-3.221228168320265,112821.03623621773,10.5,10500112821.036236,47.655,-122.3035,60.0,1.5666666666666667
2026-01-20T23:01:35+00:00,SAT-51865,325.12795187397865,56.70425533936162,642.7208597190349,-3.160900732505948,110708.11424919988,10.5,10500110708.114248,47.655,-122.3035,60.0,1.5833333333333333
2026-01-20T23:01:36+00:00,SAT-51865,325.74009355273853,57.18800821928375,639.5684329251887,-3.099672997434591,108563.65997393838,10.5,10500108563.659973,47.655,-122.3035,60.0,1.6
2026-01-20T23:01:37+00:00,SAT-51865,326.3745511902043,57.67309208085406,636.4770697233054,-3.037545019358879,106387.67538064027,10.5,10500106387.67538,47.655,-122.3035,60.0,1.6166666666666667
2026-01-20T23:01:38+00:00,SAT-51865,327.03241398981555,58.15924691225529,633.4476679429621,-2.9745177127215654,104180.19249695879,10.5,10500104180.192497,47.655,-122.3035,60.0,1.6333333333333333
2026-01-20T23:01:39+00:00,SAT-51865,327.7148290516457,58.64619218765488,630.481124501745,-2.910592927137165,101941.27610421818,10.5,10500101941.276104,47.655,-122.3035,60.0,1.65
2026-01-20T23:01:40+00:00,SAT-51865,328.4230036063255,59.133625576387885,627.5783344725836,-2.8457734569881667,99671.02407351338,10.5,10500099671.024073,47.655,-122.3035,60.0,1.6666666666666667
2026-01-20T23:01:41+00:00,SAT-51865,329.15820706720694,59.62122157635951,624.7401901415168,-2.7800630786340843,97369.56866892858,10.5,10500097369.568668,47.655,-122.3035,60.0,1.6833333333333333
2026-01-20T23:01:42+00:00,SAT-51865,329.92177282959386,60.10863007538347,621.9675800283479,-2.713466608156789,95037.07857002289,10.5,10500095037.07857,47.655,-122.3035,60.0,1.7
2026-01-20T23:01:43+00:00,SAT-51865,330.7150997293313,60.59547484493642,619.2613878497092,-2.645989898977969,92673.75878838378,10.5,10500092673.75879,47.655,-122.3035,60.0,1.7166666666666666
2026-01-20T23:01:44+00:00,SAT-51865,331.5396530307136,61.08135195820669,616.6224914845036,-2.5776399082461063,90279.85299277981,10.5,10500090279.852993,47.655,-122.3035,60.0,1.7333333333333334
2026-01-20T23:01:45+00:00,SAT-51865,332.39696482660264,61.56582814885952,614.0517618731373,-2.5084247032250473,87855.64373291537,10.5,10500087855.643732,47.655,-122.3035,60.0,1.75
2026-01-20T23:01:46+00:00,SAT-51865,333.28863367097256,62.04843910697027,611.550061910379,-2.438353487221473,85401.4533475204,10.5,10500085401.453348,47.655,-122.3035,60.0,1.7666666666666666
2026-01-20T23:01:47+00:00,SAT-51865,334.21632325561137,62.52868772569457,609.1182453123638,-2.367436654663087,82917.6458934214,10.5,10500082917.645893,47.655,-122.3035,60.0,1.7833333333333334
2026-01-20T23:01:48+00:00,SAT-51865,335.18175991833783,63.00604231908903,606.7571554286656,-2.2956857729471682,80404.62650980121,10.5,10500080404.62651,47.655,-122.3035,60.0,1.8
2026-01-20T23:01:49+00:00,SAT-51865,336.1867286924777,63.479934816438906,604.467624072471,-2.2231136262484763,77862.84295253687,10.5,10500077862.842953,47.655,-122.3035,60.0,1.8166666666666667
2026-01-20T23:01:50+00:00,SAT-51865,337.23306761989437,63.949758970840485,602.2504703070648,-2.1497342294785273,75292.78608311266,10.5,10500075292.786083,47.655,-122.3035,60.0,1.8333333333333333
2026-01-20T23:01:51+00:00,SAT-51865,338.32265997521296,64.414868609629,600.1064992183923,-2.0755628416305525,72694.99033601706,10.5,10500072694.990335,47.655,-122.3035,60.0,1.85
2026-01-20T23:01:52+00:00,SAT-51865,339.4574240193,64.87457596865761,598.0365006743125,-2.0006159780235317,70070.03414758046,10.5,10500070070.034147,47.655,-122.3035,60.0,1.8666666666666667
2026-01-20T23:01:53+00:00,SAT-51865,340.63929986115664,65.32815016270071,596.041248071641,-1.9249113901826587,67418.53925130403,10.5,10500067418.539251,47.655,-122.3035,60.0,1.8833333333333333
2026-01-20T23:01:54+00:00,SAT-51865,341.8702329568605,65.77481584900538,594.1214971032576,-1.84846811721185,64741.17247714226,10.5,10500064741.172478,47.655,-122.3035,60.0,1.9
2026-01-20T23:01:55+00:00,SAT-51865,343.15215381584227,66.21375217805897,592.2779844739795,-1.7713064410700246,62038.64418508906,10.5,10500062038.644186,47.655,-122.3035,60.0,1.9166666666666667
2026-01-20T23:01:56+00:00,SAT-51865,344.48695338078153,66.64409210258789,590.5114266610374,-1.6934479004247898,59311.70875039256,10.5,10500059311.70875,47.655,-122.3035,60.0,1.9333333333333333
2026-01-20T23:01:57+00:00,SAT-51865,345.876453659783,67.06492216641269,588.822518660738,-1.6149152709546097,56561.16387365356,10.5,10500056561.163874,47.655,-122.3035,60.0,1.95
2026-01-20T23:01:58+00:00,SAT-51865,347.32237318880067,67.4752828901038,587.2119327547665,-1.5357325560460935,53787.85025500535,10.5,10500053787.850254,47.655,-122.3035,60.0,1.9666666666666666
2026-01-20T23:01:59+00:00,SAT-51865,348.8262870310755,67.8741698963597,585.6803172857719,-1.4559249760659854,50992.65121837337,10.5,10500050992.651218,47.655,-122.3035,60.0,1.9833333333333334
2026-01-20T23:02:00+00:00,SAT-51865,350.3895811749457,68.26053592948236,584.2282954436491,-1.3755189039032714,48176.4904538871,10.5,10500048176.490454,47.655,-122.3035,60.0,2.0
2026-01-20T23:02:01+00:00,SAT-51865,352.0134013529461,68.6332939196048,582.8564641161057,-1.2945419017336672,45340.33330552801,10.5,10500045340.333305,47.655,-122.3035,60.0,2.0166666666666666
2026-01-20T23:02:02+00:00,SAT-51865,353.6985967812292,68.99132128820692,581.5653927025637,-1.213022619675645,42485.18322163486,10.5,10500042485.183222,47.655,-122.3035,60.0,2.033333333333333
2026-01-20T23:02:03+00:00,SAT-51865,355.4456594379744,69.33346562446052,580.3556220291342,-1.1309907958510363,39612.08175702633,10.5,10500039612.081757,47.655,-122.3035,60.0,2.05
2026-01-20T23:02:04+00:00,SAT-51865,357.2546602380666,69.65855191085484,579.2276632635302,-1.0484772023306508,36722.106679787896,10.5,10500036722.10668,47.655,-122.3035,60.0,2.066666666666667
2026-01-20T23:02:05+00:00,SAT-51865,359.1251838257661,69.96539140622633,578.1819968838892,-0.9655135973104143,33816.370296277935,10.5,10500033816.370296,47.655,-122.3035,60.0,2.0833333333333335
2026-01-20T23:02:06+00:00,SAT-51865,1.056264359512421,70.25279226435497,577.2190716952921,-0.8821326723154684,30896.0176019919,10.5,10500030896.017603,47.655,-122.3035,60.0,2.1
2026-01-20T23:02:07+00:00,SAT-51865,3.0463252364071156,70.51957189830361,576.3393038989368,-0.7983679876008624,27962.224019021363,10.5,10500027962.224018,47.655,-122.3035,60.0,2.1166666666666667
2026-01-20T23:02:08+00:00,SAT-51865,5.093126212798875,70.7645710141015,575.543076225736,-0.7142539222535191,25016.193648413766,10.5,10500025016.19365,47.655,-122.3035,60.0,2.1333333333333333
2026-01-20T23:02:09+00:00,SAT-51865,7.193721831146382,70.98666914281722,574.830737119681,-0.6298256008274106,22059.156700625907,10.5,10500022059.1567,47.655,-122.3035,60.0,2.15
2026-01-20T23:02:10+00:00,SAT-51865,9.344435149884529,71.18480137233998,574.2025999943734,-0.5451188278464789,19092.367201539233,10.5,10500019092.3672,47.655,-122.3035,60.0,2.1666666666666665
2026-01-20T23:02:11+00:00,SAT-51865,11.540850702478695,71.35797586688264,573.658942554878,-0.4601700119097651,16117.100334300381,10.5,10500016117.100334,47.655,-122.3035,60.0,2.183333333333333
2026-01-20T23:02:12+00:00,SAT-51865,13.777830045737439,71.50529163797606,573.2000061952667,-0.3750160929548688,13134.649891779876,10.5,10500013134.64989,47.655,-122.3035,60.0,2.2
2026-01-20T23:02:13+00:00,SAT-51865,16.04955236470382,71.62595593331606,572.8259954687048,-0.28969446037205476,10146.325408581744,10.5,10500010146.325409,47.655,-122.3035,60.0,2.216666666666667
2026-01-20T23:02:14+00:00,SAT-51865,18.349581209199105,71.71930053522459,572.5370776392031,-0.2042428793167055,7153.449580193936,10.5,10500007153.449581,47.655,-122.3035,60.0,2.2333333333333334
2026-01-20T23:02:15+00:00,SAT-51865,20.67095688485531,71.78479623948415,572.3333823068604,-0.11869939878875618,4157.355043541289,10.5,10500004157.355043,47.655,-122.3035,60.0,2.25
2026-01-20T23:02:16+00:00,SAT-51865,23.00631196707726,71.82206480445679,572.2150011247791,-0.03310227598341928,1159.3817274279209,10.5,10500001159.381727,47.655,-122.3035,60.0,2.2666666666666666
2026-01-20T23:02:17+00:00,SAT-51865,25.348005877415304,71.83088775765063,572.1819875914296,0.0525101144905879,-1839.1263270244542,10.5,10499998160.873672,47.655,-122.3035,60.0,2.283333333333333
2026-01-20T23:02:18+00:00,SAT-51865,27.688272529715086,71.81121157906122,572.2343569335495,0.13809936291748875,-4836.823849096403,10.5,10499995163.176151,47.655,-122.3035,60.0,2.3
2026-01-20T23:02:19+00:00,SAT-51865,30.01937415892308,71.7631489760299,572.3720860711327,0.2236271126997474,-7832.367428493973,10.5,10499992167.632572,47.655,-122.3035,60.0,2.316666666666667
2026-01-20T23:02:20+00:00,SAT-51865,32.33375376438339,71.68697617616307,572.5951136704037,0.30905514354398883,-10824.418428871491,10.5,10499989175.581572,47.655,-122.3035,60.0,2.3333333333333335
2026-01-20T23:02:21+00:00,SAT-51865,34.62417871042275,71.58312639228839,572.9033402797577,0.39434545920107594,-13811.646060860201,10.5,10499986188.35394,47.655,-122.3035,60.0,2.35
2026-01-20T23:02:22+00:00,SAT-51865,36.88386891541576,71.45217981843214,573.2966285532021,0.4794603693716966,-16792.730250748384,10.5,10499983207.269749,47.655,-122.3035,60.0,2.3666666666666667
2026-01-20T23:02:23+00:00,SAT-51865,39.106604293027964,71.29485069230334,573.7748035554893,0.5643625707425145,-19766.364478710144,10.5,10499980233.63552,47.655,-122.3035,60.0,2.3833333333333333
2026-01-20T23:02:24+00:00,SAT-51865,41.28680789304947,71.11197208054428,574.3376531480615,0.6490152317112322,-22731.2587462355,10.5,10499977268.741253,47.655,-122.3035,60.0,2.4
2026-01-20T23:02:25+00:00,SAT-51865,43.41960304785314,70.90447910638666,574.9849284595007,0.7333820632329352,-25686.14205746904,10.5,10499974313.857943,47.655,-122.3035,60.0,2.4166666666666665
2026-01-20T23:02:26+00:00,SAT-51865,45.500844565007164,70.67339135211948,575.7163444266288,0.8174274014714913,-28629.76531401153,10.5,10499971370.234686,47.655,-122.3035,60.0,2.433333333333333
2026-01-20T23:02:27+00:00,SAT-51865,47.52712566333031,70.41979511641532,576.531580418042,0.9011162746923267,-31560.903657787916,10.5,10499968439.096342,47.655,-122.3035,60.0,2.45
2026-01-20T23:02:28+00:00,SAT-51865,49.49576344451231,70.14482613196934,577.4302809243555,0.9844144699726226,-34478.358807520555,10.5,10499965521.641193,47.655,-122.3035,60.0,2.466666666666667
2026-01-20T23:02:29+00:00,SAT-51865,51.404766537391595,69.84965323431902,578.4120563149836,1.0672886082379316,-37380.96168682897,10.5,10499962619.038313,47.655,-122.3035,60.0,2.4833333333333334
2026-01-20T23:02:30+00:00,SAT-51865,53.25278892413483,69.53546334890157,579.4764836697487,1.1497061850900125,-40267.57385419326,10.5,10499959732.426146,47.655,-122.3035,60.0,2.5
2026-01-20T23:02:31+00:00,SAT-51865,55.03907390236086,69.20344805472145,580.6231076512158,1.231635655795914,-43137.090479631406,10.5,10499956862.909521,47.655,-122.3035,60.0,2.5166666666666666
2026-01-20T23:02:32+00:00,SAT-51865,56.76339200977756,68.85479184781227,581.8514414617842,1.3130464645703275,-45988.44137029104,10.5,10499954011.55863,47.655,-122.3035,60.0,2.533333333333333
2026-01-20T23:02:33+00:00,SAT-51865,58.42597611886077,68.49066216091597,583.1609678299835,1.3939090892514074,-48820.59253518572,10.5,10499951179.407465,47.655,-122.3035,60.0,2.55
2026-01-20T23:02:34+00:00,SAT-51865,60.02745647910115,68.11220109705361,584.551140041326,1.4741951125984156,-51632.54868233998,10.5,10499948367.451317,47.655,-122.3035,60.0,2.566666666666667
2026-01-20T23:02:35+00:00,SAT-51865,61.56879788113845,67.720518774631,586.0213830402665,1.5538772270971914,-54423.353387097246,10.5,10499945576.646612,47.655,-122.3035,60.0,2.5833333333333335
2026-01-20T23:02:36+00:00,SAT-51865,63.05124044141595,67.31668816767711,587.571094536953,1.632929294100036,-57192.09116344874,10.5,10499942807.908836,47.655,-122.3035,60.0,2.6
2026-01-20T23:02:37+00:00,SAT-51865,64.47624513352919,66.90174126807699,589.1996461729597,1.7113263514880148,-59937.887732399715,10.5,10499940062.112268,47.655,-122.3035,60.0,2.6166666666666667
2026-01-20T23:02:38+00:00,SAT-51865,65.84544463203822,66.47666641510807,590.9063846946624,1.7890446566771492,-62659.91152822819,10.5,10499937340.088472,47.655,-122.3035,60.0,2.6333333333333333
2026-01-20T23:02:39+00:00,SAT-51865,67.16059976908728,66.0424066143939,592.6906331695033,1.8660616933246283,-65357.37393336492,10.5,10499934642.626066,47.655,-122.3035,60.0,2.65
2026-01-20T23:02:40+00:00,SAT-51865,68.42356156114579,65.59985869413876,594.5516922089446,1.9423561827102682,-68029.52967702015,10.5,10499931970.470324,47.655,-122.3035,60.0,2.6666666666666665
2026-01-20T23:02:41+00:00,SAT-51865,69.63623860662504,65.1498731476235,596.4888412027741,2.017908112401247,-70675.67783914394,10.5,10499929324.32216,47.655,-122.3035,60.0,2.683333333333333
2026-01-20T23:02:42+00:00,SAT-51865,70.800569518713,64.69325452332016,598.5013395819972,2.092698716224688,-73295.16114898135,10.5,10499926704.838852,47.655,-122.3035,60.0,2.7
2026-01-20T23:02:43+00:00,SAT-51865,71.91849993904889,64.2307622553262,600.5884280617561,2.1667104910868145,-75887.36657415028,10.5,10499924112.633427,47.655,-122.3035,60.0,2.716666666666667
2026-01-20T23:02:44+00:00,SAT-51865,72.99196368768793,63.763111822826886,602.7493299010225,2.2399272070749583,-78451.72567445664,10.5,10499921548.274326,47.655,-122.3035,60.0,2.7333333333333334
2026-01-20T23:02:45+00:00,SAT-51865,74.02286756387261,63.29097615354611,604.9832521723652,2.3123338509085856,-80987.71262131,10.5,10499919012.287378,47.655,-122.3035,60.0,2.75
2026-01-20T23:02:46+00:00,SAT-51865,75.01307930193784,62.81498721249851,607.2893869753215,2.383916684224475,-83494.84623911716,10.5,10499916505.15376,47.655,-122.3035,60.0,2.7666666666666666
2026-01-20T23:02:47+00:00,SAT-51865,75.96441829264282,62.33573769171155,609.6669127078962,2.4546631656597704,-85972.68727630096,10.5,10499914027.312723,47.655,-122.3035,60.0,2.783333333333333
2026-01-20T23:02:48+00:00,SAT-51865,76.87864860296817,61.85378278118717,612.1149952603522,2.5245619873560097,-88420.83968382586,10.5,10499911579.160316,47.655,-122.3035,60.0,2.8
2026-01-20T23:02:49+00:00,SAT-51865,77.75747397492772,61.369641958616704,614.6327892454098,2.59360301179579,-90838.94840295079,10.5,10499909161.051598,47.655,-122.3035,60.0,2.816666666666667
2026-01-20T23:02:50+00:00,SAT-51865,78.60253443798693,60.883800787678034,617.219439165448,2.6617772565256823,-93226.69883016091,10.5,10499906773.30117,47.655,-122.3035,60.0,2.8333333333333335
2026-01-20T23:02:51+00:00,SAT-51865,79.4154042680711,60.396712691505925,619.8740805644743,2.729076916901866,-95583.81761381599,10.5,10499904416.182386,47.655,-122.3035,60.0,2.85
2026-01-20T23:02:52+00:00,SAT-51865,80.19759105383329,59.908800677316435,622.5958412027745,2.7954952482035913,-97910.06852526528,10.5,10499902089.931475,47.655,-122.3035,60.0,2.8666666666666667
2026-01-20T23:02:53+00:00,SAT-51865,80.95053561586603,59.42045902496022,625.383842113996,2.861026628695253,-100205.2546675479,10.5,10499899794.745333,47.655,-122.3035,60.0,2.8833333333333333
2026-01-20T23:02:54+00:00,SAT-51865,81.67561265081677,58.93205489728954,628.2371987251214,2.9256664648600452,-102469.2151562748,10.5,10499897530.784843,47.655,-122.3035,60.0,2.9
2026-01-20T23:02:55+00:00,SAT-51865,82.37413190225502,58.44392989496006,631.1550218819311,2.989411185987169,-104701.82493004967,10.5,10499895298.17507,47.655,-122.3035,60.0,2.9166666666666665
2026-01-20T23:02:56+00:00,SAT-51865,83.04733975602942,57.95640153597336,634.1364188690673,3.052258195048069,-106902.99302994715,10.5,10499893097.00697,47.655,-122.3035,60.0,2.933333333333333
2026-01-20T23:02:57+00:00,SAT-51865,83.69642114238984,57.46976466590305,637.180494381106,3.1142058449942103,-109072.66176936048,10.5,10499890927.33823,47.655,-122.3035,60.0,2.95
2026-01-20T23:02:58+00:00,SAT-51865,84.32250166380246,56.9842927942697,640.2863514699904,3.1752534035122895,-111210.8054995801,10.5,10499888789.1945,47.655,-122.3035,60.0,2.966666666666667
2026-01-20T23:02:59+00:00,SAT-51865,84.92664987377727,56.500239359948374,643.4530924573127,3.2354010068786416,-113317.42899357973,10.5,10499886682.571007,47.655,-122.3035,60.0,2.9833333333333334
2026-01-20T23:03:00+00:00,SAT-51865,85.50987964733532,56.017838928878746,646.6798198005772,3.2946496025922842,-115392.56543678288,10.5,10499884607.434563,47.655,-122.3035,60.0,3.0
2026-01-20T23:03:01+00:00,SAT-51865,86.07315259515741,55.53730832771127,649.9656369022468,3.3530009841731045,-117436.27764584255,10.5,10499882563.722355,47.655,-122.3035,60.0,3.0166666666666666
2026-01-20T23:03:02+00:00,SAT-51865,86.6173804998451,55.05884770257093,653.3096489534955,3.4104576366518677,-119448.65265704786,10.5,10499880551.347343,47.655,-122.3035,60.0,3.033333333333333
2026-01-20T23:03:03+00:00,SAT-51865,87.14342771374947,54.58264153353483,656.7109636238666,3.4670228306321698,-121429.80502077134,10.5,10499878570.194979,47.655,-122.3035,60.0,3.05
2026-01-20T23:03:04+00:00,SAT-51865,87.65211353638719,54.10885957173891,660.1686918447391,3.5227004647127047,-123379.87128243032,10.5,10499876620.128717,47.655,-122.3035,60.0,3.066666666666667
2026-01-20T23:03:05+00:00,SAT-51865,88.1442145149175,53.63765773826227,663.6819484356384,3.5774951004341067,-125299.01120647311,10.5,10499874700.988794,47.655,-122.3035,60.0,3.0833333333333335
2026-01-20T23:03:06+00:00,SAT-51865,88.62046668479229,53.169178960449855,667.2498527654026,3.6314119280011776,-127187.40657582642,10.5,10499872812.593424,47.655,-122.3035,60.0,3.1
2026-01-20T23:03:07+00:00,SAT-51865,89.08156772983251,52.70355395895112,670.8715293791597,3.6844566523472606,-129045.25720138775,10.5,10499870954.742798,47.655,-122.3035,60.0,3.1166666666666667
2026-01-20T23:03:08+00:00,SAT-51865,89.52817904720796,52.240901998323864,674.5461085116771,3.7366355649592835,-130872.78343764231,10.5,10499869127.216562,47.655,-122.3035,60.0,3.1333333333333333
2026-01-20T23:03:09+00:00,SAT-51865,89.96092773594061,51.78133158001353,678.2727266723423,3.7879554325889404,-132670.22228485774,10.5,10499867329.777716,47.655,-122.3035,60.0,3.15
2026-01-20T23:03:10+00:00,SAT-51865,90.38040848469208,51.3249411042058,682.0505271191545,3.8384234614135426,-134437.82613384555,10.5,10499865562.173866,47.655,-122.3035,60.0,3.1666666666666665
2026-01-20T23:03:11+00:00,SAT-51865,90.7871853683086,50.871819492957115,685.8786602969701,3.8880473425664084,-136175.86436062807,10.5,10499863824.13564,47.655,-122.3035,60.0,3.183333333333333
2026-01-20T23:03:12+00:00,SAT-51865,91.18179356155477,50.42204676775521,689.7562843211618,3.936835107121055,-137884.61824737125,10.5,10499862115.381752,47.655,-122.3035,60.0,3.2
2026-01-20T23:03:13+00:00,SAT-51865,91.56474095205897,49.975694606487565,693.6825653166438,3.9847951767011214,-139564.38275495835,10.5,10499860435.617245,47.655,-122.3035,60.0,3.216666666666667
2026-01-20T23:03:14+00:00,SAT-51865,91.93650967489137,49.532826858681545,697.6566778073781,4.03193631426233,-141215.46479916605,10.5,10499858784.5352,47.655,-122.3035,60.0,3.2333333333333334
2026-01-20T23:03:15+00:00,SAT-51865,92.29755756083779,49.09350003313549,701.677805056789,4.078267561411968,-142838.1810553275,10.5,10499857161.818945,47.655,-122.3035,60.0,3.25
2026-01-20T23:03:16+00:00,SAT-51865,92.64831950113589,48.657763761000616,705.7451393456698,4.123798267681073,-144432.8589835681,10.5,10499855567.141016,47.655,-122.3035,60.0,3.2666666666666666
2026-01-20T23:03:17+00:00,SAT-51865,92.98920873937749,48.22566122610422,709.8578822792794,4.1685379835470915,-145999.83308200655,10.5,10499854000.166918,47.655,-122.3035,60.0,3.283333333333333
2026-01-20T23:03:18+00:00,SAT-51865,93.32061808307853,47.797229578906446,714.0152449877509,4.212496549794803,-147539.44801655228,10.5,10499852460.551983,47.655,-122.3035,60.0,3.3
2026-01-20T23:03:19+00:00,SAT-51865,93.64292105363612,47.372500314973784,718.2164484156203,4.255683919530255,-149052.05238708065,10.5,10499850947.947613,47.655,-122.3035,60.0,3.316666666666667
2026-01-20T23:03:20+00:00,SAT-51865,93.95647295796027,46.95149964722448,722.4607234338464,4.2981102992731195,-150538.00366908414,10.5,10499849461.99633,47.655,-122.3035,60.0,3.3333333333333335
2026-01-20T23:03:21+00:00,SAT-51865,94.26161190867414,46.534248840641915,726.7473110925465,4.339785992620538,-151997.6627381188,10.5,10499848002.337261,47.655,-122.3035,60.0,3.35
2026-01-20T23:03:22+00:00,SAT-51865,94.55865977491077,46.120764540976246,731.0754627178113,4.380721442116556,-153431.39533624906,10.5,10499846568.604664,47.655,-122.3035,60.0,3.3666666666666667
2026-01-20T23:03:23+00:00,SAT-51865,94.84792308097397,45.711059078606546,735.4444400502811,4.420927207818083,-154839.5713213368,10.5,10499845160.428679,47.655,-122.3035,60.0,3.3833333333333333
2026-01-20T23:03:24+00:00,SAT-51865,95.12969385153345,45.30514075527852,739.853515362343,4.460413910397397,-156222.56267425072,10.5,10499843777.437326,47.655,-122.3035,60.0,3.4
2026-01-20T23:03:25+00:00,SAT-51865,95.40425040422792,44.90301411794801,744.3019715185837,4.49919228862308,-157580.74551209135,10.5,10499842419.254488,47.655,-122.3035,60.0,3.4166666666666665
2026-01-20T23:03:26+00:00,SAT-51865,95.67185809950413,44.504680210286374,748.7891020935696,4.537273086495955,-158914.49613521472,10.5,10499841085.503864,47.655,-122.3035,60.0,3.433333333333333
2026-01-20T23:03:27+00:00,SAT-51865,95.93277004032916,44.110136818336436,753.3142113770642,4.574667089056232,-160224.19228134968,10.5,10499839775.807718,47.655,-122.3035,60.0,3.45
2026-01-20T23:03:28+00:00,SAT-51865,96.18722773338538,43.71937869757126,757.8766144149588,4.611385124572788,-161510.21320227566,10.5,10499838489.786798,47.655,-122.3035,60.0,3.466666666666667
2026-01-20T23:03:29+00:00,SAT-51865,96.43546171172936,43.33239778558255,762.4756370523837,4.647437997144834,-162772.9373032485,10.5,10499837227.062696,47.655,-122.3035,60.0,3.4833333333333334
2026-01-20T23:03:30+00:00,SAT-51865,96.67769211796069,42.94918340704602,767.1106159096049,4.682836517833431,-164012.74323335724,10.5,10499835987.256767,47.655,-122.3035,60.0,3.5
2026-01-20T23:03:31+00:00,SAT-51865,96.9141292550847,42.56972246326683,771.7808983889654,4.717591466686039,-165230.00855546343,10.5,10499834769.991444,47.655,-122.3035,60.0,3.5166666666666666
2026-01-20T23:03:32+00:00,SAT-51865,97.14497410378382,42.19399961290917,776.4858426439567,4.751713599001081,-166425.1099656128,10.5,10499833574.890034,47.655,-122.3035,60.0,3.533333333333333
2026-01-20T23:03:33+00:00,SAT-51865,97.37041880999851,41.82199744089751,781.2248175545357,4.785213639946034,-167598.4231045377,10.5,10499832401.576895,47.655,-122.3035,60.0,3.55
2026-01-20T23:03:34+00:00,SAT-51865,97.59064714438514,41.45369661716962,785.9972026970723,4.818102186182329,-168750.31911214546,10.5,10499831249.680887,47.655,-122.3035,60.0,3.566666666666667
2026-01-20T23:03:35+00:00,SAT-51865,97.8058349310926,41.08907605290192,790.8023882161917,4.8503898801211,-169881.1707306911,10.5,10499830118.82927,47.655,-122.3035,60.0,3.5833333333333335
2026-01-20T23:03:36+00:00,SAT-51865,98.01615045949917,40.72811303386134,795.6397748703978,4.882087196218016,-170991.3448199193,10.5,10499829008.65518,47.655,-122.3035,60.0,3.6
2026-01-20T23:03:37+00:00,SAT-51865,98.22175486357833,40.37078336117933,800.5087738645709,4.913204588298206,-172081.2075170055,10.5,10499827918.792482,47.655,-122.3035,60.0,3.6166666666666667
2026-01-20T23:03:38+00:00,SAT-51865,98.42280248590447,40.01706147250164,805.40880682939,4.943752367829356,-173151.1199731657,10.5,10499826848.880028,47.655,-122.3035,60.0,3.6333333333333333
2026-01-20T23:03:39+00:00,SAT-51865,98.61944121618248,39.66692056418758,810.3393056793593,4.973740799929897,-174201.44171626863,10.5,10499825798.558283,47.655,-122.3035,60.0,3.65
2026-01-20T23:03:40+00:00,SAT-51865,98.81181281458124,39.32033269902687,815.2997125665806,5.003180036299988,-175232.52830179562,10.5,10499824767.471699,47.655,-122.3035,60.0,3.6666666666666665
2026-01-20T23:03:41+00:00,SAT-51865,99.0000532143168,38.97726891179452,820.2894797676421,5.032080094318456,-176244.73058072658,10.5,10499823755.269419,47.655,-122.3035,60.0,3.683333333333333
2026-01-20T23:03:42+00:00,SAT-51865,99.18429280686541,38.63769930947383,825.3080695496548,5.060450892138024,-177238.39592872362,10.5,10499822761.60407,47.655,-122.3035,60.0,3.7
2026-01-20T23:03:43+00:00,SAT-51865,99.364656712513,38.30159316271476,830.3549540712934,5.088302238978322,-178213.8679061512,10.5,10499821786.132093,47.655,-122.3035,60.0,3.716666666666667
2026-01-20T23:03:44+00:00,SAT-51865,99.54126503571675,37.96891899210208,835.4296152741546,5.115643850306281,-179171.4867897576,10.5,10499820828.51321,47.655,-122.3035,60.0,3.7333333333333334
2026-01-20T23:03:45+00:00,SAT-51865,99.71423310682563,37.63964464792519,840.5315447892572,5.142485223713365,-180111.58522537057,10.5,10499819888.414774,47.655,-122.3035,60.0,3.75
2026-01-20T23:03:46+00:00,SAT-51865,99.88367170689445,37.31373739265781,845.6602437197487,5.168835853176452,-181034.49573222,10.5,10499818965.504269,47.655,-122.3035,60.0,3.7666666666666666
2026-01-20T23:03:47+00:00,SAT-51865,100.04968728676769,36.991163964675366,850.815222637302,5.194704999899636,-181940.54267684804,10.5,10499818059.457323,47.655,-122.3035,60.0,3.783333333333333
2026-01-20T23:03:48+00:00,SAT-51865,100.21238216751976,36.67189065199423,855.9960013499664,5.2201018548107605,-182830.04796442538,10.5,10499817169.952036,47.655,-122.3035,60.0,3.8
2026-01-20T23:03:49+00:00,SAT-51865,100.37185473488599,36.35588335127973,861.2021088320786,5.245035438293474,-183703.32752694358,10.5,10499816296.672474,47.655,-122.3035,60.0,3.816666666666667
2026-01-20T23:03:50+00:00,SAT-51865,100.5281996204571,36.04310762899381,866.4330830541768,5.26951464829836,-184560.69300827035,10.5,10499815439.306992,47.655,-122.3035,60.0,3.8333333333333335
2026-01-20T23:03:51+00:00,SAT-51865,100.68150787457701,35.7335287756461,871.6884708608959,5.293548257906657,-185402.45167882077,10.5,10499814597.54832,47.655,-122.3035,60.0,3.85
2026-01-20T23:03:52+00:00,SAT-51865,100.83186713011273,35.42711185659372,876.9678278464327,5.317144865540101,-186228.9046916953,10.5,10499813771.095308,47.655,-122.3035,60.0,3.8666666666666667
2026-01-20T23:03:53+00:00,SAT-51865,100.97936175626062,35.123821762270566,882.2707181803545,5.340312994289548,-187040.35056158836,10.5,10499812959.649439,47.655,-122.3035,60.0,3.8833333333333333
2026-01-20T23:03:54+00:00,SAT-51865,101.12407300687612,34.82362324944628,887.5967145324696,5.3630609214315195,-187837.0791937366,10.5,10499812162.920807,47.655,-122.3035,60.0,3.9
2026-01-20T23:03:55+00:00,SAT-51865,101.26607915690133,34.52648098912139,892.9453978276731,5.385396913258249,-188619.3801086604,10.5,10499811380.619892,47.655,-122.3035,60.0,3.9166666666666665
2026-01-20T23:03:56+00:00,SAT-51865,101.40545563744037,34.23235959830689,898.3163572349919,5.407328994316316,-189387.53435992482,10.5,10499810612.465641,47.655,-122.3035,60.0,3.933333333333333
2026-01-20T23:03:57+00:00,SAT-51865,101.5422751583965,33.94122368205097,903.7091899264857,5.428865085832619,-190141.81938240255,10.5,10499809858.180618,47.655,-122.3035,60.0,3.95
2026-01-20T23:03:58+00:00,SAT-51865,101.67660782814305,33.65303786515668,909.1235009742065,5.450012997704065,-190882.50871171913,10.5,10499809117.49129,47.655,-122.3035,60.0,3.966666666666667
2026-01-20T23:03:59+00:00,SAT-51865,101.80852126687711,33.367766822104386,914.5589032391656,5.470780348992185,-191609.86919963793,10.5,10499808390.1308,47.655,-122.3035,60.0,3.9833333333333334
2026-01-20T23:04:00+00:00,SAT-51865,101.93808071253609,33.08537530892814,920.0150171810101,5.491174634480227,-192324.16334517123,10.5,10499807675.836655,47.655,-122.3035,60.0,4.0
2026-01-20T23:04:01+00:00,SAT-51865,102.06534912285306,32.80582818940669,925.4914707340771,5.5112032488572975,-193025.65014161106,10.5,10499806974.34986,47.655,-122.3035,60.0,4.016666666666667
2026-01-20T23:04:02+00:00,SAT-51865,102.1903872728371,32.52909045813399,930.9878992075702,5.5308733984998035,-193714.5819867421,10.5,10499806285.418013,47.655,-122.3035,60.0,4.033333333333333
2026-01-20T23:04:03+00:00,SAT-51865,102.31325384557441,32.25512726623479,936.5039450977492,5.550192201217199,-194391.20817635974,10.5,10499805608.791824,47.655,-122.3035,60.0,4.05
2026-01-20T23:04:04+00:00,SAT-51865,102.43400552062877,31.983903940292148,942.0392579996015,5.569166583820675,-195055.77131669235,10.5,10499804944.228683,47.655,-122.3035,60.0,4.066666666666666
2026-01-20T23:04:05+00:00,SAT-51865,102.55269705603855,31.715386004743976,947.593494416356,5.587803406321906,-195708.51167436643,10.5,10499804291.488325,47.655,-122.3035,60.0,4.083333333333333
2026-01-20T23:04:06+00:00,SAT-51865,102.66938136879517,31.44953919666154,953.1663176928623,5.6061093351642315,-196349.66273642692,10.5,10499803650.337263,47.655,-122.3035,60.0,4.1
2026-01-20T23:04:07+00:00,SAT-51865,102.78410960895933,31.18632948527039,958.7573978225421,5.624090969001722,-196979.45561565156,10.5,10499803020.544384,47.655,-122.3035,60.0,4.116666666666666
2026-01-20T23:04:08+00:00,SAT-51865,102.8969312325922,30.925723084112413,964.3664113797806,5.6417547201051965,-197598.11489688832,10.5,10499802401.885103,47.655,-122.3035,60.0,4.133333333333334
2026-01-20T23:04:09+00:00,SAT-51865,103.00789406901617,30.66768646757526,969.9930413340434,5.659106882464059,-198205.86102226967,10.5,10499801794.138977,47.655,-122.3035,60.0,4.15
2026-01-20T23:04:10+00:00,SAT-51865,103.11704438617083,30.412186382990853,975.6369769319124,5.676153689197976,-198802.9123020124,10.5,10499801197.087698,47.655,-122.3035,60.0,4.166666666666667
2026-01-20T23:04:11+00:00,SAT-51865,103.22442695375116,30.159189859135147,981.2979136363788,5.69290114594198,-199389.47907885924,10.5,10499800610.520922,47.655,-122.3035,60.0,4.183333333333334
