DopplerPredictor/satellites_20260205_234138/SAT-51863.csv

timestamp,satellite,azimuth_deg,elevation_deg,distance_km,relative_velocity_kms,doppler_shift_hz,tx_freq_ghz,rx_freq_hz,ue_lat,ue_lon,ue_alt_m,time_minutes
2026-01-20T23:11:25+00:00,SAT-51863,302.24440543085865,30.167923519611975,983.4373783796725,-5.7881970822819175,202727.1458708949,10.5,10500202727.14587,47.655,-122.3035,60.0,11.416666666666666
2026-01-20T23:11:26+00:00,SAT-51863,302.29553390393613,30.42460774303758,977.6646986549968,-5.7724811279140775,202176.70667051207,10.5,10500202176.70667,47.655,-122.3035,60.0,11.433333333333334
2026-01-20T23:11:27+00:00,SAT-51863,302.3474866051421,30.683959818972962,971.9076927523842,-5.756477567043495,201616.1942738289,10.5,10500201616.194273,47.655,-122.3035,60.0,11.45
2026-01-20T23:11:28+00:00,SAT-51863,302.4002850844254,30.946019299107625,966.166647507304,-5.74018033241603,201045.39617994096,10.5,10500201045.39618,47.655,-122.3035,60.0,11.466666666666667
2026-01-20T23:11:29+00:00,SAT-51863,302.4539516458043,31.2108262906702,960.4418558062143,-5.723583279262847,200464.0971730513,10.5,10500200464.097174,47.655,-122.3035,60.0,11.483333333333333
2026-01-20T23:11:30+00:00,SAT-51863,302.5085093810986,31.478421459473505,954.7336166638688,-5.706680109214449,199872.07665761796,10.5,10500199872.076658,47.655,-122.3035,60.0,11.5
2026-01-20T23:11:31+00:00,SAT-51863,302.5639822046981,31.74884602903147,949.0422353765053,-5.689464367489339,199269.1085598893,10.5,10500199269.10856,47.655,-122.3035,60.0,11.516666666666667
2026-01-20T23:11:32+00:00,SAT-51863,302.62039489013796,32.022141778914936,943.3680236778389,-5.6719295106080745,198654.96369953637,10.5,10500198654.9637,47.655,-122.3035,60.0,11.533333333333333
2026-01-20T23:11:33+00:00,SAT-51863,302.6777731094878,32.29835104574951,937.7112998275226,-5.654068814023945,198029.4065544885,10.5,10500198029.406555,47.655,-122.3035,60.0,11.55
2026-01-20T23:11:34+00:00,SAT-51863,302.73614347380226,32.57751671916628,932.0723887917273,-5.635875387230437,197392.19579006082,10.5,10500197392.19579,47.655,-122.3035,60.0,11.566666666666666
2026-01-20T23:11:35+00:00,SAT-51863,302.795533576035,32.85968223763724,926.4516224086592,-5.617342285815314,196743.08818356198,10.5,10500196743.088184,47.655,-122.3035,60.0,11.583333333333334
2026-01-20T23:11:36+00:00,SAT-51863,302.85597203764087,33.144891589170605,920.8493394423191,-5.598462322897608,196081.83202001994,10.5,10500196081.83202,47.655,-122.3035,60.0,11.6
2026-01-20T23:11:37+00:00,SAT-51863,302.9174885556263,33.433189301775535,915.2658858243215,-5.579228214038483,195408.17216757356,10.5,10500195408.172167,47.655,-122.3035,60.0,11.616666666666667
2026-01-20T23:11:38+00:00,SAT-51863,302.98011395392507,33.72462044022941,909.7016147511913,-5.559632501718254,194721.84743233825,10.5,10500194721.847433,47.655,-122.3035,60.0,11.633333333333333
2026-01-20T23:11:39+00:00,SAT-51863,303.0438802369252,34.01923059806204,904.1568868569808,-5.539667578998087,194022.59138713861,10.5,10500194022.591387,47.655,-122.3035,60.0,11.65
2026-01-20T23:11:40+00:00,SAT-51863,303.1088206462598,34.31706588965598,898.6320703622878,-5.519325714284524,193310.13323886722,10.5,10500193310.13324,47.655,-122.3035,60.0,11.666666666666666
2026-01-20T23:11:41+00:00,SAT-51863,303.1749697213671,34.61817294258022,893.1275411985764,-5.49859898097167,192584.1953642561,10.5,10500192584.195364,47.655,-122.3035,60.0,11.683333333333334
2026-01-20T23:11:42+00:00,SAT-51863,303.242363362601,34.92259888491504,887.643683202666,-5.477479300612429,191844.49482191613,10.5,10500191844.494822,47.655,-122.3035,60.0,11.7
2026-01-20T23:11:43+00:00,SAT-51863,303.3110388987204,35.230391333499824,882.1808882681662,-5.455958454117762,191090.74374458246,10.5,10500191090.743744,47.655,-122.3035,60.0,11.716666666666667
2026-01-20T23:11:44+00:00,SAT-51863,303.38103515855,35.54159838143125,876.7395564857417,-5.434028068068548,190322.64885969798,10.5,10500190322.648859,47.655,-122.3035,60.0,11.733333333333333
2026-01-20T23:11:45+00:00,SAT-51863,303.45239254687243,35.85626858331819,871.3200962970278,-5.411679559697873,189539.9095624603,10.5,10500189539.909563,47.655,-122.3035,60.0,11.75
2026-01-20T23:11:46+00:00,SAT-51863,303.52515312401425,36.1744509356742,865.9229247034178,-5.388904255611554,188742.2220739166,10.5,10500188742.222075,47.655,-122.3035,60.0,11.766666666666667
2026-01-20T23:11:47+00:00,SAT-51863,303.59936069225665,36.49619486242507,860.5484673564466,-5.365693249416458,187929.2744545055,10.5,10500187929.274454,47.655,-122.3035,60.0,11.783333333333333
2026-01-20T23:11:48+00:00,SAT-51863,303.6750608853565,36.82155019022398,855.1971587901662,-5.342037532464878,187100.75118327764,10.5,10500187100.751183,47.655,-122.3035,60.0,11.8
2026-01-20T23:11:49+00:00,SAT-51863,303.75230126578947,37.15056712946532,849.8694425231247,-5.317927867837489,186256.32874424628,10.5,10500186256.328745,47.655,-122.3035,60.0,11.816666666666666
2026-01-20T23:11:50+00:00,SAT-51863,303.8311314260861,37.483296245541354,844.565771286027,-5.2933549295333275,185395.68050140855,10.5,10500185395.680502,47.655,-122.3035,60.0,11.833333333333334
2026-01-20T23:11:51+00:00,SAT-51863,303.9116030990091,37.819788436322405,839.2866071105766,-5.268309182388365,184518.4724929866,10.5,10500184518.472492,47.655,-122.3035,60.0,11.85
2026-01-20T23:11:52+00:00,SAT-51863,303.9937702728049,38.16009489979473,834.0324215380796,-5.242780933856002,183624.365244999,10.5,10500183624.365246,47.655,-122.3035,60.0,11.866666666666667
2026-01-20T23:11:53+00:00,SAT-51863,304.0776893148737,38.50426710221548,828.8036957764033,-5.216760330046632,182713.01363254988,10.5,10500182713.013632,47.655,-122.3035,60.0,11.883333333333333
2026-01-20T23:11:54+00:00,SAT-51863,304.1634191035044,38.852356743211175,823.6009208608887,-5.190237353162785,181784.0667899966,10.5,10500181784.06679,47.655,-122.3035,60.0,11.9
2026-01-20T23:11:55+00:00,SAT-51863,304.2510211683706,39.20441571770731,818.4245978178168,-5.163201880144264,180837.17016495045,10.5,10500180837.170164,47.655,-122.3035,60.0,11.916666666666666
2026-01-20T23:11:56+00:00,SAT-51863,304.3405598415765,39.56049607871092,813.2752377693913,-5.135643529586743,179871.96015671882,10.5,10500179871.960157,47.655,-122.3035,60.0,11.933333333333334
2026-01-20T23:11:57+00:00,SAT-51863,304.43210241602935,39.92064998623524,808.1533621913887,-5.1075518595125935,178888.0710430755,10.5,10500178888.071043,47.655,-122.3035,60.0,11.95
2026-01-20T23:11:58+00:00,SAT-51863,304.5257193185415,40.28492966611108,803.0595029735694,-5.078916233174668,177885.13028014204,10.5,10500177885.13028,47.655,-122.3035,60.0,11.966666666666667
2026-01-20T23:11:59+00:00,SAT-51863,304.62148429232246,40.65338735578784,797.9942026139254,-5.049725866287208,176862.76015661372,10.5,10500176862.760157,47.655,-122.3035,60.0,11.983333333333333
2026-01-20T23:12:00+00:00,SAT-51863,304.71947459315936,41.0260752492369,792.9580143658233,-5.019969875112587,175820.5794779606,10.5,10500175820.579477,47.655,-122.3035,60.0,12.0
2026-01-20T23:12:01+00:00,SAT-51863,304.8197712006434,41.40304544112879,787.95150233719,-4.989637149973145,174758.19913627722,10.5,10500174758.199137,47.655,-122.3035,60.0,12.016666666666667
2026-01-20T23:12:02+00:00,SAT-51863,304.92245904164275,41.784349856982935,782.9752417158461,-4.958716538980143,173675.22854524746,10.5,10500173675.228546,47.655,-122.3035,60.0,12.033333333333333
2026-01-20T23:12:03+00:00,SAT-51863,305.02762723419954,42.17004019210749,778.0298188116043,-4.9271967058943495,172571.2706618212,10.5,10500172571.270662,47.655,-122.3035,60.0,12.05
2026-01-20T23:12:04+00:00,SAT-51863,305.1353693459823,42.56016783471262,773.1158312401251,-4.895066210863732,171445.92481398975,10.5,10500171445.924814,47.655,-122.3035,60.0,12.066666666666666
2026-01-20T23:12:05+00:00,SAT-51863,305.24578367383015,42.95478378957035,768.2338880262535,-4.862313503048049,170298.78644246786,10.5,10500170298.786442,47.655,-122.3035,60.0,12.083333333333334
2026-01-20T23:12:06+00:00,SAT-51863,305.3589735440207,43.35393859532812,763.3846097147078,-4.828926930567255,169129.4474491289,10.5,10500169129.447449,47.655,-122.3035,60.0,12.1
2026-01-20T23:12:07+00:00,SAT-51863,305.47504763571857,43.757682236448595,758.5686284708495,-4.79489472576401,167937.49568083568,10.5,10500167937.495682,47.655,-122.3035,60.0,12.116666666666667
2026-01-20T23:12:08+00:00,SAT-51863,305.5941203286676,44.1660640473046,753.78658819615,-4.76020503402165,166722.51593876764,10.5,10500166722.51594,47.655,-122.3035,60.0,12.133333333333333
2026-01-20T23:12:09+00:00,SAT-51863,305.7163120787901,44.579132611601004,749.0391446149159,-4.724845943044507,165484.09100394155,10.5,10500165484.091003,47.655,-122.3035,60.0,12.15
2026-01-20T23:12:10+00:00,SAT-51863,305.84174982406853,44.99693565696049,744.3269653318162,-4.688805453920382,164221.80062369682,10.5,10500164221.800623,47.655,-122.3035,60.0,12.166666666666666
2026-01-20T23:12:11+00:00,SAT-51863,305.9705674219475,45.41951993917206,739.6507299182625,-4.652071541055281,162935.22361086367,10.5,10500162935.22361,47.655,-122.3035,60.0,12.183333333333334
2026-01-20T23:12:12+00:00,SAT-51863,306.102906123696,45.846931123404005,735.0111299390228,-4.614632086275744,161623.9355357476,10.5,10500161623.935535,47.655,-122.3035,60.0,12.2
2026-01-20T23:12:13+00:00,SAT-51863,306.23891508546643,46.27921365058637,730.4088690445511,-4.5764749808977845,160287.51230101573,10.5,10500160287.5123,47.655,-122.3035,60.0,12.216666666666667
2026-01-20T23:12:14+00:00,SAT-51863,306.3787519247251,46.716410603630806,725.8446629615237,-4.537588143827781,158925.5307756665,10.5,10500158925.530775,47.655,-122.3035,60.0,12.233333333333333
2026-01-20T23:12:15+00:00,SAT-51863,306.5225833240678,47.1585635658139,721.3192394653223,-4.497959412637253,157537.56498000745,10.5,10500157537.56498,47.655,-122.3035,60.0,12.25
2026-01-20T23:12:16+00:00,SAT-51863,306.6705856823245,47.60571245805612,716.8333384611519,-4.457576687737063,156123.19113524584,10.5,10500156123.191135,47.655,-122.3035,60.0,12.266666666666667
2026-01-20T23:12:17+00:00,SAT-51863,306.82294582663053,48.057895378650755,712.3877119213691,-4.4164279490753575,154681.98824832097,10.5,10500154681.988249,47.655,-122.3035,60.0,12.283333333333333
2026-01-20T23:12:18+00:00,SAT-51863,306.9798617872569,48.515148433210996,707.9831238061581,-4.374501173562272,153213.53521976812,10.5,10500153213.53522,47.655,-122.3035,60.0,12.3
2026-01-20T23:12:19+00:00,SAT-51863,307.1415436376131,48.977505543533375,703.6203500665608,-4.331784466969475,151717.41546339862,10.5,10500151717.415462,47.655,-122.3035,60.0,12.316666666666666
2026-01-20T23:12:20+00:00,SAT-51863,307.3082144145183,49.4449982564143,699.3001785159612,-4.288266026387473,150193.2155913958,10.5,10500150193.215591,47.655,-122.3035,60.0,12.333333333333334
2026-01-20T23:12:21+00:00,SAT-51863,307.48011112056554,49.91765553443304,695.0234087390097,-4.243934159679369,148640.5260956677,10.5,10500148640.526096,47.655,-122.3035,60.0,12.35
2026-01-20T23:12:22+00:00,SAT-51863,307.65748581920843,50.39550353333038,690.7908519811494,-4.198777390028527,147058.945009549,10.5,10500147058.94501,47.655,-122.3035,60.0,12.366666666666667
2026-01-20T23:12:23+00:00,SAT-51863,307.8406068370877,50.87856537478576,686.6033309338724,-4.152784330668251,145448.07352030394,10.5,10500145448.07352,47.655,-122.3035,60.0,12.383333333333333
2026-01-20T23:12:24+00:00,SAT-51863,308.0297600738607,51.36686088760815,682.4616796449104,-4.105943900371281,143807.52351648037,10.5,10500143807.523516,47.655,-122.3035,60.0,12.4
2026-01-20T23:12:25+00:00,SAT-51863,308.22525044854575,51.86040635483327,678.3667432135157,-4.058245185715378,142136.9127638677,10.5,10500142136.912764,47.655,-122.3035,60.0,12.416666666666666
2026-01-20T23:12:26+00:00,SAT-51863,308.42740347968635,52.359214224984854,674.3193776231052,-4.009677594530751,140435.87027987503,10.5,10500140435.87028,47.655,-122.3035,60.0,12.433333333333334
2026-01-20T23:12:27+00:00,SAT-51863,308.6365670299412,52.86329281992432,670.32044942087,-3.9602307926214873,138704.03411724794,10.5,10500138704.034117,47.655,-122.3035,60.0,12.45
2026-01-20T23:12:28+00:00,SAT-51863,308.8531132221626,53.37264601188756,666.3708354604918,-3.9098948256958637,136941.0556345836,10.5,10500136941.055635,47.655,-122.3035,60.0,12.466666666666667
2026-01-20T23:12:29+00:00,SAT-51863,309.0774405579618,53.88727289065531,662.4714225232581,-3.8586600970008607,135146.5987129971,10.5,10500135146.598713,47.655,-122.3035,60.0,12.483333333333333
2026-01-20T23:12:30+00:00,SAT-51863,309.3099762540159,54.40716740105411,658.6231069614821,-3.8065174100482024,133320.3412525679,10.5,10500133320.341253,47.655,-122.3035,60.0,12.5
2026-01-20T23:12:31+00:00,SAT-51863,309.5511788267016,54.93231795639675,654.8267942993107,-3.7534580189542823,131461.976935457,10.5,10500131461.976936,47.655,-122.3035,60.0,12.516666666666667
2026-01-20T23:12:32+00:00,SAT-51863,309.8015409557152,55.462707026546525,651.0833987833282,-3.6994736649354296,129571.2165041257,10.5,10500129571.216505,47.655,-122.3035,60.0,12.533333333333333
2026-01-20T23:12:33+00:00,SAT-51863,310.0615926607682,55.99831069597548,647.3938428967612,-3.644556640911405,127647.79002402305,10.5,10500127647.790024,47.655,-122.3035,60.0,12.55
2026-01-20T23:12:34+00:00,SAT-51863,310.3319048329866,56.53909819270455,643.7590568092551,-3.5886997518986936,125691.44549639165,10.5,10500125691.445496,47.655,-122.3035,60.0,12.566666666666666
2026-01-20T23:12:35+00:00,SAT-51863,310.6130931580906,57.08503136896217,640.1799778661506,-3.53189648271845,123701.95473210912,10.5,10500123701.954733,47.655,-122.3035,60.0,12.583333333333334
2026-01-20T23:12:36+00:00,SAT-51863,310.9058224993245,57.63606415982721,636.6575499105006,-3.474140911034641,121679.11030591613,10.5,10500121679.110306,47.655,-122.3035,60.0,12.6
2026-01-20T23:12:37+00:00,SAT-51863,311.21081177904074,58.19214197701156,633.1927226918169,-3.415427862082939,119622.7309756767,10.5,10500119622.730976,47.655,-122.3035,60.0,12.616666666666667
2026-01-20T23:12:38+00:00,SAT-51863,311.5288394471115,58.7532010685497,629.7864511205031,-3.3557528751267056,117532.66050752487,10.5,10500117532.660507,47.655,-122.3035,60.0,12.633333333333333
2026-01-20T23:12:39+00:00,SAT-51863,311.86074959824947,59.319167808736196,626.4396945557406,-3.295112282390628,115408.7704404545,10.5,10500115408.770441,47.655,-122.3035,60.0,12.65
2026-01-20T23:12:40+00:00,SAT-51863,312.207458837947,59.889957927848215,623.1534160146539,-3.233503268934476,113250.96218335151,10.5,10500113250.962183,47.655,-122.3035,60.0,12.666666666666666
2026-01-20T23:12:41+00:00,SAT-51863,312.56996400008273,60.46547567008685,619.9285813217598,-3.170923881880843,111059.16733818852,10.5,10500111059.167337,47.655,-122.3035,60.0,12.683333333333334
2026-01-20T23:12:42+00:00,SAT-51863,312.9493508300393,61.0456128600768,616.7661582492187,-3.1073731025354774,108833.35022598371,10.5,10500108833.350225,47.655,-122.3035,60.0,12.7
2026-01-20T23:12:43+00:00,SAT-51863,313.3468037784817,61.63024787601377,613.6671155851536,-3.042850904717437,106573.50992976977,10.5,10500106573.50993,47.655,-122.3035,60.0,12.716666666666667
2026-01-20T23:12:44+00:00,SAT-51863,313.76361706508254,62.21924451272059,610.6324221437984,-2.977358245344194,104279.67996484434,10.5,10500104279.679964,47.655,-122.3035,60.0,12.733333333333333
2026-01-20T23:12:45+00:00,SAT-51863,314.20120718725786,62.81245070381364,607.6630457850345,-2.910897187686238,101951.93259566756,10.5,10500101951.932596,47.655,-122.3035,60.0,12.75
2026-01-20T23:12:46+00:00,SAT-51863,314.66112710644893,63.40969710744108,604.7599523110046,-2.8434708658844383,99590.3775931101,10.5,10500099590.377594,47.655,-122.3035,60.0,12.766666666666667
2026-01-20T23:12:47+00:00,SAT-51863,315.1450823361335,64.01079549994938,601.9241043981126,-2.7750835959162776,97195.16612095998,10.5,10500097195.16612,47.655,-122.3035,60.0,12.783333333333333
2026-01-20T23:12:48+00:00,SAT-51863,315.6549492395781,64.61553697681353,599.1564604183556,-2.7057408678363486,94766.49046415191,10.5,10500094766.490463,47.655,-122.3035,60.0,12.8
2026-01-20T23:12:49+00:00,SAT-51863,316.1927958481621,65.22368990151035,596.4579732683935,-2.6354494116972886,92304.58633759736,10.5,10500092304.586338,47.655,-122.3035,60.0,12.816666666666666
2026-01-20T23:12:50+00:00,SAT-51863,316.76090559149384,65.83499757516678,593.8295891328771,-2.5642172334753246,89809.73414444904,10.5,10500089809.734144,47.655,-122.3035,60.0,12.833333333333334
2026-01-20T23:12:51+00:00,SAT-51863,317.3618043712107,66.449175570454,591.2722462119426,-2.492053635391697,87282.25968784317,10.5,10500087282.259687,47.655,-122.3035,60.0,12.85
2026-01-20T23:12:52+00:00,SAT-51863,317.9982914704664,67.06590866522009,588.7868734284439,-2.4189692719234315,84722.53613263356,10.5,10500084722.536133,47.655,-122.3035,60.0,12.866666666666667
2026-01-20T23:12:53+00:00,SAT-51863,318.6734748730196,67.68484731170751,586.3743890793207,-2.3449761463779386,82130.98388541967,10.5,10500082130.983885,47.655,-122.3035,60.0,12.883333333333333
2026-01-20T23:12:54+00:00,SAT-51863,319.39081160854056,68.30560353962008,584.0356994903847,-2.270087668175481,79508.07260082089,10.5,10500079508.072601,47.655,-122.3035,60.0,12.9
2026-01-20T23:12:55+00:00,SAT-51863,320.1541538421911,68.92774620339723,581.7716976139754,-2.194318674833488,76854.32195146027,10.5,10500076854.32195,47.655,-122.3035,60.0,12.916666666666666
2026-01-20T23:12:56+00:00,SAT-51863,320.96780146054977,69.55079544018467,579.583261604693,-2.1176854168554056,74170.30109870795,10.5,10500074170.301098,47.655,-122.3035,60.0,12.933333333333334
2026-01-20T23:12:57+00:00,SAT-51863,321.83656193802796,70.1742161775745,577.4712534101997,-2.0402056073537804,71456.6304306918,10.5,10500071456.63043,47.655,-122.3035,60.0,12.95
2026-01-20T23:12:58+00:00,SAT-51863,322.76581830434765,70.79741052992915,575.4365173125307,-1.9618984299213147,68713.98183797474,10.5,10500068713.981838,47.655,-122.3035,60.0,12.966666666666667
2026-01-20T23:12:59+00:00,SAT-51863,323.76160593039094,71.41970886032986,573.4798784615581,-1.8827845126300908,65943.07780289774,10.5,10500065943.077803,47.655,-122.3035,60.0,12.983333333333333
2026-01-20T23:13:00+00:00,SAT-51863,324.83069865595377,72.04035924687557,571.6021414343821,-1.8028859605134155,63144.692537231414,10.5,10500063144.692537,47.655,-122.3035,60.0,13.0
2026-01-20T23:13:01+00:00,SAT-51863,325.98070446173097,72.65851508001474,569.8040887623305,-1.7222263458181077,60319.65164076987,10.5,10500060319.65164,47.655,-122.3035,60.0,13.016666666666667
2026-01-20T23:13:02+00:00,SAT-51863,327.2201701830134,73.27322044508273,568.0864794676785,-1.6408306778666188,57468.83104577467,10.5,10500057468.831045,47.655,-122.3035,60.0,13.033333333333333
2026-01-20T23:13:03+00:00,SAT-51863,328.5586936625286,73.88339290954154,566.4500476304243,-1.5587254027249726,54593.15700534472,10.5,10500054593.157005,47.655,-122.3035,60.0,13.05
2026-01-20T23:13:04+00:00,SAT-51863,330.00704000925117,74.48780332446815,564.8955009553999,-1.4759383787654659,51693.605237518655,10.5,10500051693.605238,47.655,-122.3035,60.0,13.066666666666666
2026-01-20T23:13:05+00:00,SAT-51863,331.5772558578371,75.0850522295985,563.4235193637485,-1.3924988491019066,48771.19995984028,10.5,10500048771.19996,47.655,-122.3035,60.0,13.083333333333334
2026-01-20T23:13:06+00:00,SAT-51863,333.2827713979714,75.67354250438785,562.034753611896,-1.3084374011891913,45827.01247436488,10.5,10500045827.012474,47.655,-122.3035,60.0,13.1
2026-01-20T23:13:07+00:00,SAT-51863,335.13847385415124,76.25144803535262,560.7298239508152,-1.2237859326717626,42862.159971527726,10.5,10500042862.159971,47.655,-122.3035,60.0,13.116666666666667
2026-01-20T23:13:08+00:00,SAT-51863,337.16072746460094,76.81667845174148,559.5093188193464,-1.1385775987156521,39877.803685489474,10.5,10500039877.803686,47.655,-122.3035,60.0,13.133333333333333
2026-01-20T23:13:09+00:00,SAT-51863,339.36730312701343,77.36684046934319,558.3737935900492,-1.05284676984536,36875.14741740528,10.5,10500036875.147417,47.655,-122.3035,60.0,13.15
2026-01-20T23:13:10+00:00,SAT-51863,341.777165545681,77.89919723075289,557.3237693571009,-0.9666289628010016,33855.43511374965,10.5,10500033855.435114,47.655,-122.3035,60.0,13.166666666666666
2026-01-20T23:13:11+00:00,SAT-51863,344.41004728925054,78.41062832749606,556.3597317931543,-0.8799607878211785,30819.949019939566,10.5,10500030819.94902,47.655,-122.3035,60.0,13.183333333333334
2026-01-20T23:13:12+00:00,SAT-51863,347.2857203483,78.89759515123653,555.4821300587707,-0.792879859566917,27770.006560514033,10.5,10500027770.006561,47.655,-122.3035,60.0,13.2
2026-01-20T23:13:13+00:00,SAT-51863,350.42286218296556,79.3561188575353,554.6913758006897,-0.70542475279811,24706.958786735573,10.5,10500024706.958786,47.655,-122.3035,60.0,13.216666666666667
2026-01-20T23:13:14+00:00,SAT-51863,353.83741696304514,79.78178157057957,553.9878421943054,-0.6176348966690123,21632.186674371336,10.5,10500021632.186674,47.655,-122.3035,60.0,13.233333333333333
2026-01-20T23:13:15+00:00,SAT-51863,357.5403911099382,80.1697648631144,553.3718630915606,-0.5295505010302118,18547.098542476426,10.5,10500018547.098543,47.655,-122.3035,60.0,13.25
2026-01-20T23:13:16+00:00,SAT-51863,1.5351199169453422,80.51494207647413,552.8437322423457,-0.44121246818897386,15453.126962867844,10.5,10500015453.126963,47.655,-122.3035,60.0,13.266666666666667
2026-01-20T23:13:17+00:00,SAT-51863,5.8142167838822045,80.81204049090137,552.4037026038967,-0.3526623037265808,12351.725636570545,10.5,10500012351.725637,47.655,-122.3035,60.0,13.283333333333333
2026-01-20T23:13:18+00:00,SAT-51863,10.356662566506166,81.0558831117516,552.051985739139,-0.2639420111715006,9244.365704826225,10.5,10500009244.365705,47.655,-122.3035,60.0,13.3
2026-01-20T23:13:19+00:00,SAT-51863,15.125748426576903,81.24170552537402,551.7887513200754,-0.17509400516330584,6132.53270772646,10.5,10500006132.532707,47.655,-122.3035,60.0,13.316666666666666
2026-01-20T23:13:20+00:00,SAT-51863,20.068721123100914,81.36552118210699,551.614126717777,-0.08616100529115404,3017.722865987234,10.5,10500003017.722866,47.655,-122.3035,60.0,13.333333333333334
2026-01-20T23:13:21+00:00,SAT-51863,25.11882780802959,81.42448372854084,551.5281966982508,0.002814064320083145,-98.56043596958341,10.5,10499999901.439564,47.655,-122.3035,60.0,13.35
2026-01-20T23:13:22+00:00,SAT-51863,30.199928913349787,81.41717829762776,551.5310032184526,0.09178817917981676,-3214.8102984901507,10.5,10499996785.189701,47.655,-122.3035,60.0,13.366666666666667
2026-01-20T23:13:23+00:00,SAT-51863,35.2330582193076,81.34377653659368,551.6225453261908,0.1807183165692389,-6329.519883975896,10.5,10499993670.480116,47.655,-122.3035,60.0,13.383333333333333
2026-01-20T23:13:24+00:00,SAT-51863,40.143602976932904,81.20601724349751,551.8027791618925,0.26956156047301394,-9441.186092035197,10.5,10499990558.813908,47.655,-122.3035,60.0,13.4
2026-01-20T23:13:25+00:00,SAT-51863,44.86753551379882,81.00701750914995,552.0716180650214,0.3582752054409122,-12548.313197157142,10.5,10499987451.686802,47.655,-122.3035,60.0,13.416666666666666
2026-01-20T23:13:26+00:00,SAT-51863,49.35549383422046,80.75096017868974,552.4289327840785,0.44681685493532347,-15649.41629325744,10.5,10499984350.583706,47.655,-122.3035,60.0,13.433333333333334
2026-01-20T23:13:27+00:00,SAT-51863,53.57426862457035,80.44272553915582,552.8745517846862,0.5351445256018176,-18743.024945674533,10.5,10499981256.975054,47.655,-122.3035,60.0,13.45
2026-01-20T23:13:28+00:00,SAT-51863,57.50600982804632,80.08753301294716,553.408261661665,0.623216742565941,-21827.686528866518,10.5,10499978172.31347,47.655,-122.3035,60.0,13.466666666666667
2026-01-20T23:13:29+00:00,SAT-51863,61.145914030223715,79.69063913894183,554.029807646148,0.7109926369275565,-24901.969641075306,10.5,10499975098.03036,47.655,-122.3035,60.0,13.483333333333333
2026-01-20T23:13:30+00:00,SAT-51863,64.49923096561407,79.25711322810247,554.7388942099329,0.7984320354531831,-27964.467245731787,10.5,10499972035.532755,47.655,-122.3035,60.0,13.5
2026-01-20T23:13:31+00:00,SAT-51863,67.57825192517836,78.79169141753906,555.5351857592826,0.8854955465150054,-31013.79968140345,10.5,10499968986.20032,47.655,-122.3035,60.0,13.516666666666667
2026-01-20T23:13:32+00:00,SAT-51863,70.39968025946423,78.29869739183616,556.418307414436,0.9721446510738383,-34048.61784840265,10.5,10499965951.38215,47.655,-122.3035,60.0,13.533333333333333
2026-01-20T23:13:33+00:00,SAT-51863,72.98255080350015,77.78201325641275,557.3878458798562,1.0583417761278102,-37067.605781270206,10.5,10499962932.394218,47.655,-122.3035,60.0,13.55
2026-01-20T23:13:34+00:00,SAT-51863,75.34670762208295,77.24508439471283,558.4433503877333,1.1440503635812869,-40069.48306085643,10.5,10499959930.51694,47.655,-122.3035,60.0,13.566666666666666
2026-01-20T23:13:35+00:00,SAT-51863,77.51176684958985,76.69094496337495,559.5843337101688,1.2292349558314315,-43053.00781192444,10.5,10499956946.992188,47.655,-122.3035,60.0,13.583333333333334
2026-01-20T23:13:36+00:00,SAT-51863,79.49646219979947,76.12225416715529,560.810273256718,1.3138612477643592,-46016.978524275524,10.5,10499953983.021475,47.655,-122.3035,60.0,13.6
2026-01-20T23:13:37+00:00,SAT-51863,81.31827213647932,75.54133666584258,562.12061222379,1.3978961379622181,-48960.23584623763,10.5,10499951039.764154,47.655,-122.3035,60.0,13.616666666666667
2026-01-20T23:13:38+00:00,SAT-51863,82.99324318573122,74.950222951902,563.514760795116,1.4813077966668466,-51881.66496504021,10.5,10499948118.335035,47.655,-122.3035,60.0,13.633333333333333
2026-01-20T23:13:39+00:00,SAT-51863,84.5359430072957,74.35068732592897,564.9920974100004,1.564065699124581,-54780.196774690376,10.5,10499945219.803225,47.655,-122.3035,60.0,13.65
2026-01-20T23:13:40+00:00,SAT-51863,85.95949461510166,73.74428231747842,566.5519700648267,1.6461406816509634,-57654.80983959615,10.5,10499942345.19016,47.655,-122.3035,60.0,13.666666666666666
2026-01-20T23:13:41+00:00,SAT-51863,87.27565782671161,73.13236912543961,568.1936976704776,1.7275049482781935,-60504.53062738833,10.5,10499939495.469372,47.655,-122.3035,60.0,13.683333333333334
2026-01-20T23:13:42+00:00,SAT-51863,88.49493506437368,72.5161441221806,569.9165714163853,1.808132125580796,-63328.43542914732,10.5,10499936671.564571,47.655,-122.3035,60.0,13.7
2026-01-20T23:13:43+00:00,SAT-51863,89.62668675620911,71.89666166494422,571.7198561892594,1.887997268258163,-66125.65055492727,10.5,10499933874.349445,47.655,-122.3035,60.0,13.716666666666667
2026-01-20T23:13:44+00:00,SAT-51863,90.67924710675648,71.27485360512469,573.6027919973851,1.967076892663271,-68895.35350807372,10.5,10499931104.646492,47.655,-122.3035,60.0,13.733333333333333
2026-01-20T23:13:45+00:00,SAT-51863,91.66003486095273,70.65154589047988,575.5645954283558,2.045348964687801,-71636.77256090916,10.5,10499928363.22744,47.655,-122.3035,60.0,13.75
2026-01-20T23:13:46+00:00,SAT-51863,92.57565613655413,70.02747267144794,577.6044610947273,2.122792911473939,-74349.18716492981,10.5,10499925650.812836,47.655,-122.3035,60.0,13.766666666666667
2026-01-20T23:13:47+00:00,SAT-51863,93.4319980399425,69.40328826773055,579.721563091351,2.1993896359799527,-77031.92846095383,10.5,10499922968.071539,47.655,-122.3035,60.0,13.783333333333333
2026-01-20T23:13:48+00:00,SAT-51863,94.2343127513221,68.7795773195036,581.9150564672325,2.2751215075984548,-79684.37895053308,10.5,10499920315.62105,47.655,-122.3035,60.0,13.8
2026-01-20T23:13:49+00:00,SAT-51863,94.98729234226245,68.15686341289867,584.184078688036,2.3499723224621514,-82305.97110569268,10.5,10499917694.028894,47.655,-122.3035,60.0,13.816666666666666
2026-01-20T23:13:50+00:00,SAT-51863,95.69513491455999,67.53561642884448,586.5277510589978,2.4239273327765085,-84896.18839628494,10.5,10499915103.811604,47.655,-122.3035,60.0,13.833333333333334
2026-01-20T23:13:51+00:00,SAT-51863,96.36160283392911,66.91625880084653,588.945180177097,2.4969731976176,-87454.5635667219,10.5,10499912545.436434,47.655,-122.3035,60.0,13.85
2026-01-20T23:13:52+00:00,SAT-51863,96.99007383506472,66.2991708758958,591.4354593341542,2.5690979775351956,-89980.67844695265,10.5,10499910019.321552,47.655,-122.3035,60.0,13.866666666666667
2026-01-20T23:13:53+00:00,SAT-51863,97.58358580562874,65.68469551074587,593.997669914547,2.6402910710124514,-92474.16172701296,10.5,10499907525.838272,47.655,-122.3035,60.0,13.883333333333333
2026-01-20T23:13:54+00:00,SAT-51863,98.144875983235,65.07314203844399,596.6308827295584,2.710543265074824,-94934.69072956349,10.5,10499905065.30927,47.655,-122.3035,60.0,13.9
2026-01-20T23:13:55+00:00,SAT-51863,98.67641527666184,64.46478967863303,599.3341594021944,2.7798465989449905,-97361.98663450834,10.5,10499902638.013365,47.655,-122.3035,60.0,13.916666666666666
2026-01-20T23:13:56+00:00,SAT-51863,99.18043829016706,63.859890519499906,602.1065536160265,2.8481944249822164,-99755.81661334947,10.5,10499900244.183386,47.655,-122.3035,60.0,13.933333333333334
2026-01-20T23:13:57+00:00,SAT-51863,99.65896964005559,63.25867209528528,604.947112424806,2.915581283354721,-102115.98943968287,10.5,10499897884.010561,47.655,-122.3035,60.0,13.95
2026-01-20T23:13:58+00:00,SAT-51863,100.11384701197173,62.66133965965751,607.8548774370904,2.9820029340364345,-104442.35660986029,10.5,10499895557.64339,47.655,-122.3035,60.0,13.966666666666667
2026-01-20T23:13:59+00:00,SAT-51863,100.54674140937078,62.06807816894032,610.8288860327771,3.0474562905408566,-106734.81002206865,10.5,10499893265.189978,47.655,-122.3035,60.0,13.983333333333333
2026-01-20T23:14:00+00:00,SAT-51863,100.95917494383285,61.47905403757996,613.868172513552,3.111939357460084,-108993.27978868262,10.5,10499891006.720211,47.655,-122.3035,60.0,14.0
2026-01-20T23:14:01+00:00,SAT-51863,101.35253648955546,60.894416698099846,616.9717691910423,3.1754511933722647,-111217.73293712673,10.5,10499888782.267063,47.655,-122.3035,60.0,14.016666666666667
2026-01-20T23:14:02+00:00,SAT-51863,101.72809548224554,60.31429998877866,620.1387074379774,3.2379919066452274,-113408.17326290073,10.5,10499886591.826736,47.655,-122.3035,60.0,14.033333333333333
2026-01-20T23:14:03+00:00,SAT-51863,102.08701410497784,59.7388233875757,623.3680187351639,3.2995625454295165,-115564.63747667035,10.5,10499884435.362524,47.655,-122.3035,60.0,14.05
2026-01-20T23:14:04+00:00,SAT-51863,102.43035805624716,59.168093131854825,626.6587356087487,3.3601651047048593,-117687.19545106443,10.5,10499882312.804548,47.655,-122.3035,60.0,14.066666666666666
2026-01-20T23:14:05+00:00,SAT-51863,102.75910609297624,58.60220321934385,630.0098925745106,3.419802452030657,-119775.94762014292,10.5,10499880224.05238,47.655,-122.3035,60.0,14.083333333333334
2026-01-20T23:14:06+00:00,SAT-51863,103.07415849372394,58.04123631957287,633.4205270081002,3.4784782779848973,-121831.02324355813,10.5,10499878168.976757,47.655,-122.3035,60.0,14.1
2026-01-20T23:14:07+00:00,SAT-51863,103.37634458016248,57.485264603202985,636.8896799658518,3.5361970821034983,-123852.57991409088,10.5,10499876147.420086,47.655,-122.3035,60.0,14.116666666666667
2026-01-20T23:14:08+00:00,SAT-51863,103.66642941471936,56.934350494068404,640.4163969915733,3.5929640842751085,-125840.80045432177,10.5,10499874159.199545,47.655,-122.3035,60.0,14.133333333333333
2026-01-20T23:14:09+00:00,SAT-51863,103.94511976964338,56.388547364824,643.9997288349678,3.6487852100887523,-127795.89240344365,10.5,10499872204.107597,47.655,-122.3035,60.0,14.15
2026-01-20T23:14:10+00:00,SAT-51863,104.21306946057636,55.84790017173043,647.6387321554404,3.703667043790593,-129718.0863696085,10.5,10499870281.91363,47.655,-122.3035,60.0,14.166666666666666
2026-01-20T23:14:11+00:00,SAT-51863,104.47088411792856,55.31244604049917,651.3324701789926,3.757616772732084,-131607.63408426667,10.5,10499868392.365915,47.655,-122.3035,60.0,14.183333333333334
2026-01-20T23:14:12+00:00,SAT-51863,104.71912546163949,54.78221480982785,655.0800132997083,3.810642139900842,-133464.80673959732,10.5,10499866535.19326,47.655,-122.3035,60.0,14.2
2026-01-20T23:14:13+00:00,SAT-51863,104.95831513789642,54.25722953603843,658.8804396339004,3.8627514338284215,-135289.8946350359,10.5,10499864710.105366,47.655,-122.3035,60.0,14.216666666666667
2026-01-20T23:14:14+00:00,SAT-51863,105.18893816961327,53.73750695789601,662.7328355641946,3.913953416765388,-137083.20466166156,10.5,10499862916.795338,47.655,-122.3035,60.0,14.233333333333333
2026-01-20T23:14:15+00:00,SAT-51863,105.41144606162261,53.22305793394072,666.6362962119754,3.964257293837981,-138845.05922193278,10.5,10499861154.940779,47.655,-122.3035,60.0,14.25
2026-01-20T23:14:16+00:00,SAT-51863,105.62625960087746,52.713887849573,670.589925879076,4.013672673669195,-140575.79485047134,10.5,10499859424.205149,47.655,-122.3035,60.0,14.266666666666667
2026-01-20T23:14:17+00:00,SAT-51863,105.83377138532455,52.2099969978997,674.5928384501939,4.0622095461078445,-142275.7614340397,10.5,10499857724.238565,47.655,-122.3035,60.0,14.283333333333333
2026-01-20T23:14:18+00:00,SAT-51863,106.03434811158844,51.7113809346756,678.6441577730935,4.109878247252617,-143945.32098653552,10.5,10499856054.679014,47.655,-122.3035,60.0,14.3
2026-01-20T23:14:19+00:00,SAT-51863,106.22833264684954,51.218030811255076,682.7430180039283,4.156689391715904,-145584.84527658462,10.5,10499854415.154724,47.655,-122.3035,60.0,14.316666666666666
2026-01-20T23:14:20+00:00,SAT-51863,106.41604590637834,50.72993369125314,686.8885638850082,4.202653869508805,-147194.7157184403,10.5,10499852805.28428,47.655,-122.3035,60.0,14.333333333333334
2026-01-20T23:14:21+00:00,SAT-51863,106.59778856019149,50.247072844662526,691.0799510194591,4.247782813256495,-148775.32222372718,10.5,10499851224.677776,47.655,-122.3035,60.0,14.35
2026-01-20T23:14:22+00:00,SAT-51863,106.77384258485084,49.76942802478463,695.3163461131874,4.292087576069579,-150327.06242640226,10.5,10499849672.937574,47.655,-122.3035,60.0,14.366666666666667
2026-01-20T23:14:23+00:00,SAT-51863,106.94447267680415,49.29697572813284,699.5969271947737,4.335579669341932,-151850.3395041722,10.5,10499848149.660496,47.655,-122.3035,60.0,14.383333333333333
2026-01-20T23:14:24+00:00,SAT-51863,107.10992753996757,48.829689442947526,703.9208837733321,4.378270773620246,-153345.5625591908,10.5,10499846654.43744,47.655,-122.3035,60.0,14.4
2026-01-20T23:14:25+00:00,SAT-51863,107.27044106240713,48.367539879269614,708.2874170072095,4.420172691055623,-154813.14495271276,10.5,10499845186.855047,47.655,-122.3035,60.0,14.416666666666666
2026-01-20T23:14:26+00:00,SAT-51863,107.42623339113788,47.91049518816503,712.6957398252645,4.461297335794417,-156253.50396854008,10.5,10499843746.49603,47.655,-122.3035,60.0,14.433333333333334
2026-01-20T23:14:27+00:00,SAT-51863,107.577511916257,47.45852116690251,717.1450770385607,4.501656716501945,-157667.0602009288,10.5,10499842332.939798,47.655,-122.3035,60.0,14.45
2026-01-20T23:14:28+00:00,SAT-51863,107.72447217264796,47.011581451933,721.634665434634,4.54126285190335,-159054.23459647267,10.5,10499840945.765404,47.655,-122.3035,60.0,14.466666666666667
2026-01-20T23:14:29+00:00,SAT-51863,107.86729866544339,46.56963770697926,726.1637537875258,4.580127863606523,-160415.4517051543,10.5,10499839584.548294,47.655,-122.3035,60.0,14.483333333333333
2026-01-20T23:14:30+00:00,SAT-51863,108.00616563111154,46.1326497893908,730.7316029603877,4.6182638643584095,-161751.13576660858,10.5,10499838248.864233,47.655,-122.3035,60.0,14.5
2026-01-20T23:14:31+00:00,SAT-51863,108.14123773460612,45.70057591590139,735.3374858966462,4.65568296726006,-163061.7110328727,10.5,10499836938.288967,47.655,-122.3035,60.0,14.516666666666667
2026-01-20T23:14:32+00:00,SAT-51863,108.27267071168865,45.27337281621622,739.9806876203553,4.692397284818794,-164347.60173518886,10.5,10499835652.398264,47.655,-122.3035,60.0,14.533333333333333
2026-01-20T23:14:33+00:00,SAT-51863,108.40061196110896,44.85099587629536,744.6605052356042,4.7284188987034135,-165609.23102470388,10.5,10499834390.768976,47.655,-122.3035,60.0,14.55
2026-01-20T23:14:34+00:00,SAT-51863,108.52520109026314,44.43339927464267,749.3762478957619,4.763759840014217,-166847.02028144177,10.5,10499833152.97972,47.655,-122.3035,60.0,14.566666666666666
2026-01-20T23:14:35+00:00,SAT-51863,108.64657041891131,44.02053611104459,754.1272367530443,4.798432123320382,-168061.39030643666,10.5,10499831938.609694,47.655,-122.3035,60.0,14.583333333333334
2026-01-20T23:14:36+00:00,SAT-51863,108.76484544546726,43.61235852366624,758.9128049420256,4.832447619986323,-169252.75688508613,10.5,10499830747.243114,47.655,-122.3035,60.0,14.6
2026-01-20T23:14:37+00:00,SAT-51863,108.88014527616672,43.20881780879533,763.7322974368204,4.865818216310486,-170421.5363258408,10.5,10499829578.463675,47.655,-122.3035,60.0,14.616666666666667
2026-01-20T23:14:38+00:00,SAT-51863,108.9925830255098,42.80986451929358,768.5850710659759,4.898555633306181,-171568.13914816664,10.5,10499828431.860851,47.655,-122.3035,60.0,14.633333333333333
2026-01-20T23:14:39+00:00,SAT-51863,109.10226618426101,42.4154485709721,773.4704943476299,4.930671532540889,-172692.97378948514,10.5,10499827307.02621,47.655,-122.3035,60.0,14.65
2026-01-20T23:14:40+00:00,SAT-51863,109.20929696277986,42.02551933310408,778.3879474302248,4.96217745564095,-173796.44448637188,10.5,10499826203.555513,47.655,-122.3035,60.0,14.666666666666666
2026-01-20T23:14:41+00:00,SAT-51863,109.31377260887734,41.64002571742984,783.3368219728876,4.993084851749544,-174878.95223625077,10.5,10499825121.047764,47.655,-122.3035,60.0,14.683333333333334
2026-01-20T23:14:42+00:00,SAT-51863,109.41578570365944,41.258916258839164,788.3165210531952,5.023404995694152,-175940.89193127266,10.5,10499824059.108068,47.655,-122.3035,60.0,14.7
2026-01-20T23:14:43+00:00,SAT-51863,109.51542443549394,40.88213919653189,793.3264589933257,5.053149108517739,-176982.6565798272,10.5,10499823017.34342,47.655,-122.3035,60.0,14.716666666666667
2026-01-20T23:14:44+00:00,SAT-51863,109.61277285692455,40.50964254050175,798.3660613064183,5.082328224996024,-178004.632666437,10.5,10499821995.367334,47.655,-122.3035,60.0,14.733333333333333
2026-01-20T23:14:45+00:00,SAT-51863,109.70791112201334,40.14137414296557,803.4347645108044,5.110953236760307,-179007.20166210193,10.5,10499820992.798338,47.655,-122.3035,60.0,14.75
2026-01-20T23:14:46+00:00,SAT-51863,109.80091570829146,39.777281761502145,808.5320159872485,5.139034921955653,-179990.74106305355,10.5,10499820009.258938,47.655,-122.3035,60.0,14.766666666666667
2026-01-20T23:14:47+00:00,SAT-51863,109.89185962438593,39.41731311554215,813.6572738657652,5.166583903878534,-180955.62294207086,10.5,10499819044.377058,47.655,-122.3035,60.0,14.783333333333333
2026-01-20T23:14:48+00:00,SAT-51863,109.98081260315489,39.061415941595385,818.8100068711859,5.193610653716774,-181902.21404444444,10.5,10499818097.785955,47.655,-122.3035,60.0,14.8
2026-01-20T23:14:49+00:00,SAT-51863,110.06784128240034,38.7095380441963,823.9896941714585,5.220125458370204,-182830.8746609201,10.5,10499817169.12534,47.655,-122.3035,60.0,14.816666666666666
2026-01-20T23:14:50+00:00,SAT-51863,110.15300937326465,38.36162734515179,829.1958251938521,5.246138497098735,-183741.96131223792,10.5,10499816258.038689,47.655,-122.3035,60.0,14.833333333333334
2026-01-20T23:14:51+00:00,SAT-51863,110.2363778189646,38.017631924027846,834.4278995176073,5.271659782803517,-184635.82469255087,10.5,10499815364.175308,47.655,-122.3035,60.0,14.85
2026-01-20T23:14:52+00:00,SAT-51863,110.31800494253477,37.677500059346485,839.685426708022,5.296699117887935,-185512.8081234896,10.5,10499814487.191877,47.655,-122.3035,60.0,14.866666666666667
2026-01-20T23:14:53+00:00,SAT-51863,110.39794658483687,37.341180269334174,844.9679261065195,5.321266202905975,-186373.25135948794,10.5,10499813626.74864,47.655,-122.3035,60.0,14.883333333333333
2026-01-20T23:14:54+00:00,SAT-51863,110.47625623522347,37.00862134266395,850.2749267290702,5.345370548591664,-187217.48750668194,10.5,10499812782.512493,47.655,-122.3035,60.0,14.9
2026-01-20T23:14:55+00:00,SAT-51863,110.55298515311698,36.67977237213666,855.6059670768824,5.369021498713589,-188045.84382337157,10.5,10499811954.156178,47.655,-122.3035,60.0,14.916666666666666
2026-01-20T23:14:56+00:00,SAT-51863,110.62818248236984,36.35458278420714,860.9605949698828,5.392228274727212,-188858.64328393387,10.5,10499811141.356716,47.655,-122.3035,60.0,14.933333333333334
2026-01-20T23:14:57+00:00,SAT-51863,110.70189535927938,36.03300236339941,866.3383674247327,5.4149998526289025,-189656.2002657301,10.5,10499810343.799734,47.655,-122.3035,60.0,14.95
2026-01-20T23:14:58+00:00,SAT-51863,110.7741690126211,35.7149812818251,871.738850410027,5.437345146498107,-190438.82697752895,10.5,10499809561.173023,47.655,-122.3035,60.0,14.966666666666667
2026-01-20T23:14:59+00:00,SAT-51863,110.84504685987942,35.40047011557169,877.1616187845409,5.45927282059503,-191206.82687837267,10.5,10499808793.173122,47.655,-122.3035,60.0,14.983333333333333
