DopplerPredictor/satellites_20260205_234138/SAT-47376.csv

timestamp,satellite,azimuth_deg,elevation_deg,distance_km,relative_velocity_kms,doppler_shift_hz,tx_freq_ghz,rx_freq_hz,ue_lat,ue_lon,ue_alt_m,time_minutes
2026-01-20T23:07:55+00:00,SAT-47376,283.0196281358651,30.107308595614725,996.6321083417254,-4.9827764165964945,174517.90723255352,10.5,10500174517.907232,47.655,-122.3035,60.0,7.916666666666667
2026-01-20T23:07:56+00:00,SAT-47376,283.26928480891144,30.32608473510748,991.6626900610786,-4.958919379525001,173682.332879143,10.5,10500173682.33288,47.655,-122.3035,60.0,7.933333333333334
2026-01-20T23:07:57+00:00,SAT-47376,283.5225362456985,30.546236705943755,986.7170648600793,-4.934696542976388,172833.9466807136,10.5,10500172833.94668,47.655,-122.3035,60.0,7.95
2026-01-20T23:07:58+00:00,SAT-47376,283.7794524776129,30.767761750101503,981.7955975575462,-4.9101023688398175,171972.55466919745,10.5,10500171972.554668,47.655,-122.3035,60.0,7.966666666666667
2026-01-20T23:07:59+00:00,SAT-47376,284.04010504517964,30.990656291929433,976.8986584955632,-4.88513127621997,171097.96137803333,10.5,10500171097.961378,47.655,-122.3035,60.0,7.983333333333333
2026-01-20T23:08:00+00:00,SAT-47376,284.30456702476135,31.214915897539484,972.0266235821467,-4.859777618091716,170209.96902451437,10.5,10500170209.969025,47.655,-122.3035,60.0,8.0
2026-01-20T23:08:01+00:00,SAT-47376,284.5729130535911,31.440535231528518,967.1798743571995,-4.834035755194001,169308.38009786425,10.5,10500169308.380098,47.655,-122.3035,60.0,8.016666666666667
2026-01-20T23:08:02+00:00,SAT-47376,284.8452193581819,31.667508015493095,962.3587979847686,-4.807899927817426,168392.99286869643,10.5,10500168392.992868,47.655,-122.3035,60.0,8.033333333333333
2026-01-20T23:08:03+00:00,SAT-47376,285.12156377523735,31.895826978907408,957.5637873731674,-4.781364423677634,167463.6072686497,10.5,10500167463.60727,47.655,-122.3035,60.0,8.05
2026-01-20T23:08:04+00:00,SAT-47376,285.40202578077987,32.12548381613843,952.7952411276814,-4.754423448425479,166520.0203551069,10.5,10500166520.020355,47.655,-122.3035,60.0,8.066666666666666
2026-01-20T23:08:05+00:00,SAT-47376,285.6866865114802,32.35646913566173,948.0535636324108,-4.727071180404148,165562.02822902089,10.5,10500165562.028229,47.655,-122.3035,60.0,8.083333333333334
2026-01-20T23:08:06+00:00,SAT-47376,285.9756287878142,32.58877241004026,943.3391650775051,-4.699301771048628,164589.4260489054,10.5,10500164589.426048,47.655,-122.3035,60.0,8.1
2026-01-20T23:08:07+00:00,SAT-47376,286.2689371359913,32.822381924114715,938.6524614860014,-4.671109349620907,163602.00819668226,10.5,10500163602.008196,47.655,-122.3035,60.0,8.116666666666667
2026-01-20T23:08:08+00:00,SAT-47376,286.56669780892753,33.05728472158206,933.9938747359336,-4.642488037716358,162599.56878575563,10.5,10500162599.568787,47.655,-122.3035,60.0,8.133333333333333
2026-01-20T23:08:09+00:00,SAT-47376,286.86899880645194,33.29346655043876,929.363832567983,-4.613431910685146,161581.90030982715,10.5,10500161581.90031,47.655,-122.3035,60.0,8.15
2026-01-20T23:08:10+00:00,SAT-47376,287.17592989144106,33.53091180456474,924.7627686315966,-4.583935064808086,160548.79599567814,10.5,10500160548.795996,47.655,-122.3035,60.0,8.166666666666666
2026-01-20T23:08:11+00:00,SAT-47376,287.4875826080744,33.769603466780694,920.1911224641144,-4.553991553954038,159500.04758464402,10.5,10500159500.047585,47.655,-122.3035,60.0,8.183333333333334
2026-01-20T23:08:12+00:00,SAT-47376,287.80405029401203,34.00952304671499,915.6493395330658,-4.523595458838317,158435.4477583366,10.5,10500158435.447758,47.655,-122.3035,60.0,8.2
2026-01-20T23:08:13+00:00,SAT-47376,288.1254280943973,34.250650520285575,911.1378712093965,-4.4927408437986,157354.78862475354,10.5,10500157354.788624,47.655,-122.3035,60.0,8.216666666666667
2026-01-20T23:08:14+00:00,SAT-47376,288.45181297052204,34.49296426496344,906.6571747838019,-4.461421789886646,156257.86287729023,10.5,10500156257.862877,47.655,-122.3035,60.0,8.233333333333333
2026-01-20T23:08:15+00:00,SAT-47376,288.7833037075052,34.73644099479693,902.2077134500574,-4.429632369382591,155144.4629021228,10.5,10500155144.462902,47.655,-122.3035,60.0,8.25
2026-01-20T23:08:16+00:00,SAT-47376,289.1200009170135,34.981055692065425,897.7899563137681,-4.397366721701769,154014.38343678604,10.5,10500154014.383436,47.655,-122.3035,60.0,8.266666666666667
2026-01-20T23:08:17+00:00,SAT-47376,289.4620070416401,35.226781541132894,893.4043783254104,-4.364618935607533,152867.41744476804,10.5,10500152867.417444,47.655,-122.3035,60.0,8.283333333333333
2026-01-20T23:08:18+00:00,SAT-47376,289.8094263468153,35.473589853826894,889.0514603308517,-4.331383217136987,151703.3619969798,10.5,10500151703.361998,47.655,-122.3035,60.0,8.3
2026-01-20T23:08:19+00:00,SAT-47376,290.1623649206622,35.7214500022302,884.7316889543891,-4.2976537331598745,150522.01279252558,10.5,10500150522.012793,47.655,-122.3035,60.0,8.316666666666666
2026-01-20T23:08:20+00:00,SAT-47376,290.5209306573488,35.97032934079811,880.4455566378117,-4.263424764167113,149323.1695100038,10.5,10500149323.16951,47.655,-122.3035,60.0,8.333333333333334
2026-01-20T23:08:21+00:00,SAT-47376,290.88523324699247,36.22019313528512,876.1935615270846,-4.228690575709608,148106.63130475048,10.5,10500148106.631306,47.655,-122.3035,60.0,8.35
2026-01-20T23:08:22+00:00,SAT-47376,291.25538414966576,36.47100448246774,871.9762074872493,-4.193445539791758,146872.2010605532,10.5,10500146872.201061,47.655,-122.3035,60.0,8.366666666666667
2026-01-20T23:08:23+00:00,SAT-47376,291.6314965729501,36.72272423514738,867.794003996254,-4.157684102663274,145619.68426158465,10.5,10500145619.684261,47.655,-122.3035,60.0,8.383333333333333
2026-01-20T23:08:24+00:00,SAT-47376,292.01368544053463,36.97531092369863,863.6474660709097,-4.1214007449121235,144348.88759468825,10.5,10500144348.887594,47.655,-122.3035,60.0,8.4
2026-01-20T23:08:25+00:00,SAT-47376,292.40206734979705,37.22872067358285,859.5371142326413,-4.084590076437075,143059.62227571875,10.5,10500143059.622276,47.655,-122.3035,60.0,8.416666666666666
2026-01-20T23:08:26+00:00,SAT-47376,292.79676052998286,37.482907127123674,855.4634743785258,-4.047246770343296,141751.7017342865,10.5,10500141751.701735,47.655,-122.3035,60.0,8.433333333333334
2026-01-20T23:08:27+00:00,SAT-47376,293.19788478601043,37.73782135992314,851.4270777182537,-4.009365639225515,140424.94428551605,10.5,10500140424.944286,47.655,-122.3035,60.0,8.45
2026-01-20T23:08:28+00:00,SAT-47376,293.60556144033404,37.993411800792245,847.4284606350147,-3.970941551542735,139079.17020113533,10.5,10500139079.1702,47.655,-122.3035,60.0,8.466666666666667
2026-01-20T23:08:29+00:00,SAT-47376,294.01991325683275,38.24962414534117,843.4681646297813,-3.931969576996414,137714.20680123428,10.5,10500137714.2068,47.655,-122.3035,60.0,8.483333333333333
2026-01-20T23:08:30+00:00,SAT-47376,294.44106436857675,38.506401277947226,839.5467361206094,-3.8924448748647875,136329.88454326047,10.5,10500136329.884542,47.655,-122.3035,60.0,8.5
2026-01-20T23:08:31+00:00,SAT-47376,294.86914018342935,38.76368318596206,835.6647263532965,-3.8523627405879535,134926.03865362587,10.5,10500134926.038654,47.655,-122.3035,60.0,8.516666666666667
2026-01-20T23:08:32+00:00,SAT-47376,295.3042672819952,39.02140687635454,831.8226912655903,-3.8117186620520656,133502.51109901734,10.5,10500133502.511099,47.655,-122.3035,60.0,8.533333333333333
2026-01-20T23:08:33+00:00,SAT-47376,295.7465733087773,39.279506295908284,828.021191295254,-3.7705082608067255,132059.1485275811,10.5,10500132059.148527,47.655,-122.3035,60.0,8.55
2026-01-20T23:08:34+00:00,SAT-47376,296.196186843498,39.53791224756979,824.2607912467641,-3.728727377272226,130595.8052532408,10.5,10500130595.805254,47.655,-122.3035,60.0,8.566666666666666
2026-01-20T23:08:35+00:00,SAT-47376,296.6532372671605,39.79655231290328,820.5420600730259,-3.6863720168194614,129112.34136718791,10.5,10500129112.341368,47.655,-122.3035,60.0,8.583333333333334
2026-01-20T23:08:36+00:00,SAT-47376,297.1178546068199,40.055350771583576,816.8655707108643,-3.643438381361632,127608.6238443568,10.5,10500127608.623844,47.655,-122.3035,60.0,8.6
2026-01-20T23:08:37+00:00,SAT-47376,297.5901693672421,40.31422852402299,813.2318998850087,-3.5999229259236776,126084.52852472565,10.5,10500126084.528524,47.655,-122.3035,60.0,8.616666666666667
2026-01-20T23:08:38+00:00,SAT-47376,298.0703123523994,40.57310301943905,809.6416278556599,-3.555822317029374,124539.93865585647,10.5,10500124539.938656,47.655,-122.3035,60.0,8.633333333333333
2026-01-20T23:08:39+00:00,SAT-47376,298.5584144636958,40.831888182877485,806.095338207559,-3.5111334493287556,122974.74547525785,10.5,10500122974.745476,47.655,-122.3035,60.0,8.65
2026-01-20T23:08:40+00:00,SAT-47376,299.0546064807955,41.09049434563397,802.5936176224715,-3.465853503738073,121388.85024669222,10.5,10500121388.850246,47.655,-122.3035,60.0,8.666666666666666
2026-01-20T23:08:41+00:00,SAT-47376,299.5590188299417,41.34882818270279,799.1370555936893,-3.419979909298287,119782.16292429884,10.5,10500119782.162924,47.655,-122.3035,60.0,8.683333333333334
2026-01-20T23:08:42+00:00,SAT-47376,300.0717813262013,41.606792650765094,795.7262441785707,-3.373510408636313,118154.60444532358,10.5,10500118154.604445,47.655,-122.3035,60.0,8.7
2026-01-20T23:08:43+00:00,SAT-47376,300.59302290256073,41.86428693490881,792.3617776857952,-3.3264430050768716,116506.1048777523,10.5,10500116506.104877,47.655,-122.3035,60.0,8.716666666666667
2026-01-20T23:08:44+00:00,SAT-47376,301.12287130860756,42.1212063958298,789.0442524153658,-3.27877603695592,114836.60602308133,10.5,10500114836.606024,47.655,-122.3035,60.0,8.733333333333333
2026-01-20T23:08:45+00:00,SAT-47376,301.6614527957889,42.37744252772409,785.7742663244937,-3.230508168441173,113146.06109481351,10.5,10500113146.061094,47.655,-122.3035,60.0,8.75
2026-01-20T23:08:46+00:00,SAT-47376,302.20889177693874,42.632882921300556,782.5524187026421,-3.1816384130700563,111434.43554285675,10.5,10500111434.435543,47.655,-122.3035,60.0,8.766666666666667
2026-01-20T23:08:47+00:00,SAT-47376,302.76531046395354,42.88741123511923,779.3793098230915,-3.132166102282387,109701.70595140543,10.5,10500109701.705952,47.655,-122.3035,60.0,8.783333333333333
2026-01-20T23:08:48+00:00,SAT-47376,303.33082847374925,43.1409071715893,776.2555406258904,-3.082090984930948,107947.86352422166,10.5,10500107947.863523,47.655,-122.3035,60.0,8.8
2026-01-20T23:08:49+00:00,SAT-47376,303.9055624239424,43.3932464689039,773.1817123015613,-3.031413158514398,106172.91167612089,10.5,10500106172.911676,47.655,-122.3035,60.0,8.816666666666666
2026-01-20T23:08:50+00:00,SAT-47376,304.4896254896245,43.644300896279226,770.1584259433901,-2.9801331320167415,104376.86823387594,10.5,10500104376.868235,47.655,-122.3035,60.0,8.833333333333334
2026-01-20T23:08:51+00:00,SAT-47376,305.08312694298525,43.89393826388994,767.1862821370418,-2.9282518192189007,102559.76520195999,10.5,10500102559.765202,47.655,-122.3035,60.0,8.85
2026-01-20T23:08:52+00:00,SAT-47376,305.68617166389276,44.142022442786526,764.2658805568512,-2.875770568628668,100721.64981082016,10.5,10500100721.64981,47.655,-122.3035,60.0,8.866666666666667
2026-01-20T23:08:53+00:00,SAT-47376,306.29885962801404,44.388413398708956,761.3978195322609,-2.8226911501889784,98862.58405134486,10.5,10500098862.584051,47.655,-122.3035,60.0,8.883333333333333
2026-01-20T23:08:54+00:00,SAT-47376,306.9212853642933,44.63296723707702,758.5826956275141,-2.7690157930930233,96982.6459993091,10.5,10500096982.646,47.655,-122.3035,60.0,8.9
2026-01-20T23:08:55+00:00,SAT-47376,307.55353739211415,44.8755362644065,755.8211031836383,-2.714747195318064,95081.93014928905,10.5,10500095081.93015,47.655,-122.3035,60.0,8.916666666666666
2026-01-20T23:08:56+00:00,SAT-47376,308.1956976339752,45.11596906475664,753.1136338509157,-2.659888513738913,93160.5470683942,10.5,10500093160.547068,47.655,-122.3035,60.0,8.933333333333334
2026-01-20T23:08:57+00:00,SAT-47376,308.8478407993662,45.35411059038409,750.4608761312176,-2.604443410587476,91218.62502347706,10.5,10500091218.625023,47.655,-122.3035,60.0,8.95
2026-01-20T23:08:58+00:00,SAT-47376,309.51003375432947,45.589802272519556,747.8634148740007,-2.5484160274634062,89256.30907087651,10.5,10500089256.30907,47.655,-122.3035,60.0,8.966666666666667
2026-01-20T23:08:59+00:00,SAT-47376,310.1823348613771,45.82288214677271,745.3218307982254,-2.491811034321289,87273.762772156,10.5,10500087273.762772,47.655,-122.3035,60.0,8.983333333333333
2026-01-20T23:09:00+00:00,SAT-47376,310.86479330984736,46.05318500077566,742.8366999654173,-2.434633591164967,85271.16685247685,10.5,10500085271.166853,47.655,-122.3035,60.0,9.0
2026-01-20T23:09:01+00:00,SAT-47376,311.55744841691046,46.2805425369943,740.4085932909306,-2.3768894235026776,83248.72184335644,10.5,10500083248.721844,47.655,-122.3035,60.0,9.016666666666667
2026-01-20T23:09:02+00:00,SAT-47376,312.2603289321726,46.50478356198966,738.0380759799617,-2.318584756271496,81206.6457684226,10.5,10500081206.64577,47.655,-122.3035,60.0,9.033333333333333
2026-01-20T23:09:03+00:00,SAT-47376,312.9734523107198,46.725734189764694,735.725707029457,-2.2597263746271525,79145.17627253018,10.5,10500079145.176273,47.655,-122.3035,60.0,9.05
2026-01-20T23:09:04+00:00,SAT-47376,313.6968239928698,46.94321807165589,733.472038669398,-2.2003216152614766,77064.57031766126,10.5,10500077064.570318,47.655,-122.3035,60.0,9.066666666666666
2026-01-20T23:09:05+00:00,SAT-47376,314.43043667606923,47.15705664692132,731.2776158127427,-2.1403783671952272,74965.10421069327,10.5,10500074965.10421,47.655,-122.3035,60.0,9.083333333333334
2026-01-20T23:09:06+00:00,SAT-47376,315.1742695858251,47.36706941534185,729.1429755045777,-2.0799050653029814,72847.07337661345,10.5,10500072847.073376,47.655,-122.3035,60.0,9.1
2026-01-20T23:09:07+00:00,SAT-47376,315.92828774741196,47.57307423144632,727.0686463777278,-2.0189107402670796,70710.79410811707,10.5,10500070710.794107,47.655,-122.3035,60.0,9.116666666666667
2026-01-20T23:09:08+00:00,SAT-47376,316.69244128434633,47.77488762617028,725.0551480585457,-1.9574049486601774,68556.60111680282,10.5,10500068556.601116,47.655,-122.3035,60.0,9.133333333333333
2026-01-20T23:09:09+00:00,SAT-47376,317.46666470746345,47.97232514417924,723.1029906424311,-1.8953978479344704,66384.85015961256,10.5,10500066384.850159,47.655,-122.3035,60.0,9.15
2026-01-20T23:09:10+00:00,SAT-47376,318.25087625249205,48.16520171110123,721.2126740945619,-1.8329001428493594,64195.91616250157,10.5,10500064195.916162,47.655,-122.3035,60.0,9.166666666666666
2026-01-20T23:09:11+00:00,SAT-47376,319.044977226788,48.353332017597424,719.3846877040552,-1.7699231025172677,61990.19381745525,10.5,10500061990.193817,47.655,-122.3035,60.0,9.183333333333334
2026-01-20T23:09:12+00:00,SAT-47376,319.8488513976927,48.536530926788316,717.6195095211264,-1.7064785798229727,59768.09826263613,10.5,10500059768.098263,47.655,-122.3035,60.0,9.2
2026-01-20T23:09:13+00:00,SAT-47376,320.66236443333224,48.71461390469676,715.9176057748818,-1.6425789607453298,57530.06330741637,10.5,10500057530.063307,47.655,-122.3035,60.0,9.216666666666667
2026-01-20T23:09:14+00:00,SAT-47376,321.48536337316204,48.88739746550465,714.2794303416543,-1.5782371991292845,55276.542650240684,10.5,10500055276.54265,47.655,-122.3035,60.0,9.233333333333333
2026-01-20T23:09:15+00:00,SAT-47376,322.31767617305513,49.054699639280344,712.7054241786591,-1.5134667882357338,53008.0088821821,10.5,10500053008.008883,47.655,-122.3035,60.0,9.25
2026-01-20T23:09:16+00:00,SAT-47376,323.15911130550535,49.216340454214354,711.1960147860242,-1.4482817786736757,50724.95411500177,10.5,10500050724.954115,47.655,-122.3035,60.0,9.266666666666667
2026-01-20T23:09:17+00:00,SAT-47376,324.00945744603837,49.37214243659088,709.7516156509362,-1.3826967149915375,48427.88776030898,10.5,10500048427.88776,47.655,-122.3035,60.0,9.283333333333333
2026-01-20T23:09:18+00:00,SAT-47376,324.86848321030067,49.52193111788329,708.3726257550254,-1.3167266901244101,46117.338436533675,10.5,10500046117.338436,47.655,-122.3035,60.0,9.3
2026-01-20T23:09:19+00:00,SAT-47376,325.73593701361705,49.665535559414245,707.059429027449,-1.2503872915707785,43793.85208380785,10.5,10500043793.852083,47.655,-122.3035,60.0,9.316666666666666
2026-01-20T23:09:20+00:00,SAT-47376,326.6115470020591,49.80278888060061,705.8123938516534,-1.1836945981951863,41457.99185198133,10.5,10500041457.991852,47.655,-122.3035,60.0,9.333333333333334
2026-01-20T23:09:21+00:00,SAT-47376,327.4950210896859,49.93352879353925,704.631872575326,-1.116665158844124,39110.3373516598,10.5,10500039110.33735,47.655,-122.3035,60.0,9.35
2026-01-20T23:09:22+00:00,SAT-47376,328.38604709643147,50.05759813909333,703.518201041673,-1.049315990529908,36751.484590596454,10.5,10500036751.48459,47.655,-122.3035,60.0,9.366666666666667
2026-01-20T23:09:23+00:00,SAT-47376,329.28429300767533,50.174845423602235,702.471698122508,-0.9816645454187558,34382.044817474816,10.5,10500034382.044817,47.655,-122.3035,60.0,9.383333333333333
2026-01-20T23:09:24+00:00,SAT-47376,330.1894073378781,50.285125349526446,701.492665284266,-0.9137286973995552,32002.644051490213,10.5,10500032002.64405,47.655,-122.3035,60.0,9.4
2026-01-20T23:09:25+00:00,SAT-47376,331.10101961608706,50.38829933879928,700.5813861674094,-0.8455267201125056,29613.922312819854,10.5,10500029613.922314,47.655,-122.3035,60.0,9.416666666666666
2026-01-20T23:09:26+00:00,SAT-47376,332.01874099002924,50.48423604446415,699.7381261877508,-0.7770772642952235,27216.532829187607,10.5,10500027216.53283,47.655,-122.3035,60.0,9.433333333333334
2026-01-20T23:09:27+00:00,SAT-47376,332.94216494937257,50.572811846934144,698.9631321603641,-0.7083993375630908,24811.141327686284,10.5,10500024811.141327,47.655,-122.3035,60.0,9.45
2026-01-20T23:09:28+00:00,SAT-47376,333.87086817208325,50.65391133157123,698.2566319436662,-0.6395122717713824,22398.42489166127,10.5,10500022398.424892,47.655,-122.3035,60.0,9.466666666666667
2026-01-20T23:09:29+00:00,SAT-47376,334.8044114789366,50.72742774256756,697.6188341160428,-0.5704357084204638,19979.071449538835,10.5,10500019979.07145,47.655,-122.3035,60.0,9.483333333333333
2026-01-20T23:09:30+00:00,SAT-47376,335.74234091395385,50.79326341167001,697.0499276670364,-0.5011895606254523,17553.778442842777,10.5,10500017553.778442,47.655,-122.3035,60.0,9.5
2026-01-20T23:09:31+00:00,SAT-47376,336.68418892008475,50.85133015563756,696.5500817264589,-0.4317939965610853,15123.252246363701,10.5,10500015123.252247,47.655,-122.3035,60.0,9.516666666666667
2026-01-20T23:09:32+00:00,SAT-47376,337.62947563215226,50.90154964163945,696.1194453100148,-0.3622693978043431,12688.206709141437,10.5,10500012688.206709,47.655,-122.3035,60.0,9.533333333333333
2026-01-20T23:09:33+00:00,SAT-47376,338.5777102426709,50.94385371461857,695.758147106473,-0.29263634589915133,10249.362683904106,10.5,10500010249.362684,47.655,-122.3035,60.0,9.55
2026-01-20T23:09:34+00:00,SAT-47376,339.5283924817911,50.97818468709025,695.466295278233,-0.2229155791613851,7807.446514196643,10.5,10500007807.446514,47.655,-122.3035,60.0,9.566666666666666
2026-01-20T23:09:35+00:00,SAT-47376,340.4810141485245,51.004495585398345,695.2439773049772,-0.1531279667672842,5363.189126847496,10.5,10500005363.189127,47.655,-122.3035,60.0,9.583333333333334
2026-01-20T23:09:36+00:00,SAT-47376,341.4350607096816,51.022750352239875,695.0912598531571,-0.08329448103095428,2917.32506100944,10.5,10500002917.325062,47.655,-122.3035,60.0,9.6
2026-01-20T23:09:37+00:00,SAT-47376,342.3900129648221,51.03292400345307,695.0081886731351,-0.013436160950905909,470.59119140519545,10.5,10500000470.591192,47.655,-122.3035,60.0,9.616666666666667
2026-01-20T23:09:38+00:00,SAT-47376,343.34534872897393,51.035002736609265,694.9947885326774,0.056425915904535565,-1976.2742563644595,10.5,10499998023.725744,47.655,-122.3035,60.0,9.633333333333333
2026-01-20T23:09:39+00:00,SAT-47376,344.30054455780896,51.02898399141697,695.0510631784882,0.12627066670239623,-4422.532872308483,10.5,10499995577.467127,47.655,-122.3035,60.0,9.65
2026-01-20T23:09:40+00:00,SAT-47376,345.2550774659047,51.01487646074768,695.1769953309583,0.19607703406198337,-6867.447137882386,10.5,10499993132.552862,47.655,-122.3035,60.0,9.666666666666666
2026-01-20T23:09:41+00:00,SAT-47376,346.2084266577375,50.99270005251636,695.372546709551,0.26582401888829665,-9310.281575953173,10.5,10499990689.718424,47.655,-122.3035,60.0,9.683333333333334
2026-01-20T23:09:42+00:00,SAT-47376,347.1600752333077,50.96248580249446,695.6376580909282,0.3354907098125643,-11750.30378193145,10.5,10499988249.696218,47.655,-122.3035,60.0,9.7
2026-01-20T23:09:43+00:00,SAT-47376,348.1095118551183,50.92427573925051,695.9722493964455,0.40505631544450404,-14186.785553382042,10.5,10499985813.214447,47.655,-122.3035,60.0,9.716666666666667
2026-01-20T23:09:44+00:00,SAT-47376,349.0562323807886,50.878122702125246,696.3762198118059,0.4745001963216868,-16619.00400902584,10.5,10499983380.99599,47.655,-122.3035,60.0,9.733333333333333
2026-01-20T23:09:45+00:00,SAT-47376,349.9997414357614,50.82409011391075,696.8494479385821,0.543801894483861,-19046.24262455775,10.5,10499980953.757376,47.655,-122.3035,60.0,9.75
2026-01-20T23:09:46+00:00,SAT-47376,350.9395539138694,50.762251710530386,697.3917919752315,0.6129411576615452,-21467.79207983353,10.5,10499978532.20792,47.655,-122.3035,60.0,9.766666666666667
2026-01-20T23:09:47+00:00,SAT-47376,351.8751963879902,50.69269123070868,698.0030899222351,0.6818979775808071,-23882.951600465123,10.5,10499976117.048399,47.655,-122.3035,60.0,9.783333333333333
2026-01-20T23:09:48+00:00,SAT-47376,352.8062084501314,50.61550206670468,698.68315982544,0.7506526101628379,-26291.02966529531,10.5,10499973708.970335,47.655,-122.3035,60.0,9.8
2026-01-20T23:09:49+00:00,SAT-47376,353.73214393624517,50.530786881135775,699.4318000395451,0.8191856089019224,-28691.345175435283,10.5,10499971308.654825,47.655,-122.3035,60.0,9.816666666666666
2026-01-20T23:09:50+00:00,SAT-47376,354.65257205601444,50.438657191573554,700.2487895248771,0.8874778405767976,-31083.22800454298,10.5,10499968916.771996,47.655,-122.3035,60.0,9.833333333333334
2026-01-20T23:09:51+00:00,SAT-47376,355.5670783971378,50.33923292826466,701.1338881598351,0.9555105271268197,-33466.02046550353,10.5,10499966533.979534,47.655,-122.3035,60.0,9.85
2026-01-20T23:09:52+00:00,SAT-47376,356.4752658353507,50.23264196552294,702.0868370950993,1.023265248230161,-35839.07740072864,10.5,10499964160.9226,47.655,-122.3035,60.0,9.866666666666667
2026-01-20T23:09:53+00:00,SAT-47376,357.376755300803,50.119019634775725,703.1073591104092,1.0907239887331677,-38201.76784333334,10.5,10499961798.232157,47.655,-122.3035,60.0,9.883333333333333
2026-01-20T23:09:54+00:00,SAT-47376,358.27118645126353,49.99850821784059,704.1951590186487,1.1578691306967193,-40553.47473856581,10.5,10499959446.52526,47.655,-122.3035,60.0,9.9
2026-01-20T23:09:55+00:00,SAT-47376,359.158218197069,49.87125643019768,705.3499240619918,1.2246835033590602,-42893.596693717125,10.5,10499957106.403307,47.655,-122.3035,60.0,9.916666666666666
2026-01-20T23:09:56+00:00,SAT-47376,0.037529135139376904,49.737418891348916,706.5713243578846,1.2911503844452277,-45221.54802398295,10.5,10499954778.451977,47.655,-122.3035,60.0,9.933333333333334
2026-01-20T23:09:57+00:00,SAT-47376,0.9088178503600383,49.59715559111804,707.8590133463281,1.3572535180582943,-47536.75937909049,10.5,10499952463.240622,47.655,-122.3035,60.0,9.95
2026-01-20T23:09:58+00:00,SAT-47376,1.7718031063589899,49.450631353319835,709.2126282550054,1.4229771321447209,-49838.67835500908,10.5,10499950161.321646,47.655,-122.3035,60.0,9.966666666666667
2026-01-20T23:09:59+00:00,SAT-47376,2.626223929683489,49.29801530001327,710.6317905818295,1.4883059641308674,-52126.77039184924,10.5,10499947873.229609,47.655,-122.3035,60.0,9.983333333333333
2026-01-20T23:10:00+00:00,SAT-47376,3.471839598108049,49.13948031841571,712.1161066030569,1.5532252581615806,-54400.51867714629,10.5,10499945599.481323,47.655,-122.3035,60.0,10.0
2026-01-20T23:10:01+00:00,SAT-47376,4.308429521546158,48.97520253630124,713.6651678786463,1.6177207816530401,-56659.42472561108,10.5,10499943340.575274,47.655,-122.3035,60.0,10.016666666666667
2026-01-20T23:10:02+00:00,SAT-47376,5.135793036859283,48.80536080628209,715.278551774129,1.6817788423356528,-58903.008976044206,10.5,10499941096.991024,47.655,-122.3035,60.0,10.033333333333333
2026-01-20T23:10:03+00:00,SAT-47376,5.9537491229009385,48.63013620124729,716.955821999474,1.7453862834227893,-61130.81062212475,10.5,10499938869.189379,47.655,-122.3035,60.0,10.05
2026-01-20T23:10:04+00:00,SAT-47376,6.7621360327645945,48.44971152526657,718.6965291431341,1.8085305167863548,-63342.38877435912,10.5,10499936657.611225,47.655,-122.3035,60.0,10.066666666666666
2026-01-20T23:10:05+00:00,SAT-47376,7.5608108700825065,48.26427083780943,720.5002112391822,1.8711994831204888,-65537.32106484524,10.5,10499934462.678936,47.655,-122.3035,60.0,10.083333333333334
2026-01-20T23:10:06+00:00,SAT-47376,8.34964908306634,48.07399900032985,722.366394294714,1.9333817164717553,-67715.20590739287,10.5,10499932284.794092,47.655,-122.3035,60.0,10.1
2026-01-20T23:10:07+00:00,SAT-47376,9.128543932922291,47.87908123577301,724.2945928816104,1.9950662927231915,-69875.66069321701,10.5,10499930124.339306,47.655,-122.3035,60.0,10.116666666666667
2026-01-20T23:10:08+00:00,SAT-47376,9.897405891601109,47.67970271394846,726.2843106769218,2.0562428651226816,-72018.32303529182,10.5,10499927981.676964,47.655,-122.3035,60.0,10.133333333333333
2026-01-20T23:10:09+00:00,SAT-47376,10.656162015849011,47.47604815466376,728.3350410386847,2.1169016437450328,-74142.85004902573,10.5,10499925857.14995,47.655,-122.3035,60.0,10.15
2026-01-20T23:10:10+00:00,SAT-47376,11.404755281104471,47.268301454900275,730.4462675612551,2.1770334224989005,-76248.91929815811,10.5,10499923751.080702,47.655,-122.3035,60.0,10.166666666666666
2026-01-20T23:10:11+00:00,SAT-47376,12.143143900561267,47.05664533567823,732.6174646575789,2.236629541983676,-78336.22749385043,10.5,10499921663.772507,47.655,-122.3035,60.0,10.183333333333334
2026-01-20T23:10:12+00:00,SAT-47376,12.871300612441216,46.84126101512526,734.8480981044154,2.2956819147739265,-80404.49138025424,10.5,10499919595.50862,47.655,-122.3035,60.0,10.2
2026-01-20T23:10:13+00:00,SAT-47376,13.589211964679693,46.62232790161789,737.1376256127801,2.3541829991107615,-82453.44681307158,10.5,10499917546.553186,47.655,-122.3035,60.0,10.216666666666667
2026-01-20T23:10:14+00:00,SAT-47376,14.296877584679459,46.40002331186762,739.4854973721474,2.412125826491944,-84482.8497258774,10.5,10499915517.150274,47.655,-122.3035,60.0,10.233333333333333
2026-01-20T23:10:15+00:00,SAT-47376,14.994309456664121,46.17452220850916,741.8911566221718,2.4695039442697384,-86492.47411965331,10.5,10499913507.52588,47.655,-122.3035,60.0,10.25
2026-01-20T23:10:16+00:00,SAT-47376,15.681531185481555,45.94599696480451,744.3540401671582,2.526311472929306,-88482.11406891936,10.5,10499911517.885931,47.655,-122.3035,60.0,10.266666666666667
2026-01-20T23:10:17+00:00,SAT-47376,16.358577285615247,45.71461714513981,746.8735789476598,2.582543023486991,-90451.58082867251,10.5,10499909548.41917,47.655,-122.3035,60.0,10.283333333333333
2026-01-20T23:10:18+00:00,SAT-47376,17.02549245848938,45.48054931372085,749.4491985296916,2.6381937623578335,-92400.70510632143,10.5,10499907599.294893,47.655,-122.3035,60.0,10.3
2026-01-20T23:10:19+00:00,SAT-47376,17.682330903452225,45.24395685710291,752.0803196586432,2.693259357893905,-94329.33518923282,10.5,10499905670.66481,47.655,-122.3035,60.0,10.316666666666666
2026-01-20T23:10:20+00:00,SAT-47376,18.32915563194877,45.00499983069929,754.7663587598684,2.747735973182067,-96237.33669247845,10.5,10499903762.663307,47.655,-122.3035,60.0,10.333333333333334
2026-01-20T23:10:21+00:00,SAT-47376,18.96603780102278,44.76383482410803,757.506728432094,2.801620261951788,-98124.59241550957,10.5,10499901875.407585,47.655,-122.3035,60.0,10.35
2026-01-20T23:10:22+00:00,SAT-47376,19.593056068879356,44.52061484411672,760.3008379367469,2.854909366399201,-99991.0022659463,10.5,10499900008.997734,47.655,-122.3035,60.0,10.366666666666667
2026-01-20T23:10:23+00:00,SAT-47376,20.210295974035255,44.275489214366786,763.1480936851124,2.9076009017792743,-101836.48271993014,10.5,10499898163.51728,47.655,-122.3035,60.0,10.383333333333333
2026-01-20T23:10:24+00:00,SAT-47376,20.817849336462665,44.028603491917615,766.0478997101227,2.9596929034685022,-103660.96496803557,10.5,10499896339.035032,47.655,-122.3035,60.0,10.4
2026-01-20T23:10:25+00:00,SAT-47376,21.415813674295112,43.7800994028792,768.9996580853548,3.0111839013774233,-105464.39752151119,10.5,10499894535.602478,47.655,-122.3035,60.0,10.416666666666666
2026-01-20T23:10:26+00:00,SAT-47376,22.004291663935135,43.53011478538751,772.002769418236,3.06207280404132,-107246.74215264567,10.5,10499892753.257847,47.655,-122.3035,60.0,10.433333333333334
2026-01-20T23:10:27+00:00,SAT-47376,22.58339060374079,43.27878355509179,775.0566332276553,3.112358979364777,-109007.97672278386,10.5,10499890992.023277,47.655,-122.3035,60.0,10.45
2026-01-20T23:10:28+00:00,SAT-47376,23.153221922594128,43.02623567567822,778.1606484021021,3.162042157928933,-110748.09179573756,10.5,10499889251.908205,47.655,-122.3035,60.0,10.466666666666667
2026-01-20T23:10:29+00:00,SAT-47376,23.713900697587533,42.772597148291645,781.3142135613676,3.2111224848099504,-112467.09245268765,10.5,10499887532.907547,47.655,-122.3035,60.0,10.483333333333333
2026-01-20T23:10:30+00:00,SAT-47376,24.265545209977777,42.51799000671069,784.5167274699303,3.2596004796274727,-114164.99689291205,10.5,10499885835.003107,47.655,-122.3035,60.0,10.5
2026-01-20T23:10:31+00:00,SAT-47376,24.808276521027278,42.2625323249905,787.767589410497,3.307477000168931,-115841.835159755,10.5,10499884158.16484,47.655,-122.3035,60.0,10.516666666666667
2026-01-20T23:10:32+00:00,SAT-47376,25.3422180691084,42.006338236297026,791.0661995212603,3.354753266239906,-117497.64997596775,10.5,10499882502.350023,47.655,-122.3035,60.0,10.533333333333333
2026-01-20T23:10:33+00:00,SAT-47376,25.867495297678428,41.74951795739599,794.4119591569491,3.4014308328890857,-119132.49580593318,10.5,10499880867.504194,47.655,-122.3035,60.0,10.55
2026-01-20T23:10:34+00:00,SAT-47376,26.384235304553727,41.492177822083626,797.8042712231728,3.4475115610158795,-120746.43782622021,10.5,10499879253.562174,47.655,-122.3035,60.0,10.566666666666666
2026-01-20T23:10:35+00:00,SAT-47376,26.892566511749493,41.234420322934604,801.2425404814502,3.492997633566621,-122339.55249284332,10.5,10499877660.447508,47.655,-122.3035,60.0,10.583333333333334
2026-01-20T23:10:36+00:00,SAT-47376,27.39261836232549,40.97634415722291,804.7261738703947,3.537891495881892,-123911.9254519734,10.5,10499876088.074549,47.655,-122.3035,60.0,10.6
2026-01-20T23:10:37+00:00,SAT-47376,27.884521031652717,40.718044282053356,808.2545807674051,3.5821958873675066,-125463.6526491898,10.5,10499874536.347351,47.655,-122.3035,60.0,10.616666666666667
2026-01-20T23:10:38+00:00,SAT-47376,28.368405166250373,40.45961197123886,811.8271732819413,3.6259138159053923,-126994.83943324091,10.5,10499873005.160566,47.655,-122.3035,60.0,10.633333333333333
2026-01-20T23:10:39+00:00,SAT-47376,28.844401640224515,40.2011348776824,815.4433665232827,3.669048516935927,-128505.59912293468,10.5,10499871494.400877,47.655,-122.3035,60.0,10.65
2026-01-20T23:10:40+00:00,SAT-47376,29.312641326948018,39.94269710170355,819.1025788274734,3.7116034829707703,-129996.05404080274,10.5,10499870003.94596,47.655,-122.3035,60.0,10.666666666666666
2026-01-20T23:10:41+00:00,SAT-47376,29.773254894435464,39.68437925976692,822.8042320137075,3.7535824202187187,-131466.3339939544,10.5,10499868533.666006,47.655,-122.3035,60.0,10.683333333333334
2026-01-20T23:10:42+00:00,SAT-47376,30.22637261367743,39.426258558358384,826.5477515974522,3.7949892313700158,-132916.57567111033,10.5,10499867083.42433,47.655,-122.3035,60.0,10.7
2026-01-20T23:10:43+00:00,SAT-47376,30.67212418276266,39.16840887062737,830.332566986401,3.835828052430216,-134346.92393268034,10.5,10499865653.076067,47.655,-122.3035,60.0,10.716666666666667
2026-01-20T23:10:44+00:00,SAT-47376,31.11063857225601,38.91090081175051,834.1581117131673,3.876103158650864,-135757.52851605782,10.5,10499864242.471483,47.655,-122.3035,60.0,10.733333333333333
2026-01-20T23:10:45+00:00,SAT-47376,31.54204387514242,38.6538018215402,838.0238235741517,3.9158190313279944,-137148.54637518578,10.5,10499862851.453625,47.655,-122.3035,60.0,10.75
2026-01-20T23:10:46+00:00,SAT-47376,31.96646717982778,38.397176243017384,841.92914483504,3.9549803135253936,-138520.14012979818,10.5,10499861479.85987,47.655,-122.3035,60.0,10.766666666666667
2026-01-20T23:10:47+00:00,SAT-47376,32.38403445182868,38.14108540421103,845.8735223921319,3.9935917752278742,-139872.4768449401,10.5,10499860127.523155,47.655,-122.3035,60.0,10.783333333333333
2026-01-20T23:10:48+00:00,SAT-47376,32.794870425075985,37.885587702107884,849.8564078989261,4.031658324846481,-141205.72843392895,10.5,10499858794.271566,47.655,-122.3035,60.0,10.8
2026-01-20T23:10:49+00:00,SAT-47376,33.1990985070736,37.63073868545583,853.8772579041726,4.069185054994986,-142520.07326164076,10.5,10499857479.926739,47.655,-122.3035,60.0,10.816666666666666
2026-01-20T23:10:50+00:00,SAT-47376,33.59684070011803,37.37659113416546,857.9355340355827,4.106177104015004,-143815.691294534,10.5,10499856184.308706,47.655,-122.3035,60.0,10.833333333333334
2026-01-20T23:10:51+00:00,SAT-47376,33.98821751919863,37.123195146692794,862.0307030454339,4.142639745825676,-145092.76724756564,10.5,10499854907.232752,47.655,-122.3035,60.0,10.85
2026-01-20T23:10:52+00:00,SAT-47376,34.3733479294518,36.870598220702945,866.1622369457855,4.1785783707627795,-146351.48991309578,10.5,10499853648.510086,47.655,-122.3035,60.0,10.866666666666667
2026-01-20T23:10:53+00:00,SAT-47376,34.75234929081976,36.61884533388082,870.3296131245799,4.21399845565741,-147592.05111291626,10.5,10499852407.948887,47.655,-122.3035,60.0,10.883333333333333
2026-01-20T23:10:54+00:00,SAT-47376,35.12533730853073,36.36797902532568,874.5323144319095,4.248905514090924,-148814.6439559687,10.5,10499851185.356045,47.655,-122.3035,60.0,10.9
2026-01-20T23:10:55+00:00,SAT-47376,35.49242598738179,36.11803947844107,878.769829216666,4.283305189232969,-150019.4660899247,10.5,10499849980.53391,47.655,-122.3035,60.0,10.916666666666666
2026-01-20T23:10:56+00:00,SAT-47376,35.85372760194381,35.86906459676561,883.0416514557828,4.317203147727103,-151206.7159846115,10.5,10499848793.284016,47.655,-122.3035,60.0,10.933333333333334
2026-01-20T23:10:57+00:00,SAT-47376,36.209352664171284,35.62109008449886,887.3472807776446,4.3506051526980825,-152376.59548903618,10.5,10499847623.40451,47.655,-122.3035,60.0,10.95
2026-01-20T23:10:58+00:00,SAT-47376,36.55940990382013,35.37414952104518,891.6862225583122,4.383516962982056,-153529.3063020004,10.5,10499846470.693699,47.655,-122.3035,60.0,10.966666666666667
2026-01-20T23:10:59+00:00,SAT-47376,36.90400624629426,35.12827443957935,896.0579879172417,4.415944400220206,-154665.05232200393,10.5,10499845334.947678,47.655,-122.3035,60.0,10.983333333333333
2026-01-20T23:11:00+00:00,SAT-47376,37.24324680171105,34.883494399886196,900.462093779925,4.447893338586616,-155784.0392874709,10.5,10499844215.960712,47.655,-122.3035,60.0,11.0
2026-01-20T23:11:01+00:00,SAT-47376,37.577234857891845,34.63983705997513,904.8980629302804,4.479369676382211,-156886.4737818495,10.5,10499843113.526218,47.655,-122.3035,60.0,11.016666666666667
2026-01-20T23:11:02+00:00,SAT-47376,37.90607187564801,34.39732824739347,909.365424034713,4.510379285478964,-157972.56146293422,10.5,10499842027.438538,47.655,-122.3035,60.0,11.033333333333333
2026-01-20T23:11:03+00:00,SAT-47376,38.22985748457724,34.15599203128058,913.86371161576,4.540928118940261,-159042.51083218626,10.5,10499840957.489168,47.655,-122.3035,60.0,11.05
2026-01-20T23:11:04+00:00,SAT-47376,38.54868949079876,33.915850786631765,918.3924661330612,4.57102208776109,-160096.52891765357,10.5,10499839903.471083,47.655,-122.3035,60.0,11.066666666666666
2026-01-20T23:11:05+00:00,SAT-47376,38.86266387892481,33.6769252632546,922.9512339414061,4.600667138094694,-161134.82397877498,10.5,10499838865.176022,47.655,-122.3035,60.0,11.083333333333334
2026-01-20T23:11:06+00:00,SAT-47376,39.1718748229239,33.439234648597655,927.5395673257958,4.629869202310135,-162157.60379220886,10.5,10499837842.396208,47.655,-122.3035,60.0,11.1
2026-01-20T23:11:07+00:00,SAT-47376,39.47641469627176,33.202796631214085,932.1570244876963,4.658634195168811,-163165.07551791886,10.5,10499836834.924482,47.655,-122.3035,60.0,11.116666666666667
2026-01-20T23:11:08+00:00,SAT-47376,39.776374084577064,32.96762746241441,936.8031695274794,4.686968054998659,-164157.44714126835,10.5,10499835842.552858,47.655,-122.3035,60.0,11.133333333333333
2026-01-20T23:11:09+00:00,SAT-47376,40.07184180316187,32.733742013888055,941.4775724679242,4.714876641551499,-165134.9238955529,10.5,10499834865.076105,47.655,-122.3035,60.0,11.15
2026-01-20T23:11:10+00:00,SAT-47376,40.362904910159045,32.501153838530236,946.1798091758528,4.74236587076323,-166097.71298187203,10.5,10499833902.287018,47.655,-122.3035,60.0,11.166666666666666
2026-01-20T23:11:11+00:00,SAT-47376,40.64964873010433,32.26987522260681,950.9094614181629,4.769441583114743,-167046.01895857166,10.5,10499832953.981041,47.655,-122.3035,60.0,11.183333333333334
2026-01-20T23:11:12+00:00,SAT-47376,40.93215687077623,32.03991724260543,955.6661167865763,4.79610962470809,-167980.0465808748,10.5,10499832019.953419,47.655,-122.3035,60.0,11.2
2026-01-20T23:11:13+00:00,SAT-47376,41.21051124661221,31.811289816213453,960.4493687032436,4.8223757698243475,-168899.9980885298,10.5,10499831100.001911,47.655,-122.3035,60.0,11.216666666666667
2026-01-20T23:11:14+00:00,SAT-47376,41.484792098732,31.5840017552103,965.2588163491168,4.8482458003305275,-169806.07598697676,10.5,10499830193.924013,47.655,-122.3035,60.0,11.233333333333333
2026-01-20T23:11:15+00:00,SAT-47376,41.755078020828826,31.358060812751834,970.0940646715143,4.873725441255998,-170698.480790961,10.5,10499829301.519209,47.655,-122.3035,60.0,11.25
2026-01-20T23:11:16+00:00,SAT-47376,42.02144598221246,31.133473731986452,974.9547243274367,4.898820390443167,-171577.41206302546,10.5,10499828422.587936,47.655,-122.3035,60.0,11.266666666666667
2026-01-20T23:11:17+00:00,SAT-47376,42.28397135340238,30.91024629154093,979.8404116564501,4.923536270566066,-172443.06673299862,10.5,10499827556.933268,47.655,-122.3035,60.0,11.283333333333333
2026-01-20T23:11:18+00:00,SAT-47376,42.54272792983027,30.6883833515156,984.7507486057228,4.947878714364274,-173295.64208324705,10.5,10499826704.357916,47.655,-122.3035,60.0,11.3
2026-01-20T23:11:19+00:00,SAT-47376,42.797787960738646,30.467888893957454,989.6853627400611,4.971853258073809,-174135.33201617433,10.5,10499825864.667984,47.655,-122.3035,60.0,11.316666666666666
2026-01-20T23:11:20+00:00,SAT-47376,43.049222172833154,30.248766066565967,994.6438871456656,4.995465426957204,-174962.33004984615,10.5,10499825037.66995,47.655,-122.3035,60.0,11.333333333333334
2026-01-20T23:11:21+00:00,SAT-47376,43.2970997988573,30.031017220982704,999.6259604191874,5.01872066235733,-175776.8267631068,10.5,10499824223.173237,47.655,-122.3035,60.0,11.35
