DopplerPredictor/satellites_20260205_234138/SAT-52451.csv

timestamp,satellite,azimuth_deg,elevation_deg,distance_km,relative_velocity_kms,doppler_shift_hz,tx_freq_ghz,rx_freq_hz,ue_lat,ue_lon,ue_alt_m,time_minutes
2026-01-20T23:03:00+00:00,SAT-52451,260.5844948418041,30.118989909685357,981.8534951045368,-5.609696548788725,196475.30213145528,10.5,10500196475.302132,47.655,-122.3035,60.0,3.0
2026-01-20T23:03:01+00:00,SAT-52451,260.7155036515408,30.368504945498618,976.2588373780573,-5.591923457503104,195852.81329453122,10.5,10500195852.813295,47.655,-122.3035,60.0,3.0166666666666666
2026-01-20T23:03:02+00:00,SAT-52451,260.8486506719506,30.620404341889788,970.6819050956583,-5.573836236160449,195219.32229424102,10.5,10500195219.322294,47.655,-122.3035,60.0,3.033333333333333
2026-01-20T23:03:03+00:00,SAT-52451,260.98398884386364,30.87471681242161,965.1230115452579,-5.555428689656311,194574.6121518216,10.5,10500194574.612152,47.655,-122.3035,60.0,3.05
2026-01-20T23:03:04+00:00,SAT-52451,261.1215728233498,31.131471193936655,959.582476193269,-5.5366944646179705,193918.4603452856,10.5,10500193918.460346,47.655,-122.3035,60.0,3.066666666666667
2026-01-20T23:03:05+00:00,SAT-52451,261.2614590486832,31.390696427033127,954.060624842447,-5.517627124594778,193250.64144290506,10.5,10500193250.641443,47.655,-122.3035,60.0,3.0833333333333335
2026-01-20T23:03:06+00:00,SAT-52451,261.40370581217684,31.652421538629763,948.5577897147408,-5.498220087552091,192570.92491398487,10.5,10500192570.924913,47.655,-122.3035,60.0,3.1
2026-01-20T23:03:07+00:00,SAT-52451,261.54837333385655,31.916675620208533,943.074309596489,-5.478466618522912,191879.07487149184,10.5,10500191879.074871,47.655,-122.3035,60.0,3.1166666666666667
2026-01-20T23:03:08+00:00,SAT-52451,261.69552383847343,32.18348780406685,937.6105299909419,-5.458359944405721,191174.85409276065,10.5,10500191174.854094,47.655,-122.3035,60.0,3.1333333333333333
2026-01-20T23:03:09+00:00,SAT-52451,261.8452216388998,32.45288724352454,932.1668031562933,-5.437893094524756,190458.01843524008,10.5,10500190458.018435,47.655,-122.3035,60.0,3.15
2026-01-20T23:03:10+00:00,SAT-52451,261.9975332195919,32.7249030837031,926.7434883027262,-5.417058972948911,189728.3193694071,10.5,10500189728.31937,47.655,-122.3035,60.0,3.1666666666666665
2026-01-20T23:03:11+00:00,SAT-52451,262.15252732572714,32.99956443386303,921.3409517173292,-5.395850389200803,188985.50505432804,10.5,10500188985.505054,47.655,-122.3035,60.0,3.183333333333333
2026-01-20T23:03:12+00:00,SAT-52451,262.3102750574864,33.276900339367295,915.9595668583945,-5.374260025689659,188229.31919702067,10.5,10500188229.319197,47.655,-122.3035,60.0,3.2
2026-01-20T23:03:13+00:00,SAT-52451,262.47084996797145,33.55693974998575,910.5997144821862,-5.352280389793182,187459.4993741584,10.5,10500187459.499374,47.655,-122.3035,60.0,3.216666666666667
2026-01-20T23:03:14+00:00,SAT-52451,262.63432816453314,33.83971148344267,905.2617828175032,-5.329903931298374,186675.78114534466,10.5,10500186675.781145,47.655,-122.3035,60.0,3.2333333333333334
2026-01-20T23:03:15+00:00,SAT-52451,262.8007884182249,34.12524419274157,899.946167623118,-5.307122900942758,185877.89309862812,10.5,10500185877.893099,47.655,-122.3035,60.0,3.25
2026-01-20T23:03:16+00:00,SAT-52451,262.97031227464055,34.41356632357313,894.6532723862895,-5.283929473421469,185065.56115873143,10.5,10500185065.56116,47.655,-122.3035,60.0,3.2666666666666666
2026-01-20T23:03:17+00:00,SAT-52451,263.142984173579,34.704706075584795,889.3835083986041,-5.260315662744023,184238.50562248714,10.5,10500184238.505623,47.655,-122.3035,60.0,3.283333333333333
2026-01-20T23:03:18+00:00,SAT-52451,263.3188915721534,34.998691356321395,884.1372949162284,-5.236273406189931,183396.44409931844,10.5,10500183396.4441,47.655,-122.3035,60.0,3.3
2026-01-20T23:03:19+00:00,SAT-52451,263.498125076459,35.29554973683219,878.9150592364349,-5.211794422622362,182539.08654878437,10.5,10500182539.086548,47.655,-122.3035,60.0,3.316666666666667
2026-01-20T23:03:20+00:00,SAT-52451,263.6807785753044,35.59530839616949,873.7172369154318,-5.18687040194346,181666.14191610628,10.5,10500181666.141916,47.655,-122.3035,60.0,3.3333333333333335
2026-01-20T23:03:21+00:00,SAT-52451,263.86694938649407,35.89799407322694,868.544271797248,-5.161492844910323,180777.312521846,10.5,10500180777.312521,47.655,-122.3035,60.0,3.35
2026-01-20T23:03:22+00:00,SAT-52451,264.05673840528095,36.203633005980286,863.3966162023688,-5.13565316660487,179872.29768585818,10.5,10500179872.297686,47.655,-122.3035,60.0,3.3666666666666667
2026-01-20T23:03:23+00:00,SAT-52451,264.2502502634838,36.51225087290957,858.2747310131836,-5.109342642263715,178950.7918300233,10.5,10500178950.79183,47.655,-122.3035,60.0,3.3833333333333333
2026-01-20T23:03:24+00:00,SAT-52451,264.44759349478784,36.823872727332535,853.1790858134545,-5.082552437752413,178012.48554558476,10.5,10500178012.485546,47.655,-122.3035,60.0,3.4
2026-01-20T23:03:25+00:00,SAT-52451,264.64888070925593,37.13852292933963,848.1101589973953,-5.055273584270732,177057.06470722047,10.5,10500177057.064707,47.655,-122.3035,60.0,3.4166666666666665
2026-01-20T23:03:26+00:00,SAT-52451,264.85422877570153,37.45622507174401,843.0684379039762,-5.027497030930278,176084.21231453368,10.5,10500176084.212315,47.655,-122.3035,60.0,3.433333333333333
2026-01-20T23:03:27+00:00,SAT-52451,265.06375901508164,37.77700190461481,838.0544188987913,-4.999213580642439,175093.6062465775,10.5,10500175093.606247,47.655,-122.3035,60.0,3.45
2026-01-20T23:03:28+00:00,SAT-52451,265.2775974012083,38.10087525084138,833.0686075198671,-4.97041396090184,174084.92174099095,10.5,10500174084.921741,47.655,-122.3035,60.0,3.466666666666667
2026-01-20T23:03:29+00:00,SAT-52451,265.49587477420573,38.42786592092915,828.1115185528774,-4.941088782637434,173057.8299527904,10.5,10500173057.829952,47.655,-122.3035,60.0,3.4833333333333334
2026-01-20T23:03:30+00:00,SAT-52451,265.7187270631453,38.75799361966836,823.1836761473959,-4.911228554953303,172011.99847065427,10.5,10500172011.99847,47.655,-122.3035,60.0,3.5
2026-01-20T23:03:31+00:00,SAT-52451,265.9462955203527,39.09127684786158,818.2856139184489,-4.880823680439297,170947.09115268211,10.5,10500170947.091152,47.655,-122.3035,60.0,3.5166666666666666
2026-01-20T23:03:32+00:00,SAT-52451,266.17872696732906,39.42773279750806,813.4178750527434,-4.849864530441824,169862.77076269596,10.5,10500169862.770763,47.655,-122.3035,60.0,3.533333333333333
2026-01-20T23:03:33+00:00,SAT-52451,266.41617405626846,39.76737724566883,808.5810123398263,-4.818341320558135,168758.69460952355,10.5,10500168758.694609,47.655,-122.3035,60.0,3.55
2026-01-20T23:03:34+00:00,SAT-52451,266.6587955392851,40.11022443286983,803.7755883274174,-4.786244248245591,167634.51936665698,10.5,10500167634.519367,47.655,-122.3035,60.0,3.566666666666667
2026-01-20T23:03:35+00:00,SAT-52451,266.90675655715296,40.45628694374109,799.0021753394999,-4.75356340348705,166489.89794337662,10.5,10500166489.897943,47.655,-122.3035,60.0,3.5833333333333335
2026-01-20T23:03:36+00:00,SAT-52451,267.1602289385497,40.80557557373173,794.2613555835057,-4.720288859353594,165324.48265664087,10.5,10500165324.482656,47.655,-122.3035,60.0,3.6
2026-01-20T23:03:37+00:00,SAT-52451,267.4193915184082,41.15809919424037,789.5537211671841,-4.686410565195664,164137.921490188,10.5,10500164137.92149,47.655,-122.3035,60.0,3.6166666666666667
2026-01-20T23:03:38+00:00,SAT-52451,267.68443046687537,41.51386460132043,784.8798742219889,-4.651918532292065,162929.8645967494,10.5,10500162929.864597,47.655,-122.3035,60.0,3.6333333333333333
2026-01-20T23:03:39+00:00,SAT-52451,267.9555396439856,41.87287636925068,780.2404268413175,-4.616802631162758,161699.95719908658,10.5,10500161699.9572,47.655,-122.3035,60.0,3.65
2026-01-20T23:03:40+00:00,SAT-52451,268.232920961227,42.23513667934313,775.6360012208901,-4.581052796236603,160447.84675832084,10.5,10500160447.846758,47.655,-122.3035,60.0,3.6666666666666665
2026-01-20T23:03:41+00:00,SAT-52451,268.51678477178285,42.60064515433979,771.0672295950149,-4.544658881771421,159173.1779276446,10.5,10500159173.177927,47.655,-122.3035,60.0,3.683333333333333
2026-01-20T23:03:42+00:00,SAT-52451,268.807350271725,42.96939867111348,766.5347543165426,-4.507610807360498,157875.5976485747,10.5,10500157875.597649,47.655,-122.3035,60.0,3.7
2026-01-20T23:03:43+00:00,SAT-52451,269.10484592894375,43.341391173781965,762.0392277917065,-4.469898438590513,156554.7509710881,10.5,10500156554.75097,47.655,-122.3035,60.0,3.716666666666667
2026-01-20T23:03:44+00:00,SAT-52451,269.4095099253708,43.71661346550932,757.5813125339837,-4.4315117511492526,155210.2868013683,10.5,10500155210.286802,47.655,-122.3035,60.0,3.7333333333333334
2026-01-20T23:03:45+00:00,SAT-52451,269.72159063027203,44.09505300150783,753.1616810542906,-4.392440661659968,153841.85197690886,10.5,10500153841.851976,47.655,-122.3035,60.0,3.75
2026-01-20T23:03:46+00:00,SAT-52451,270.0413470845699,44.476693654937996,748.7810159198879,-4.352675240637268,152449.09872512973,10.5,10500152449.098724,47.655,-122.3035,60.0,3.7666666666666666
2026-01-20T23:03:47+00:00,SAT-52451,270.3690495215105,44.86151548721568,744.4400096009016,-4.3122055670085775,151031.67956810328,10.5,10500151031.679567,47.655,-122.3035,60.0,3.783333333333333
2026-01-20T23:03:48+00:00,SAT-52451,270.7049799008252,45.249494491614605,740.1393644619336,-4.271021856102172,149589.25180523656,10.5,10500149589.251804,47.655,-122.3035,60.0,3.8
2026-01-20T23:03:49+00:00,SAT-52451,271.0494324754168,45.64060233296773,735.8797926260268,-4.229114372794833,148121.47447133492,10.5,10500148121.474472,47.655,-122.3035,60.0,3.816666666666667
2026-01-20T23:03:50+00:00,SAT-52451,271.4027143758236,46.03480606376426,731.6620159252475,-4.186473588843088,146628.01384700756,10.5,10500146628.013847,47.655,-122.3035,60.0,3.8333333333333335
2026-01-20T23:03:51+00:00,SAT-52451,271.7651462311475,46.432067838040886,727.4867656943629,-4.143090056858061,145108.53904473354,10.5,10500145108.539045,47.655,-122.3035,60.0,3.85
2026-01-20T23:03:52+00:00,SAT-52451,272.13706280522945,46.83234459629649,723.354782690201,-4.098954529428359,143562.72618104945,10.5,10500143562.726181,47.655,-122.3035,60.0,3.8666666666666667
2026-01-20T23:03:53+00:00,SAT-52451,272.51881366677526,47.23558774319414,719.2668168922102,-4.054057953761033,141990.25818885292,10.5,10500141990.258188,47.655,-122.3035,60.0,3.8833333333333333
2026-01-20T23:03:54+00:00,SAT-52451,272.91076388410846,47.64174280581902,715.2236273083631,-4.008391481449433,140390.82515951432,10.5,10500140390.82516,47.655,-122.3035,60.0,3.9
2026-01-20T23:03:55+00:00,SAT-52451,273.31329474484613,48.05074907286458,711.2259817713173,-3.9619465094556614,138764.12577825572,10.5,10500138764.125778,47.655,-122.3035,60.0,3.9166666666666665
2026-01-20T23:03:56+00:00,SAT-52451,273.72680450275857,48.4625392169573,707.2746566937051,-3.914714692064043,137109.86774281177,10.5,10500137109.867743,47.655,-122.3035,60.0,3.933333333333333
2026-01-20T23:03:57+00:00,SAT-52451,274.15170914791867,48.87703889636012,703.3704368114998,-3.8666879600440454,135427.76843459642,10.5,10500135427.768435,47.655,-122.3035,60.0,3.95
2026-01-20T23:03:58+00:00,SAT-52451,274.5884431991394,49.29416633574256,699.5141149082737,-3.8178586182294985,133717.55833633992,10.5,10500133717.558336,47.655,-122.3035,60.0,3.966666666666667
2026-01-20T23:03:59+00:00,SAT-52451,275.03746052518323,49.71383189371975,695.7064914421351,-3.768219241839602,131978.9774008118,10.5,10500131978.977402,47.655,-122.3035,60.0,3.9833333333333334
2026-01-20T23:04:00+00:00,SAT-52451,275.49923517033244,50.13593759452021,691.9483742760689,-3.717762823883618,130211.78021355689,10.5,10500130211.780214,47.655,-122.3035,60.0,4.0
2026-01-20T23:04:01+00:00,SAT-52451,275.9742622074597,50.560376649898636,688.2405782612647,-3.6664827434897624,128415.73488363909,10.5,10500128415.734884,47.655,-122.3035,60.0,4.016666666666667
2026-01-20T23:04:02+00:00,SAT-52451,276.463058595073,50.98703295116281,684.5839248520357,-3.614372842588836,126590.62572942636,10.5,10500126590.625729,47.655,-122.3035,60.0,4.033333333333333
2026-01-20T23:04:03+00:00,SAT-52451,276.96616404499383,51.41578054253114,680.9792416442541,-3.5614273793556928,124736.25164791428,10.5,10500124736.251648,47.655,-122.3035,60.0,4.05
2026-01-20T23:04:04+00:00,SAT-52451,277.4841418784496,51.8464830607679,677.4273619602258,-3.5076411355824964,122852.42987539136,10.5,10500122852.429876,47.655,-122.3035,60.0,4.066666666666666
2026-01-20T23:04:05+00:00,SAT-52451,278.0175798813852,52.278993158298604,673.9291243264731,-3.4530094423993307,120938.99688828386,10.5,10500120938.99689,47.655,-122.3035,60.0,4.083333333333333
2026-01-20T23:04:06+00:00,SAT-52451,278.5670911398831,52.71315190013211,670.4853719258736,-3.397528165679658,118995.80789199308,10.5,10500118995.807892,47.655,-122.3035,60.0,4.1
2026-01-20T23:04:07+00:00,SAT-52451,279.13331483649625,53.14878812885556,667.0969520643472,-3.3411937525316247,117022.73844921762,10.5,10500117022.73845,47.655,-122.3035,60.0,4.116666666666666
2026-01-20T23:04:08+00:00,SAT-52451,279.7169170014336,53.585717804705965,663.7647155911816,-3.284003318890887,115019.68754782455,10.5,10500115019.687548,47.655,-122.3035,60.0,4.133333333333334
2026-01-20T23:04:09+00:00,SAT-52451,280.318591209133,54.0237433264724,660.489516231996,-3.2259546285165173,112986.5768651973,10.5,10500112986.576866,47.655,-122.3035,60.0,4.15
2026-01-20T23:04:10+00:00,SAT-52451,280.93905918316364,54.46265281959257,657.2722099426569,-3.167046132316419,110923.35214557798,10.5,10500110923.352146,47.655,-122.3035,60.0,4.166666666666667
2026-01-20T23:04:11+00:00,SAT-52451,281.5790712943947,54.90221939954762,654.1136542239688,-3.1072770218088657,108829.9850725167,10.5,10500108829.985073,47.655,-122.3035,60.0,4.183333333333334
2026-01-20T23:04:12+00:00,SAT-52451,282.2394069283961,55.342200413755876,651.0147073830511,-3.0466472632146506,106706.47446292272,10.5,10500106706.474463,47.655,-122.3035,60.0,4.2
2026-01-20T23:04:13+00:00,SAT-52451,282.92087468709605,55.78233666113872,647.9762277607118,-2.985157606090719,104552.84656945089,10.5,10500104552.84657,47.655,-122.3035,60.0,4.216666666666667
2026-01-20T23:04:14+00:00,SAT-52451,283.6243123825283,56.2223515878739,644.9990729502111,-2.9228096473174556,102369.15732160707,10.5,10500102369.157322,47.655,-122.3035,60.0,4.233333333333333
2026-01-20T23:04:15+00:00,SAT-52451,284.3505867916823,56.661950470257,642.0840989522105,-2.8596058365793215,100155.49251770329,10.5,10500100155.492517,47.655,-122.3035,60.0,4.25
2026-01-20T23:04:16+00:00,SAT-52451,285.1005931121855,57.10081958021698,639.2321593242535,-2.7955495403638313,97911.97006637248,10.5,10500097911.970066,47.655,-122.3035,60.0,4.266666666666667
2026-01-20T23:04:17+00:00,SAT-52451,285.8752540772727,57.53862534720879,636.4441042664217,-2.730645030656074,95638.73959060297,10.5,10500095638.73959,47.655,-122.3035,60.0,4.283333333333333
2026-01-20T23:04:18+00:00,SAT-52451,286.67551865055384,57.97501351135124,633.7207797182635,-2.6648975642382777,93335.98520514455,10.5,10500093335.985205,47.655,-122.3035,60.0,4.3
2026-01-20T23:04:19+00:00,SAT-52451,287.50236025387426,58.409608289616145,631.0630263766393,-2.598313373831919,91003.9252062677,10.5,10500091003.925207,47.655,-122.3035,60.0,4.316666666666666
2026-01-20T23:04:20+00:00,SAT-52451,288.35677442964857,58.842011550877594,628.4716787223952,-2.530899682736232,88642.81258446613,10.5,10500088642.812584,47.655,-122.3035,60.0,4.333333333333333
2026-01-20T23:04:21+00:00,SAT-52451,289.23977585602404,59.27180201453449,625.9475640324443,-2.462664811894994,86252.93877438852,10.5,10500086252.938774,47.655,-122.3035,60.0,4.35
2026-01-20T23:04:22+00:00,SAT-52451,290.1523946550333,59.698534502295445,623.4915012850623,-2.3936180697243907,83834.62979614417,10.5,10500083834.629797,47.655,-122.3035,60.0,4.366666666666666
2026-01-20T23:04:23+00:00,SAT-52451,291.095671822015,60.12173922265065,621.1043001750637,-2.323769917982478,81388.25206475347,10.5,10500081388.252066,47.655,-122.3035,60.0,4.383333333333334
2026-01-20T23:04:24+00:00,SAT-52451,292.07065376446496,60.540921154148094,618.7867599635508,-2.253131879552582,78914.20916033222,10.5,10500078914.20916,47.655,-122.3035,60.0,4.4
2026-01-20T23:04:25+00:00,SAT-52451,293.07838575063704,60.95555950539338,616.5396684196351,-2.181716603943802,76412.94412219644,10.5,10500076412.944122,47.655,-122.3035,60.0,4.416666666666667
2026-01-20T23:04:26+00:00,SAT-52451,294.11990421078957,61.36510730450396,614.3638006968296,-2.1095378748814038,73884.93971471002,10.5,10500073884.939714,47.655,-122.3035,60.0,4.433333333333334
2026-01-20T23:04:27+00:00,SAT-52451,295.19622775942213,61.76899113735242,612.2599182018745,-2.0366106223265947,71330.71884826818,10.5,10500071330.71885,47.655,-122.3035,60.0,4.45
2026-01-20T23:04:28+00:00,SAT-52451,296.3083468349631,62.1666110683585,610.228767451574,-1.962950912098933,68750.84421583013,10.5,10500068750.844215,47.655,-122.3035,60.0,4.466666666666667
2026-01-20T23:04:29+00:00,SAT-52451,297.45721184920944,62.55734077624546,608.2710789399835,-1.8885759764221133,66145.91936276191,10.5,10500066145.919363,47.655,-122.3035,60.0,4.483333333333333
2026-01-20T23:04:30+00:00,SAT-52451,298.6437197906396,62.9405279532716,606.3875659751303,-1.8135041856358185,63516.587696065704,10.5,10500063516.587696,47.655,-122.3035,60.0,4.5
2026-01-20T23:04:31+00:00,SAT-52451,299.8686991992682,63.315495000422416,604.5789235439528,-1.7377550731011586,60863.533356673586,10.5,10500060863.533358,47.655,-122.3035,60.0,4.516666666666667
2026-01-20T23:04:32+00:00,SAT-52451,301.1328935281977,63.68154007606122,602.8458271523923,-1.6613492933506755,58187.47975368377,10.5,10500058187.479753,47.655,-122.3035,60.0,4.533333333333333
2026-01-20T23:04:33+00:00,SAT-52451,302.4369428824489,64.03793853342157,601.188931707231,-1.5843086572548677,55489.19079604101,10.5,10500055489.190796,47.655,-122.3035,60.0,4.55
2026-01-20T23:04:34+00:00,SAT-52451,303.78136428062504,64.38394481284742,599.6088703628517,-1.5066560643651765,52769.46852290178,10.5,10500052769.468523,47.655,-122.3035,60.0,4.566666666666666
2026-01-20T23:04:35+00:00,SAT-52451,305.16653053123815,64.71879481621707,598.1062534354762,-1.428415522087213,50029.1537751618,10.5,10500050029.153774,47.655,-122.3035,60.0,4.583333333333333
2026-01-20T23:04:36+00:00,SAT-52451,306.5926480387256,65.04170882822777,596.6816672982825,-1.349612104099742,47269.12473911299,10.5,10500047269.124739,47.655,-122.3035,60.0,4.6
2026-01-20T23:04:37+00:00,SAT-52451,308.0597338441799,65.35189501249751,595.3356733179872,-1.2702719322902636,44490.29631375105,10.5,10500044490.296314,47.655,-122.3035,60.0,4.616666666666666
2026-01-20T23:04:38+00:00,SAT-52451,309.5675923784342,65.64855352007801,594.06880680945,-1.1904221266498805,41693.618355881874,10.5,10500041693.618357,47.655,-122.3035,60.0,4.633333333333334
2026-01-20T23:04:39+00:00,SAT-52451,311.1157924657437,65.93088122369677,592.8815760402435,-1.1100907971970515,38880.075397257126,10.5,10500038880.075397,47.655,-122.3035,60.0,4.65
2026-01-20T23:04:40+00:00,SAT-52451,312.70364531250385,66.19807709265599,591.7744612432812,-1.0293069717854797,36050.6841161012,10.5,10500036050.684116,47.655,-122.3035,60.0,4.666666666666667
2026-01-20T23:04:41+00:00,SAT-52451,314.33018419677654,66.44934817910452,590.7479137014426,-0.9481005781213928,33206.49270728027,10.5,10500033206.492708,47.655,-122.3035,60.0,4.683333333333334
2026-01-20T23:04:42+00:00,SAT-52451,315.99414680673976,66.68391619126368,589.8023548501333,-0.8665023791392077,30348.578618884672,10.5,10500030348.578619,47.655,-122.3035,60.0,4.7
2026-01-20T23:04:43+00:00,SAT-52451,317.6939611092267,66.90102457910027,588.9381754442952,-0.7845439260230894,27478.046906845262,10.5,10500027478.046907,47.655,-122.3035,60.0,4.716666666666667
2026-01-20T23:04:44+00:00,SAT-52451,319.4277357330585,67.09994604478858,588.1557347722708,-0.7022575058657816,24596.028401724194,10.5,10500024596.028402,47.655,-122.3035,60.0,4.733333333333333
2026-01-20T23:04:45+00:00,SAT-52451,321.19325579672875,67.27999035546331,587.4553599218666,-0.6196760712435748,21703.67724213241,10.5,10500021703.677242,47.655,-122.3035,60.0,4.75
2026-01-20T23:04:46+00:00,SAT-52451,322.98798498840466,67.44051230366668,586.8373451166547,-0.5368331920868791,18802.169189033535,10.5,10500018802.16919,47.655,-122.3035,60.0,4.766666666666667
2026-01-20T23:04:47+00:00,SAT-52451,324.8090746361347,67.58091964512371,586.3019511002728,-0.4537629814368116,15892.699025425522,10.5,10500015892.699026,47.655,-122.3035,60.0,4.783333333333333
2026-01-20T23:04:48+00:00,SAT-52451,326.6533801891273,67.70068081006411,585.8494045947699,-0.370500027997191,12976.478194026167,10.5,10500012976.478193,47.655,-122.3035,60.0,4.8
2026-01-20T23:04:49+00:00,SAT-52451,328.5174853078254,67.79933217868563,585.4798978262188,-0.28707932782700596,10054.732404854436,10.5,10500010054.732405,47.655,-122.3035,60.0,4.816666666666666
2026-01-20T23:04:50+00:00,SAT-52451,330.3977334321022,67.87648470458643,585.1935881184526,-0.20353621228654054,7128.699111598984,10.5,10500007128.699112,47.655,-122.3035,60.0,4.833333333333333
2026-01-20T23:04:51+00:00,SAT-52451,332.2902663231826,67.93182967509748,584.9905975586634,-0.11990627440878149,4199.624932833385,10.5,10500004199.624933,47.655,-122.3035,60.0,4.85
2026-01-20T23:04:52+00:00,SAT-52451,334.19106873403405,67.9651434152122,584.8710127364291,-0.03622529008990557,1268.7628917736433,10.5,10500001268.762892,47.655,-122.3035,60.0,4.866666666666666
2026-01-20T23:04:53+00:00,SAT-52451,336.0960179741995,67.97629076944031,584.8348845613426,0.04747085331013435,-1662.6300844313125,10.5,10499998337.369915,47.655,-122.3035,60.0,4.883333333333334
2026-01-20T23:04:54+00:00,SAT-52451,338.00093695842264,67.965227238066,584.8822281518461,0.13114623625700833,-4593.295941749767,10.5,10499995406.704058,47.655,-122.3035,60.0,4.9
2026-01-20T23:04:55+00:00,SAT-52451,339.9016490072252,67.93199968713816,585.0130228031419,0.21476498394112367,-7521.978192599489,10.5,10499992478.021807,47.655,-122.3035,60.0,4.916666666666667
2026-01-20T23:04:56+00:00,SAT-52451,341.794032654263,67.87674560636549,585.2272120317988,0.29829134125782836,-10447.424541971626,10.5,10499989552.575459,47.655,-122.3035,60.0,4.933333333333334
2026-01-20T23:04:57+00:00,SAT-52451,343.6740746207981,67.79969094287854,585.5247036951349,0.38168975147068335,-13368.389642551232,10.5,10499986631.610357,47.655,-122.3035,60.0,4.95
2026-01-20T23:04:58+00:00,SAT-52451,345.53791935860806,67.70114658945474,585.9053701890548,0.4649249259094839,-16283.637535836813,10.5,10499983716.362465,47.655,-122.3035,60.0,4.966666666666667
2026-01-20T23:04:59+00:00,SAT-52451,347.3819136017045,67.58150365584721,586.3690487153976,0.5479619293899324,-19191.94464389858,10.5,10499980808.055357,47.655,-122.3035,60.0,4.983333333333333
2026-01-20T23:05:00+00:00,SAT-52451,349.2026448483519,67.44122768414287,586.9155416344736,0.6307662328058717,-22092.101611380942,10.5,10499977907.898388,47.655,-122.3035,60.0,5.0
2026-01-20T23:05:01+00:00,SAT-52451,350.99697277062256,67.2808520099061,587.5446168700549,0.7133038028563745,-24982.9164481247,10.5,10499975017.083551,47.655,-122.3035,60.0,5.016666666666667
2026-01-20T23:05:02+00:00,SAT-52451,352.7620532340823,67.10097046999667,588.2560084038518,0.7955411617012152,-27863.21661855403,10.5,10499972136.78338,47.655,-122.3035,60.0,5.033333333333333
2026-01-20T23:05:03+00:00,SAT-52451,354.4953546629962,66.90222968078744,589.0494168294829,0.8774454460480252,-30731.851111158594,10.5,10499969268.14889,47.655,-122.3035,60.0,5.05
2026-01-20T23:05:04+00:00,SAT-52451,356.1946669756785,66.68532109786179,589.9245099653778,0.9589844752550114,-33587.69282373881,10.5,10499966412.307177,47.655,-122.3035,60.0,5.066666666666666
2026-01-20T23:05:05+00:00,SAT-52451,357.8581035859468,66.4509730517501,590.8809235355943,1.0401268148969254,-36429.640789755016,10.5,10499963570.359211,47.655,-122.3035,60.0,5.083333333333333
2026-01-20T23:05:06+00:00,SAT-52451,359.48409714630986,66.19994293658168,591.918261914038,1.1208418235693096,-39256.62181761007,10.5,10499960743.378181,47.655,-122.3035,60.0,5.1
2026-01-20T23:05:07+00:00,SAT-52451,1.0713898497413563,65.93300970529424,593.0360989153544,1.2010997024253125,-42067.59222563825,10.5,10499957932.407774,47.655,-122.3035,60.0,5.116666666666666
2026-01-20T23:05:08+00:00,SAT-52451,2.6190192387354996,65.6509667913494,594.2339786352294,1.2808715543454292,-44861.53991447979,10.5,10499955138.460085,47.655,-122.3035,60.0,5.133333333333334
2026-01-20T23:05:09+00:00,SAT-52451,4.126300493296702,65.35461554606584,595.5114163496979,1.360129428404191,-47637.48592449249,10.5,10499952362.514076,47.655,-122.3035,60.0,5.15
2026-01-20T23:05:10+00:00,SAT-52451,5.592806114110292,65.04475925806035,596.8678994588023,1.438846332165144,-50394.48486637382,10.5,10499949605.515133,47.655,-122.3035,60.0,5.166666666666667
2026-01-20T23:05:11+00:00,SAT-52451,7.018343847806295,64.72219779882957,598.3028884425115,1.5169963106583289,-53131.627687286425,10.5,10499946868.372313,47.655,-122.3035,60.0,5.183333333333334
2026-01-20T23:05:12+00:00,SAT-52451,8.40293372180275,64.38772289303579,599.8158178954066,1.5945544434848256,-55848.04156944691,10.5,10499944151.958431,47.655,-122.3035,60.0,5.2
2026-01-20T23:05:13+00:00,SAT-52451,9.746784777329035,64.04211402679174,601.406097558477,1.6714968924246212,-58542.89159755487,10.5,10499941457.108402,47.655,-122.3035,60.0,5.216666666666667
2026-01-20T23:05:14+00:00,SAT-52451,11.050272129390326,63.68613496149222,603.0731133983993,1.7478009101711292,-61215.38106471263,10.5,10499938784.618935,47.655,-122.3035,60.0,5.233333333333333
2026-01-20T23:05:15+00:00,SAT-52451,12.313914770486301,63.320530829113316,604.8162286955268,1.8234448639392684,-63864.752299280044,10.5,10499936135.247702,47.655,-122.3035,60.0,5.25
2026-01-20T23:05:16+00:00,SAT-52451,13.53835448358179,62.94602576454731,606.6347851554214,1.8984082661323314,-66490.287738958,10.5,10499933509.712261,47.655,-122.3035,60.0,5.266666666666667
2026-01-20T23:05:17+00:00,SAT-52451,14.724336115322659,62.563321027336286,608.5281040509726,1.9726717565578542,-69091.30930791284,10.5,10499930908.690693,47.655,-122.3035,60.0,5.283333333333333
2026-01-20T23:05:18+00:00,SAT-52451,15.87268934100835,62.17309357358623,610.4954873467797,2.046217135227735,-71667.1795655754,10.5,10499928332.820435,47.655,-122.3035,60.0,5.3
2026-01-20T23:05:19+00:00,SAT-52451,16.98431204835137,61.7759950177276,612.5362188562457,2.119027339303608,-74217.30089917032,10.5,10499925782.6991,47.655,-122.3035,60.0,5.316666666666666
2026-01-20T23:05:20+00:00,SAT-52451,18.060155335856777,61.37265094639278,614.6495653756784,2.1910864781730277,-76741.11675223261,10.5,10499923258.883247,47.655,-122.3035,60.0,5.333333333333333
2026-01-20T23:05:21+00:00,SAT-52451,19.101210143414114,60.96366052612957,616.8347778533735,2.2623797975427298,-79238.1103670015,10.5,10499920761.889633,47.655,-122.3035,60.0,5.35
2026-01-20T23:05:22+00:00,SAT-52451,20.10849542430143,60.54959637482332,619.0910925228873,2.3328936787139023,-81707.80475903758,10.5,10499918292.19524,47.655,-122.3035,60.0,5.366666666666666
2026-01-20T23:05:23+00:00,SAT-52451,21.083047801451695,60.131004649284684,621.4177320355877,2.402615644404105,-84149.76292113094,10.5,10499915850.23708,47.655,-122.3035,60.0,5.383333333333334
2026-01-20T23:05:24+00:00,SAT-52451,22.025912614184403,59.70840531131968,623.8139065990104,2.4715343277315007,-86563.58673699775,10.5,10499913436.413263,47.655,-122.3035,60.0,5.4
2026-01-20T23:05:25+00:00,SAT-52451,22.938136231811697,59.282292546065584,626.2788150842807,2.53963945716304,-88948.91645410212,10.5,10499911051.083546,47.655,-122.3035,60.0,5.416666666666667
2026-01-20T23:05:26+00:00,SAT-52451,23.82075953173631,58.85313530035702,628.8116461185294,2.6069218458685275,-91305.43031079033,10.5,10499908694.569689,47.655,-122.3035,60.0,5.433333333333334
2026-01-20T23:05:27+00:00,SAT-52451,24.674812430442884,58.42137791491774,631.4115791666843,2.6733733709748355,-93632.84380968573,10.5,10499906367.15619,47.655,-122.3035,60.0,5.45
2026-01-20T23:05:28+00:00,SAT-52451,25.50130935290744,57.98744083004485,634.0777855925771,2.7389869390319914,-95930.90850816504,10.5,10499904069.091492,47.655,-122.3035,60.0,5.466666666666667
2026-01-20T23:05:29+00:00,SAT-52451,26.301245530946893,57.55172134795393,636.8094296856059,2.8037564742190475,-98199.41160527794,10.5,10499901800.588394,47.655,-122.3035,60.0,5.483333333333333
2026-01-20T23:05:30+00:00,SAT-52451,27.075594038928557,57.11459443180994,639.6056696756356,2.867676864729564,-100438.17406394,10.5,10499899561.825935,47.655,-122.3035,60.0,5.5
2026-01-20T23:05:31+00:00,SAT-52451,27.82530346189101,56.67641353441072,642.4656586944302,2.9307439873018506,-102647.05147008545,10.5,10499897352.94853,47.655,-122.3035,60.0,5.516666666666667
2026-01-20T23:05:32+00:00,SAT-52451,28.5512961339704,56.23751143293599,645.388545761545,2.992954599140955,-104825.93024731806,10.5,10499895174.069752,47.655,-122.3035,60.0,5.533333333333333
2026-01-20T23:05:33+00:00,SAT-52451,29.25446683377857,55.798201080692735,648.3734766624331,3.054306411418672,-106974.73023119233,10.5,10499893025.26977,47.655,-122.3035,60.0,5.55
2026-01-20T23:05:34+00:00,SAT-52451,29.93568191570952,55.358776440629015,651.4195948998573,3.114797927853798,-109093.39901561127,10.5,10499890906.600985,47.655,-122.3035,60.0,5.566666666666666
2026-01-20T23:05:35+00:00,SAT-52451,30.59577875655028,54.91951332925556,654.5260424843084,3.174428529829035,-111181.91493398031,10.5,10499888818.085066,47.655,-122.3035,60.0,5.583333333333333
2026-01-20T23:05:36+00:00,SAT-52451,31.23556552344419,54.48067022966746,657.69196080932,3.233198378154901,-113240.28361856408,10.5,10499886759.716381,47.655,-122.3035,60.0,5.6
2026-01-20T23:05:37+00:00,SAT-52451,31.855821170237352,54.04248909663334,660.9164914288045,3.291108383965,-115268.53698111545,10.5,10499884731.463018,47.655,-122.3035,60.0,5.616666666666666
2026-01-20T23:05:38+00:00,SAT-52451,32.457295638198225,53.60519614039732,664.198776805365,3.3481602104757373,-117266.73327450834,10.5,10499882733.266726,47.655,-122.3035,60.0,5.633333333333334
2026-01-20T23:05:39+00:00,SAT-52451,33.04071022905368,53.16900258306848,667.5379610603625,3.4043561975820023,-119234.9544517595,10.5,10499880765.045547,47.655,-122.3035,60.0,5.65
2026-01-20T23:05:40+00:00,SAT-52451,33.60675810370206,52.73410539637729,670.9331906487798,3.459699340208659,-121173.30540780623,10.5,10499878826.694592,47.655,-122.3035,60.0,5.666666666666667
2026-01-20T23:05:41+00:00,SAT-52451,34.15610489015021,52.300688012328756,674.3836150124959,3.5141932671921117,-123081.91323984932,10.5,10499876918.08676,47.655,-122.3035,60.0,5.683333333333334
2026-01-20T23:05:42+00:00,SAT-52451,34.68938937684176,51.86892100625896,677.8883872124974,3.5678421945719805,-124960.92561143015,10.5,10499875039.074389,47.655,-122.3035,60.0,5.7
2026-01-20T23:05:43+00:00,SAT-52451,35.20722426646726,51.43896275529328,681.4466645145078,3.6206508996306055,-126810.50984318412,10.5,10499873189.490156,47.655,-122.3035,60.0,5.716666666666667
2026-01-20T23:05:44+00:00,SAT-52451,35.71019697739058,51.01096006954748,685.0576089487264,3.67262467391016,-128630.85126730133,10.5,10499871369.148733,47.655,-122.3035,60.0,5.733333333333333
2026-01-20T23:05:45+00:00,SAT-52451,36.19887047461671,50.58504879884816,688.720387822708,3.7237693045553937,-130422.15257407054,10.5,10499869577.847425,47.655,-122.3035,60.0,5.75
2026-01-20T23:05:46+00:00,SAT-52451,36.673784123017676,50.16135441198777,692.4341742156381,3.7740910573307094,-132184.63321706527,10.5,10499867815.366783,47.655,-122.3035,60.0,5.766666666666667
2026-01-20T23:05:47+00:00,SAT-52451,37.135454551888685,49.739992549083944,696.1981474556685,3.8235965922240394,-133918.52645723466,10.5,10499866081.473543,47.655,-122.3035,60.0,5.783333333333333
2026-01-20T23:05:48+00:00,SAT-52451,37.58437651438384,49.32106955527239,700.011493513085,3.872293016702442,-135624.08122813964,10.5,10499864375.918772,47.655,-122.3035,60.0,5.8
2026-01-20T23:05:49+00:00,SAT-52451,38.021023752410485,48.904682981024536,703.8734054465862,3.920187741839648,-137301.55709693106,10.5,10499862698.442904,47.655,-122.3035,60.0,5.816666666666666
2026-01-20T23:05:50+00:00,SAT-52451,38.44584983695321,48.49092207172527,707.7830837060758,3.9672885746984834,-138951.2274999729,10.5,10499861048.7725,47.655,-122.3035,60.0,5.833333333333333
2026-01-20T23:05:51+00:00,SAT-52451,38.859289007936596,48.079868221516655,711.7397365275913,4.013603605906923,-140573.37580528023,10.5,10499859426.624195,47.655,-122.3035,60.0,5.85
2026-01-20T23:05:52+00:00,SAT-52451,39.261756985656625,47.671595414590946,715.7425802161081,4.059141245580479,-142168.296570673,10.5,10499857831.70343,47.655,-122.3035,60.0,5.866666666666666
2026-01-20T23:05:53+00:00,SAT-52451,39.65365176780157,47.266170639002866,719.7908394641705,4.103910102346575,-143736.29130669803,10.5,10499856263.708693,47.655,-122.3035,60.0,5.883333333333334
2026-01-20T23:05:54+00:00,SAT-52451,40.03535439371142,46.86365428996782,723.8837475498723,4.147919099614044,-145277.67254887868,10.5,10499854722.327452,47.655,-122.3035,60.0,5.9
2026-01-20T23:05:55+00:00,SAT-52451,40.407229698111855,46.46410053970186,728.0205466507931,4.191177287995956,-146792.75728796865,10.5,10499853207.242712,47.655,-122.3035,60.0,5.916666666666667
2026-01-20T23:05:56+00:00,SAT-52451,40.769627023248354,46.0675577049102,732.2004879708626,4.233693991399541,-148281.87208663928,10.5,10499851718.127913,47.655,-122.3035,60.0,5.933333333333334
2026-01-20T23:05:57+00:00,SAT-52451,41.122880920756614,45.67406858009346,736.4228320129206,4.275478614527412,-149745.3463373579,10.5,10499850254.653662,47.655,-122.3035,60.0,5.95
2026-01-20T23:05:58+00:00,SAT-52451,41.46731181149946,45.28367077014848,740.6868486592988,4.316540785966077,-151183.51727395295,10.5,10499848816.482725,47.655,-122.3035,60.0,5.966666666666667
2026-01-20T23:05:59+00:00,SAT-52451,41.80322663325638,44.89639699129319,744.9918173951,4.3568902139703205,-152596.72492057277,10.5,10499847403.27508,47.655,-122.3035,60.0,5.983333333333333
2026-01-20T23:06:00+00:00,SAT-52451,42.13091945138964,44.51227536806838,749.3370273876575,4.39653670807474,-153985.31284861334,10.5,10499846014.687151,47.655,-122.3035,60.0,6.0
2026-01-20T23:06:01+00:00,SAT-52451,42.45067204711836,44.131329711577976,753.7217775875401,4.4354901926596595,-155349.62865185362,10.5,10499844650.371347,47.655,-122.3035,60.0,6.016666666666667
2026-01-20T23:06:02+00:00,SAT-52451,42.76275448272314,43.753579780857436,758.1453768430908,4.473760659576911,-156690.02228721033,10.5,10499843309.977713,47.655,-122.3035,60.0,6.033333333333333
2026-01-20T23:06:03+00:00,SAT-52451,43.06742563928022,43.379041533472424,762.6071439677182,4.511358133507928,-158006.84486143157,10.5,10499841993.155138,47.655,-122.3035,60.0,6.05
2026-01-20T23:06:04+00:00,SAT-52451,43.364933729110746,43.00772736468941,767.1064077726376,4.548292712311564,-159300.45004424834,10.5,10499840699.549955,47.655,-122.3035,60.0,6.066666666666666
2026-01-20T23:06:05+00:00,SAT-52451,43.65551678853036,42.63964632970039,771.6425071398518,4.584574469976862,-160571.19066936985,10.5,10499839428.80933,47.655,-122.3035,60.0,6.083333333333333
2026-01-20T23:06:06+00:00,SAT-52451,43.939403142445414,42.27480436092615,776.214790998346,4.620213569353691,-161819.4226827873,10.5,10499838180.577316,47.655,-122.3035,60.0,6.1
2026-01-20T23:06:07+00:00,SAT-52451,44.216811855258065,41.9132044639514,780.8226184127096,4.65522007515875,-163045.49859345323,10.5,10499836954.501406,47.655,-122.3035,60.0,6.116666666666666
2026-01-20T23:06:08+00:00,SAT-52451,44.48795314962464,41.5548469167318,785.4653584852674,4.689604125045268,-164249.77346486584,10.5,10499835750.226536,47.655,-122.3035,60.0,6.133333333333334
2026-01-20T23:06:09+00:00,SAT-52451,44.75302881654576,41.19972944417499,790.1423904288187,4.72337576956725,-165432.59930994036,10.5,10499834567.40069,47.655,-122.3035,60.0,6.15
2026-01-20T23:06:10+00:00,SAT-52451,45.012232596927625,40.84784739472435,794.8531034797735,4.756545093370475,-166594.32933562988,10.5,10499833405.670664,47.655,-122.3035,60.0,6.166666666666667
2026-01-20T23:06:11+00:00,SAT-52451,45.2657505523996,40.49919389772706,799.5968969321518,4.789122055873715,-167735.3123629081,10.5,10499832264.687637,47.655,-122.3035,60.0,6.183333333333334
2026-01-20T23:06:12+00:00,SAT-52451,45.51376140982727,40.1537600232559,804.3731800126925,4.821116624106078,-168855.8974792949,10.5,10499831144.10252,47.655,-122.3035,60.0,6.2
2026-01-20T23:06:13+00:00,SAT-52451,45.7564368969918,39.81153492306165,809.1813718884438,4.852538675542508,-169956.43063574447,10.5,10499830043.569365,47.655,-122.3035,60.0,6.216666666666667
2026-01-20T23:06:14+00:00,SAT-52451,45.99394205715914,39.47250597019145,814.0209015774473,4.883398047306057,-171037.2563699171,10.5,10499828962.74363,47.655,-122.3035,60.0,6.233333333333333
2026-01-20T23:06:15+00:00,SAT-52451,46.22643555126116,39.13665888701297,818.8912079084972,4.91370443782216,-172098.71436169578,10.5,10499827901.285639,47.655,-122.3035,60.0,6.25
2026-01-20T23:06:16+00:00,SAT-52451,46.454069940901846,38.80397787240037,823.7917393828128,4.943467550998796,-173141.14448298546,10.5,10499826858.855516,47.655,-122.3035,60.0,6.266666666666667
2026-01-20T23:06:17+00:00,SAT-52451,46.67699196488454,38.474445711761135,828.7219541795059,4.972696921982837,-174164.88069496327,10.5,10499825835.119305,47.655,-122.3035,60.0,6.283333333333333
2026-01-20T23:06:18+00:00,SAT-52451,46.89534279420021,38.148043892111716,833.6813199872731,5.001402046840835,-175170.25559004815,10.5,10499824829.74441,47.655,-122.3035,60.0,6.3
2026-01-20T23:06:19+00:00,SAT-52451,47.109258280963815,37.82475270185327,838.66931396542,5.029592280517766,-176157.59681798448,10.5,10499823842.403181,47.655,-122.3035,60.0,6.316666666666666
2026-01-20T23:06:20+00:00,SAT-52451,47.318869190832324,37.50455133118611,843.6854226031173,5.057276925322154,-177127.23018496556,10.5,10499822872.769815,47.655,-122.3035,60.0,6.333333333333333
2026-01-20T23:06:21+00:00,SAT-52451,47.52430142815141,37.187417960946384,848.7291416669069,5.084465116859077,-178079.47565852478,10.5,10499821920.524342,47.655,-122.3035,60.0,6.35
2026-01-20T23:06:22+00:00,SAT-52451,47.72567624556583,36.873329853226586,853.7999760344436,5.111165935207801,-179014.6512614467,10.5,10499820985.348738,47.655,-122.3035,60.0,6.366666666666666
2026-01-20T23:06:23+00:00,SAT-52451,47.923110448206025,36.562263429734955,858.8974396391201,5.137388281803389,-179933.06875964033,10.5,10499820066.93124,47.655,-122.3035,60.0,6.383333333333334
2026-01-20T23:06:24+00:00,SAT-52451,48.11671658322422,36.25419435286202,864.0210552918995,5.1631410365522115,-180835.03916498867,10.5,10499819164.960835,47.655,-122.3035,60.0,6.4
2026-01-20T23:06:25+00:00,SAT-52451,48.30660312640497,35.949097592520054,869.1703546598462,5.188432860340784,-181720.86581837304,10.5,10499818279.134182,47.655,-122.3035,60.0,6.416666666666667
2026-01-20T23:06:26+00:00,SAT-52451,48.492874652369686,35.64694750049613,874.3448780476923,5.213272348451821,-182590.84976295207,10.5,10499817409.150236,47.655,-122.3035,60.0,6.433333333333334
2026-01-20T23:06:27+00:00,SAT-52451,48.67563200248377,35.347717871377114,879.5441743324093,5.237667952256333,-183445.2870014879,10.5,10499816554.713,47.655,-122.3035,60.0,6.45
2026-01-20T23:06:28+00:00,SAT-52451,48.854972441969664,35.051382004226454,884.7678008196838,5.261628037561836,-184284.47053994695,10.5,10499815715.52946,47.655,-122.3035,60.0,6.466666666666667
2026-01-20T23:06:29+00:00,SAT-52451,49.030989811567935,34.75791275720057,890.0153231585812,5.285160769294861,-185108.686348594,10.5,10499814891.313652,47.655,-122.3035,60.0,6.483333333333333
2026-01-20T23:06:30+00:00,SAT-52451,49.20377466816022,34.46728260513447,895.286315141206,5.30827426092825,-185918.21859556792,10.5,10499814081.781404,47.655,-122.3035,60.0,6.5
2026-01-20T23:06:31+00:00,SAT-52451,49.37341442382314,34.17946368541585,900.5803586513825,5.330976467811407,-186713.345910856,10.5,10499813286.654089,47.655,-122.3035,60.0,6.516666666666667
2026-01-20T23:06:32+00:00,SAT-52451,49.539993474789576,33.8944278467312,905.8970435069587,5.353275189258078,-187494.3414594166,10.5,10499812505.65854,47.655,-122.3035,60.0,6.533333333333333
2026-01-20T23:06:33+00:00,SAT-52451,49.70359332449182,33.61214669461008,911.2359673041861,5.375178161196575,-188261.47618618223,10.5,10499811738.523813,47.655,-122.3035,60.0,6.55
2026-01-20T23:06:34+00:00,SAT-52451,49.86429270384859,33.332591629269416,916.596735354507,5.396692916897887,-189015.01393816856,10.5,10499810984.986061,47.655,-122.3035,60.0,6.566666666666666
2026-01-20T23:06:35+00:00,SAT-52451,50.022167681541326,33.05573388820272,921.9789604824387,5.417826927079273,-189755.2163714951,10.5,10499810244.783628,47.655,-122.3035,60.0,6.583333333333333
2026-01-20T23:06:36+00:00,SAT-52451,50.17729177358347,32.78154457892933,927.3822629631863,5.438587510504857,-190482.3398202399,10.5,10499809517.66018,47.655,-122.3035,60.0,6.6
2026-01-20T23:06:37+00:00,SAT-52451,50.32973604501462,32.509994714110746,932.8062703711006,5.4589818219473,-191196.63487480613,10.5,10499808803.365126,47.655,-122.3035,60.0,6.616666666666666
2026-01-20T23:06:38+00:00,SAT-52451,50.4795692067123,32.241055244952356,938.2506174161229,5.479016930503573,-191898.34912487198,10.5,10499808101.650875,47.655,-122.3035,60.0,6.633333333333334
2026-01-20T23:06:39+00:00,SAT-52451,50.62685770998034,31.974697088598166,943.7149458583399,5.49869980351603,-192587.7265962385,10.5,10499807412.273403,47.655,-122.3035,60.0,6.65
2026-01-20T23:06:40+00:00,SAT-52451,50.77166583632934,31.710891154503912,949.1989044065033,5.518037221398579,-193265.00476768194,10.5,10499806734.995232,47.655,-122.3035,60.0,6.666666666666667
2026-01-20T23:06:41+00:00,SAT-52451,50.914055780833465,31.44960837305974,954.7021485316005,5.537035858586577,-193930.41740616123,10.5,10499806069.582594,47.655,-122.3035,60.0,6.683333333333334
2026-01-20T23:06:42+00:00,SAT-52451,51.05408773396598,31.190819718492087,960.224340361161,5.555702305041752,-194584.19532001167,10.5,10499805415.80468,47.655,-122.3035,60.0,6.7
2026-01-20T23:06:43+00:00,SAT-52451,51.191819960289415,30.934496229216638,965.7651485950098,5.5740429850705855,-195226.56351562103,10.5,10499804773.436485,47.655,-122.3035,60.0,6.716666666666667
2026-01-20T23:06:44+00:00,SAT-52451,51.327308871457184,30.68060903047165,971.3242483400552,5.592064206293443,-195857.74291253567,10.5,10499804142.257088,47.655,-122.3035,60.0,6.733333333333333
2026-01-20T23:06:45+00:00,SAT-52451,51.4606090972569,30.42912935316584,976.9013209939167,5.609772181680729,-196477.95111526008,10.5,10499803522.048885,47.655,-122.3035,60.0,6.75
2026-01-20T23:06:46+00:00,SAT-52451,51.591773554055166,30.180028550414022,982.4960541505268,5.62717298517806,-197087.4008590624,10.5,10499802912.59914,47.655,-122.3035,60.0,6.766666666666667
