DopplerPredictor/satellites_20260205_234138/SAT-64226.csv

timestamp,satellite,azimuth_deg,elevation_deg,distance_km,relative_velocity_kms,doppler_shift_hz,tx_freq_ghz,rx_freq_hz,ue_lat,ue_lon,ue_alt_m,time_minutes
2026-01-20T23:14:06+00:00,SAT-64226,329.3953800962225,30.07082021174893,863.2481470425971,-2.6493515431939336,92791.49778856778,10.5,10500092791.49779,47.655,-122.3035,60.0,14.1
2026-01-20T23:14:07+00:00,SAT-64226,329.89965040456207,30.20032577341228,860.6058980452799,-2.599932336554641,91060.62812902295,10.5,10500091060.62813,47.655,-122.3035,60.0,14.116666666666667
2026-01-20T23:14:08+00:00,SAT-64226,330.40829667797317,30.328277417835686,858.0129357685287,-2.550060867065453,89313.91831140479,10.5,10500089313.918312,47.655,-122.3035,60.0,14.133333333333333
2026-01-20T23:14:09+00:00,SAT-64226,330.9212980583236,30.454614045708862,855.4697112627396,-2.4997404802884398,87551.48551144879,10.5,10500087551.485512,47.655,-122.3035,60.0,14.15
2026-01-20T23:14:10+00:00,SAT-64226,331.43863059088545,30.5792740880236,852.9766722417145,-2.4489748329617806,85773.45780359389,10.5,10500085773.457804,47.655,-122.3035,60.0,14.166666666666666
2026-01-20T23:14:11+00:00,SAT-64226,331.96026714438744,30.702195566673424,850.5342627723214,-2.397767890296912,83979.9740663175,10.5,10500083979.974066,47.655,-122.3035,60.0,14.183333333333334
2026-01-20T23:14:12+00:00,SAT-64226,332.48617733217964,30.82331615785234,848.1429229668465,-2.346123960648657,82171.18519642978,10.5,10500082171.185196,47.655,-122.3035,60.0,14.2
2026-01-20T23:14:13+00:00,SAT-64226,333.0163274431646,30.942573260142,845.8030886407711,-2.2940476767922715,80347.25345331687,10.5,10500080347.253454,47.655,-122.3035,60.0,14.216666666666667
2026-01-20T23:14:14+00:00,SAT-64226,333.5506803717873,31.05990406457068,843.5151909892215,-2.241543975071321,78508.35172861112,10.5,10500078508.351728,47.655,-122.3035,60.0,14.233333333333333
2026-01-20T23:14:15+00:00,SAT-64226,334.0891955462509,31.17524562645326,841.2796562842143,-2.188618151850223,76654.665523398,10.5,10500076654.665524,47.655,-122.3035,60.0,14.25
2026-01-20T23:14:16+00:00,SAT-64226,334.631828873124,31.288534942907816,839.0969055156,-2.1352758309003828,74786.3918059407,10.5,10500074786.391806,47.655,-122.3035,60.0,14.266666666666667
2026-01-20T23:14:17+00:00,SAT-64226,335.1785326790073,31.39970903144569,836.9673540645342,-2.0815229755761284,72903.73943813272,10.5,10500072903.739439,47.655,-122.3035,60.0,14.283333333333333
2026-01-20T23:14:18+00:00,SAT-64226,335.72925565970786,31.50870501182189,834.8914113648053,-2.0273658847508544,71006.92903316458,10.5,10500071006.929033,47.655,-122.3035,60.0,14.3
2026-01-20T23:14:19+00:00,SAT-64226,336.2839428336148,31.615460190209653,832.8694805682148,-1.9728111986066632,69096.19315830142,10.5,10500069096.19316,47.655,-122.3035,60.0,14.316666666666666
2026-01-20T23:14:20+00:00,SAT-64226,336.8425355021838,31.719912146087943,830.9019582041836,-1.917865902890452,67171.77648394926,10.5,10500067171.776484,47.655,-122.3035,60.0,14.333333333333334
2026-01-20T23:14:21+00:00,SAT-64226,337.40497121808164,31.8219988216425,828.9892338351132,-1.862537317708934,65233.93539120923,10.5,10500065233.93539,47.655,-122.3035,60.0,14.35
2026-01-20T23:14:22+00:00,SAT-64226,337.9711837569896,31.921658612698145,827.131689722923,-1.8068331100635013,63282.93841090147,10.5,10500063282.938412,47.655,-122.3035,60.0,14.366666666666667
2026-01-20T23:14:23+00:00,SAT-64226,338.54110310038334,32.01883046228314,825.3297004830847,-1.7507612792082874,61319.065710742514,10.5,10500061319.06571,47.655,-122.3035,60.0,14.383333333333333
2026-01-20T23:14:24+00:00,SAT-64226,339.11465542196925,32.113453955188646,823.5836327532609,-1.6943301663217112,59342.60943408379,10.5,10500059342.609434,47.655,-122.3035,60.0,14.4
2026-01-20T23:14:25+00:00,SAT-64226,339.69176308548447,32.20546941463009,821.8938448522973,-1.6375484497085064,57353.87353186623,10.5,10500057353.873531,47.655,-122.3035,60.0,14.416666666666666
2026-01-20T23:14:26+00:00,SAT-64226,340.27234465030045,32.294818000022616,820.2606864440007,-1.5804251219617202,55353.172962736986,10.5,10500055353.172962,47.655,-122.3035,60.0,14.433333333333334
2026-01-20T23:14:27+00:00,SAT-64226,340.8563148785691,32.38144180464797,818.6844982236925,-1.5229695325282797,53340.835183875555,10.5,10500053340.835184,47.655,-122.3035,60.0,14.45
2026-01-20T23:14:28+00:00,SAT-64226,341.443584767557,32.46528395654629,817.165611562311,-1.4651913222106432,51317.197856964616,10.5,10500051317.197857,47.655,-122.3035,60.0,14.466666666666667
2026-01-20T23:14:29+00:00,SAT-64226,342.03406156924876,32.546288716471295,815.7043482158389,-1.4071004783374883,49282.61078050078,10.5,10500049282.61078,47.655,-122.3035,60.0,14.483333333333333
2026-01-20T23:14:30+00:00,SAT-64226,342.627648841567,32.624401579249046,814.3010199797038,-1.3487072711884676,47237.43366312073,10.5,10500047237.433662,47.655,-122.3035,60.0,14.5
2026-01-20T23:14:31+00:00,SAT-64226,343.224246486607,32.69956937172822,812.9559284065878,-1.2900223033081697,45182.037850784705,10.5,10500045182.037851,47.655,-122.3035,60.0,14.516666666666667
2026-01-20T23:14:32+00:00,SAT-64226,343.82375082107205,32.77174035327844,811.6693644750517,-1.2310564549904022,43116.8044174054,10.5,10500043116.804417,47.655,-122.3035,60.0,14.533333333333333
2026-01-20T23:14:33+00:00,SAT-64226,344.42605463669514,32.84086431277156,810.4416083125311,-1.1718209114514317,41042.12511656992,10.5,10500041042.125116,47.655,-122.3035,60.0,14.55
2026-01-20T23:14:34+00:00,SAT-64226,345.0310472857235,32.906892666296365,809.2729288912321,-1.1123271274745319,38958.40114324218,10.5,10500038958.401144,47.655,-122.3035,60.0,14.566666666666666
2026-01-20T23:14:35+00:00,SAT-64226,345.63861476383147,32.9697785517968,808.1635837592852,-1.052586838921542,36866.043536946454,10.5,10500036866.043537,47.655,-122.3035,60.0,14.583333333333334
2026-01-20T23:14:36+00:00,SAT-64226,346.2486398126862,33.0294769229527,807.1138187604216,-0.9926120387456577,34765.47234163378,10.5,10500034765.472342,47.655,-122.3035,60.0,14.6
2026-01-20T23:14:37+00:00,SAT-64226,346.86100202520157,33.08594463999109,806.1238677775713,-0.9324149761235178,32657.11657528401,10.5,10500032657.116575,47.655,-122.3035,60.0,14.616666666666667
2026-01-20T23:14:38+00:00,SAT-64226,347.47557796535335,33.13914055841457,805.1939524773255,-0.8720081358183039,30541.413507114285,10.5,10500030541.413507,47.655,-122.3035,60.0,14.633333333333333
2026-01-20T23:14:39+00:00,SAT-64226,348.09224129177204,33.18902561422089,804.3242820749822,-0.8114042413451905,28418.808768446404,10.5,10500028418.80877,47.655,-122.3035,60.0,14.65
2026-01-20T23:14:40+00:00,SAT-64226,348.7108629001465,33.23556290664885,803.5150530964343,-0.750616221567454,26289.755182761357,10.5,10500026289.755182,47.655,-122.3035,60.0,14.666666666666666
2026-01-20T23:14:41+00:00,SAT-64226,349.3313110601676,33.278717776074565,802.7664491733719,-0.6896572155316775,24154.712935048596,10.5,10500024154.712934,47.655,-122.3035,60.0,14.683333333333334
2026-01-20T23:14:42+00:00,SAT-64226,349.9534515725828,33.3184578789341,802.0786408336622,-0.6285405550584273,22014.1489620579,10.5,10500022014.148962,47.655,-122.3035,60.0,14.7
2026-01-20T23:14:43+00:00,SAT-64226,350.57714793269696,33.35475325813023,801.4517853090931,-0.5672797453239394,19868.53627218789,10.5,10500019868.536272,47.655,-122.3035,60.0,14.716666666666667
2026-01-20T23:14:44+00:00,SAT-64226,351.20226149644134,33.387576408524716,800.8860263624817,-0.5058884559495009,17718.353633398474,10.5,10500017718.353634,47.655,-122.3035,60.0,14.733333333333333
2026-01-20T23:14:45+00:00,SAT-64226,351.8286516582536,33.416902337866645,800.3814941236702,-0.4443805019157652,15564.084904749456,10.5,10500015564.084906,47.655,-122.3035,60.0,14.75
2026-01-20T23:14:46+00:00,SAT-64226,352.45617603045156,33.442708622328105,799.9383049445551,-0.3827698380123574,13406.2188420022,10.5,10500013406.218842,47.655,-122.3035,60.0,14.766666666666667
2026-01-20T23:14:47+00:00,SAT-64226,353.0846906413612,33.4649754572054,799.5565612596564,-0.3210705286378031,11245.248039885424,10.5,10500011245.24804,47.655,-122.3035,60.0,14.783333333333333
2026-01-20T23:14:48+00:00,SAT-64226,353.7140501194758,33.48368570115688,799.2363514767982,-0.2592967446925276,9081.668823274867,10.5,10500009081.668823,47.655,-122.3035,60.0,14.8
2026-01-20T23:14:49+00:00,SAT-64226,354.34410789923436,33.49882491535801,798.9777498708951,-0.19746274177813325,6915.9804836397825,10.5,10500006915.980484,47.655,-122.3035,60.0,14.816666666666666
2026-01-20T23:14:50+00:00,SAT-64226,354.9747164233121,33.51038139633703,798.7808164994779,-0.1355828450416507,4748.684748224494,10.5,10500004748.684748,47.655,-122.3035,60.0,14.833333333333334
2026-01-20T23:14:51+00:00,SAT-64226,355.60572735032764,33.51834620273409,798.6455971333331,-0.07367143240174555,2580.285192559208,10.5,10500002580.285192,47.655,-122.3035,60.0,14.85
2026-01-20T23:14:52+00:00,SAT-64226,356.2369917633559,33.52271317578106,798.5721232038751,-0.011742918782724798,411.28668826822314,10.5,10500000411.286688,47.655,-122.3035,60.0,14.866666666666667
2026-01-20T23:14:53+00:00,SAT-64226,356.868360384666,33.52347895347359,798.560411766237,0.05018826147190031,-1757.8052128814836,10.5,10499998242.194788,47.655,-122.3035,60.0,14.883333333333333
2026-01-20T23:14:54+00:00,SAT-64226,357.4996837859244,33.52064297826879,798.6104654799058,0.11210767023288942,-3926.484826530689,10.5,10499996073.515173,47.655,-122.3035,60.0,14.9
2026-01-20T23:14:55+00:00,SAT-64226,358.1308126026297,33.51420749839309,798.7222726049456,0.1740008842256307,-6094.2469885920955,10.5,10499993905.753012,47.655,-122.3035,60.0,14.916666666666666
2026-01-20T23:14:56+00:00,SAT-64226,358.7615977537534,33.50417756257535,798.8958070168128,0.23585350819328707,-8260.587516279393,10.5,10499991739.412483,47.655,-122.3035,60.0,14.933333333333334
2026-01-20T23:14:57+00:00,SAT-64226,359.39189064253753,33.49056100855049,799.1310282342982,0.2976511970386607,-10425.003983609013,10.5,10499989574.996016,47.655,-122.3035,60.0,14.95
2026-01-20T23:14:58+00:00,SAT-64226,0.02154338100003339,33.473368444856554,799.4278814695535,0.3593796662193206,-12586.996085481464,10.5,10499987413.003914,47.655,-122.3035,60.0,14.966666666666667
2026-01-20T23:14:59+00:00,SAT-64226,0.6504089880178223,33.452613226685656,799.7862976884823,0.4210247135924124,-14746.066402778986,10.5,10499985253.933598,47.655,-122.3035,60.0,14.983333333333333
