DopplerPredictor/satellites_20260205_234138/SAT-63636.csv

timestamp,satellite,azimuth_deg,elevation_deg,distance_km,relative_velocity_kms,doppler_shift_hz,tx_freq_ghz,rx_freq_hz,ue_lat,ue_lon,ue_alt_m,time_minutes
2026-01-20T23:11:17+00:00,SAT-63636,189.59189793865954,30.065819255090737,862.0106134572179,-2.216808371527859,77642.00626101981,10.5,10500077642.006262,47.655,-122.3035,60.0,11.283333333333333
2026-01-20T23:11:18+00:00,SAT-63636,189.07395658688884,30.17442554279039,859.7997480430148,-2.164792662135238,75820.19609185765,10.5,10500075820.196093,47.655,-122.3035,60.0,11.3
2026-01-20T23:11:19+00:00,SAT-63636,188.5522174241989,30.281089524113852,857.6407588912651,-2.1123806451592078,73984.50555474508,10.5,10500073984.505554,47.655,-122.3035,60.0,11.316666666666666
2026-01-20T23:11:20+00:00,SAT-63636,188.0267264147437,30.38575462899835,855.5340412471071,-2.059578058769539,72135.13562465992,10.5,10500072135.135624,47.655,-122.3035,60.0,11.333333333333334
2026-01-20T23:11:21+00:00,SAT-63636,187.49753271608338,30.488364426780887,853.4799846328916,-2.006390947504983,70272.29800691757,10.5,10500070272.298006,47.655,-122.3035,60.0,11.35
2026-01-20T23:11:22+00:00,SAT-63636,186.96468871425165,30.588862699050896,851.4789725426348,-1.9528256699276936,68396.2154052614,10.5,10500068396.215405,47.655,-122.3035,60.0,11.366666666666667
2026-01-20T23:11:23+00:00,SAT-63636,186.42825005203238,30.68719351479377,849.5313821288382,-1.8988888941440356,66507.12136498235,10.5,10500066507.121365,47.655,-122.3035,60.0,11.383333333333333
2026-01-20T23:11:24+00:00,SAT-63636,185.8882756529584,30.78330130710494,847.637583893773,-1.8445876128424257,64605.2607996078,10.5,10500064605.2608,47.655,-122.3035,60.0,11.4
2026-01-20T23:11:25+00:00,SAT-63636,185.34482773512738,30.877130952333093,845.7979413657674,-1.789929110044195,62690.88882637617,10.5,10500062690.888826,47.655,-122.3035,60.0,11.416666666666666
2026-01-20T23:11:26+00:00,SAT-63636,184.79797182830202,30.968627849065758,844.0128108086569,-1.734920993959493,60764.27191698957,10.5,10500060764.271917,47.655,-122.3035,60.0,11.433333333333334
2026-01-20T23:11:27+00:00,SAT-63636,184.247776774937,31.057738000148937,842.2825408984631,-1.6795711874145833,58825.68756233729,10.5,10500058825.687563,47.655,-122.3035,60.0,11.45
2026-01-20T23:11:28+00:00,SAT-63636,183.6943147260085,31.144408095441648,840.6074724096212,-1.6238878897168139,56875.42293684568,10.5,10500056875.422937,47.655,-122.3035,60.0,11.466666666666667
2026-01-20T23:11:29+00:00,SAT-63636,183.13766114248617,31.22858559363235,838.9879379392405,-1.5678796415484344,54913.77717133418,10.5,10500054913.777172,47.655,-122.3035,60.0,11.483333333333333
2026-01-20T23:11:30+00:00,SAT-63636,182.57789476650805,31.310218808247694,837.4242615666436,-1.5115552513510921,52941.05877468895,10.5,10500052941.058775,47.655,-122.3035,60.0,11.5
2026-01-20T23:11:31+00:00,SAT-63636,182.01509760943796,31.38925699050313,835.9167585863268,-1.4549238385640255,50957.587148247294,10.5,10500050957.587149,47.655,-122.3035,60.0,11.516666666666667
2026-01-20T23:11:32+00:00,SAT-63636,181.4493549159043,31.465650414833018,834.4657351977943,-1.3979948097424346,48963.691749362035,10.5,10500048963.69175,47.655,-122.3035,60.0,11.533333333333333
2026-01-20T23:11:33+00:00,SAT-63636,180.88075512672847,31.539350463403263,833.0714882192136,-1.3407778558171628,46959.71199542388,10.5,10500046959.711996,47.655,-122.3035,60.0,11.55
2026-01-20T23:11:34+00:00,SAT-63636,180.30938983339004,31.610309710479665,831.7343048038003,-1.2832829400404844,44945.996841672,10.5,10500044945.996841,47.655,-122.3035,60.0,11.566666666666666
2026-01-20T23:11:35+00:00,SAT-63636,179.735353727377,31.67848200592241,830.4544621682293,-1.225520305794393,42922.90505467328,10.5,10500042922.905054,47.655,-122.3035,60.0,11.583333333333334
2026-01-20T23:11:36+00:00,SAT-63636,179.15874453555497,31.743822558629002,829.232227313253,-1.1675004609188842,40890.80466343247,10.5,10500040890.804663,47.655,-122.3035,60.0,11.6
2026-01-20T23:11:37+00:00,SAT-63636,178.57966295060424,31.806288018433445,828.0678567599549,-1.1092341708357398,38850.072718558076,10.5,10500038850.072718,47.655,-122.3035,60.0,11.616666666666667
2026-01-20T23:11:38+00:00,SAT-63636,177.99821255353726,31.86583655668503,826.9615962928568,-1.0507324400066407,36801.094642846976,10.5,10500036801.094643,47.655,-122.3035,60.0,11.633333333333333
2026-01-20T23:11:39+00:00,SAT-63636,177.41449973380946,31.922427944623227,825.9136807215208,-0.9920065242330988,34744.26466208012,10.5,10500034744.264662,47.655,-122.3035,60.0,11.65
2026-01-20T23:11:40+00:00,SAT-63636,176.82863359065632,31.976023630956526,824.9243336298822,-0.9330679066810644,32679.984965302814,10.5,10500032679.984964,47.655,-122.3035,60.0,11.666666666666666
2026-01-20T23:11:41+00:00,SAT-63636,176.2407258337849,32.026586816453694,823.9937671494956,-0.8739282888888658,30608.66538988479,10.5,10500030608.66539,47.655,-122.3035,60.0,11.683333333333334
2026-01-20T23:11:42+00:00,SAT-63636,175.65089067681686,32.07408252609293,823.1221817417472,-0.8145995861119165,28530.723258472113,10.5,10500028530.723259,47.655,-122.3035,60.0,11.7
2026-01-20T23:11:43+00:00,SAT-63636,175.05924471915444,32.11847767876699,822.3097659847109,-0.7550939074674586,26446.582683572098,10.5,10500026446.582684,47.655,-122.3035,60.0,11.716666666666667
2026-01-20T23:11:44+00:00,SAT-63636,174.46590682748874,32.15974115347552,821.5566963798063,-0.6954235571639457,24356.67461061155,10.5,10500024356.67461,47.655,-122.3035,60.0,11.733333333333333
2026-01-20T23:11:45+00:00,SAT-63636,173.87099800002318,32.19784385291722,820.8631371572311,-0.6356010069748442,22261.435853852818,10.5,10500022261.435854,47.655,-122.3035,60.0,11.75
2026-01-20T23:11:46+00:00,SAT-63636,173.27464123775886,32.23275876269412,820.2292401088429,-0.5756388983585451,20161.309170642056,10.5,10500020161.30917,47.655,-122.3035,60.0,11.766666666666667
2026-01-20T23:11:47+00:00,SAT-63636,172.6769613964401,32.26446100752085,819.6551444189327,-0.5155500202699971,18056.742484278802,10.5,10500018056.742485,47.655,-122.3035,60.0,11.783333333333333
2026-01-20T23:11:48+00:00,SAT-63636,172.07808504158038,32.29292790291202,819.140976517121,-0.4553473009006101,15948.188594712434,10.5,10500015948.188595,47.655,-122.3035,60.0,11.8
2026-01-20T23:11:49+00:00,SAT-63636,171.47814029282122,32.31813900291864,818.6868499394964,-0.3950437915526972,13836.104613756897,10.5,10500013836.104614,47.655,-122.3035,60.0,11.816666666666666
2026-01-20T23:11:50+00:00,SAT-63636,170.87725666649445,32.34007614329163,818.2928652058328,-0.3346526528607466,11720.951482501401,10.5,10500011720.951483,47.655,-122.3035,60.0,11.833333333333334
2026-01-20T23:11:51+00:00,SAT-63636,170.27556491457742,32.35872348004981,817.9591097105523,-0.2741871441913547,9603.193600051221,10.5,10500009603.1936,47.655,-122.3035,60.0,11.85
2026-01-20T23:11:52+00:00,SAT-63636,169.67319685303312,32.37406752347094,817.6856576242566,-0.21366060491875885,7483.29816771764,10.5,10500007483.298168,47.655,-122.3035,60.0,11.866666666666667
2026-01-20T23:11:53+00:00,SAT-63636,169.07028519380103,32.386097166933666,817.4725698139345,-0.15308644151300518,5361.7347367909915,10.5,10500005361.734737,47.655,-122.3035,60.0,11.883333333333333
2026-01-20T23:11:54+00:00,SAT-63636,168.4669633744358,32.39480371080872,817.3198937760453,-0.09247811461274404,3238.9747557752517,10.5,10500003238.974756,47.655,-122.3035,60.0,11.9
2026-01-20T23:11:55+00:00,SAT-63636,167.8633653759359,32.40018088131803,817.2276635824957,-0.031849121595705625,1115.4909599323844,10.5,10500001115.49096,47.655,-122.3035,60.0,11.916666666666666
2026-01-20T23:11:56+00:00,SAT-63636,167.25962554872007,32.402224844027195,817.1958998440003,0.028787016852277733,-1008.2430991273176,10.5,10499998991.7569,47.655,-122.3035,60.0,11.933333333333334
2026-01-20T23:11:57+00:00,SAT-63636,166.65587843516082,32.40093421214616,817.2246096868329,0.08941677214547855,-3131.7535931058173,10.5,10499996868.246407,47.655,-122.3035,60.0,11.95
2026-01-20T23:11:58+00:00,SAT-63636,166.0522585859391,32.39631004949474,817.3137867449518,0.15002662357341587,-5254.566969529522,10.5,10499994745.433031,47.655,-122.3035,60.0,11.966666666666667
2026-01-20T23:11:59+00:00,SAT-63636,165.4489003813997,32.38835586809889,817.4634111678511,0.21060307135930792,-7376.210409111537,10.5,10499992623.78959,47.655,-122.3035,60.0,11.983333333333333
2026-01-20T23:12:00+00:00,SAT-63636,164.845937855676,32.377077620578135,817.6734496414392,0.27113265187350416,-9496.212358590401,10.5,10499990503.787642,47.655,-122.3035,60.0,12.0
2026-01-20T23:12:01+00:00,SAT-63636,164.24350451872178,32.36248368723424,817.9438554240894,0.3316019575250797,-11614.103227417872,10.5,10499988385.896772,47.655,-122.3035,60.0,12.016666666666667
2026-01-20T23:12:02+00:00,SAT-63636,163.64173317250518,32.34458485764575,818.2745684025275,0.39199764206637894,-13729.41557354648,10.5,10499986270.584427,47.655,-122.3035,60.0,12.033333333333333
2026-01-20T23:12:03+00:00,SAT-63636,163.04075574745335,32.32339430761752,818.6655151530113,0.4523064443985383,-15841.684937199629,10.5,10499984158.315063,47.655,-122.3035,60.0,12.05
2026-01-20T23:12:04+00:00,SAT-63636,162.44070312435136,32.298927570588326,819.1166090262503,0.512515195695075,-17950.450090369814,10.5,10499982049.54991,47.655,-122.3035,60.0,12.066666666666666
2026-01-20T23:12:05+00:00,SAT-63636,161.84170497142273,32.27120250450396,819.6277502394333,0.5726108386033202,-20055.253709334018,10.5,10499979944.74629,47.655,-122.3035,60.0,12.083333333333334
2026-01-20T23:12:06+00:00,SAT-63636,161.24388957784515,32.24023925362899,820.1988259873985,0.6325804401693362,-22155.642827339005,10.5,10499977844.357172,47.655,-122.3035,60.0,12.1
2026-01-20T23:12:07+00:00,SAT-63636,160.64738369448682,32.20606020578754,820.8297105667037,0.692411201514929,-24251.169173531223,10.5,10499975748.830826,47.655,-122.3035,60.0,12.116666666666667
2026-01-20T23:12:08+00:00,SAT-63636,160.05231238201756,32.16868994537283,821.5202655093402,0.7520904721882508,-26341.389675575603,10.5,10499973658.610325,47.655,-122.3035,60.0,12.133333333333333
2026-01-20T23:12:09+00:00,SAT-63636,159.45879886301262,32.12815520204316,822.2703397307611,0.8116057723469567,-28425.86723660355,10.5,10499971574.132763,47.655,-122.3035,60.0,12.15
2026-01-20T23:12:10+00:00,SAT-63636,158.86696437300188,32.08448479488068,823.0797697000341,0.8709447892056225,-30504.170610786463,10.5,10499969495.82939,47.655,-122.3035,60.0,12.166666666666666
2026-01-20T23:12:11+00:00,SAT-63636,158.27692803002137,32.037709573605845,823.9483796064503,0.930095399283445,-32575.875182544358,10.5,10499967424.124817,47.655,-122.3035,60.0,12.183333333333334
2026-01-20T23:12:12+00:00,SAT-63636,157.68880670218937,31.98786235566456,824.8759815483214,0.9890456810370611,-34640.56340900058,10.5,10499965359.43659,47.655,-122.3035,60.0,12.2
2026-01-20T23:12:13+00:00,SAT-63636,157.10271488243768,31.934977859940794,825.8623757343757,1.0477839161027656,-36697.82486348952,10.5,10499963302.175137,47.655,-122.3035,60.0,12.216666666666667
2026-01-20T23:12:14+00:00,SAT-63636,156.5187645758047,31.879092637934384,826.9073506863939,1.1062986134795103,-38747.257082547614,10.5,10499961252.742918,47.655,-122.3035,60.0,12.233333333333333
2026-01-20T23:12:15+00:00,SAT-63636,155.9370651863485,31.82024500141371,828.0106834659597,1.164578503608274,-40788.46535854774,10.5,10499959211.534641,47.655,-122.3035,60.0,12.25
2026-01-20T23:12:16+00:00,SAT-63636,155.35772342013692,31.758474948400448,829.1721398953117,1.2226125663250382,-42821.06371873071,10.5,10499957178.936281,47.655,-122.3035,60.0,12.266666666666667
2026-01-20T23:12:17+00:00,SAT-63636,154.7808431864579,31.693824085925147,830.3914748060669,1.2803900228304042,-44844.67464394733,10.5,10499955155.325356,47.655,-122.3035,60.0,12.283333333333333
2026-01-20T23:12:18+00:00,SAT-63636,154.20652551532137,31.626335551726957,831.66843227994,1.3379003544096182,-46858.92972431278,10.5,10499953141.070276,47.655,-122.3035,60.0,12.3
2026-01-20T23:12:19+00:00,SAT-63636,153.63486847777773,31.556053933714416,833.0027459081298,1.3951333018675547,-48863.46963941743,10.5,10499951136.530361,47.655,-122.3035,60.0,12.316666666666666
2026-01-20T23:12:20+00:00,SAT-63636,153.0659671177157,31.483025188473533,834.3941390501434,1.4520788853557693,-50857.94485275404,10.5,10499949142.055147,47.655,-122.3035,60.0,12.333333333333334
2026-01-20T23:12:21+00:00,SAT-63636,152.49991338651873,31.40729655797971,835.8423251123946,1.508727395107524,-52842.01528721914,10.5,10499947157.984713,47.655,-122.3035,60.0,12.35
2026-01-20T23:12:22+00:00,SAT-63636,151.936796091787,31.328916486303164,837.3470078175602,1.565069421456042,-54815.351376479404,10.5,10499945184.648624,47.655,-122.3035,60.0,12.366666666666667
2026-01-20T23:12:23+00:00,SAT-63636,151.37670084528202,31.247934534486173,838.907881503877,1.621095813471264,-56777.63261625572,10.5,10499943222.367384,47.655,-122.3035,60.0,12.383333333333333
2026-01-20T23:12:24+00:00,SAT-63636,150.8197100348857,31.164401297530134,840.5246313831833,1.6767977542012762,-58728.55019959641,10.5,10499941271.4498,47.655,-122.3035,60.0,12.4
2026-01-20T23:12:25+00:00,SAT-63636,150.26590277988328,31.078368317689435,842.1969338740038,1.7321666928015922,-60667.804639757545,10.5,10499939332.19536,47.655,-122.3035,60.0,12.416666666666666
2026-01-20T23:12:26+00:00,SAT-63636,149.71535491833848,30.98988800168065,843.9244568669412,1.7871943982713905,-62595.10765227323,10.5,10499937404.892347,47.655,-122.3035,60.0,12.433333333333334
2026-01-20T23:12:27+00:00,SAT-63636,149.16813898490855,30.8990135357412,845.7068600436636,1.841872942186494,-64510.18155019159,10.5,10499935489.818449,47.655,-122.3035,60.0,12.45
2026-01-20T23:12:28+00:00,SAT-63636,148.62432420259427,30.805798802406333,847.5437951786705,1.8961947017321692,-66412.75935029618,10.5,10499933587.24065,47.655,-122.3035,60.0,12.466666666666667
2026-01-20T23:12:29+00:00,SAT-63636,148.08397648111986,30.7102982981299,849.4349064440822,1.950152366346958,-68302.58500580111,10.5,10499931697.414993,47.655,-122.3035,60.0,12.483333333333333
2026-01-20T23:12:30+00:00,SAT-63636,147.54715842039678,30.612567051760685,851.379830721056,2.00373893072284,-70179.41316118705,10.5,10499929820.58684,47.655,-122.3035,60.0,12.5
2026-01-20T23:12:31+00:00,SAT-63636,147.01392932280334,30.51266054471595,853.3781979042216,2.0569477098707702,-72043.00967986022,10.5,10499927956.99032,47.655,-122.3035,60.0,12.516666666666667
2026-01-20T23:12:32+00:00,SAT-63636,146.48434520763308,30.410634631912043,855.4296312211411,2.109772331981846,-73893.15139412007,10.5,10499926106.848606,47.655,-122.3035,60.0,12.533333333333333
2026-01-20T23:12:33+00:00,SAT-63636,145.95845883359922,30.30654546470451,857.5337475446494,2.162206726261413,-75729.62567905842,10.5,10499924270.374321,47.655,-122.3035,60.0,12.55
2026-01-20T23:12:34+00:00,SAT-63636,145.43631972961154,30.20044941620631,859.6901576930624,2.2142451486199564,-77552.23135236291,10.5,10499922447.768648,47.655,-122.3035,60.0,12.566666666666666
2026-01-20T23:12:35+00:00,SAT-63636,144.91797422437307,30.092403007236285,861.8984667560047,2.2658821481383464,-79360.77749978834,10.5,10499920639.2225,47.655,-122.3035,60.0,12.583333333333334
