DopplerPredictor/satellites_20260205_234138/SAT-53014.csv

timestamp,satellite,azimuth_deg,elevation_deg,distance_km,relative_velocity_kms,doppler_shift_hz,tx_freq_ghz,rx_freq_hz,ue_lat,ue_lon,ue_alt_m,time_minutes
2026-01-20T23:01:15+00:00,SAT-53014,207.11767174968261,30.10729182217142,981.4438232243282,-5.191976261682908,181844.97072194703,10.5,10500181844.970722,47.655,-122.3035,60.0,1.25
2026-01-20T23:01:16+00:00,SAT-53014,206.89465418459545,30.338349701466605,976.26576593451,-5.169142458663732,181045.2343533245,10.5,10500181045.234354,47.655,-122.3035,60.0,1.2666666666666666
2026-01-20T23:01:17+00:00,SAT-53014,206.66815021970794,30.571107306437646,971.1104812334364,-5.145937285166903,180232.49101967897,10.5,10500180232.49102,47.655,-122.3035,60.0,1.2833333333333334
2026-01-20T23:01:18+00:00,SAT-53014,206.4380854443719,30.805569542791705,965.9783394959917,-5.1223545320250246,179406.52324970346,10.5,10500179406.52325,47.655,-122.3035,60.0,1.3
2026-01-20T23:01:19+00:00,SAT-53014,206.20438357307287,31.041740626334946,960.8697172895821,-5.098387906785929,178567.1106551061,10.5,10500178567.110655,47.655,-122.3035,60.0,1.3166666666666667
2026-01-20T23:01:20+00:00,SAT-53014,205.96696639804597,31.27962403946621,955.7849974571967,-5.074031034978152,177714.02997493217,10.5,10500177714.029974,47.655,-122.3035,60.0,1.3333333333333333
2026-01-20T23:01:21+00:00,SAT-53014,205.72575374123244,31.51922248570347,950.7245691992072,-5.049277487791621,176847.05604505911,10.5,10500176847.056046,47.655,-122.3035,60.0,1.35
2026-01-20T23:01:22+00:00,SAT-53014,205.48066340415554,31.76053784342651,945.6888281275598,-5.024120740712769,175965.96034942305,10.5,10500175965.96035,47.655,-122.3035,60.0,1.3666666666666667
2026-01-20T23:01:23+00:00,SAT-53014,205.2316111193602,32.00357111550667,940.6781763612242,-4.998554244345459,175070.51350046744,10.5,10500175070.5135,47.655,-122.3035,60.0,1.3833333333333333
2026-01-20T23:01:24+00:00,SAT-53014,204.97851049754917,32.24832238010035,935.6930225510076,-4.972571340676568,174160.48230640934,10.5,10500174160.482306,47.655,-122.3035,60.0,1.4
2026-01-20T23:01:25+00:00,SAT-53014,204.72127297878657,32.49479073509863,930.7337819878805,-4.946165334334887,173235.63226702757,10.5,10500173235.632267,47.655,-122.3035,60.0,1.4166666666666667
2026-01-20T23:01:26+00:00,SAT-53014,204.45980777948185,32.74297424362571,925.8008766402361,-4.919329435890556,172295.72558776924,10.5,10500172295.725588,47.655,-122.3035,60.0,1.4333333333333333
2026-01-20T23:01:27+00:00,SAT-53014,204.19402184233763,32.9928698742505,920.8947352476958,-4.89205688165632,171340.52537569628,10.5,10500171340.525375,47.655,-122.3035,60.0,1.45
2026-01-20T23:01:28+00:00,SAT-53014,203.92381977925052,33.24447344471266,916.0157932954354,-4.864340724710097,170369.7883202119,10.5,10500170369.78832,47.655,-122.3035,60.0,1.4666666666666666
2026-01-20T23:01:29+00:00,SAT-53014,203.6491038263603,33.4977795523726,911.1644931969296,-4.836174087805463,169383.27355105567,10.5,10500169383.273552,47.655,-122.3035,60.0,1.4833333333333334
2026-01-20T23:01:30+00:00,SAT-53014,203.3697737844375,33.7527815148574,906.3412842244613,-4.807549971850562,168380.73593042456,10.5,10500168380.73593,47.655,-122.3035,60.0,1.5
2026-01-20T23:01:31+00:00,SAT-53014,203.08572697096167,34.00947129807977,901.5466226306435,-4.778461380045479,167361.93040078925,10.5,10500167361.9304,47.655,-122.3035,60.0,1.5166666666666666
2026-01-20T23:01:32+00:00,SAT-53014,202.79685816511326,34.26783944782801,896.78097164613,-4.748901223983688,166326.60869616913,10.5,10500166326.608696,47.655,-122.3035,60.0,1.5333333333333334
2026-01-20T23:01:33+00:00,SAT-53014,202.5030595594611,34.52787501339985,892.0448015709796,-4.718862457990287,165274.5240472261,10.5,10500165274.524048,47.655,-122.3035,60.0,1.55
2026-01-20T23:01:34+00:00,SAT-53014,202.20422070383327,34.78956547546749,887.3385897320363,-4.688337914814679,164205.42542652666,10.5,10500164205.425426,47.655,-122.3035,60.0,1.5666666666666667
2026-01-20T23:01:35+00:00,SAT-53014,201.90022846124802,35.05289666185952,882.6628206041806,-4.657320503515844,163119.06447932177,10.5,10500163119.06448,47.655,-122.3035,60.0,1.5833333333333333
2026-01-20T23:01:36+00:00,SAT-53014,201.59096695192375,35.31785267108486,878.0179857342243,-4.62580301181974,162015.18860126653,10.5,10500162015.1886,47.655,-122.3035,60.0,1.6
2026-01-20T23:01:37+00:00,SAT-53014,201.27631751273032,35.58441578156592,873.4045838619187,-4.593778294886103,160893.5475498322,10.5,10500160893.54755,47.655,-122.3035,60.0,1.6166666666666667
2026-01-20T23:01:38+00:00,SAT-53014,200.9561586455264,35.85256636818184,868.8231208526997,-4.561239178284582,159753.89004612024,10.5,10500159753.890047,47.655,-122.3035,60.0,1.6333333333333333
2026-01-20T23:01:39+00:00,SAT-53014,200.6303659747104,36.1222828100051,864.2741097272011,-4.528178477631608,158595.96446262795,10.5,10500158595.964462,47.655,-122.3035,60.0,1.65
2026-01-20T23:01:40+00:00,SAT-53014,200.2988122063017,36.39354139567618,859.7580706711794,-4.4945890095939625,157419.51920864068,10.5,10500157419.519209,47.655,-122.3035,60.0,1.6666666666666667
2026-01-20T23:01:41+00:00,SAT-53014,199.96136708976383,36.66631622591704,855.2755310344669,-4.460463660614466,156224.30513729565,10.5,10500156224.305138,47.655,-122.3035,60.0,1.6833333333333333
2026-01-20T23:01:42+00:00,SAT-53014,199.61789737788266,36.94057911672917,850.8270252613827,-4.42579526913128,155010.07142040393,10.5,10500155010.07142,47.655,-122.3035,60.0,1.7
2026-01-20T23:01:43+00:00,SAT-53014,199.26826680055697,37.21629949192258,846.4130949386081,-4.390576745019968,153776.56973181645,10.5,10500153776.569733,47.655,-122.3035,60.0,1.7166666666666666
2026-01-20T23:01:44+00:00,SAT-53014,198.91233603388287,37.4934442793082,842.0342887239422,-4.354801050828368,152523.5535901903,10.5,10500152523.55359,47.655,-122.3035,60.0,1.7333333333333334
2026-01-20T23:01:45+00:00,SAT-53014,198.54996267612893,37.77197780229355,837.6911622937685,-4.318461182043826,151250.7776678631,10.5,10500151250.777668,47.655,-122.3035,60.0,1.75
2026-01-20T23:01:46+00:00,SAT-53014,198.18100123152598,38.051861666680544,833.3842783102061,-4.281550191682766,149957.99865208432,10.5,10500149957.998652,47.655,-122.3035,60.0,1.7666666666666666
2026-01-20T23:01:47+00:00,SAT-53014,197.8053030991892,38.33305464545255,829.1142063637337,-4.24406121229724,148644.97601577762,10.5,10500148644.976015,47.655,-122.3035,60.0,1.7833333333333334
2026-01-20T23:01:48+00:00,SAT-53014,197.42271656755463,38.615512561509014,824.8815228938657,-4.205987473062935,147311.472616035,10.5,10500147311.472616,47.655,-122.3035,60.0,1.8
2026-01-20T23:01:49+00:00,SAT-53014,197.0330868158722,38.89918816815138,820.6868110927921,-4.16732226163842,145957.25335826632,10.5,10500145957.253359,47.655,-122.3035,60.0,1.8166666666666667
2026-01-20T23:01:50+00:00,SAT-53014,196.63625592889872,39.18403102365958,816.5306608470466,-4.128059010456158,144582.08821847566,10.5,10500144582.088219,47.655,-122.3035,60.0,1.8333333333333333
2026-01-20T23:01:51+00:00,SAT-53014,196.23206291381624,39.46998736842515,812.4136685931253,-4.088191232054981,143185.749978331,10.5,10500143185.749979,47.655,-122.3035,60.0,1.85
2026-01-20T23:01:52+00:00,SAT-53014,195.82034373503842,39.75699999459285,808.336437237593,-4.047712621491694,141768.01781205178,10.5,10500141768.017813,47.655,-122.3035,60.0,1.8666666666666667
2026-01-20T23:01:53+00:00,SAT-53014,195.40093135146643,40.045008119847495,804.2995759750553,-4.006616966691122,140328.6741464883,10.5,10500140328.674147,47.655,-122.3035,60.0,1.8833333333333333
2026-01-20T23:01:54+00:00,SAT-53014,194.97365577692818,40.33394725219366,800.3037001955388,-3.9648982280150245,138867.50744796175,10.5,10500138867.507448,47.655,-122.3035,60.0,1.9
2026-01-20T23:01:55+00:00,SAT-53014,194.53834414788736,40.6237490577178,796.3494313125173,-3.9225505652245505,137384.31316660336,10.5,10500137384.313166,47.655,-122.3035,60.0,1.9166666666666667
2026-01-20T23:01:56+00:00,SAT-53014,194.09482080435814,40.91434122813822,792.4373965640461,-3.879568291806657,135878.89213667242,10.5,10500135878.892138,47.655,-122.3035,60.0,1.9333333333333333
2026-01-20T23:01:57+00:00,SAT-53014,193.64290739456064,41.20564734303554,788.5682288594492,-3.835945940935824,134351.05288681464,10.5,10500134351.052887,47.655,-122.3035,60.0,1.95
2026-01-20T23:01:58+00:00,SAT-53014,193.1824229916227,41.49758673526705,784.7425665602207,-3.7916782638576647,132800.6115834491,10.5,10500132800.611584,47.655,-122.3035,60.0,1.9666666666666666
2026-01-20T23:01:59+00:00,SAT-53014,192.7131842320709,41.79007435506514,780.9610532625368,-3.7467602308038424,131227.3920628128,10.5,10500131227.392063,47.655,-122.3035,60.0,1.9833333333333334
2026-01-20T23:02:00+00:00,SAT-53014,192.23500547757087,42.08302063335398,777.2243375788587,-3.701187091825221,129631.22796159475,10.5,10500129631.227962,47.655,-122.3035,60.0,2.0
2026-01-20T23:02:01+00:00,SAT-53014,191.74769899394624,42.3763313494577,773.533072858863,-3.654954352162134,128011.96185429857,10.5,10500128011.961855,47.655,-122.3035,60.0,2.0166666666666666
2026-01-20T23:02:02+00:00,SAT-53014,191.25107516041808,42.669907497189726,769.8879169349356,-3.608057775485937,126369.44536677549,10.5,10500126369.445366,47.655,-122.3035,60.0,2.033333333333333
2026-01-20T23:02:03+00:00,SAT-53014,190.74494270827535,42.96364515191367,766.2895318644336,-3.560493472246535,124703.54227052843,10.5,10500124703.54227,47.655,-122.3035,60.0,2.05
2026-01-20T23:02:04+00:00,SAT-53014,190.22910897804942,43.257435346239085,762.7385835838381,-3.512257858661843,123014.12704634936,10.5,10500123014.127047,47.655,-122.3035,60.0,2.066666666666667
2026-01-20T23:02:05+00:00,SAT-53014,189.70338021601682,43.55116394475908,759.2357416038036,-3.4633476764686044,121301.08557607658,10.5,10500121301.085577,47.655,-122.3035,60.0,2.0833333333333335
2026-01-20T23:02:06+00:00,SAT-53014,189.1675619039698,43.84471152340184,755.7816786845138,-3.413760052471641,119564.31722826141,10.5,10500119564.317228,47.655,-122.3035,60.0,2.1
2026-01-20T23:02:07+00:00,SAT-53014,188.62145911775463,44.13795325775555,752.3770704516439,-3.3634924594684934,117803.73348958358,10.5,10500117803.73349,47.655,-122.3035,60.0,2.1166666666666667
2026-01-20T23:02:08+00:00,SAT-53014,188.06487693269526,44.43075881303885,749.0225950512971,-3.3125427984225775,116019.26084290307,10.5,10500116019.260843,47.655,-122.3035,60.0,2.1333333333333333
2026-01-20T23:02:09+00:00,SAT-53014,187.49762085839612,44.722992247104756,745.7189327229864,-3.260909355508967,114210.83926282145,10.5,10500114210.839262,47.655,-122.3035,60.0,2.15
2026-01-20T23:02:10+00:00,SAT-53014,186.91949732616084,45.014511916878654,742.4667654154541,-3.208590895904056,112378.42550059277,10.5,10500112378.4255,47.655,-122.3035,60.0,2.1666666666666665
2026-01-20T23:02:11+00:00,SAT-53014,186.33031420726502,45.30517040145834,739.2667763089565,-3.1555865848874958,110521.99032077954,10.5,10500110521.99032,47.655,-122.3035,60.0,2.183333333333333
2026-01-20T23:02:12+00:00,SAT-53014,185.72988139585075,45.59481442785754,736.1196494162322,-3.10189609965537,108641.52241742314,10.5,10500108641.522417,47.655,-122.3035,60.0,2.2
2026-01-20T23:02:13+00:00,SAT-53014,185.11801142314457,45.88328481786668,733.0260690719582,-3.047519606904778,106737.02762896112,10.5,10500106737.02763,47.655,-122.3035,60.0,2.216666666666667
2026-01-20T23:02:14+00:00,SAT-53014,184.4945201294819,46.17041644559292,729.9867194445617,-2.9924577622838173,104808.52891896327,10.5,10500104808.52892,47.655,-122.3035,60.0,2.2333333333333334
2026-01-20T23:02:15+00:00,SAT-53014,183.8592273933692,46.45603820903783,727.0022840485798,-2.9367117728629735,102856.06856414386,10.5,10500102856.068563,47.655,-122.3035,60.0,2.25
2026-01-20T23:02:16+00:00,SAT-53014,183.21195790497228,46.73997302335675,724.0734451947135,-2.8802834084797264,100879.70855169788,10.5,10500100879.708551,47.655,-122.3035,60.0,2.2666666666666666
2026-01-20T23:02:17+00:00,SAT-53014,182.55254199555173,47.02203783292575,721.2008834285728,-2.823174948312078,98879.52870807984,10.5,10500098879.528708,47.655,-122.3035,60.0,2.283333333333333
2026-01-20T23:02:18+00:00,SAT-53014,181.88081654040545,47.30204363751959,718.385277022699,-2.7653893281484403,96855.6318570183,10.5,10500096855.631857,47.655,-122.3035,60.0,2.3
2026-01-20T23:02:19+00:00,SAT-53014,181.1966258874006,47.57979555418405,715.6273013217157,-2.706930035218544,94808.1401360494,10.5,10500094808.140137,47.655,-122.3035,60.0,2.316666666666667
2026-01-20T23:02:20+00:00,SAT-53014,180.49982287149905,47.85509289206469,712.9276281923651,-2.6478012022674595,92737.19829138705,10.5,10500092737.198292,47.655,-122.3035,60.0,2.3333333333333335
2026-01-20T23:02:21+00:00,SAT-53014,179.79026986650746,48.127729261782385,710.2869253797246,-2.588007572954087,90642.97246603153,10.5,10500090642.972466,47.655,-122.3035,60.0,2.35
2026-01-20T23:02:22+00:00,SAT-53014,179.0678399051114,48.39749270857192,707.7058558979286,-2.5275545526841907,88525.65198015755,10.5,10500088525.65198,47.655,-122.3035,60.0,2.3666666666666667
2026-01-20T23:02:23+00:00,SAT-53014,178.33241784260525,48.66416587986975,705.1850773701975,-2.4664482084373445,86385.44932505312,10.5,10500086385.449326,47.655,-122.3035,60.0,2.3833333333333333
2026-01-20T23:02:24+00:00,SAT-53014,177.5839015748441,48.92752622421909,702.7252413690372,-2.4046952834955277,84222.6006789772,10.5,10500084222.60068,47.655,-122.3035,60.0,2.4
2026-01-20T23:02:25+00:00,SAT-53014,176.82220330308377,49.187346224998066,700.3269927417491,-2.3423031992337076,82037.36596987348,10.5,10500082037.36597,47.655,-122.3035,60.0,2.4166666666666665
2026-01-20T23:02:26+00:00,SAT-53014,176.04725084465542,49.44339366949661,697.9909689341546,-2.2792800705777236,79830.02941677104,10.5,10500079830.029417,47.655,-122.3035,60.0,2.433333333333333
2026-01-20T23:02:27+00:00,SAT-53014,175.2589889801058,49.69543195662471,695.7177992989053,-2.215634746241828,77600.90093907298,10.5,10500077600.90094,47.655,-122.3035,60.0,2.45
2026-01-20T23:02:28+00:00,SAT-53014,174.45738081883997,49.94322044779486,693.5081043636606,-2.1513767455393067,75350.31394339721,10.5,10500075350.313944,47.655,-122.3035,60.0,2.466666666666667
2026-01-20T23:02:29+00:00,SAT-53014,173.64240921415865,50.18651485104457,691.3624951622862,-2.0865163360482435,73078.62804376004,10.5,10500073078.628044,47.655,-122.3035,60.0,2.4833333333333334
2026-01-20T23:02:30+00:00,SAT-53014,172.81407816540363,50.42506765531035,689.2815724885955,-2.021064517297536,70786.22849019145,10.5,10500070786.22849,47.655,-122.3035,60.0,2.5
2026-01-20T23:02:31+00:00,SAT-53014,171.9724142303779,50.65862860565107,687.265926166362,-1.9550329872870327,68473.52499612863,10.5,10500068473.524996,47.655,-122.3035,60.0,2.5166666666666666
2026-01-20T23:02:32+00:00,SAT-53014,171.11746794507513,50.88694521803039,685.3161343527195,-1.888434189075784,66140.95337013359,10.5,10500066140.953371,47.655,-122.3035,60.0,2.533333333333333
2026-01-20T23:02:33+00:00,SAT-53014,170.24931520364885,51.109763343291064,683.4327627951005,-1.821281307048277,63788.97538512095,10.5,10500063788.975386,47.655,-122.3035,60.0,2.55
2026-01-20T23:02:34+00:00,SAT-53014,169.3680586019504,51.32682777477248,681.6163640918999,-1.753588221189776,61418.07717688698,10.5,10500061418.077177,47.655,-122.3035,60.0,2.566666666666667
2026-01-20T23:02:35+00:00,SAT-53014,168.47382875241038,51.53788289408023,679.8674769987357,-1.6853695654725187,59028.771289041055,10.5,10500059028.77129,47.655,-122.3035,60.0,2.5833333333333335
2026-01-20T23:02:36+00:00,SAT-53014,167.5667854986667,51.74267336654644,678.1866256764874,-1.6166406557149322,56621.594146330346,10.5,10500056621.594147,47.655,-122.3035,60.0,2.6
2026-01-20T23:02:37+00:00,SAT-53014,166.64711908138352,51.94094486943502,676.5743190112738,-1.547417543817959,54197.10795422535,10.5,10500054197.107954,47.655,-122.3035,60.0,2.6166666666666667
2026-01-20T23:02:38+00:00,SAT-53014,165.715051164538,52.13244486616638,675.0310498803475,-1.4777169727846868,51755.89912351701,10.5,10500051755.899124,47.655,-122.3035,60.0,2.6333333333333333
2026-01-20T23:02:39+00:00,SAT-53014,164.7708357587078,52.31692341210855,673.557294462842,-1.4075563483358904,49298.577276173,10.5,10500049298.577276,47.655,-122.3035,60.0,2.65
2026-01-20T23:02:40+00:00,SAT-53014,163.81476001499917,52.49413399061709,672.153511578833,-1.3369537748247817,46825.77650322413,10.5,10500046825.776503,47.655,-122.3035,60.0,2.6666666666666665
2026-01-20T23:02:41+00:00,SAT-53014,162.84714482466296,52.66383438368973,670.820141992579,-1.2659279902525977,44338.1530887354,10.5,10500044338.15309,47.655,-122.3035,60.0,2.683333333333333
2026-01-20T23:02:42+00:00,SAT-53014,161.8683452716102,52.82578756020147,669.5576077805703,-1.1944983758471481,41836.385845287194,10.5,10500041836.385845,47.655,-122.3035,60.0,2.7
2026-01-20T23:02:43+00:00,SAT-53014,160.8787508687028,52.979762586043805,668.3663116900279,-1.1226849166103459,39321.174732183,10.5,10500039321.174732,47.655,-122.3035,60.0,2.716666666666667
2026-01-20T23:02:44+00:00,SAT-53014,159.87878559508923,53.12553554431308,667.2466365367486,-1.0505082014704235,36793.240860780585,10.5,10500036793.24086,47.655,-122.3035,60.0,2.7333333333333334
2026-01-20T23:02:45+00:00,SAT-53014,158.8689076828864,53.262890464429255,666.1989446027961,-0.9779893759058101,34253.32483517983,10.5,10500034253.324835,47.655,-122.3035,60.0,2.75
2026-01-20T23:02:46+00:00,SAT-53014,157.84960918284895,53.39162024731299,665.2235770814445,-0.9051501211423008,31702.186023619575,10.5,10500031702.186024,47.655,-122.3035,60.0,2.7666666666666666
2026-01-20T23:02:47+00:00,SAT-53014,156.82141527296088,53.51152758282914,664.3208535428665,-0.8320126348805988,29140.60188347463,10.5,10500029140.601883,47.655,-122.3035,60.0,2.783333333333333
2026-01-20T23:02:48+00:00,SAT-53014,155.78488329529398,53.622425852162934,663.4910714190422,-0.7585995893406156,26569.366491789675,10.5,10500026569.366491,47.655,-122.3035,60.0,2.8
2026-01-20T23:02:49+00:00,SAT-53014,154.7406015401886,53.72414000429183,662.734505530514,-0.6849341041071599,23989.289594220474,10.5,10500023989.289595,47.655,-122.3035,60.0,2.816666666666667
2026-01-20T23:02:50+00:00,SAT-53014,153.68918775983101,53.81650740046479,662.0514076402189,-0.6110397109061161,21401.195371346595,10.5,10500021401.195372,47.655,-122.3035,60.0,2.8333333333333335
2026-01-20T23:02:51+00:00,SAT-53014,152.6312874187121,53.8993786175566,661.4420060424544,-0.536940316431344,18805.921136712223,10.5,10500018805.921137,47.655,-122.3035,60.0,2.85
2026-01-20T23:02:52+00:00,SAT-53014,151.56757169343652,53.97261820203874,660.9065051889137,-0.46266016886989453,16204.316164397613,10.5,10500016204.316164,47.655,-122.3035,60.0,2.8666666666666667
2026-01-20T23:02:53+00:00,SAT-53014,150.49873521962778,54.03610536729927,660.4450853481094,-0.38822381754974156,13597.240275711962,10.5,10500013597.240276,47.655,-122.3035,60.0,2.8833333333333333
2026-01-20T23:02:54+00:00,SAT-53014,149.4254936117746,54.089734625986004,660.0579023050395,-0.31365606855173983,10985.56228453642,10.5,10500010985.562284,47.655,-122.3035,60.0,2.9
2026-01-20T23:02:55+00:00,SAT-53014,148.3485807936291,54.13341634989112,659.7450871051232,-0.23898195611387754,8370.158995780055,10.5,10500008370.158997,47.655,-122.3035,60.0,2.9166666666666665
2026-01-20T23:02:56+00:00,SAT-53014,147.26874609588805,54.16707725331794,659.5067458266541,-0.16422668764520107,5751.913279534909,10.5,10500005751.91328,47.655,-122.3035,60.0,2.933333333333333
2026-01-20T23:02:57+00:00,SAT-53014,146.186751249569,54.190660790756105,659.3429594080951,-0.08941561107726838,3131.7129275857833,10.5,10500003131.712927,47.655,-122.3035,60.0,2.95
2026-01-20T23:02:58+00:00,SAT-53014,145.10336720572917,54.20412746738001,659.2537835079319,-0.014574168038812887,510.4490133889069,10.5,10500000510.449013,47.655,-122.3035,60.0,2.966666666666667
2026-01-20T23:02:59+00:00,SAT-53014,144.01937088409784,54.20745505671333,659.2392484112264,0.060272148499800525,-2110.985591398385,10.5,10499997889.014408,47.655,-122.3035,60.0,2.9833333333333334
2026-01-20T23:03:00+00:00,SAT-53014,142.93554183669877,54.20063872356922,659.2993589784136,0.13509783631161915,-4731.697690913896,10.5,10499995268.302309,47.655,-122.3035,60.0,3.0
2026-01-20T23:03:01+00:00,SAT-53014,141.85265890812045,54.18369105074563,659.4340946360696,0.20987743020912816,-7350.79538657322,10.5,10499992649.204613,47.655,-122.3035,60.0,3.0166666666666666
2026-01-20T23:03:02+00:00,SAT-53014,140.77149687390846,54.156641968674755,659.6434094138514,0.2845855394662509,-9967.389387746489,10.5,10499990032.610613,47.655,-122.3035,60.0,3.033333333333333
2026-01-20T23:03:03+00:00,SAT-53014,139.69282315573494,54.11953858997004,659.9272320187594,0.3591968981121585,-12580.59477326032,10.5,10499987419.405228,47.655,-122.3035,60.0,3.05
2026-01-20T23:03:04+00:00,SAT-53014,138.61739458174426,54.07244494917939,660.2854659595567,0.4336864019048929,-15189.53228637051,10.5,10499984810.467714,47.655,-122.3035,60.0,3.066666666666667
2026-01-20T23:03:05+00:00,SAT-53014,137.54595428196617,54.01544165253684,660.7179897080667,0.5080291493934914,-17793.329772931313,10.5,10499982206.670227,47.655,-122.3035,60.0,3.0833333333333335
2026-01-20T23:03:06+00:00,SAT-53014,136.4792287222741,53.94862544128496,661.2246569014187,0.5822004910616956,-20391.123902616,10.5,10499979608.876097,47.655,-122.3035,60.0,3.1
2026-01-20T23:03:07+00:00,SAT-53014,135.41792489686006,53.87210867249708,661.8052965933076,0.6561760554202071,-22982.06108277805,10.5,10499977017.938917,47.655,-122.3035,60.0,3.1166666666666667
2026-01-20T23:03:08+00:00,SAT-53014,134.362727740809,53.786018726330816,662.4597135312754,0.7299318027177668,-25565.299339640333,10.5,10499974434.70066,47.655,-122.3035,60.0,3.1333333333333333
2026-01-20T23:03:09+00:00,SAT-53014,133.31429773701075,53.69049734260892,663.1876884875609,0.8034440488179563,-28140.009154561656,10.5,10499971859.990845,47.655,-122.3035,60.0,3.15
2026-01-20T23:03:10+00:00,SAT-53014,132.2732687793521,53.585699897830054,663.9889786137593,0.876689517314847,-30705.375289347314,10.5,10499969294.62471,47.655,-122.3035,60.0,3.1666666666666665
2026-01-20T23:03:11+00:00,SAT-53014,131.24024626560515,53.47179462647072,664.8633178474613,0.9496453538532347,-33260.59728780424,10.5,10499966739.402712,47.655,-122.3035,60.0,3.183333333333333
2026-01-20T23:03:12+00:00,SAT-53014,130.2158054728618,53.34896179943507,665.8104173331717,1.0222891785634547,-35804.891312229985,10.5,10499964195.108688,47.655,-122.3035,60.0,3.2
2026-01-20T23:03:13+00:00,SAT-53014,129.20049017578407,53.21739286270443,666.8299658955234,1.0945991122302496,-38337.49105995729,10.5,10499961662.50894,47.655,-122.3035,60.0,3.216666666666667
2026-01-20T23:03:14+00:00,SAT-53014,128.19481153809787,53.07728954771676,667.9216305385887,1.166553784690087,-40857.64805746352,10.5,10499959142.351942,47.655,-122.3035,60.0,3.2333333333333334
2026-01-20T23:03:15+00:00,SAT-53014,127.19924728437424,52.92886296368731,669.0850569535662,1.238132407070406,-43364.634190494755,10.5,10499956635.36581,47.655,-122.3035,60.0,3.25
2026-01-20T23:03:16+00:00,SAT-53014,126.2142410916136,52.772332671446804,670.3198700985156,1.3093147548064357,-45857.7411092429,10.5,10499954142.25889,47.655,-122.3035,60.0,3.2666666666666666
2026-01-20T23:03:17+00:00,SAT-53014,125.24020226611874,52.60792575766323,671.6256747611498,1.380081203772702,-48336.281493823866,10.5,10499951663.718506,47.655,-122.3035,60.0,3.283333333333333
2026-01-20T23:03:18+00:00,SAT-53014,124.27750564409263,52.43587590960306,673.0020561576664,1.450412776481725,-50799.59067235144,10.5,10499949200.409328,47.655,-122.3035,60.0,3.3
2026-01-20T23:03:19+00:00,SAT-53014,123.32649170019663,52.256422495796905,674.4485805776516,1.5202911168916953,-53247.02573859547,10.5,10499946752.974262,47.655,-122.3035,60.0,3.316666666666667
2026-01-20T23:03:20+00:00,SAT-53014,122.38746689200856,52.06980966746934,675.964796003859,1.5896985555504641,-55677.96783359998,10.5,10499944322.032166,47.655,-122.3035,60.0,3.3333333333333335
2026-01-20T23:03:21+00:00,SAT-53014,121.46070416440185,51.87628547486845,677.5502327969604,1.6586180819459728,-58091.821177278296,10.5,10499941908.178823,47.655,-122.3035,60.0,3.35
2026-01-20T23:03:22+00:00,SAT-53014,120.54644365057356,51.67610101474968,679.2044043527179,1.7270333861147151,-60488.01452571735,10.5,10499939511.985474,47.655,-122.3035,60.0,3.3666666666666667
2026-01-20T23:03:23+00:00,SAT-53014,119.64489350904653,51.46950960456851,680.926807800655,1.7949288709172762,-62866.001601118995,10.5,10499937133.9984,47.655,-122.3035,60.0,3.3833333333333333
2026-01-20T23:03:24+00:00,SAT-53014,118.75623089452459,51.25676599055729,682.7169247149697,1.8622896348923956,-65225.26049127679,10.5,10499934774.73951,47.655,-122.3035,60.0,3.4
2026-01-20T23:03:25+00:00,SAT-53014,117.88060305584243,51.038125595998785,684.5742218083468,1.9291014977552448,-67565.29454263346,10.5,10499932434.705458,47.655,-122.3035,60.0,3.4166666666666665
2026-01-20T23:03:26+00:00,SAT-53014,117.01812851940706,50.81384380681059,686.4981516512026,1.9953510216505368,-69885.63310465481,10.5,10499930114.366896,47.655,-122.3035,60.0,3.433333333333333
2026-01-20T23:03:27+00:00,SAT-53014,116.16889834454399,50.58417529675837,688.4881534121225,2.0610254866112356,-72185.83067028983,10.5,10499927814.16933,47.655,-122.3035,60.0,3.45
2026-01-20T23:03:28+00:00,SAT-53014,115.33297745141729,50.34937339875504,690.5436535738256,2.1261128769756157,-74465.46640023867,10.5,10499925534.5336,47.655,-122.3035,60.0,3.466666666666667
2026-01-20T23:03:29+00:00,SAT-53014,114.51040599766016,50.10968952143308,692.6640666355815,2.190601949529243,-76724.14650957314,10.5,10499923275.85349,47.655,-122.3035,60.0,3.4833333333333334
2026-01-20T23:03:30+00:00,SAT-53014,113.70120075837012,49.86537260196462,694.8487958835873,2.254482161964659,-78961.5017620921,10.5,10499921038.498238,47.655,-122.3035,60.0,3.5
2026-01-20T23:03:31+00:00,SAT-53014,112.90535654883261,49.616668610797724,697.0972340899942,2.3177436884393816,-81177.18801522853,10.5,10499918822.811985,47.655,-122.3035,60.0,3.5166666666666666
2026-01-20T23:03:32+00:00,SAT-53014,112.12284764171673,49.36382009767614,699.4087642274534,2.3803774343099606,-83370.88673609858,10.5,10499916629.113264,47.655,-122.3035,60.0,3.533333333333333
2026-01-20T23:03:33+00:00,SAT-53014,111.35362917023345,49.10706577826193,701.7827601983541,2.4423749955717224,-85542.30358090959,10.5,10499914457.696419,47.655,-122.3035,60.0,3.55
2026-01-20T23:03:34+00:00,SAT-53014,110.59763852382636,48.846640166207514,704.2185875236106,2.5037287005270685,-87691.16985436046,10.5,10499912308.830145,47.655,-122.3035,60.0,3.566666666666667
2026-01-20T23:03:35+00:00,SAT-53014,109.85479670298334,48.58277324033348,706.7156040730059,2.5644315318025868,-89817.2397783508,10.5,10499910182.760221,47.655,-122.3035,60.0,3.5833333333333335
2026-01-20T23:03:36+00:00,SAT-53014,109.12500966006127,48.31569015813395,709.2731607177634,2.624477169783799,-91920.29201324968,10.5,10499908079.707987,47.655,-122.3035,60.0,3.6
2026-01-20T23:03:37+00:00,SAT-53014,108.40816958452639,48.04561100080768,711.8906020264329,2.683859962832845,-94000.12861479282,10.5,10499905999.871386,47.655,-122.3035,60.0,3.6166666666666667
2026-01-20T23:03:38+00:00,SAT-53014,107.70415614829942,47.77275055583165,714.5672669310778,2.742574910069238,-96056.57443099184,10.5,10499903943.42557,47.655,-122.3035,60.0,3.6333333333333333
2026-01-20T23:03:39+00:00,SAT-53014,107.01283770374017,47.497318133685184,717.3024893762886,2.8006176408037313,-98089.47638182138,10.5,10499901910.523619,47.655,-122.3035,60.0,3.65
2026-01-20T23:03:40+00:00,SAT-53014,106.33407243033987,47.21951741702918,720.0955989476824,2.857984423747392,-100098.70378175963,10.5,10499899901.296219,47.655,-122.3035,60.0,3.6666666666666665
2026-01-20T23:03:41+00:00,SAT-53014,105.6677094217644,46.939546337333574,722.9459215095918,2.914672127792531,-102084.14696617077,10.5,10499897915.853033,47.655,-122.3035,60.0,3.683333333333333
2026-01-20T23:03:42+00:00,SAT-53014,105.01358972260093,46.657596981786554,725.8527798036345,2.970678205504586,-104045.71671312075,10.5,10499895954.283287,47.655,-122.3035,60.0,3.7
2026-01-20T23:03:43+00:00,SAT-53014,104.37154730828394,46.37385552610253,728.8154940308236,3.026000698301638,-105983.34442478605,10.5,10499894016.655575,47.655,-122.3035,60.0,3.716666666666667
2026-01-20T23:03:44+00:00,SAT-53014,103.74141000339348,46.08850218921728,731.8333824388411,3.080638196457777,-107896.98072660207,10.5,10499892103.019274,47.655,-122.3035,60.0,3.7333333333333334
2026-01-20T23:03:45+00:00,SAT-53014,103.12300034844871,45.80171121228921,734.9057618694223,3.1345898195812283,-109786.59478352487,10.5,10499890213.405216,47.655,-122.3035,60.0,3.75
2026-01-20T23:03:46+00:00,SAT-53014,102.51613641081686,45.51365085807864,738.0319482862707,3.187855225423332,-111652.17460855865,10.5,10499888347.825392,47.655,-122.3035,60.0,3.7666666666666666
2026-01-20T23:03:47+00:00,SAT-53014,101.9206325358537,45.22448342633121,741.2112573117586,3.240434549843811,-113493.7249600856,10.5,10499886506.27504,47.655,-122.3035,60.0,3.783333333333333
2026-01-20T23:03:48+00:00,SAT-53014,101.33630005255824,44.934365289772586,744.4430047037546,3.292328432384135,-115311.26823755326,10.5,10499884688.731762,47.655,-122.3035,60.0,3.8
2026-01-20T23:03:49+00:00,SAT-53014,100.7629479195792,44.643446941230934,747.7265068579526,3.343537951669611,-117104.84221898243,10.5,10499882895.157782,47.655,-122.3035,60.0,3.816666666666667
2026-01-20T23:03:50+00:00,SAT-53014,100.20038332951425,44.35187305847076,751.0610812457819,3.39406465278693,-118874.50101984476,10.5,10499881125.49898,47.655,-122.3035,60.0,3.8333333333333335
2026-01-20T23:03:51+00:00,SAT-53014,99.64841225773046,44.059782577055834,754.4460468796159,3.4439104795742996,-120620.3127215767,10.5,10499879379.687279,47.655,-122.3035,60.0,3.85
2026-01-20T23:03:52+00:00,SAT-53014,99.10683997339699,43.76730877823186,757.8807247104538,3.4930778046875997,-122342.36042462348,10.5,10499877657.639576,47.655,-122.3035,60.0,3.8666666666666667
2026-01-20T23:03:53+00:00,SAT-53014,98.57547149960736,43.47457938201664,761.3644380555918,3.5415693672961934,-124040.74006628289,10.5,10499875959.259933,47.655,-122.3035,60.0,3.8833333333333333
2026-01-20T23:03:54+00:00,SAT-53014,98.05411203898095,43.18171665225215,764.8965129641508,3.589388266346988,-125715.56018478415,10.5,10499874284.439816,47.655,-122.3035,60.0,3.9
2026-01-20T23:03:55+00:00,SAT-53014,97.54256735839597,42.88883750767003,768.4762785758913,3.636537985308634,-127366.94278593444,10.5,10499872633.057215,47.655,-122.3035,60.0,3.9166666666666665
2026-01-20T23:03:56+00:00,SAT-53014,97.0406441312515,42.59605363548792,772.1030675047036,3.6830222993669133,-128995.02009270889,10.5,10499871004.979908,47.655,-122.3035,60.0,3.933333333333333
2026-01-20T23:03:57+00:00,SAT-53014,96.54815025577496,42.303471616204334,775.776216129543,3.7288453030535944,-130599.9355129299,10.5,10499869400.064487,47.655,-122.3035,60.0,3.95
2026-01-20T23:03:58+00:00,SAT-53014,96.06489513456496,42.0111930487563,779.4950649129197,3.7740113864982217,-132181.8428075043,10.5,10499867818.157192,47.655,-122.3035,60.0,3.966666666666667
2026-01-20T23:03:59+00:00,SAT-53014,95.59068992502671,41.71931467954443,783.2589586957042,3.818525225091803,-133740.90572840208,10.5,10499866259.09427,47.655,-122.3035,60.0,3.9833333333333334
2026-01-20T23:04:00+00:00,SAT-53014,95.12534776107326,41.42792853351597,787.0672469816242,3.862391725507273,-135277.2961280646,10.5,10499864722.703873,47.655,-122.3035,60.0,4.0
2026-01-20T23:04:01+00:00,SAT-53014,94.66868395311946,41.137122049964916,790.9192841679253,3.905616078875791,-136791.19582186354,10.5,10499863208.804178,47.655,-122.3035,60.0,4.016666666666667
2026-01-20T23:04:02+00:00,SAT-53014,94.22051615579916,40.84697821427473,794.8144298290686,3.9482036402286287,-138282.79236564584,10.5,10499861717.207634,47.655,-122.3035,60.0,4.033333333333333
2026-01-20T23:04:03+00:00,SAT-53014,93.78066452523412,40.55757569820339,798.7520488801899,3.99016003075455,-139752.28263721956,10.5,10499860247.717363,47.655,-122.3035,60.0,4.05
2026-01-20T23:04:04+00:00,SAT-53014,93.34895184243241,40.26898899149895,802.7315118425443,4.031491042148269,-141199.86948623243,10.5,10499858800.130514,47.655,-122.3035,60.0,4.066666666666666
2026-01-20T23:04:05+00:00,SAT-53014,92.9252036268518,39.981288539248325,806.7521950135541,4.072202621752648,-142625.7612137888,10.5,10499857374.238787,47.655,-122.3035,60.0,4.083333333333333
2026-01-20T23:04:06+00:00,SAT-53014,92.50924823195311,39.69454087838333,810.8134806220418,4.11230092764553,-144030.17350182327,10.5,10499855969.826498,47.655,-122.3035,60.0,4.1
2026-01-20T23:04:07+00:00,SAT-53014,92.10091691809284,39.40880876818183,814.9147570383977,4.1517922242461855,-145413.32575679722,10.5,10499854586.674244,47.655,-122.3035,60.0,4.116666666666666
2026-01-20T23:04:08+00:00,SAT-53014,91.70004391966539,39.124151325787345,819.0554188806381,4.190682945108154,-146775.4433089695,10.5,10499853224.55669,47.655,-122.3035,60.0,4.133333333333334
2026-01-20T23:04:09+00:00,SAT-53014,91.3064664916043,38.84062415466464,823.2348671830847,4.228979613450188,-148116.754629054,10.5,10499851883.24537,47.655,-122.3035,60.0,4.15
2026-01-20T23:04:10+00:00,SAT-53014,90.92002494989856,38.558279475702044,827.4525094857903,4.266688911713374,-149437.49376440427,10.5,10499850562.506235,47.655,-122.3035,60.0,4.166666666666667
2026-01-20T23:04:11+00:00,SAT-53014,90.54056269384375,38.27716625059335,831.7077599933344,4.303817557097849,-150737.89597978283,10.5,10499849262.104021,47.655,-122.3035,60.0,4.183333333333334
2026-01-20T23:04:12+00:00,SAT-53014,90.16792622808383,37.99733031038437,836.0000396094885,4.340372406444252,-152018.2014307533,10.5,10499847981.798569,47.655,-122.3035,60.0,4.2
2026-01-20T23:04:13+00:00,SAT-53014,89.80196516566566,37.718814473752154,840.3287760764827,4.376360369573858,-153278.65212848518,10.5,10499846721.347872,47.655,-122.3035,60.0,4.216666666666667
2026-01-20T23:04:14+00:00,SAT-53014,89.44253222945026,37.44165866766335,844.6934040278433,4.411788422014916,-154519.49238548428,10.5,10499845480.507614,47.655,-122.3035,60.0,4.233333333333333
2026-01-20T23:04:15+00:00,SAT-53014,89.08948324429649,37.1659000437032,849.0933650539256,4.446663601453492,-155740.968691286,10.5,10499844259.03131,47.655,-122.3035,60.0,4.25
2026-01-20T23:04:16+00:00,SAT-53014,88.7426771221973,36.89157309115467,853.5281077639031,4.480993000465677,-156943.32945790654,10.5,10499843056.670542,47.655,-122.3035,60.0,4.266666666666667
2026-01-20T23:04:17+00:00,SAT-53014,88.40197584167599,36.618709747049074,857.9970878405115,4.514783714751713,-158126.8232067832,10.5,10499841873.176794,47.655,-122.3035,60.0,4.283333333333333
2026-01-20T23:04:18+00:00,SAT-53014,88.06724442491105,36.347339505820315,862.4997680431642,4.5480428970518885,-159291.70045713702,10.5,10499840708.299543,47.655,-122.3035,60.0,4.3
2026-01-20T23:04:19+00:00,SAT-53014,87.73835090597291,36.07748952210457,867.0356182648391,4.580777701917153,-160438.21179160586,10.5,10499839561.788208,47.655,-122.3035,60.0,4.316666666666666
2026-01-20T23:04:20+00:00,SAT-53014,87.4151662982617,35.809184713364964,871.6041155338844,4.612995332781826,-161566.60950493015,10.5,10499838433.390495,47.655,-122.3035,60.0,4.333333333333333
2026-01-20T23:04:21+00:00,SAT-53014,87.09756455492001,35.54244785623955,876.2047440627725,4.644702932414925,-162677.14376709476,10.5,10499837322.856234,47.655,-122.3035,60.0,4.35
2026-01-20T23:04:22+00:00,SAT-53014,86.78542253293637,35.2772996857965,880.8369951875947,4.675907693128256,-163770.06648328254,10.5,10499836229.933517,47.655,-122.3035,60.0,4.366666666666666
2026-01-20T23:04:23+00:00,SAT-53014,86.47861994686517,35.01375898490886,885.5003674174728,4.706616789756707,-164845.62894656084,10.5,10499835154.371054,47.655,-122.3035,60.0,4.383333333333334
2026-01-20T23:04:24+00:00,SAT-53014,86.17703932442811,34.751842674180615,890.1943664171292,4.736837365621221,-165904.08134624528,10.5,10499834095.918653,47.655,-122.3035,60.0,4.4
2026-01-20T23:04:25+00:00,SAT-53014,85.88056596068482,34.491565899278626,894.9185049754567,4.766576536945481,-166945.6729225908,10.5,10499833054.327078,47.655,-122.3035,60.0,4.416666666666667
2026-01-20T23:04:26+00:00,SAT-53014,85.58908786984385,34.23294211469176,899.6723029784941,4.795841423312626,-167970.65303351483,10.5,10499832029.346966,47.655,-122.3035,60.0,4.433333333333334
2026-01-20T23:04:27+00:00,SAT-53014,85.30249573389577,33.975983162646685,904.4552874127772,4.824639111645439,-168979.26989303084,10.5,10499831020.730106,47.655,-122.3035,60.0,4.45
2026-01-20T23:04:28+00:00,SAT-53014,85.02068285206478,33.72069935090794,909.2669923327644,4.852976584864985,-169971.76807257222,10.5,10499830028.231928,47.655,-122.3035,60.0,4.466666666666667
2026-01-20T23:04:29+00:00,SAT-53014,84.74354509314287,33.467099531215545,914.1069587571159,4.8808608728630185,-170948.39378868463,10.5,10499829051.60621,47.655,-122.3035,60.0,4.483333333333333
2026-01-20T23:04:30+00:00,SAT-53014,84.47098083859984,33.21519116673489,918.9747347155376,4.908298930691106,-171909.39063669377,10.5,10499828090.609364,47.655,-122.3035,60.0,4.5
2026-01-20T23:04:31+00:00,SAT-53014,84.20289093201227,32.9649804031083,923.869875174141,4.935297620358987,-172854.99895320702,10.5,10499827145.001047,47.655,-122.3035,60.0,4.516666666666667
2026-01-20T23:04:32+00:00,SAT-53014,83.93917862879472,32.716472137474916,928.7919419426507,4.961863807824634,-173785.45921311554,10.5,10499826214.540787,47.655,-122.3035,60.0,4.533333333333333
2026-01-20T23:04:33+00:00,SAT-53014,83.67974954076927,32.46967007978357,933.7405036783438,4.988004271412412,-174701.0088220109,10.5,10499825298.991179,47.655,-122.3035,60.0,4.55
2026-01-20T23:04:34+00:00,SAT-53014,83.42451158533015,32.22457681611798,938.7151357986494,5.013725748113558,-175601.88373782355,10.5,10499824398.116262,47.655,-122.3035,60.0,4.566666666666666
2026-01-20T23:04:35+00:00,SAT-53014,83.17337493241438,31.981193867085835,943.7154204399261,5.039034912885616,-176488.3177458019,10.5,10499823511.682255,47.655,-122.3035,60.0,4.583333333333333
2026-01-20T23:04:36+00:00,SAT-53014,82.92625195270354,31.739521744749464,948.740946395597,5.063938322872793,-177360.54050487262,10.5,10499822639.459496,47.655,-122.3035,60.0,4.6
2026-01-20T23:04:37+00:00,SAT-53014,82.68305716865719,31.49956000975547,953.7913089986498,5.088442564626407,-178218.78270392402,10.5,10499821781.217297,47.655,-122.3035,60.0,4.616666666666666
2026-01-20T23:04:38+00:00,SAT-53014,82.44370719913496,31.26130731908731,958.8661101509656,5.112554091106369,-179063.2703529082,10.5,10499820936.729647,47.655,-122.3035,60.0,4.633333333333334
2026-01-20T23:04:39+00:00,SAT-53014,82.20812071220102,31.024761479365385,963.964958190086,5.136279259689922,-179894.22611406783,10.5,10499820105.773886,47.655,-122.3035,60.0,4.65
2026-01-20T23:04:40+00:00,SAT-53014,81.97621837637958,30.789919496021135,969.0874677938871,5.159624432672347,-180711.87282189616,10.5,10499819288.127178,47.655,-122.3035,60.0,4.666666666666667
2026-01-20T23:04:41+00:00,SAT-53014,81.74792280841002,30.556777615758413,974.2332599854835,5.182595848034562,-181516.42895687156,10.5,10499818483.571043,47.655,-122.3035,60.0,4.683333333333334
2026-01-20T23:04:42+00:00,SAT-53014,81.52315852722714,30.325331372970698,979.4019620092481,5.20519966838074,-182308.11035946,10.5,10499817691.88964,47.655,-122.3035,60.0,4.7
2026-01-20T23:04:43+00:00,SAT-53014,81.30185190653893,30.09557563188536,984.5932072556353,5.227441988185529,-183087.13048394315,10.5,10499816912.869516,47.655,-122.3035,60.0,4.716666666666667
