DopplerPredictor/satellites_20260205_234138/SAT-55573.csv

timestamp,satellite,azimuth_deg,elevation_deg,distance_km,relative_velocity_kms,doppler_shift_hz,tx_freq_ghz,rx_freq_hz,ue_lat,ue_lon,ue_alt_m,time_minutes
2026-01-20T23:00:00+00:00,SAT-55573,210.09141194782816,34.392291976729396,922.3114018113937,-3.3608647976903967,117711.70165911634,10.5,10500117711.701658,47.655,-122.3035,60.0,0.0
2026-01-20T23:00:01+00:00,SAT-55573,209.66117356544024,34.57225521072785,918.9595470284266,-3.320658440459684,116303.50495617432,10.5,10500116303.504955,47.655,-122.3035,60.0,0.016666666666666666
2026-01-20T23:00:02+00:00,SAT-55573,209.2258941574564,34.751616983435525,915.647790814995,-3.2800106015570676,114879.84569761662,10.5,10500114879.845697,47.655,-122.3035,60.0,0.03333333333333333
2026-01-20T23:00:03+00:00,SAT-55573,208.7855363423833,34.930321239396584,912.3765734692192,-3.2389203852186514,113440.6925100025,10.5,10500113440.69251,47.655,-122.3035,60.0,0.05
2026-01-20T23:00:04+00:00,SAT-55573,208.34006427547064,35.1083105197932,909.1463361825821,-3.197387065679035,111986.01997395768,10.5,10500111986.019974,47.655,-122.3035,60.0,0.06666666666666667
2026-01-20T23:00:05+00:00,SAT-55573,207.88944376389824,35.285525967346786,905.9575208703872,-3.155410136117706,110515.81033848393,10.5,10500110515.810339,47.655,-122.3035,60.0,0.08333333333333333
2026-01-20T23:00:06+00:00,SAT-55573,207.43364237960355,35.461907336318546,902.8105699533977,-3.112989245075538,109030.05129399602,10.5,10500109030.051294,47.655,-122.3035,60.0,0.1
2026-01-20T23:00:07+00:00,SAT-55573,206.97262958556388,35.63739300151083,899.7059262028956,-3.0701242816260703,107528.73895538005,10.5,10500107528.738955,47.655,-122.3035,60.0,0.11666666666666667
2026-01-20T23:00:08+00:00,SAT-55573,206.50637685409097,35.8119199746887,896.6440325007916,-3.026815327595099,106011.87618852152,10.5,10500106011.876188,47.655,-122.3035,60.0,0.13333333333333333
2026-01-20T23:00:09+00:00,SAT-55573,206.03485779617068,35.98542392117437,893.6253316473891,-2.983062664800016,104479.47286385758,10.5,10500104479.472864,47.655,-122.3035,60.0,0.15
2026-01-20T23:00:10+00:00,SAT-55573,205.5580482941775,36.15783917977107,890.6502661619307,-2.9388668338092843,102931.54791438243,10.5,10500102931.547915,47.655,-122.3035,60.0,0.16666666666666666
2026-01-20T23:00:11+00:00,SAT-55573,205.0759266289731,36.32909878918682,887.7192780245394,-2.8942285645544374,101368.12690538597,10.5,10500101368.126905,47.655,-122.3035,60.0,0.18333333333333332
2026-01-20T23:00:12+00:00,SAT-55573,204.5884736219484,36.49913451371683,884.8328084873629,-2.849148850098681,99789.24461814229,10.5,10500099789.244617,47.655,-122.3035,60.0,0.2
2026-01-20T23:00:13+00:00,SAT-55573,204.095672768454,36.667876876582845,881.9912978121487,-2.8036289112259203,98194.94380966769,10.5,10500098194.94381,47.655,-122.3035,60.0,0.21666666666666667
2026-01-20T23:00:14+00:00,SAT-55573,203.5975103802825,36.83525519475492,879.195185043133,-2.7576702159367064,96585.27589555111,10.5,10500096585.275896,47.655,-122.3035,60.0,0.23333333333333334
2026-01-20T23:00:15+00:00,SAT-55573,203.09397572781626,37.00119761856252,876.4449077604869,-2.7112744916631724,94960.30137777285,10.5,10500094960.301378,47.655,-122.3035,60.0,0.25
2026-01-20T23:00:16+00:00,SAT-55573,202.5850611825121,37.16563117583196,873.74090182158,-2.6644437195455857,93320.08964424531,10.5,10500093320.089643,47.655,-122.3035,60.0,0.26666666666666666
2026-01-20T23:00:17+00:00,SAT-55573,202.07076236257598,37.32848181958177,871.0836011079533,-2.617180139499047,91664.71914627014,10.5,10500091664.719147,47.655,-122.3035,60.0,0.2833333333333333
2026-01-20T23:00:18+00:00,SAT-55573,201.5510782797207,37.489674480025485,868.4734372672374,-2.5694862655903163,89994.2779370998,10.5,10500089994.277937,47.655,-122.3035,60.0,0.3
2026-01-20T23:00:19+00:00,SAT-55573,201.0260114842303,37.64913312162619,865.9108394397362,-2.5213648941965165,88308.86395768977,10.5,10500088308.863958,47.655,-122.3035,60.0,0.31666666666666665
2026-01-20T23:00:20+00:00,SAT-55573,200.49556820912966,37.80678080486954,863.3962339768727,-2.472819076688196,86608.58407994393,10.5,10500086608.58408,47.655,-122.3035,60.0,0.3333333333333333
2026-01-20T23:00:21+00:00,SAT-55573,199.95975852054266,37.962539750608975,860.9300441868797,-2.4238521775750037,84893.55614322206,10.5,10500084893.556143,47.655,-122.3035,60.0,0.35
2026-01-20T23:00:22+00:00,SAT-55573,199.41859645552034,38.11633141239018,858.5126900225016,-2.374467825665263,83163.90724374146,10.5,10500083163.907244,47.655,-122.3035,60.0,0.36666666666666664
2026-01-20T23:00:23+00:00,SAT-55573,198.87210016945554,38.26807655011058,856.1445878174003,-2.324669949312282,81419.77496905197,10.5,10500081419.77497,47.655,-122.3035,60.0,0.38333333333333336
2026-01-20T23:00:24+00:00,SAT-55573,198.32029207455852,38.41769531032236,853.8261499874176,-2.2744627776756325,79661.30744221104,10.5,10500079661.307442,47.655,-122.3035,60.0,0.4
2026-01-20T23:00:25+00:00,SAT-55573,197.7631989755209,38.56510731107934,851.5577847305732,-2.2238508257428884,77888.66279718194,10.5,10500077888.662798,47.655,-122.3035,60.0,0.4166666666666667
2026-01-20T23:00:26+00:00,SAT-55573,197.20085220607658,38.710231730263345,849.3398957420028,-2.172838917441817,76102.00998832023,10.5,10500076102.009989,47.655,-122.3035,60.0,0.43333333333333335
2026-01-20T23:00:27+00:00,SAT-55573,196.63328775628852,38.85298739982311,847.1728819058467,-2.12143217580772,74301.52844599266,10.5,10500074301.528446,47.655,-122.3035,60.0,0.45
2026-01-20T23:00:28+00:00,SAT-55573,196.0605463978845,38.993292903762246,845.0571369969448,-2.069636038085058,72487.40860549969,10.5,10500072487.408606,47.655,-122.3035,60.0,0.4666666666666667
2026-01-20T23:00:29+00:00,SAT-55573,195.48267380016912,39.13106668144296,842.9930493674681,-2.0174562282915867,70659.85094615576,10.5,10500070659.850946,47.655,-122.3035,60.0,0.48333333333333334
2026-01-20T23:00:30+00:00,SAT-55573,194.8997206476079,39.26622713329801,840.9810016609157,-1.9648988014580007,68819.0675407485,10.5,10500068819.067541,47.655,-122.3035,60.0,0.5
2026-01-20T23:00:31+00:00,SAT-55573,194.31174273784836,39.3986927336026,839.0213704819884,-1.9119701078803875,66965.28080350863,10.5,10500066965.280804,47.655,-122.3035,60.0,0.5166666666666667
2026-01-20T23:00:32+00:00,SAT-55573,193.71880108196072,39.528382144855605,837.1145261021152,-1.8586768050956641,65098.72390954036,10.5,10500065098.72391,47.655,-122.3035,60.0,0.5333333333333333
2026-01-20T23:00:33+00:00,SAT-55573,193.12096199254603,39.65521433676724,835.2608321530364,-1.8050258634561154,63219.640990065236,10.5,10500063219.64099,47.655,-122.3035,60.0,0.55
2026-01-20T23:00:34+00:00,SAT-55573,192.51829716025253,39.77910870926039,833.4606453148269,-1.7510245555450792,61328.28676171477,10.5,10500061328.286762,47.655,-122.3035,60.0,0.5666666666666667
2026-01-20T23:00:35+00:00,SAT-55573,191.91088372294814,39.899985218165895,831.7143150144739,-1.6966804730248148,59424.92711661397,10.5,10500059424.927116,47.655,-122.3035,60.0,0.5833333333333334
2026-01-20T23:00:36+00:00,SAT-55573,191.29880431700968,40.01776450525342,830.0221831076552,-1.642001486910105,57509.83773099489,10.5,10500057509.83773,47.655,-122.3035,60.0,0.6
2026-01-20T23:00:37+00:00,SAT-55573,190.68214713034524,40.132368028416884,828.3845836001356,-1.5869957888232522,55583.3055101211,10.5,10500055583.30551,47.655,-122.3035,60.0,0.6166666666666667
2026-01-20T23:00:38+00:00,SAT-55573,190.06100592677052,40.24371819731463,826.8018423280166,-1.5316718631393142,53645.62761269598,10.5,10500053645.627613,47.655,-122.3035,60.0,0.6333333333333333
2026-01-20T23:00:39+00:00,SAT-55573,189.43548006567391,40.35173850937247,825.2742766657718,-1.4760384844320453,51697.11136140882,10.5,10500051697.11136,47.655,-122.3035,60.0,0.65
2026-01-20T23:00:40+00:00,SAT-55573,188.80567450740784,40.45635368752026,823.8021952368231,-1.4201047256093522,49738.07452787288,10.5,10500049738.074528,47.655,-122.3035,60.0,0.6666666666666666
2026-01-20T23:00:41+00:00,SAT-55573,188.1716997985677,40.55748982007394,822.3858976160085,-1.3638799274829996,47768.84426682774,10.5,10500047768.844267,47.655,-122.3035,60.0,0.6833333333333333
2026-01-20T23:00:42+00:00,SAT-55573,187.53367205320055,40.655074499612255,821.0256740623959,-1.3073737306142958,45789.75823150997,10.5,10500045789.758232,47.655,-122.3035,60.0,0.7
2026-01-20T23:00:43+00:00,SAT-55573,186.8917129013794,40.74903696486358,819.7218052203358,-1.250596034643934,43801.163149212065,10.5,10500043801.163149,47.655,-122.3035,60.0,0.7166666666666667
2026-01-20T23:00:44+00:00,SAT-55573,186.24594943709133,40.83930823999394,818.4745618610788,-1.1935570106770523,41803.41525505972,10.5,10500041803.415255,47.655,-122.3035,60.0,0.7333333333333333
2026-01-20T23:00:45+00:00,SAT-55573,185.59651414077052,40.92582127462127,817.2842046120363,-1.1362670912297592,39796.87993989653,10.5,10500039796.87994,47.655,-122.3035,60.0,0.75
2026-01-20T23:00:46+00:00,SAT-55573,184.9435447856382,41.00851108248064,816.1509836960734,-1.0787369572118444,37781.93129436353,10.5,10500037781.931293,47.655,-122.3035,60.0,0.7666666666666667
2026-01-20T23:00:47+00:00,SAT-55573,184.28718432986113,41.087314878028735,815.0751386837782,-1.0209775356237825,35758.952028238535,10.5,10500035758.952028,47.655,-122.3035,60.0,0.7833333333333333
2026-01-20T23:00:48+00:00,SAT-55573,183.62758078770014,41.16217221126858,814.0568982480323,-0.9629999802720799,33728.33279500594,10.5,10500033728.332794,47.655,-122.3035,60.0,0.8
2026-01-20T23:00:49+00:00,SAT-55573,182.96488709023876,41.233025099044426,813.0964799378131,-0.904815684156114,31690.472625696264,10.5,10500031690.472626,47.655,-122.3035,60.0,0.8166666666666667
2026-01-20T23:00:50+00:00,SAT-55573,182.29926091376421,41.29981815462135,812.1940899396418,-0.8464362403903537,29645.77756021705,10.5,10500029645.77756,47.655,-122.3035,60.0,0.8333333333333334
2026-01-20T23:00:51+00:00,SAT-55573,181.6308645111983,41.362498711257814,811.3499228780039,-0.7878734568151692,27594.661159085183,10.5,10500027594.66116,47.655,-122.3035,60.0,0.85
2026-01-20T23:00:52+00:00,SAT-55573,180.95986450864814,41.42101694320545,810.5641616011998,-0.7291393285077334,25537.54354064238,10.5,10500025537.543541,47.655,-122.3035,60.0,0.8666666666666667
2026-01-20T23:00:53+00:00,SAT-55573,180.2864316981419,41.4753259805375,809.8369769946104,-0.6702460370045723,23474.851353825616,10.5,10500023474.851355,47.655,-122.3035,60.0,0.8833333333333333
2026-01-20T23:00:54+00:00,SAT-55573,179.6107408054208,41.52538201928197,809.1685277947374,-0.6112059316465959,21407.017124791233,10.5,10500021407.017124,47.655,-122.3035,60.0,0.9
2026-01-20T23:00:55+00:00,SAT-55573,178.9329702483738,41.57114442505892,808.5589604218471,-0.5520315203237817,19334.478932754566,10.5,10500019334.478933,47.655,-122.3035,60.0,0.9166666666666666
2026-01-20T23:00:56+00:00,SAT-55573,178.25330187802075,41.61257583045681,808.0084088218489,-0.4927354565478417,17257.679957220065,10.5,10500017257.679956,47.655,-122.3035,60.0,0.9333333333333333
2026-01-20T23:00:57+00:00,SAT-55573,177.57192070581226,41.649642225437574,807.5169943210625,-0.43333052442734066,15177.067951746394,10.5,10500015177.067951,47.655,-122.3035,60.0,0.95
2026-01-20T23:00:58+00:00,SAT-55573,176.88901462068037,41.682313040198615,807.0848254959718,-0.3738296296512425,13093.094928152083,10.5,10500013093.094929,47.655,-122.3035,60.0,0.9666666666666667
2026-01-20T23:00:59+00:00,SAT-55573,176.20477408809063,41.710561220555206,806.7119980519691,-0.3142457801165881,11006.21647801485,10.5,10500011006.216478,47.655,-122.3035,60.0,0.9833333333333333
2026-01-20T23:01:00+00:00,SAT-55573,175.51939184678594,41.73436329471622,806.3985947214231,-0.2545920774609198,8916.891476101302,10.5,10500008916.891476,47.655,-122.3035,60.0,1.0
2026-01-20T23:01:01+00:00,SAT-55573,174.83306258692784,41.75369943194728,806.1446851701883,-0.1948816978975674,6825.581409137576,10.5,10500006825.58141,47.655,-122.3035,60.0,1.0166666666666666
2026-01-20T23:01:02+00:00,SAT-55573,174.14598263015242,41.768553492049655,805.9503259232291,-0.13512788307341003,4732.750055609489,10.5,10500004732.750055,47.655,-122.3035,60.0,1.0333333333333334
2026-01-20T23:01:03+00:00,SAT-55573,173.4583495876356,41.778913066150366,805.8155602993626,-0.07534391971137099,2638.8627727565963,10.5,10500002638.862772,47.655,-122.3035,60.0,1.05
2026-01-20T23:01:04+00:00,SAT-55573,172.77036203316368,41.78476950778015,805.7404183663025,-0.015543129998076034,544.3861599073261,10.5,10500000544.38616,47.655,-122.3035,60.0,1.0666666666666667
2026-01-20T23:01:05+00:00,SAT-55573,172.08221915491794,41.786117954881256,805.7249169052909,0.04426114600855506,-1550.2125576815815,10.5,10499998449.787443,47.655,-122.3035,60.0,1.0833333333333333
2026-01-20T23:01:06+00:00,SAT-55573,171.39412040745495,41.78295734205055,805.7690593932754,0.10405556397367903,-3644.4660049574354,10.5,10499996355.533995,47.655,-122.3035,60.0,1.1
2026-01-20T23:01:07+00:00,SAT-55573,170.706265173484,41.77529040323971,805.8728359986416,0.1638267910464406,-5737.9072090853815,10.5,10499994262.09279,47.655,-122.3035,60.0,1.1166666666666667
2026-01-20T23:01:08+00:00,SAT-55573,170.01885241126075,41.763123664757046,806.0362235926694,0.2235615196539464,-7830.070082571715,10.5,10499992169.929918,47.655,-122.3035,60.0,1.1333333333333333
2026-01-20T23:01:09+00:00,SAT-55573,169.33208031386357,41.74646742873783,806.2591857747407,0.2832464832061452,-9920.489973315222,10.5,10499990079.510027,47.655,-122.3035,60.0,1.15
2026-01-20T23:01:10+00:00,SAT-55573,168.6461459671555,41.72533574702991,806.5416729132132,0.3428684692303866,-12008.704124634982,10.5,10499987991.295876,47.655,-122.3035,60.0,1.1666666666666667
2026-01-20T23:01:11+00:00,SAT-55573,167.96124501579422,41.699746385806655,806.8836221993935,0.4024143347915712,-14094.252215349252,10.5,10499985905.747786,47.655,-122.3035,60.0,1.1833333333333333
2026-01-20T23:01:12+00:00,SAT-55573,167.27757133283956,41.669720780920336,807.2849577168867,0.46187102310026434,-16176.676941461868,10.5,10499983823.32306,47.655,-122.3035,60.0,1.2
2026-01-20T23:01:13+00:00,SAT-55573,166.59531669409748,41.63528398411385,807.7455905275121,0.5212255726628119,-18255.524336638,10.5,10499981744.475664,47.655,-122.3035,60.0,1.2166666666666666
2026-01-20T23:01:14+00:00,SAT-55573,165.9146704695041,41.596464600908696,808.265418766344,0.5804651332847998,-20330.34433271299,10.5,10499979669.655666,47.655,-122.3035,60.0,1.2333333333333334
2026-01-20T23:01:15+00:00,SAT-55573,165.23581931946626,41.55329471996222,808.8443277527105,0.6395769821504919,-22400.691322862313,10.5,10499977599.308678,47.655,-122.3035,60.0,1.25
2026-01-20T23:01:16+00:00,SAT-55573,164.55894690041995,41.50580983421028,809.4821901172334,0.698548535864335,-24466.12458334598,10.5,10499975533.875416,47.655,-122.3035,60.0,1.2666666666666666
2026-01-20T23:01:17+00:00,SAT-55573,163.88423358481305,41.45404875447811,810.1788659408728,0.7573673570257988,-26526.208503787268,10.5,10499973473.791496,47.655,-122.3035,60.0,1.2833333333333334
2026-01-20T23:01:18+00:00,SAT-55573,163.21185620000176,41.398053516352824,810.9342029005314,0.816021177956885,-28580.513418210452,10.5,10499971419.486582,47.655,-122.3035,60.0,1.3
2026-01-20T23:01:19+00:00,SAT-55573,162.54198777041998,41.337869279477395,811.7480364383208,0.8744979040228367,-30628.615721346083,10.5,10499969371.38428,47.655,-122.3035,60.0,1.3166666666666667
2026-01-20T23:01:20+00:00,SAT-55573,161.87479728337348,41.27354422122268,812.6201899341439,0.9327856287772134,-32670.098399075603,10.5,10499967329.901602,47.655,-122.3035,60.0,1.3333333333333333
2026-01-20T23:01:21+00:00,SAT-55573,161.21044946708597,41.20512942433789,813.5504748933749,0.990872646457237,-34704.5514660712,10.5,10499965295.448534,47.655,-122.3035,60.0,1.35
2026-01-20T23:01:22+00:00,SAT-55573,160.54910458433824,41.13267875925731,814.5386911470074,1.048747452592893,-36731.5719871291,10.5,10499963268.428013,47.655,-122.3035,60.0,1.3666666666666667
2026-01-20T23:01:23+00:00,SAT-55573,159.8909182492041,41.05624876243086,815.5846270524069,1.106398776173811,-38750.7652037898,10.5,10499961249.234797,47.655,-122.3035,60.0,1.3833333333333333
2026-01-20T23:01:24+00:00,SAT-55573,159.23604124683266,40.97589850887894,816.688059726145,1.1638155657850304,-40761.74404875396,10.5,10499959238.25595,47.655,-122.3035,60.0,1.4
2026-01-20T23:01:25+00:00,SAT-55573,158.58461938568703,40.891689482848506,817.8487552630046,1.2209870137391794,-42764.12999109332,10.5,10499957235.870008,47.655,-122.3035,60.0,1.4166666666666667
2026-01-20T23:01:26+00:00,SAT-55573,157.93679335778586,40.80368544430581,819.0664689790561,1.2779025507967086,-44757.552851331035,10.5,10499955242.44715,47.655,-122.3035,60.0,1.4333333333333333
2026-01-20T23:01:27+00:00,SAT-55573,157.2926986238554,40.71195229390884,820.3409456494646,1.3345518773977725,-46741.65189531422,10.5,10499953258.348104,47.655,-122.3035,60.0,1.45
2026-01-20T23:01:28+00:00,SAT-55573,156.65246530395333,40.61655793433912,821.6719197774473,1.3909249460909139,-48716.07521879218,10.5,10499951283.924782,47.655,-122.3035,60.0,1.4666666666666666
2026-01-20T23:01:29+00:00,SAT-55573,156.01621809823519,40.51757213199496,823.0591158457058,1.447011979976613,-50680.48039338747,10.5,10499949319.519608,47.655,-122.3035,60.0,1.4833333333333334
2026-01-20T23:01:30+00:00,SAT-55573,155.38407621837908,40.4150663769359,824.5022485862514,1.5028034845225073,-52634.534880414925,10.5,10499947365.46512,47.655,-122.3035,60.0,1.5
2026-01-20T23:01:31+00:00,SAT-55573,154.7561533335206,40.309113742039344,826.0010232620191,1.5582902411290747,-54577.91580552465,10.5,10499945422.084194,47.655,-122.3035,60.0,1.5166666666666666
2026-01-20T23:01:32+00:00,SAT-55573,154.13255753775573,40.199788743108336,827.5551359420555,1.6134633279971387,-56510.3106895703,10.5,10499943489.68931,47.655,-122.3035,60.0,1.5333333333333334
2026-01-20T23:01:33+00:00,SAT-55573,153.51339132685501,40.08716719843907,829.1642737975283,1.668314093881873,-58431.41652936335,10.5,10499941568.583471,47.655,-122.3035,60.0,1.55
2026-01-20T23:01:34+00:00,SAT-55573,152.89875160197403,39.97132609155849,830.8281153715519,1.7228342118745255,-60340.94168133648,10.5,10499939659.05832,47.655,-122.3035,60.0,1.5666666666666667
2026-01-20T23:01:35+00:00,SAT-55573,152.28872966902085,39.85234343193291,832.5463309026555,1.7770156314330765,-62238.60418145444,10.5,10499937761.395819,47.655,-122.3035,60.0,1.5833333333333333
2026-01-20T23:01:36+00:00,SAT-55573,151.68341127121423,39.73029812110984,834.3185826004088,1.830850618964479,-64124.13316657563,10.5,10499935875.866833,47.655,-122.3035,60.0,1.6
2026-01-20T23:01:37+00:00,SAT-55573,151.08287662099352,39.60526981846682,836.1445249615213,1.8843317346326827,-65997.26806217109,10.5,10499934002.731937,47.655,-122.3035,60.0,1.6166666666666667
2026-01-20T23:01:38+00:00,SAT-55573,150.48720045331598,39.47733881130232,838.023805062811,1.9374518509776482,-67857.75923444112,10.5,10499932142.240765,47.655,-122.3035,60.0,1.6333333333333333
2026-01-20T23:01:39+00:00,SAT-55573,149.89645208489048,39.346585886667775,839.956062872745,1.9902041467693161,-69705.3677750553,10.5,10499930294.632225,47.655,-122.3035,60.0,1.65
2026-01-20T23:01:40+00:00,SAT-55573,149.310695486873,39.213092206906474,841.9409315568449,2.0425821084517173,-71539.86555173123,10.5,10499928460.134449,47.655,-122.3035,60.0,1.6666666666666667
2026-01-20T23:01:41+00:00,SAT-55573,148.72998936734746,39.076939188605664,843.97803778454,2.0945795312554605,-73361.0352471987,10.5,10499926638.964752,47.655,-122.3035,60.0,1.6833333333333333
2026-01-20T23:01:42+00:00,SAT-55573,148.15438726292388,38.938208385192205,846.0670020371242,2.146190516154645,-75168.67025261781,10.5,10499924831.329748,47.655,-122.3035,60.0,1.7
2026-01-20T23:01:43+00:00,SAT-55573,147.5839376395488,38.79698137362234,848.2074389126792,2.1974094811697915,-76962.57506345543,10.5,10499923037.424936,47.655,-122.3035,60.0,1.7166666666666666
2026-01-20T23:01:44+00:00,SAT-55573,147.01868399794168,38.65333964437678,850.3989574422728,2.248231128834409,-78742.5641400268,10.5,10499921257.43586,47.655,-122.3035,60.0,1.7333333333333334
2026-01-20T23:01:45+00:00,SAT-55573,146.45866499403624,38.50736449776114,852.6411613737066,2.2986504913641705,-80508.46348951111,10.5,10499919491.53651,47.655,-122.3035,60.0,1.75
2026-01-20T23:01:46+00:00,SAT-55573,145.90391455359594,38.35913694152115,854.9336495003174,2.348662891077266,-82260.10927970473,10.5,10499917739.89072,47.655,-122.3035,60.0,1.7666666666666666
2026-01-20T23:01:47+00:00,SAT-55573,145.35446200192385,38.20873759540365,857.2760159502991,2.3982639375789896,-83997.34774041377,10.5,10499916002.65226,47.655,-122.3035,60.0,1.7833333333333334
2026-01-20T23:01:48+00:00,SAT-55573,144.81033219784214,38.05624660027277,859.6678504732217,2.447449563562269,-85720.03641733984,10.5,10499914279.963583,47.655,-122.3035,60.0,1.8
2026-01-20T23:01:49+00:00,SAT-55573,144.27154566282098,37.90174352937972,862.1087387622524,2.496215969954993,-87428.04225090754,10.5,10499912571.957748,47.655,-122.3035,60.0,1.8166666666666667
2026-01-20T23:01:50+00:00,SAT-55573,143.73811872525067,37.74530730758558,864.5982627216696,2.5445596660837335,-89121.24298296792,10.5,10499910878.757017,47.655,-122.3035,60.0,1.8333333333333333
2026-01-20T23:01:51+00:00,SAT-55573,143.21006365752135,37.587016132472826,867.1360007744379,2.5924774322250634,-90799.52584518709,10.5,10499909200.474155,47.655,-122.3035,60.0,1.85
2026-01-20T23:01:52+00:00,SAT-55573,142.68738882246146,37.426947402234006,869.721528132429,2.639966335130905,-92462.78810280979,10.5,10499907537.211897,47.655,-122.3035,60.0,1.8666666666666667
2026-01-20T23:01:53+00:00,SAT-55573,142.1700988168692,37.26517764695202,872.3544170821308,2.6870237260064567,-94110.93698383766,10.5,10499905889.063017,47.655,-122.3035,60.0,1.8833333333333333
2026-01-20T23:01:54+00:00,SAT-55573,141.65819461571851,37.1017824643469,875.0342372683372,2.7336472107822525,-95743.88863783107,10.5,10499904256.111362,47.655,-122.3035,60.0,1.9
2026-01-20T23:01:55+00:00,SAT-55573,141.15167372145189,36.93683646157989,877.7605559481908,2.7798346836797934,-97361.5693115196,10.5,10499902638.430689,47.655,-122.3035,60.0,1.9166666666666667
2026-01-20T23:01:56+00:00,SAT-55573,140.65053030586685,36.770413199184574,880.5329382787008,2.8255842680214807,-98963.91327571539,10.5,10499901036.086725,47.655,-122.3035,60.0,1.9333333333333333
2026-01-20T23:01:57+00:00,SAT-55573,140.15475536131095,36.602585142635064,883.3509475452302,2.8708943900220874,-100550.86540980266,10.5,10499899449.13459,47.655,-122.3035,60.0,1.95
2026-01-20T23:01:58+00:00,SAT-55573,139.6643368367643,36.43342361346479,886.2141454635762,2.91576367303598,-102122.37749782814,10.5,10499897877.622501,47.655,-122.3035,60.0,1.9666666666666666
2026-01-20T23:01:59+00:00,SAT-55573,139.17925979012728,36.262998750536916,889.1220923765798,2.9601910220393783,-103678.41118742712,10.5,10499896321.588812,47.655,-122.3035,60.0,1.9833333333333334
2026-01-20T23:02:00+00:00,SAT-55573,138.69950652308873,36.09137947002315,892.0743475349957,3.0041755620971378,-105218.93583466981,10.5,10499894781.064165,47.655,-122.3035,60.0,2.0
2026-01-20T23:02:01+00:00,SAT-55573,138.2250567235285,35.918633432625974,895.0704693169871,3.0477166578457364,-106743.92918643814,10.5,10499893256.070814,47.655,-122.3035,60.0,2.0166666666666666
2026-01-20T23:02:02+00:00,SAT-55573,137.75588760130867,35.74482701311901,898.1100154670581,3.0908139100494503,-108253.37725980829,10.5,10499891746.62274,47.655,-122.3035,60.0,2.033333333333333
2026-01-20T23:02:03+00:00,SAT-55573,137.29197402127477,35.57002527345083,901.192543331547,3.1334670898816945,-109747.27204030527,10.5,10499890252.72796,47.655,-122.3035,60.0,2.05
2026-01-20T23:02:04+00:00,SAT-55573,136.83328864223643,35.39429194274099,904.3176100285796,3.1756762542496144,-111225.61552105808,10.5,10499888774.38448,47.655,-122.3035,60.0,2.066666666666667
2026-01-20T23:02:05+00:00,SAT-55573,136.37980203486222,35.21768939382168,907.4847727330344,3.2174416033076882,-112688.41471232317,10.5,10499887311.585287,47.655,-122.3035,60.0,2.0833333333333335
2026-01-20T23:02:06+00:00,SAT-55573,135.93148281656704,35.04027863071088,910.6935888194108,3.2587635780327457,-114135.68505897447,10.5,10499885864.314941,47.655,-122.3035,60.0,2.1
2026-01-20T23:02:07+00:00,SAT-55573,135.48829776791413,34.862119273375036,913.943616102,3.2996427728777618,-115567.44738126967,10.5,10499884432.552618,47.655,-122.3035,60.0,2.1166666666666667
2026-01-20T23:02:08+00:00,SAT-55573,135.05021195696463,34.68326954993774,917.2344129879544,3.340080019849191,-116983.73081959423,10.5,10499883016.26918,47.655,-122.3035,60.0,2.1333333333333333
2026-01-20T23:02:09+00:00,SAT-55573,134.61718884781612,34.5037862867639,920.5655387142016,3.3800762790640047,-118384.56900130572,10.5,10499881615.430998,47.655,-122.3035,60.0,2.15
2026-01-20T23:02:10+00:00,SAT-55573,134.18919041929576,34.32372490682092,923.936553475212,3.4196327211073347,-119770.00292524708,10.5,10499880229.997074,47.655,-122.3035,60.0,2.1666666666666665
2026-01-20T23:02:11+00:00,SAT-55573,133.76617726826456,34.143139425763266,927.3470186329035,3.4587506569673967,-121140.07850777108,10.5,10499878859.921492,47.655,-122.3035,60.0,2.183333333333333
2026-01-20T23:02:12+00:00,SAT-55573,133.34810871744318,33.96208245382339,930.7964968566671,3.49743157805563,-122494.847984415,10.5,10499877505.152016,47.655,-122.3035,60.0,2.2
2026-01-20T23:02:13+00:00,SAT-55573,132.9349429136701,33.780605197477946,934.2845523033074,3.535677124065234,-123834.36878417053,10.5,10499876165.631216,47.655,-122.3035,60.0,2.216666666666667
2026-01-20T23:02:14+00:00,SAT-55573,132.52663692570442,33.59875746460377,937.8107507649263,3.5734890562460437,-125158.70259345704,10.5,10499874841.297407,47.655,-122.3035,60.0,2.2333333333333334
2026-01-20T23:02:15+00:00,SAT-55573,132.1231468404661,33.41658767261965,941.3746597901543,3.6108693300456607,-126467.91790032102,10.5,10499873532.0821,47.655,-122.3035,60.0,2.25
2026-01-20T23:02:16+00:00,SAT-55573,131.72442784663878,33.234142854437536,944.9758488778258,3.6478199788089407,-127762.08592110037,10.5,10499872237.91408,47.655,-122.3035,60.0,2.2666666666666666
2026-01-20T23:02:17+00:00,SAT-55573,131.33043432707032,33.05146867175198,948.6138895546711,3.6843432023250005,-129041.2837017151,10.5,10499870958.7163,47.655,-122.3035,60.0,2.283333333333333
2026-01-20T23:02:18+00:00,SAT-55573,130.94111993689577,32.86860942508981,952.2883555413099,3.720441312482392,-130305.59221428151,10.5,10499869694.407785,47.655,-122.3035,60.0,2.3
2026-01-20T23:02:19+00:00,SAT-55573,130.55643768351584,32.68560806778707,955.9988228640545,3.7561167121778483,-131555.09561840747,10.5,10499868444.90438,47.655,-122.3035,60.0,2.316666666666667
2026-01-20T23:02:20+00:00,SAT-55573,130.17634000443317,32.50250622202323,959.7448699456709,3.7913719661938874,-132789.8837436258,10.5,10499867210.116257,47.655,-122.3035,60.0,2.3333333333333335
2026-01-20T23:02:21+00:00,SAT-55573,129.8007788338144,32.319344192332046,963.5260777668329,3.8262097051145294,-134010.04872411618,10.5,10499865989.951277,47.655,-122.3035,60.0,2.35
2026-01-20T23:02:22+00:00,SAT-55573,129.42970567494453,32.136160984676025,967.3420299317451,3.8606326509828928,-135215.68589734295,10.5,10499864784.314102,47.655,-122.3035,60.0,2.3666666666666667
2026-01-20T23:02:23+00:00,SAT-55573,129.0630716659638,31.95299432496342,971.1923127593578,3.8946436531829183,-136406.89506078447,10.5,10499863593.104939,47.655,-122.3035,60.0,2.3833333333333333
2026-01-20T23:02:24+00:00,SAT-55573,128.70082763849518,31.769880676526114,975.0765154103675,3.9282456420377456,-137583.77884675248,10.5,10499862416.221153,47.655,-122.3035,60.0,2.4
2026-01-20T23:02:25+00:00,SAT-55573,128.34292417720243,31.58685526041506,978.994229967937,3.9614415898527784,-138746.44135795496,10.5,10499861253.558641,47.655,-122.3035,60.0,2.4166666666666665
2026-01-20T23:02:26+00:00,SAT-55573,127.98931167917043,31.403952077953637,982.945051479566,3.9942345971434143,-139894.99118755633,10.5,10499860105.008812,47.655,-122.3035,60.0,2.433333333333333
2026-01-20T23:02:27+00:00,SAT-55573,127.63994040198557,31.221203929672875,986.9285780849591,4.026627824175562,-141029.53902143662,10.5,10499858970.46098,47.655,-122.3035,60.0,2.45
2026-01-20T23:02:28+00:00,SAT-55573,127.29476051486269,31.03864243780956,990.9444110756125,4.058624473238804,-142150.1970173227,10.5,10499857849.802982,47.655,-122.3035,60.0,2.466666666666667
2026-01-20T23:02:29+00:00,SAT-55573,126.9537221478923,30.856298069819008,994.992154936729,4.090227835020821,-143257.08042901676,10.5,10499856742.91957,47.655,-122.3035,60.0,2.4833333333333334
2026-01-20T23:02:30+00:00,SAT-55573,126.61677543420774,30.674200159982547,999.0714174353755,4.12144124258618,-144350.3059945387,10.5,10499855649.694006,47.655,-122.3035,60.0,2.5
2026-01-20T23:02:31+00:00,SAT-55573,126.28387055308883,30.49237693323098,1003.1818096627493,4.152268109082941,-145429.99325677127,10.5,10499854570.006742,47.655,-122.3035,60.0,2.5166666666666666
2026-01-20T23:02:32+00:00,SAT-55573,125.9549577671326,30.310855527374756,1007.3229461140448,4.182711863980896,-146496.26233025317,10.5,10499853503.737669,47.655,-122.3035,60.0,2.533333333333333
2026-01-20T23:02:33+00:00,SAT-55573,125.62998746180303,30.129662018171437,1011.4944447047324,4.212776003816169,-147549.23567846985,10.5,10499852450.764322,47.655,-122.3035,60.0,2.55
