DopplerPredictor/satellites_20260205_234138/SAT-66123.csv

timestamp,satellite,azimuth_deg,elevation_deg,distance_km,relative_velocity_kms,doppler_shift_hz,tx_freq_ghz,rx_freq_hz,ue_lat,ue_lon,ue_alt_m,time_minutes
2026-01-20T23:01:49+00:00,SAT-66123,337.127145300164,30.061580915396327,776.8338663665968,-1.7028138993559283,59639.74565109722,10.5,10500059639.745651,47.655,-122.3035,60.0,1.8166666666666667
2026-01-20T23:01:50+00:00,SAT-66123,337.7300001531418,30.15205559778565,775.1356174763166,-1.6415616596969622,57494.43312152336,10.5,10500057494.43312,47.655,-122.3035,60.0,1.8333333333333333
2026-01-20T23:01:51+00:00,SAT-66123,338.3365283074453,30.23969856999183,773.4984566168939,-1.5799179017542908,55335.40796553345,10.5,10500055335.407965,47.655,-122.3035,60.0,1.85
2026-01-20T23:01:52+00:00,SAT-66123,338.94663014808714,30.324446098489346,771.9227742570056,-1.517894198552837,53163.07551941413,10.5,10500053163.07552,47.655,-122.3035,60.0,1.8666666666666667
2026-01-20T23:01:53+00:00,SAT-66123,339.560201690344,30.406235726643633,770.4089493233295,-1.4555025359709957,50977.855579327,10.5,10500050977.85558,47.655,-122.3035,60.0,1.8833333333333333
2026-01-20T23:01:54+00:00,SAT-66123,340.1771346240889,30.485006397455724,768.957348788798,-1.3927553268173052,48780.18289433319,10.5,10500048780.182894,47.655,-122.3035,60.0,1.9
2026-01-20T23:01:55+00:00,SAT-66123,340.79731637859834,30.560698577312863,767.5683272468118,-1.3296653775748324,46570.5060016411,10.5,10500046570.506002,47.655,-122.3035,60.0,1.9166666666666667
2026-01-20T23:01:56+00:00,SAT-66123,341.42063018929423,30.633254377814776,766.2422265186202,-1.26624590307513,44349.28774055039,10.5,10500044349.28774,47.655,-122.3035,60.0,1.9333333333333333
2026-01-20T23:01:57+00:00,SAT-66123,342.04695518696246,30.702617677860882,764.9793752460693,-1.2025105035020538,42117.00444702837,10.5,10500042117.004448,47.655,-122.3035,60.0,1.95
2026-01-20T23:01:58+00:00,SAT-66123,342.67616649431164,30.768734243550536,763.7800885072805,-1.138473152431445,39874.14553480919,10.5,10500039874.145535,47.655,-122.3035,60.0,1.9666666666666666
2026-01-20T23:01:59+00:00,SAT-66123,343.3081353346838,30.83155184607425,762.6446674442615,-1.0741481742608372,37621.212704886624,10.5,10500037621.212706,47.655,-122.3035,60.0,1.9833333333333334
2026-01-20T23:02:00+00:00,SAT-66123,343.9427291467812,30.89102037657701,761.5733989130234,-1.0095502693344436,35358.72082549741,10.5,10500035358.720825,47.655,-122.3035,60.0,2.0
2026-01-20T23:02:01+00:00,SAT-66123,344.57981173327664,30.947091960214085,760.5665551086429,-0.9446944492231492,33087.19566535282,10.5,10500033087.195665,47.655,-122.3035,60.0,2.0166666666666666
2026-01-20T23:02:02+00:00,SAT-66123,345.21924339387095,30.999721064004856,759.6243932548704,-0.8795960510147597,30807.174394143618,10.5,10500030807.174395,47.655,-122.3035,60.0,2.033333333333333
2026-01-20T23:02:03+00:00,SAT-66123,345.8608810858757,31.048864602421112,758.7471552794841,-0.8142707213404013,28519.205023077044,10.5,10500028519.205023,47.655,-122.3035,60.0,2.05
2026-01-20T23:02:04+00:00,SAT-66123,346.50457859800366,31.09448203863443,757.9350675055783,-0.7487343821840354,26223.845207381342,10.5,10500026223.845207,47.655,-122.3035,60.0,2.066666666666667
2026-01-20T23:02:05+00:00,SAT-66123,347.15018672324624,31.136535479985085,757.1883403769475,-0.6830032292495485,23921.662189114373,10.5,10500023921.66219,47.655,-122.3035,60.0,2.0833333333333335
2026-01-20T23:02:06+00:00,SAT-66123,347.7975534536214,31.17498976909682,756.5071681851008,-0.6170937052752755,21613.23186252535,10.5,10500021613.231863,47.655,-122.3035,60.0,2.1
2026-01-20T23:02:07+00:00,SAT-66123,348.4465241795328,31.209812568860098,755.8917288228907,-0.5510224817980584,19299.138135355002,10.5,10500019299.138136,47.655,-122.3035,60.0,2.1166666666666667
2026-01-20T23:02:08+00:00,SAT-66123,349.09694189914364,31.240974441386488,755.3421835563252,-0.4848064414347989,16979.972308260632,10.5,10500016979.97231,47.655,-122.3035,60.0,2.1333333333333333
2026-01-20T23:02:09+00:00,SAT-66123,349.7486474396844,31.268448920632494,754.8586768140565,-0.41846265077795497,14656.332125501727,10.5,10500014656.332125,47.655,-122.3035,60.0,2.15
2026-01-20T23:02:10+00:00,SAT-66123,350.4014796792793,31.29221257783759,754.4413360038972,-0.35200834584368407,12328.821265272401,10.5,10500012328.821266,47.655,-122.3035,60.0,2.1666666666666665
2026-01-20T23:02:11+00:00,SAT-66123,351.05527578355225,31.312245080197787,754.0902713438518,-0.2854609087227022,9998.048521915694,10.5,10500009998.048521,47.655,-122.3035,60.0,2.183333333333333
2026-01-20T23:02:12+00:00,SAT-66123,351.7098714488534,31.328529242019528,753.8055757164317,-0.21883784119097274,7664.62688165829,10.5,10500007664.626883,47.655,-122.3035,60.0,2.2
2026-01-20T23:02:13+00:00,SAT-66123,352.36510114434265,31.34105106794231,753.5873245492932,-0.1521567452640745,5329.172841542205,10.5,10500005329.172842,47.655,-122.3035,60.0,2.216666666666667
2026-01-20T23:02:14+00:00,SAT-66123,353.02079836216853,31.349799788440464,753.4355757152655,-0.08543530068522572,2992.3056209601846,10.5,10500002992.30562,47.655,-122.3035,60.0,2.2333333333333334
2026-01-20T23:02:15+00:00,SAT-66123,353.6767958740112,31.354767887250926,753.3503694548314,-0.018691240418800104,654.6463033349595,10.5,10500000654.646303,47.655,-122.3035,60.0,2.25
2026-01-20T23:02:16+00:00,SAT-66123,354.332925988326,31.35595112050452,753.3317283230487,0.0480576730060331,-1683.1829924265392,10.5,10499998316.817007,47.655,-122.3035,60.0,2.2666666666666666
2026-01-20T23:02:17+00:00,SAT-66123,354.98902081038676,31.353348527511262,753.3796571600653,0.11479367052770181,-4020.5599186250006,10.5,10499995979.44008,47.655,-122.3035,60.0,2.283333333333333
2026-01-20T23:02:18+00:00,SAT-66123,355.6449124976961,31.346962433185347,753.4941430846038,0.18149899979388348,-6356.862712789714,10.5,10499993643.137287,47.655,-122.3035,60.0,2.3
2026-01-20T23:02:19+00:00,SAT-66123,356.3004335227367,31.336798442091293,753.6751555106259,0.2481559495888342,-8691.47105322696,10.5,10499991308.528946,47.655,-122.3035,60.0,2.316666666666667
2026-01-20T23:02:20+00:00,SAT-66123,356.9554169325469,31.322865424069406,753.9226461883595,0.3147468721735862,-11023.766841468225,10.5,10499988976.233158,47.655,-122.3035,60.0,2.3333333333333335
2026-01-20T23:02:21+00:00,SAT-66123,357.6096966020026,31.305175491624354,754.2365492676039,0.38125420627730183,-13353.135007524668,10.5,10499986646.864992,47.655,-122.3035,60.0,2.35
2026-01-20T23:02:22+00:00,SAT-66123,358.2631074868063,31.283743969142545,754.6167813839669,0.4476605019708198,-15678.96438106394,10.5,10499984321.03562,47.655,-122.3035,60.0,2.3666666666666667
2026-01-20T23:02:23+00:00,SAT-66123,358.91548587501245,31.258589353979758,755.0632417699094,0.5139484409202292,-18000.648400776,10.5,10499981999.351599,47.655,-122.3035,60.0,2.3833333333333333
2026-01-20T23:02:24+00:00,SAT-66123,359.5666696286298,31.229733269848555,755.5758123859841,0.580100860706837,-20317.58596616126,10.5,10499979682.414034,47.655,-122.3035,60.0,2.4
2026-01-20T23:02:25+00:00,SAT-66123,0.21649842293518817,31.197200412493736,756.1543580763372,0.6461007714162244,-22629.182018549498,10.5,10499977370.817982,47.655,-122.3035,60.0,2.4166666666666665
2026-01-20T23:02:26+00:00,SAT-66123,0.8648139731801527,31.16101848833096,756.7987267407472,0.7119313862697945,-24934.84861394626,10.5,10499975065.151386,47.655,-122.3035,60.0,2.433333333333333
2026-01-20T23:02:27+00:00,SAT-66123,1.5114602644348545,31.12121814553713,757.5087495372169,0.7775761336143129,-27234.005342957244,10.5,10499972765.994658,47.655,-122.3035,60.0,2.45
2026-01-20T23:02:28+00:00,SAT-66123,2.1562837628396725,31.077832898937757,758.2842410965225,0.8430186809488863,-29526.080172314763,10.5,10499970473.919828,47.655,-122.3035,60.0,2.466666666666667
2026-01-20T23:02:29+00:00,SAT-66123,2.799133622574362,31.03089904834903,759.1249997607243,0.9082429463489807,-31810.509844995155,10.5,10499968189.490154,47.655,-122.3035,60.0,2.4833333333333334
2026-01-20T23:02:30+00:00,SAT-66123,3.4398618774371807,30.980455591421173,760.0308078330715,0.9732331345371922,-34086.74114356979,10.5,10499965913.258856,47.655,-122.3035,60.0,2.5
2026-01-20T23:02:31+00:00,SAT-66123,4.0783236353436445,30.926544129988873,761.0014318638813,1.0379737405344245,-36354.231018084705,10.5,10499963645.768982,47.655,-122.3035,60.0,2.5166666666666666
2026-01-20T23:02:32+00:00,SAT-66123,4.714377250483873,30.869208772120462,762.0366229400579,1.1024495597429704,-38612.44693921282,10.5,10499961387.55306,47.655,-122.3035,60.0,2.533333333333333
2026-01-20T23:02:33+00:00,SAT-66123,5.347884481504965,30.808496029898425,763.1361169846688,1.1666457291173937,-40860.868340232344,10.5,10499959139.13166,47.655,-122.3035,60.0,2.55
2026-01-20T23:02:34+00:00,SAT-66123,5.978710653726491,30.744454711638163,764.2996350975835,1.2305477124032875,-43098.986100025635,10.5,10499956901.0139,47.655,-122.3035,60.0,2.566666666666667
2026-01-20T23:02:35+00:00,SAT-66123,6.606724791255613,30.677135812042085,765.5268838813856,1.2941413400730546,-45326.30394179921,10.5,10499954673.696058,47.655,-122.3035,60.0,2.5833333333333335
2026-01-20T23:02:36+00:00,SAT-66123,7.231799752131169,30.60659239771139,766.8175558071174,1.3574128017436518,-47542.338167521026,10.5,10499952457.661833,47.655,-122.3035,60.0,2.6
2026-01-20T23:02:37+00:00,SAT-66123,7.8538123397869395,30.532879491045072,768.1713295724625,1.4203486752351975,-49746.61867567587,10.5,10499950253.381325,47.655,-122.3035,60.0,2.6166666666666667
2026-01-20T23:02:38+00:00,SAT-66123,8.472643411031608,30.456053950950956,769.5878704889074,1.4829359281286656,-51938.68901582237,10.5,10499948061.310984,47.655,-122.3035,60.0,2.6333333333333333
2026-01-20T23:02:39+00:00,SAT-66123,9.088177966525269,30.37617435229475,771.0668308704579,1.5451619225769477,-54118.10655709675,10.5,10499945881.893442,47.655,-122.3035,60.0,2.65
2026-01-20T23:02:40+00:00,SAT-66123,9.700305227309281,30.293300864311348,772.6078504271525,1.607014442399955,-56284.4434371979,10.5,10499943715.556562,47.655,-122.3035,60.0,2.6666666666666665
2026-01-20T23:02:41+00:00,SAT-66123,10.308918706493209,30.20749512719734,774.2105566856006,1.6684816835354228,-58437.2862279342,10.5,10499941562.713772,47.655,-122.3035,60.0,2.683333333333333
2026-01-20T23:02:42+00:00,SAT-66123,10.913916261541242,30.118820129245822,775.8745653999929,1.7295522761391018,-60576.23670926561,10.5,10499939423.76329,47.655,-122.3035,60.0,2.7
2026-01-20T23:02:43+00:00,SAT-66123,11.515200140470613,30.027340083212728,777.5994809851577,1.790215271715108,-62700.911418554206,10.5,10499937299.088581,47.655,-122.3035,60.0,2.716666666666667
