DopplerPredictor/satellites_20260205_234138/SAT-51888.csv

timestamp,satellite,azimuth_deg,elevation_deg,distance_km,relative_velocity_kms,doppler_shift_hz,tx_freq_ghz,rx_freq_hz,ue_lat,ue_lon,ue_alt_m,time_minutes
2026-01-20T23:06:10+00:00,SAT-51888,285.7503399605906,30.035524052083193,986.1148118832389,-5.56202209859091,194805.54122280338,10.5,10500194805.541224,47.655,-122.3035,60.0,6.166666666666667
2026-01-20T23:06:11+00:00,SAT-51888,285.60312699125996,30.280363593497054,980.5677007983351,-5.543460994846684,194155.4528562896,10.5,10500194155.452856,47.655,-122.3035,60.0,6.183333333333334
2026-01-20T23:06:12+00:00,SAT-51888,285.45344088300686,30.52744791626697,975.0391010574178,-5.524575970869806,193494.01943304713,10.5,10500193494.019434,47.655,-122.3035,60.0,6.2
2026-01-20T23:06:13+00:00,SAT-51888,285.30122204263506,30.776801093453344,969.529335712335,-5.505360806743395,192821.02310527654,10.5,10500192821.023106,47.655,-122.3035,60.0,6.216666666666667
2026-01-20T23:06:14+00:00,SAT-51888,285.146409022635,31.028447156196872,964.0387340181742,-5.485809095676259,192136.2394800496,10.5,10500192136.239481,47.655,-122.3035,60.0,6.233333333333333
2026-01-20T23:06:15+00:00,SAT-51888,284.98893845389506,31.282410066576276,958.5676316196418,-5.465914392670508,191439.44282627795,10.5,10500191439.442827,47.655,-122.3035,60.0,6.25
2026-01-20T23:06:16+00:00,SAT-51888,284.82874497162817,31.538713695640485,953.116370589162,-5.445670065352712,190730.4008501891,10.5,10500190730.40085,47.655,-122.3035,60.0,6.266666666666667
2026-01-20T23:06:17+00:00,SAT-51888,284.66576114216076,31.797381792899813,947.6852996137519,-5.425069416775289,190008.87899635063,10.5,10500190008.878996,47.655,-122.3035,60.0,6.283333333333333
2026-01-20T23:06:18+00:00,SAT-51888,284.49991738318937,32.05843795972521,942.2747740594234,-5.404105618303927,189274.63809710392,10.5,10500189274.638098,47.655,-122.3035,60.0,6.3
2026-01-20T23:06:19+00:00,SAT-51888,284.3311418824847,32.321905617760876,936.8851561025153,-5.382771682395298,188527.4334191243,10.5,10500188527.433418,47.655,-122.3035,60.0,6.316666666666666
2026-01-20T23:06:20+00:00,SAT-51888,284.1593605139953,32.58780797393365,931.5168148881784,-5.361060595882016,187767.01933162432,10.5,10500187767.019331,47.655,-122.3035,60.0,6.333333333333333
2026-01-20T23:06:21+00:00,SAT-51888,283.9844967462513,32.856167989911,926.1701265559276,-5.338965135435373,186993.14284307783,10.5,10500186993.142843,47.655,-122.3035,60.0,6.35
2026-01-20T23:06:22+00:00,SAT-51888,283.8064715525284,33.127008340263075,920.845474449243,-5.316478005019084,186205.54841543207,10.5,10500186205.548416,47.655,-122.3035,60.0,6.366666666666666
2026-01-20T23:06:23+00:00,SAT-51888,283.62520331283565,33.40035137501852,915.5432491880813,-5.293591782747169,185403.97610284534,10.5,10500185403.976103,47.655,-122.3035,60.0,6.383333333333334
2026-01-20T23:06:24+00:00,SAT-51888,283.44060771343095,33.676219077120024,910.2638487943881,-5.270298922626249,184588.16161271013,10.5,10500184588.161613,47.655,-122.3035,60.0,6.4
2026-01-20T23:06:25+00:00,SAT-51888,283.2525976418278,33.954633017309,905.0076788158722,-5.246591777299534,183757.83710224324,10.5,10500183757.837103,47.655,-122.3035,60.0,6.416666666666667
2026-01-20T23:06:26+00:00,SAT-51888,283.0610830766957,34.235614307429344,899.7751524270979,-5.222462580991213,182912.73058112664,10.5,10500182912.730581,47.655,-122.3035,60.0,6.433333333333334
2026-01-20T23:06:27+00:00,SAT-51888,282.86597097339455,34.51918354993041,894.5666905475863,-5.197903399871427,182052.56417307863,10.5,10500182052.564173,47.655,-122.3035,60.0,6.45
2026-01-20T23:06:28+00:00,SAT-51888,282.6671651465794,34.80536078151774,889.3827220094194,-5.172906288270323,181177.05958713076,10.5,10500181177.059587,47.655,-122.3035,60.0,6.466666666666667
2026-01-20T23:06:29+00:00,SAT-51888,282.4645661419673,35.09416542206886,884.2236835690468,-5.147463090124596,180285.9311634459,10.5,10500180285.931164,47.655,-122.3035,60.0,6.483333333333333
2026-01-20T23:06:30+00:00,SAT-51888,282.25807111000177,35.38561620926251,879.0900201171171,-5.121565603939135,179378.89165097312,10.5,10500179378.891651,47.655,-122.3035,60.0,6.5
2026-01-20T23:06:31+00:00,SAT-51888,282.0475736678557,35.679731138649586,873.9821847237858,-5.095205466463917,178455.64813332006,10.5,10500178455.648134,47.655,-122.3035,60.0,6.516666666666667
2026-01-20T23:06:32+00:00,SAT-51888,281.8329637601083,35.97652739339081,868.9006388000394,-5.068374247172948,177515.90533780528,10.5,10500177515.905338,47.655,-122.3035,60.0,6.533333333333333
2026-01-20T23:06:33+00:00,SAT-51888,281.6141275097651,36.276021275314996,863.8458521647872,-5.041063407347482,176559.3642023795,10.5,10500176559.364202,47.655,-122.3035,60.0,6.55
2026-01-20T23:06:34+00:00,SAT-51888,281.39094706461196,36.57822812945758,858.818303152768,-5.013264288280123,175585.72146248352,10.5,10500175585.721462,47.655,-122.3035,60.0,6.566666666666666
2026-01-20T23:06:35+00:00,SAT-51888,281.1633004375481,36.883162263379255,853.8184787342145,-4.984968130456684,174594.67032287776,10.5,10500174594.670322,47.655,-122.3035,60.0,6.583333333333333
2026-01-20T23:06:36+00:00,SAT-51888,280.93106133960725,37.19083686287403,848.8468746153898,-4.9561661132387504,173585.90184749372,10.5,10500173585.901848,47.655,-122.3035,60.0,6.6
2026-01-20T23:06:37+00:00,SAT-51888,280.6940990041089,37.501263905196026,843.9039952995496,-4.92684930501533,172559.1032135337,10.5,10500172559.103214,47.655,-122.3035,60.0,6.616666666666666
2026-01-20T23:06:38+00:00,SAT-51888,280.4522780058721,37.81445406407595,838.9903541976159,-4.897008666383157,171513.95782285873,10.5,10500171513.957823,47.655,-122.3035,60.0,6.633333333333334
2026-01-20T23:06:39+00:00,SAT-51888,280.2054580729006,38.13041660934228,834.1064737356802,-4.866635107924552,170450.14732561348,10.5,10500170450.147326,47.655,-122.3035,60.0,6.65
2026-01-20T23:06:40+00:00,SAT-51888,279.9534938877972,38.4491593044724,829.2528854048843,-4.8357194726185675,169367.35100419022,10.5,10500169367.351004,47.655,-122.3035,60.0,6.666666666666667
2026-01-20T23:06:41+00:00,SAT-51888,279.69623488189563,38.77068829709172,824.4301298288426,-4.8042525040489235,168265.24465973623,10.5,10500168265.24466,47.655,-122.3035,60.0,6.683333333333334
2026-01-20T23:06:42+00:00,SAT-51888,279.4335250228841,39.095008001009674,819.6387568627702,-4.772224888291221,167143.50207922116,10.5,10500167143.502079,47.655,-122.3035,60.0,6.7
2026-01-20T23:06:43+00:00,SAT-51888,279.1652025921655,39.42212097430811,814.8793256508372,-4.7396272836225855,166001.7960759945,10.5,10500166001.796076,47.655,-122.3035,60.0,6.716666666666667
2026-01-20T23:06:44+00:00,SAT-51888,278.891099951911,39.75202779254798,810.1524046538937,-4.706450245685667,164839.7958687123,10.5,10500164839.795868,47.655,-122.3035,60.0,6.733333333333333
2026-01-20T23:06:45+00:00,SAT-51888,278.6110433074379,40.08472690950695,805.4585717518263,-4.672684365255332,163657.17190650935,10.5,10500163657.171907,47.655,-122.3035,60.0,6.75
2026-01-20T23:06:46+00:00,SAT-51888,278.32485245325404,40.42021451985231,800.7984142085239,-4.6383201257968585,162453.59088008484,10.5,10500162453.59088,47.655,-122.3035,60.0,6.766666666666667
2026-01-20T23:06:47+00:00,SAT-51888,278.0323405177779,40.758484403809824,796.1725287788961,-4.603348043159671,161228.72061436766,10.5,10500161228.720613,47.655,-122.3035,60.0,6.783333333333333
2026-01-20T23:06:48+00:00,SAT-51888,277.73331369125316,41.099527773342196,791.5815216765778,-4.567758587450747,159982.22733219274,10.5,10500159982.227333,47.655,-122.3035,60.0,6.8
2026-01-20T23:06:49+00:00,SAT-51888,277.4275709487726,41.4433331039841,787.0260086195494,-4.53154223997238,158713.77764850238,10.5,10500158713.777649,47.655,-122.3035,60.0,6.816666666666666
2026-01-20T23:06:50+00:00,SAT-51888,277.1149037608582,41.78988596163841,782.5066148189696,-4.494689499327048,157423.0387841645,10.5,10500157423.038784,47.655,-122.3035,60.0,6.833333333333333
2026-01-20T23:06:51+00:00,SAT-51888,276.79509579431664,42.1391688203461,778.023974961923,-4.457190878609626,156109.678467632,10.5,10500156109.678467,47.655,-122.3035,60.0,6.85
2026-01-20T23:06:52+00:00,SAT-51888,276.46792260428435,42.491160869880396,773.5787331969668,-4.419036917712141,154773.36536590752,10.5,10500154773.365366,47.655,-122.3035,60.0,6.866666666666666
2026-01-20T23:06:53+00:00,SAT-51888,276.133151316627,42.84583781383839,769.1715431074036,-4.380218213197576,153413.77013085014,10.5,10500153413.77013,47.655,-122.3035,60.0,6.883333333333334
2026-01-20T23:06:54+00:00,SAT-51888,275.79054029978613,43.20317165926768,764.8030676547656,-4.340725432443239,152030.56589453632,10.5,10500152030.565895,47.655,-122.3035,60.0,6.9
2026-01-20T23:06:55+00:00,SAT-51888,275.4398388273619,43.56313049622523,760.4739791081869,-4.3005493132457495,150623.42825542451,10.5,10500150623.428255,47.655,-122.3035,60.0,6.916666666666667
2026-01-20T23:06:56+00:00,SAT-51888,275.0807867330796,43.925678265621954,756.1849589741742,-4.259680680226501,149192.03585294416,10.5,10500149192.035852,47.655,-122.3035,60.0,6.933333333333334
2026-01-20T23:06:57+00:00,SAT-51888,274.713114057696,44.290774516231515,751.9366979100151,-4.218110477572194,147736.07151420743,10.5,10500147736.071514,47.655,-122.3035,60.0,6.95
2026-01-20T23:06:58+00:00,SAT-51888,274.33654068733136,44.65837415187527,747.7298956045342,-4.175829781807923,146255.22270137692,10.5,10500146255.222702,47.655,-122.3035,60.0,6.966666666666667
2026-01-20T23:06:59+00:00,SAT-51888,273.9507759855939,45.02842716673402,743.5652606461067,-4.1328298246504245,144749.1823120829,10.5,10500144749.182312,47.655,-122.3035,60.0,6.983333333333333
2026-01-20T23:07:00+00:00,SAT-51888,273.55551842004655,45.40087836927071,739.4435103678854,-4.08910197293962,143217.6479765412,10.5,10500143217.647976,47.655,-122.3035,60.0,7.0
2026-01-20T23:07:01+00:00,SAT-51888,273.1504551884619,45.775667090424506,735.3653707130394,-4.0446378169465,141660.32515046874,10.5,10500141660.32515,47.655,-122.3035,60.0,7.016666666666667
2026-01-20T23:07:02+00:00,SAT-51888,272.7352618367703,46.152726885480824,731.3315760119201,-3.999429138299503,140076.92599172986,10.5,10500140076.925991,47.655,-122.3035,60.0,7.033333333333333
2026-01-20T23:07:03+00:00,SAT-51888,272.309601881785,46.53198521848375,727.342868791219,-3.9534679601427607,138467.1711170899,10.5,10500138467.171118,47.655,-122.3035,60.0,7.05
2026-01-20T23:07:04+00:00,SAT-51888,271.8731264336229,46.91336313629504,723.3999995330989,-3.9067465258474017,136830.78885659532,10.5,10500136830.788857,47.655,-122.3035,60.0,7.066666666666666
2026-01-20T23:07:05+00:00,SAT-51888,271.425473828082,47.29677492526003,719.5037264555561,-3.8592574286044186,135167.5197924639,10.5,10500135167.519793,47.655,-122.3035,60.0,7.083333333333333
2026-01-20T23:07:06+00:00,SAT-51888,270.96626925622184,47.68212776491966,715.6548151635403,-3.8109934824400167,133477.11224149665,10.5,10500133477.112242,47.655,-122.3035,60.0,7.1
2026-01-20T23:07:07+00:00,SAT-51888,270.495124423094,48.069321353383685,711.8540384287096,-3.7619478873456136,131759.32803862912,10.5,10500131759.32804,47.655,-122.3035,60.0,7.116666666666666
2026-01-20T23:07:08+00:00,SAT-51888,270.01163720830084,48.458247533056415,708.1021758045011,-3.712114167599282,130013.94037668707,10.5,10500130013.940376,47.655,-122.3035,60.0,7.133333333333334
2026-01-20T23:07:09+00:00,SAT-51888,269.5153913587364,48.84878989436511,704.4000133027133,-3.661486238945909,128240.73615932008,10.5,10500128240.736158,47.655,-122.3035,60.0,7.15
2026-01-20T23:07:10+00:00,SAT-51888,269.0059562051608,49.240823370402204,700.748343003089,-3.610058433036356,126439.51685696424,10.5,10500126439.516857,47.655,-122.3035,60.0,7.166666666666667
2026-01-20T23:07:11+00:00,SAT-51888,268.4828864143722,49.634213818499276,697.1479626385236,-3.557825508861503,124610.09890731068,10.5,10500124610.098907,47.655,-122.3035,60.0,7.183333333333334
2026-01-20T23:07:12+00:00,SAT-51888,267.94572178681653,50.028817587615954,693.5996751688714,-3.5047826954833705,122752.31521193036,10.5,10500122752.315212,47.655,-122.3035,60.0,7.2
2026-01-20T23:07:13+00:00,SAT-51888,267.3939871048648,50.42448107540106,690.1042883121345,-3.450925715101185,120866.01594414508,10.5,10500120866.015944,47.655,-122.3035,60.0,7.216666666666667
2026-01-20T23:07:14+00:00,SAT-51888,266.82719204453593,50.821040273550516,686.6626140526479,-3.3962508270252174,118951.07008917743,10.5,10500118951.07009,47.655,-122.3035,60.0,7.233333333333333
2026-01-20T23:07:15+00:00,SAT-51888,266.2448311590153,51.218320304809694,683.2754681054071,-3.340754829314649,117007.36550151576,10.5,10500117007.365501,47.655,-122.3035,60.0,7.25
2026-01-20T23:07:16+00:00,SAT-51888,265.64638395404376,51.61613494794714,679.9436693787658,-3.2844351160437757,115034.81091061886,10.5,10500115034.810911,47.655,-122.3035,60.0,7.266666666666667
2026-01-20T23:07:17+00:00,SAT-51888,265.0313150608801,52.01428615859359,676.668039380016,-3.2272897067513124,113033.33695235514,10.5,10500113033.336952,47.655,-122.3035,60.0,7.283333333333333
2026-01-20T23:07:18+00:00,SAT-51888,264.3990745271256,52.412563584760555,673.4494015916025,-3.1693172581773412,111002.89658008036,10.5,10500111002.89658,47.655,-122.3035,60.0,7.3
2026-01-20T23:07:19+00:00,SAT-51888,263.7490982472705,52.81074407703072,670.2885808356286,-3.110517092607247,108943.4660573619,10.5,10500108943.466057,47.655,-122.3035,60.0,7.316666666666666
2026-01-20T23:07:20+00:00,SAT-51888,263.0808085504685,53.20859119798575,667.1864026100952,-3.050889281541578,106855.04788845145,10.5,10500106855.047888,47.655,-122.3035,60.0,7.333333333333333
2026-01-20T23:07:21+00:00,SAT-51888,262.39361495594324,53.605854741306935,664.1436923416948,-2.9904346078954283,104737.66949434731,10.5,10500104737.669495,47.655,-122.3035,60.0,7.35
2026-01-20T23:07:22+00:00,SAT-51888,261.6869151440096,54.00227024897195,661.1612746763034,-2.9291546293515887,102591.3854316898,10.5,10500102591.385431,47.655,-122.3035,60.0,7.366666666666666
2026-01-20T23:07:23+00:00,SAT-51888,260.960096149869,54.397558543638176,658.2399727062893,-2.867051697397949,100416.27805953167,10.5,10500100416.278059,47.655,-122.3035,60.0,7.383333333333334
2026-01-20T23:07:24+00:00,SAT-51888,260.2125358164639,54.791425275775715,655.3806071788391,-2.8041290139533483,98212.45952261468,10.5,10500098212.459522,47.655,-122.3035,60.0,7.4
2026-01-20T23:07:25+00:00,SAT-51888,259.44360452829056,55.18356049661596,652.5839956478023,-2.7403906228761077,95980.07145396275,10.5,10500095980.071453,47.655,-122.3035,60.0,7.416666666666667
2026-01-20T23:07:26+00:00,SAT-51888,258.6526672729802,55.573638254872684,649.8509516340122,-2.675841445774468,93719.28622911492,10.5,10500093719.286228,47.655,-122.3035,60.0,7.433333333333334
2026-01-20T23:07:27+00:00,SAT-51888,257.8390860553947,55.96131623084545,647.1822837498876,-2.610487312936591,91430.30804942467,10.5,10500091430.30805,47.655,-122.3035,60.0,7.45
2026-01-20T23:07:28+00:00,SAT-51888,257.002222698732,56.34623541610241,644.5787947931897,-2.5443350146308976,89113.37473881489,10.5,10500089113.374739,47.655,-122.3035,60.0,7.466666666666667
2026-01-20T23:07:29+00:00,SAT-51888,256.1414420617054,56.728019851820655,642.0412807896148,-2.4773922613475277,86768.75635126565,10.5,10500086768.756351,47.655,-122.3035,60.0,7.483333333333333
2026-01-20T23:07:30+00:00,SAT-51888,255.256115734377,57.10627642328049,639.5705300750399,-2.40966777745333,84396.75845100802,10.5,10500084396.758451,47.655,-122.3035,60.0,7.5
2026-01-20T23:07:31+00:00,SAT-51888,254.34562620648302,57.48059474251502,637.1673222843636,-2.3411712331361603,81997.71972892554,10.5,10500081997.719728,47.655,-122.3035,60.0,7.516666666666667
2026-01-20T23:07:32+00:00,SAT-51888,253.40937159295615,57.85054710813672,634.8324274082217,-2.271913372417808,79572.01648610848,10.5,10500079572.016485,47.655,-122.3035,60.0,7.533333333333333
2026-01-20T23:07:33+00:00,SAT-51888,252.44677087751074,58.21568858718216,632.5666047220313,-2.2019059198040702,77120.05936434444,10.5,10500077120.059364,47.655,-122.3035,60.0,7.55
2026-01-20T23:07:34+00:00,SAT-51888,251.45726977666672,58.575557200439555,630.3706018081356,-2.131161660056448,74642.29614006067,10.5,10500074642.29614,47.655,-122.3035,60.0,7.566666666666666
2026-01-20T23:07:35+00:00,SAT-51888,250.44034717855993,58.92967425517118,628.2451534983893,-2.0596944307608265,72139.21146404782,10.5,10500072139.211464,47.655,-122.3035,60.0,7.583333333333333
2026-01-20T23:07:36+00:00,SAT-51888,249.3955221940386,59.27754482955165,626.1909808241595,-1.9875191131478906,69611.32653995202,10.5,10500069611.32654,47.655,-122.3035,60.0,7.6
2026-01-20T23:07:37+00:00,SAT-51888,248.32236181925254,59.61865842683538,624.2087899754761,-1.9146516656061452,67059.2002980426,10.5,10500067059.200298,47.655,-122.3035,60.0,7.616666666666666
2026-01-20T23:07:38+00:00,SAT-51888,247.22048916947796,59.95248982550199,622.2992712267637,-1.8411090873942655,64483.428124265185,10.5,10500064483.428123,47.655,-122.3035,60.0,7.633333333333334
2026-01-20T23:07:39+00:00,SAT-51888,246.0895922818511,60.27850013259865,620.4630978987595,-1.7669094569406645,61884.64320165445,10.5,10500061884.643202,47.655,-122.3035,60.0,7.65
2026-01-20T23:07:40+00:00,SAT-51888,244.92943338997097,60.596138071765644,618.7009252822395,-1.6920719006382905,59263.515417396025,10.5,10500059263.515417,47.655,-122.3035,60.0,7.666666666666667
2026-01-20T23:07:41+00:00,SAT-51888,243.73985862618497,60.904841511577956,617.0133895928607,-1.6166165791838085,56620.750884366775,10.5,10500056620.750885,47.655,-122.3035,60.0,7.683333333333334
2026-01-20T23:07:42+00:00,SAT-51888,242.5208080364538,61.20403925290169,615.4011069396327,-1.5405646907538455,53957.09205238038,10.5,10500053957.092052,47.655,-122.3035,60.0,7.7
2026-01-20T23:07:43+00:00,SAT-51888,241.27232576080218,61.493153091718995,613.8646722902168,-1.4639384529686514,51273.31707647843,10.5,10500051273.317076,47.655,-122.3035,60.0,7.716666666666667
2026-01-20T23:07:44+00:00,SAT-51888,239.99457022295556,61.77160016356636,612.4046584542172,-1.3867610708623122,48570.238695111795,10.5,10500048570.238695,47.655,-122.3035,60.0,7.733333333333333
2026-01-20T23:07:45+00:00,SAT-51888,238.68782414557674,62.038795572278424,611.0216150984127,-1.3090567324827087,45848.704076032634,10.5,10500045848.704077,47.655,-122.3035,60.0,7.75
2026-01-20T23:07:46+00:00,SAT-51888,237.3525041387185,62.29415530824655,609.7160677663798,-1.230850548899732,43109.59271512824,10.5,10500043109.592714,47.655,-122.3035,60.0,7.766666666666667
2026-01-20T23:07:47+00:00,SAT-51888,235.98916965584348,62.53709943894804,608.4885169579444,-1.1521685637397385,40353.81677035803,10.5,10500040353.81677,47.655,-122.3035,60.0,7.783333333333333
2026-01-20T23:07:48+00:00,SAT-51888,234.59853097293916,62.76705557116662,607.3394371991246,-1.073037688988501,37582.318813301375,10.5,10500037582.318813,47.655,-122.3035,60.0,7.8
2026-01-20T23:07:49+00:00,SAT-51888,233.18145596278995,62.98346254820713,606.2692761761012,-0.9934856731790644,34796.070714961665,10.5,10500034796.070715,47.655,-122.3035,60.0,7.816666666666666
2026-01-20T23:07:50+00:00,SAT-51888,231.73897532855676,63.185774356898584,605.2784539009108,-0.9135410686245301,31996.072498119906,10.5,10500031996.072498,47.655,-122.3035,60.0,7.833333333333333
2026-01-20T23:07:51+00:00,SAT-51888,230.2722859911882,63.373464203449835,604.3673619098226,-0.833233174695776,29183.350350680426,10.5,10500029183.350351,47.655,-122.3035,60.0,7.85
2026-01-20T23:07:52+00:00,SAT-51888,228.78275236785623,63.54602870299784,603.536362518282,-0.7525919956249834,26358.955147772012,10.5,10500026358.955149,47.655,-122.3035,60.0,7.866666666666666
2026-01-20T23:07:53+00:00,SAT-51888,227.271905263699,63.702992126385396,602.7857881179397,-0.6716481846069279,23523.960493938586,10.5,10500023523.960493,47.655,-122.3035,60.0,7.883333333333334
2026-01-20T23:07:54+00:00,SAT-51888,225.74143817748285,63.84391063371527,602.1159405294281,-0.590432993334534,20679.46095566089,10.5,10500020679.460957,47.655,-122.3035,60.0,7.9
2026-01-20T23:07:55+00:00,SAT-51888,224.19320085308655,63.968376421412955,601.5270904054692,-0.508978213393513,17826.570008748808,10.5,10500017826.57001,47.655,-122.3035,60.0,7.916666666666667
2026-01-20T23:07:56+00:00,SAT-51888,222.62919000127619,64.07602170170746,601.0194766924268,-0.4273161144669049,14966.417874003024,10.5,10500014966.417873,47.655,-122.3035,60.0,7.933333333333334
2026-01-20T23:07:57+00:00,SAT-51888,221.05153719894804,64.16652243194113,600.5933061534928,-0.34547938220610036,12100.149341195414,10.5,10500012100.149342,47.655,-122.3035,60.0,7.95
2026-01-20T23:07:58+00:00,SAT-51888,219.4624940591965,64.23960171193201,600.2487529538342,-0.26350105973118915,9228.921720163775,10.5,10500009228.92172,47.655,-122.3035,60.0,7.966666666666667
2026-01-20T23:07:59+00:00,SAT-51888,217.864414840859,64.29503277177724,599.9859583040811,-0.18141447307880368,6353.902229679969,10.5,10500006353.90223,47.655,-122.3035,60.0,7.983333333333333
2026-01-20T23:08:00+00:00,SAT-51888,216.25973683901222,64.3326414746556,599.8050301781694,-0.09925317206033078,3476.2659260543282,10.5,10500003476.265926,47.655,-122.3035,60.0,8.0
2026-01-20T23:08:01+00:00,SAT-51888,214.65095887296147,64.35230827541878,599.7060430901664,-0.017050858125960203,597.1931766294873,10.5,10500000597.193176,47.655,-122.3035,60.0,8.016666666666667
2026-01-20T23:08:02+00:00,SAT-51888,213.04061837080434,64.3539695819986,599.6890379430381,0.06515868304024929,-2282.1327010255127,10.5,10499997717.867298,47.655,-122.3035,60.0,8.033333333333333
2026-01-20T23:08:03+00:00,SAT-51888,211.4312675424129,64.33761848504817,599.7540219446411,0.14734165152179837,-5160.527890861361,10.5,10499994839.472109,47.655,-122.3035,60.0,8.05
2026-01-20T23:08:04+00:00,SAT-51888,209.82544921087293,64.30330483599896,599.9009685935283,0.2294643016486766,-8036.810476770246,10.5,10499991963.189524,47.655,-122.3035,60.0,8.066666666666666
2026-01-20T23:08:05+00:00,SAT-51888,208.2256728670016,64.25113467182756,600.1298177330501,0.31149301176539046,-10909.80288615733,10.5,10499989090.197113,47.655,-122.3035,60.0,8.083333333333334
2026-01-20T23:08:06+00:00,SAT-51888,206.6343914928084,64.18126900157021,600.440475675037,0.3933943513431634,-13778.334240493854,10.5,10499986221.66576,47.655,-122.3035,60.0,8.1
2026-01-20T23:08:07+00:00,SAT-51888,205.05397970766404,64.0939219870788,600.8328153904126,0.4751351509924173,-16641.24280745042,10.5,10499983358.757193,47.655,-122.3035,60.0,8.116666666666667
2026-01-20T23:08:08+00:00,SAT-51888,203.48671367964772,63.98935856436751,601.306676769634,0.5566825650511815,-19497.378193007797,10.5,10499980502.621807,47.655,-122.3035,60.0,8.133333333333333
2026-01-20T23:08:09+00:00,SAT-51888,201.93475322581978,63.86789156702312,601.8618669455503,0.6380041395710471,-22345.603722612643,10.5,10499977654.396276,47.655,-122.3035,60.0,8.15
2026-01-20T23:08:10+00:00,SAT-51888,200.40012638295616,63.72987842055185,602.4981606840678,0.7190678734449534,-25184.798582131145,10.5,10499974815.201418,47.655,-122.3035,60.0,8.166666666666666
2026-01-20T23:08:11+00:00,SAT-51888,198.88471668243827,63.57571748629497,603.2153008357753,0.7998422807964993,-28013.86000298661,10.5,10499971986.139997,47.655,-122.3035,60.0,8.183333333333334
2026-01-20T23:08:12+00:00,SAT-51888,197.3902532378144,63.40584413586877,604.0129988497954,0.8802964453142277,-30831.70516517594,10.5,10499969168.294834,47.655,-122.3035,60.0,8.2
2026-01-20T23:08:13+00:00,SAT-51888,195.91830367466173,63.220726639862264,604.8909353418204,0.9604000824259603,-33637.27337487784,10.5,10499966362.726625,47.655,-122.3035,60.0,8.216666666666667
2026-01-20T23:08:14+00:00,SAT-51888,194.47026982266445,63.020861949329834,605.8487607241608,1.0401235893418026,-36429.52781717053,10.5,10499963570.472183,47.655,-122.3035,60.0,8.233333333333333
2026-01-20T23:08:15+00:00,SAT-51888,193.04738604624387,62.806771448372245,606.8860958856965,1.119438092821591,-39207.45722904979,10.5,10499960792.54277,47.655,-122.3035,60.0,8.25
2026-01-20T23:08:16+00:00,SAT-51888,191.65072001109885,62.578996747572,608.0025329194738,1.1983154931489897,-41970.07743958786,10.5,10499958029.92256,47.655,-122.3035,60.0,8.266666666666667
2026-01-20T23:08:17+00:00,SAT-51888,190.2811756326349,62.33809558038534,609.1976358941532,1.2767285214882862,-44716.43337881103,10.5,10499955283.566622,47.655,-122.3035,60.0,8.283333333333333
2026-01-20T23:08:18+00:00,SAT-51888,188.93949791004215,62.08463785228971,610.4709416826639,1.354650768708072,-47445.60008722686,10.5,10499952554.399912,47.655,-122.3035,60.0,8.3
2026-01-20T23:08:19+00:00,SAT-51888,187.6262793784813,61.81920189154871,611.8219608196027,1.4320567147685466,-50156.683745091876,10.5,10499949843.316256,47.655,-122.3035,60.0,8.316666666666666
2026-01-20T23:08:20+00:00,SAT-51888,186.34196786671893,61.54237093490525,613.2501783879428,1.5089217797950591,-52848.82346122304,10.5,10499947151.176538,47.655,-122.3035,60.0,8.333333333333334
2026-01-20T23:08:21+00:00,SAT-51888,185.0868752382747,61.25472986843806,614.7550549566776,1.5852223433879225,-55521.1919493091,10.5,10499944478.80805,47.655,-122.3035,60.0,8.35
2026-01-20T23:08:22+00:00,SAT-51888,183.8611868669258,60.95686224580737,616.3360275377236,1.6609357653628576,-58172.99625432874,10.5,10499941827.003746,47.655,-122.3035,60.0,8.366666666666667
2026-01-20T23:08:23+00:00,SAT-51888,182.66497157889955,60.649347591693264,617.9925105635085,1.7360404088465364,-60803.47856145411,10.5,10499939196.521439,47.655,-122.3035,60.0,8.383333333333333
2026-01-20T23:08:24+00:00,SAT-51888,181.49819182544906,60.33275899144233,619.7238968875924,1.8105156802666154,-63411.91759667103,10.5,10499936588.082403,47.655,-122.3035,60.0,8.4
2026-01-20T23:08:25+00:00,SAT-51888,180.36071387022014,60.007660959732696,621.5295588251713,1.8843420025892625,-65997.62768944394,10.5,10499934002.37231,47.655,-122.3035,60.0,8.416666666666666
2026-01-20T23:08:26+00:00,SAT-51888,179.25231786639654,59.674607591552636,623.408849166891,1.9575008612096254,-68559.96037999417,10.5,10499931440.03962,47.655,-122.3035,60.0,8.433333333333334
2026-01-20T23:08:27+00:00,SAT-51888,178.17270762642872,59.334140969585214,625.3611022384267,2.029974795738363,-71098.30413162966,10.5,10499928901.695868,47.655,-122.3035,60.0,8.45
2026-01-20T23:08:28+00:00,SAT-51888,177.1215200104507,58.98678982260219,627.3856349518742,2.101747404872934,-73612.08450135795,10.5,10499926387.915499,47.655,-122.3035,60.0,8.466666666666667
2026-01-20T23:08:29+00:00,SAT-51888,176.09833383468953,58.63306841514858,629.4817478619957,2.1728033557293984,-76100.76446672545,10.5,10499923899.235533,47.655,-122.3035,60.0,8.483333333333333
2026-01-20T23:08:30+00:00,SAT-51888,175.1026782368194,58.27347564942424,631.6487262317755,2.243128363644877,-78563.84371841405,10.5,10499921436.156282,47.655,-122.3035,60.0,8.5
2026-01-20T23:08:31+00:00,SAT-51888,174.1340404709055,57.908494365313935,633.885841077829,2.312709204010305,-81000.85907467426,10.5,10499918999.140924,47.655,-122.3035,60.0,8.516666666666667
2026-01-20T23:08:32+00:00,SAT-51888,173.19187309261252,57.53859081413793,636.192350227617,2.3815336952025046,-83411.38388353417,10.5,10499916588.616116,47.655,-122.3035,60.0,8.533333333333333
2026-01-20T23:08:33+00:00,SAT-51888,172.27560054119914,57.16421429226469,638.5674993596346,2.4495906909885874,-85795.02775676954,10.5,10499914204.972242,47.655,-122.3035,60.0,8.55
2026-01-20T23:08:34+00:00,SAT-51888,171.38462511878498,56.78579691497753,641.0105230360243,2.516870054645373,-88151.43566345626,10.5,10499911848.564337,47.655,-122.3035,60.0,8.566666666666666
2026-01-20T23:08:35+00:00,SAT-51888,170.51833238726869,56.4037535162821,643.5206457093809,2.583362673766621,-90480.28844858239,10.5,10499909519.711552,47.655,-122.3035,60.0,8.583333333333334
2026-01-20T23:08:36+00:00,SAT-51888,169.67609599109898,56.018481652349514,646.0970827443234,2.6490603984875265,-92781.30066940852,10.5,10499907218.699331,47.655,-122.3035,60.0,8.6
2026-01-20T23:08:37+00:00,SAT-51888,168.85728196110622,55.630361705403324,648.7390413774531,2.713956063411349,-95054.22136343125,10.5,10499904945.778637,47.655,-122.3035,60.0,8.616666666666667
2026-01-20T23:08:38+00:00,SAT-51888,168.0612525007973,55.239757061580356,651.4457216991842,2.778043431008218,-97298.83206596973,10.5,10499902701.167934,47.655,-122.3035,60.0,8.633333333333333
2026-01-20T23:08:39+00:00,SAT-51888,167.28736931627992,54.84701436207776,654.2163175791237,2.841317189661279,-99514.94674173369,10.5,10499900485.053259,47.655,-122.3035,60.0,8.65
2026-01-20T23:08:40+00:00,SAT-51888,166.53499650667843,54.45246380817179,657.0500175895014,2.9037729247160846,-101702.4107708503,10.5,10499898297.58923,47.655,-122.3035,60.0,8.666666666666666
2026-01-20T23:08:41+00:00,SAT-51888,165.8035030593261,54.05641951400896,659.946005899727,2.965407097233956,-103861.10020471743,10.5,10499896138.899796,47.655,-122.3035,60.0,8.683333333333334
2026-01-20T23:08:42+00:00,SAT-51888,165.09226498293765,53.659179897079795,662.9034631497595,3.026216976776108,-105990.919411819,10.5,10499894009.080587,47.655,-122.3035,60.0,8.7
2026-01-20T23:08:43+00:00,SAT-51888,164.40066712294586,53.26102810447498,665.9215672564387,3.086200684324462,-108091.80258099371,10.5,10499891908.197418,47.655,-122.3035,60.0,8.716666666666667
2026-01-20T23:08:44+00:00,SAT-51888,163.72810466476852,52.86223245314231,668.9994942626244,3.145357104521363,-110163.71064769852,10.5,10499889836.289352,47.655,-122.3035,60.0,8.733333333333333
2026-01-20T23:08:45+00:00,SAT-51888,163.07398438798924,52.46304689562442,672.1364190988077,3.203685874628891,-112206.63090731709,10.5,10499887793.369093,47.655,-122.3035,60.0,8.75
2026-01-20T23:08:46+00:00,SAT-51888,162.43772568087505,52.06371149551465,675.3315163337153,3.261187346466882,-114220.57568206823,10.5,10499885779.424318,47.655,-122.3035,60.0,8.766666666666667
2026-01-20T23:08:47+00:00,SAT-51888,161.81876134805478,51.66445291163509,678.5839608869502,3.3178625967825166,-116205.58268419288,10.5,10499883794.417316,47.655,-122.3035,60.0,8.783333333333333
2026-01-20T23:08:48+00:00,SAT-51888,161.21653822675054,51.26548488108005,681.8929287519758,3.3737133372731885,-118161.71186457424,10.5,10499881838.288136,47.655,-122.3035,60.0,8.8
2026-01-20T23:08:49+00:00,SAT-51888,160.63051765407994,50.86700871015889,685.2575976293643,3.428741891877085,-120089.04461735788,10.5,10499879910.955383,47.655,-122.3035,60.0,8.816666666666666
2026-01-20T23:08:50+00:00,SAT-51888,160.06017579136488,50.46921376176609,688.6771475373955,3.482951236055268,-121987.68515577637,10.5,10499878012.314844,47.655,-122.3035,60.0,8.833333333333334
2026-01-20T23:08:51+00:00,SAT-51888,159.5050038138646,50.07227792994648,692.1507614618342,3.5363448683256675,-123857.75601272634,10.5,10499876142.243988,47.655,-122.3035,60.0,8.85
2026-01-20T23:08:52+00:00,SAT-51888,158.96450801320248,49.67636811931127,695.6776258775836,3.588926855081577,-125699.39961050173,10.5,10499874300.60039,47.655,-122.3035,60.0,8.866666666666667
2026-01-20T23:08:53+00:00,SAT-51888,158.4382097959725,49.28164070740618,699.2569313150384,3.640701744055679,-127512.775229938,10.5,10499872487.22477,47.655,-122.3035,60.0,8.883333333333333
2026-01-20T23:08:54+00:00,SAT-51888,157.92564561496917,48.88824200387068,702.8878728401351,3.691674598956878,-129298.06022354044,10.5,10499870701.939777,47.655,-122.3035,60.0,8.9
2026-01-20T23:08:55+00:00,SAT-51888,157.42636682509132,48.49630869183199,706.5696505689432,3.741850886324946,-131055.4460526553,10.5,10499868944.553947,47.655,-122.3035,60.0,8.916666666666666
2026-01-20T23:08:56+00:00,SAT-51888,156.93993949775933,48.105968266887764,710.3014700694175,3.7912365474109704,-132785.14080502716,10.5,10499867214.859196,47.655,-122.3035,60.0,8.933333333333334
2026-01-20T23:08:57+00:00,SAT-51888,156.46594417511656,47.717339453187265,714.0825428348356,3.8398378560464517,-134487.3642167734,10.5,10499865512.635784,47.655,-122.3035,60.0,8.95
2026-01-20T23:08:58+00:00,SAT-51888,156.00397560341483,47.33053261885822,717.9120866154875,3.8876615031174353,-136162.3506310258,10.5,10499863837.649368,47.655,-122.3035,60.0,8.966666666666667
2026-01-20T23:08:59+00:00,SAT-51888,155.5536424210647,46.94565016685498,721.7893258346122,3.9347145029092636,-137810.34571772738,10.5,10499862189.654282,47.655,-122.3035,60.0,8.983333333333333
2026-01-20T23:09:00+00:00,SAT-51888,155.11456683247894,46.56278691963237,725.7134919109302,3.98100417365281,-139431.6057922795,10.5,10499860568.394207,47.655,-122.3035,60.0,9.0
2026-01-20T23:09:01+00:00,SAT-51888,154.68638426230146,46.182030489779244,729.6838235617716,4.026538120958556,-141026.3972353328,10.5,10499858973.602764,47.655,-122.3035,60.0,9.016666666666667
2026-01-20T23:09:02+00:00,SAT-51888,154.2687429953399,45.80346163647766,733.6995670896902,4.071324232156405,-142594.99629454405,10.5,10499857405.003706,47.655,-122.3035,60.0,9.033333333333333
2026-01-20T23:09:03+00:00,SAT-51888,153.86130380476996,45.42715460703996,737.7599766634231,4.115370625259128,-144137.68729705948,10.5,10499855862.312702,47.655,-122.3035,60.0,9.05
2026-01-20T23:09:04+00:00,SAT-51888,153.46373957780258,45.05317746799814,741.8643145479568,4.158685629686336,-145654.7619743874,10.5,10499854345.238026,47.655,-122.3035,60.0,9.066666666666666
2026-01-20T23:09:05+00:00,SAT-51888,153.07573493773518,44.68159242289451,746.0118513153687,4.201277778047718,-147146.51917461192,10.5,10499852853.480825,47.655,-122.3035,60.0,9.083333333333334
2026-01-20T23:09:06+00:00,SAT-51888,152.6969858642787,44.31245611613863,750.2018660474698,4.243155783179506,-148613.26405811321,10.5,10499851386.73594,47.655,-122.3035,60.0,9.1
2026-01-20T23:09:07+00:00,SAT-51888,152.327199315687,43.945819924665265,754.4336465155501,4.284328520594126,-150055.3074828798,10.5,10499849944.692516,47.655,-122.3035,60.0,9.116666666666667
2026-01-20T23:09:08+00:00,SAT-51888,151.96609285460764,43.5817302372651,758.7064893426179,4.324804974495064,-151472.96411372087,10.5,10499848527.035887,47.655,-122.3035,60.0,9.133333333333333
2026-01-20T23:09:09+00:00,SAT-51888,151.61339428166056,43.22022872501044,763.0197001117995,4.3645942652919985,-152866.5533859627,10.5,10499847133.446613,47.655,-122.3035,60.0,9.15
2026-01-20T23:09:10+00:00,SAT-51888,151.2688412711894,42.86135259617806,767.3725935021803,4.403705634033919,-154236.39896023052,10.5,10499845763.60104,47.655,-122.3035,60.0,9.166666666666666
2026-01-20T23:09:11+00:00,SAT-51888,150.9321810142204,42.505134839972754,771.7644934091207,4.442148380894066,-155582.82656793084,10.5,10499844417.173431,47.655,-122.3035,60.0,9.183333333333334
2026-01-20T23:09:12+00:00,SAT-51888,150.6031698733545,42.151604463095104,776.1947330032223,4.479931863875882,-156906.16396592857,10.5,10499843093.836035,47.655,-122.3035,60.0,9.2
2026-01-20T23:09:13+00:00,SAT-51888,150.28157304466507,41.800786714467044,780.6626547880014,4.5170655295139275,-158206.74201182288,10.5,10499841793.257988,47.655,-122.3035,60.0,9.216666666666667
2026-01-20T23:09:14+00:00,SAT-51888,149.96716422527973,41.45270329623478,785.1676106881858,4.553558861652834,-159484.89286996925,10.5,10499840515.10713,47.655,-122.3035,60.0,9.233333333333333
2026-01-20T23:09:15+00:00,SAT-51888,149.65972529349588,41.1073725680036,789.7089620869216,4.589421356303373,-160740.94913083312,10.5,10499839259.050869,47.655,-122.3035,60.0,9.25
2026-01-20T23:09:16+00:00,SAT-51888,149.3590459993397,40.76480974246,794.2860798379089,4.624662496766379,-161975.24293972395,10.5,10499838024.757061,47.655,-122.3035,60.0,9.266666666666667
2026-01-20T23:09:17+00:00,SAT-51888,149.06492366553758,40.42502707266577,798.898344252725,4.659291836040833,-163188.1088830752,10.5,10499836811.891117,47.655,-122.3035,60.0,9.283333333333333
2026-01-20T23:09:18+00:00,SAT-51888,148.77716289191756,40.08803402363253,803.5451451703356,4.693318884254455,-164379.8800457875,10.5,10499835620.119955,47.655,-122.3035,60.0,9.3
2026-01-20T23:09:19+00:00,SAT-51888,148.49557527697266,39.75383744308398,808.2258819143395,4.726753101733878,-165550.88776851658,10.5,10499834449.112232,47.655,-122.3035,60.0,9.316666666666666
2026-01-20T23:09:20+00:00,SAT-51888,148.21997914844954,39.42244172362304,812.9399632432994,4.759603980193639,-166701.46449125552,10.5,10499833298.53551,47.655,-122.3035,60.0,9.333333333333334
2026-01-20T23:09:21+00:00,SAT-51888,147.95019929809882,39.09384895069805,817.6868073820477,4.791880935152411,-167831.93998529582,10.5,10499832168.060015,47.655,-122.3035,60.0,9.35
2026-01-20T23:09:22+00:00,SAT-51888,147.68606673212653,38.768059050114445,822.4658419456924,4.823593365199178,-168942.64342897967,10.5,10499831057.356571,47.655,-122.3035,60.0,9.366666666666667
2026-01-20T23:09:23+00:00,SAT-51888,147.4274184269484,38.445069923644326,827.2765039227355,4.854750571087568,-170033.90057404133,10.5,10499829966.099426,47.655,-122.3035,60.0,9.383333333333333
2026-01-20T23:09:24+00:00,SAT-51888,147.1740970983448,38.12487758272717,832.1182395774973,4.88536185499397,-171106.03722204608,10.5,10499828893.962778,47.655,-122.3035,60.0,9.4
2026-01-20T23:09:25+00:00,SAT-51888,146.92595097348666,37.807476268465564,836.9905044515382,4.915436386124154,-172159.37451736565,10.5,10499827840.625483,47.655,-122.3035,60.0,9.416666666666666
2026-01-20T23:09:26+00:00,SAT-51888,146.68283357894728,37.49285857379959,841.8927632310413,4.944983327622479,-173194.23339207564,10.5,10499826805.766607,47.655,-122.3035,60.0,9.433333333333334
2026-01-20T23:09:27+00:00,SAT-51888,146.4446035297231,37.181015550959174,846.8244897407701,4.974011701339696,-174210.92982955163,10.5,10499825789.070171,47.655,-122.3035,60.0,9.45
2026-01-20T23:09:28+00:00,SAT-51888,146.21112433358664,36.87193682152925,851.7851668031522,5.002530482538559,-175209.77818146066,10.5,10499824790.221819,47.655,-122.3035,60.0,9.466666666666667
2026-01-20T23:09:29+00:00,SAT-51888,145.9822641980778,36.56561067459705,856.7742861918164,5.030548576381669,-176191.09034426583,10.5,10499823808.909657,47.655,-122.3035,60.0,9.483333333333333
2026-01-20T23:09:30+00:00,SAT-51888,145.7578958461669,36.26202416097923,861.7913485616806,5.058074730356701,-177155.1726919873,10.5,10499822844.827309,47.655,-122.3035,60.0,9.5
2026-01-20T23:09:31+00:00,SAT-51888,145.53789634363943,35.961163187444114,866.8358632916994,5.08511764739875,-178102.33003822557,10.5,10499821897.669962,47.655,-122.3035,60.0,9.516666666666667
2026-01-20T23:09:32+00:00,SAT-51888,145.3221469275824,35.66301259900062,871.9073484404319,5.1116859390251035,-179032.86399474263,10.5,10499820967.136005,47.655,-122.3035,60.0,9.533333333333333
2026-01-20T23:09:33+00:00,SAT-51888,145.11053284428482,35.367556259381146,877.005330654867,5.137788066183286,-179947.07089971055,10.5,10499820052.9291,47.655,-122.3035,60.0,9.55
2026-01-20T23:09:34+00:00,SAT-51888,144.90294319614605,35.07477713037781,882.1293450202595,5.16343241852305,-180845.24459415194,10.5,10499819154.755405,47.655,-122.3035,60.0,9.566666666666666
2026-01-20T23:09:35+00:00,SAT-51888,144.69927079124534,34.784657342218296,887.2789349890219,5.188627264548786,-181727.67467606626,10.5,10499818272.325323,47.655,-122.3035,60.0,9.583333333333334
2026-01-20T23:09:36+00:00,SAT-51888,144.49941200120028,34.49717826276824,892.4536522599054,5.213380784407704,-182594.64764881073,10.5,10499817405.352352,47.655,-122.3035,60.0,9.6
2026-01-20T23:09:37+00:00,SAT-51888,144.30326662348412,34.21232056100671,897.6530566898765,5.237700997533816,-183446.44438688672,10.5,10499816553.555613,47.655,-122.3035,60.0,9.616666666666667
2026-01-20T23:09:38+00:00,SAT-51888,144.11073775225452,33.93006427078618,902.8767161338388,5.2615958718991855,-184283.34396238028,10.5,10499815716.656038,47.655,-122.3035,60.0,9.633333333333333
2026-01-20T23:09:39+00:00,SAT-51888,143.92173165010783,33.6503888451192,908.1242063933056,5.285073206814249,-185105.61954013404,10.5,10499814894.38046,47.655,-122.3035,60.0,9.65
2026-01-20T23:09:40+00:00,SAT-51888,143.73615762978034,33.37327321351812,913.3951110481925,5.308140730491785,-185913.54179484976,10.5,10499814086.458204,47.655,-122.3035,60.0,9.666666666666666
2026-01-20T23:09:41+00:00,SAT-51888,143.5539279368846,33.09869583094909,918.6890213859093,5.330806004946672,-186707.37558027578,10.5,10499813292.62442,47.655,-122.3035,60.0,9.683333333333334
2026-01-20T23:09:42+00:00,SAT-51888,143.37495764105506,32.82663472881269,924.0055362356079,5.353076510401279,-187487.3828854408,10.5,10499812512.617115,47.655,-122.3035,60.0,9.7
2026-01-20T23:09:43+00:00,SAT-51888,143.1991645284909,32.557067558677865,929.3442618866094,5.374959619092581,-188253.8219172682,10.5,10499811746.178083,47.655,-122.3035,60.0,9.716666666666667
2026-01-20T23:09:44+00:00,SAT-51888,143.0264689998667,32.2899716347726,934.7048119807077,5.396462552782194,-189006.94561239774,10.5,10499810993.054388,47.655,-122.3035,60.0,9.733333333333333
2026-01-20T23:09:45+00:00,SAT-51888,142.85679397403413,32.02532397605227,940.0868073620976,5.417592429338019,-189747.00326867198,10.5,10499810252.99673,47.655,-122.3035,60.0,9.75
2026-01-20T23:09:46+00:00,SAT-51888,142.69006479392715,31.763101343499837,945.4898759737606,5.438356234068103,-190474.23954112644,10.5,10499809525.760458,47.655,-122.3035,60.0,9.766666666666667
2026-01-20T23:09:47+00:00,SAT-51888,142.52620913746026,31.50328027657242,950.9136527252582,5.458760876674293,-191188.89643674783,10.5,10499808811.103563,47.655,-122.3035,60.0,9.783333333333333
2026-01-20T23:09:48+00:00,SAT-51888,142.365156930115,31.24583712477576,956.3577794173309,5.478813098172159,-191891.21005441592,10.5,10499808108.789946,47.655,-122.3035,60.0,9.8
2026-01-20T23:09:49+00:00,SAT-51888,142.20684026426005,30.990748081668194,961.821904573663,5.498519560625079,-192581.41372777073,10.5,10499807418.586271,47.655,-122.3035,60.0,9.816666666666666
2026-01-20T23:09:50+00:00,SAT-51888,142.05119331876875,30.737989212660437,967.305683362142,5.517886790076112,-193259.73602644523,10.5,10499806740.263973,47.655,-122.3035,60.0,9.833333333333334
2026-01-20T23:09:51+00:00,SAT-51888,141.89815228395256,30.4875364837035,972.8087774592025,5.536921207954068,-193926.40185603907,10.5,10499806073.598145,47.655,-122.3035,60.0,9.85
2026-01-20T23:09:52+00:00,SAT-51888,141.74765528834766,30.23936578679766,978.330854945493,5.555629105510065,-194581.6315627783,10.5,10499805418.368437,47.655,-122.3035,60.0,9.866666666666667
