DopplerPredictor/satellites_20260205_234138/SAT-48359.csv

timestamp,satellite,azimuth_deg,elevation_deg,distance_km,relative_velocity_kms,doppler_shift_hz,tx_freq_ghz,rx_freq_hz,ue_lat,ue_lon,ue_alt_m,time_minutes
2026-01-20T23:05:42+00:00,SAT-48359,290.07624399711693,30.199937545244463,994.4489518392749,-5.701568545790483,199693.04808461881,10.5,10500199693.048084,47.655,-122.3035,60.0,5.7
2026-01-20T23:05:43+00:00,SAT-48359,289.98310162056987,30.450784579311883,988.7626684119392,-5.684956247031211,199111.21511211505,10.5,10500199111.215113,47.655,-122.3035,60.0,5.716666666666667
2026-01-20T23:05:44+00:00,SAT-48359,289.88834045853116,30.704101511042307,983.0929527480824,-5.668048314200746,198519.02778390722,10.5,10500198519.027784,47.655,-122.3035,60.0,5.733333333333333
2026-01-20T23:05:45+00:00,SAT-48359,289.7919197681325,30.959921178167,977.4400996892211,-5.65083882557139,197916.27869604243,10.5,10500197916.278696,47.655,-122.3035,60.0,5.75
2026-01-20T23:05:46+00:00,SAT-48359,289.69379744681964,31.218276732070652,971.8044099827255,-5.633321697220027,197302.75476379824,10.5,10500197302.754765,47.655,-122.3035,60.0,5.766666666666667
2026-01-20T23:05:47+00:00,SAT-48359,289.5939299766695,31.47920162697597,966.1861904435772,-5.61549075261307,196678.2396588417,10.5,10500196678.239658,47.655,-122.3035,60.0,5.783333333333333
2026-01-20T23:05:48+00:00,SAT-48359,289.4922723649163,31.742729611334486,960.5857540467345,-5.597339642134301,196042.51099075403,10.5,10500196042.51099,47.655,-122.3035,60.0,5.8
2026-01-20T23:05:49+00:00,SAT-48359,289.3887780828186,32.00889471448297,955.0034200997476,-5.578861934353778,195395.34350365368,10.5,10500195395.343504,47.655,-122.3035,60.0,5.816666666666666
2026-01-20T23:05:50+00:00,SAT-48359,289.2833989999201,32.27773123647162,949.439514324357,-5.560051055103209,194736.5069423584,10.5,10500194736.506943,47.655,-122.3035,60.0,5.833333333333333
2026-01-20T23:05:51+00:00,SAT-48359,289.1760853159794,32.54927373392084,943.8943689988454,-5.540900321778368,194065.76725380085,10.5,10500194065.767254,47.655,-122.3035,60.0,5.85
2026-01-20T23:05:52+00:00,SAT-48359,289.0667854888946,32.823557006305954,938.3683230661852,-5.521402862318711,193382.8837493519,10.5,10500193382.883749,47.655,-122.3035,60.0,5.866666666666666
2026-01-20T23:05:53+00:00,SAT-48359,288.9554461602998,33.100616076919934,932.8617223229871,-5.501551741755354,192687.6135370664,10.5,10500192687.613537,47.655,-122.3035,60.0,5.883333333333334
2026-01-20T23:05:54+00:00,SAT-48359,288.8420120751068,33.380486178678815,927.3749194822371,-5.4813398341862065,191979.70703771064,10.5,10500191979.707037,47.655,-122.3035,60.0,5.9
2026-01-20T23:05:55+00:00,SAT-48359,288.72642599916577,33.66320273206228,921.9082743637215,-5.460759951935191,191258.91250846445,10.5,10500191258.912508,47.655,-122.3035,60.0,5.916666666666667
2026-01-20T23:05:56+00:00,SAT-48359,288.6086286301889,33.94880132801736,916.4621539556326,-5.439804700617748,190524.97096670244,10.5,10500190524.970966,47.655,-122.3035,60.0,5.933333333333334
2026-01-20T23:05:57+00:00,SAT-48359,288.4885585067702,34.23731770172997,911.036932620724,-5.418466570533367,189777.6193909466,10.5,10500189777.61939,47.655,-122.3035,60.0,5.95
2026-01-20T23:05:58+00:00,SAT-48359,288.3661519108559,34.52878770920935,905.6329922113179,-5.396737946703424,189016.59107243436,10.5,10500189016.591072,47.655,-122.3035,60.0,5.966666666666667
2026-01-20T23:05:59+00:00,SAT-48359,288.241342764633,34.82324730257719,900.2507221742997,-5.3746110556131965,188241.61374979807,10.5,10500188241.61375,47.655,-122.3035,60.0,5.983333333333333
2026-01-20T23:06:00+00:00,SAT-48359,288.1140625231488,35.12073250046376,894.8905197092304,-5.352077961970168,187452.40949552762,10.5,10500187452.409496,47.655,-122.3035,60.0,6.0
2026-01-20T23:06:01+00:00,SAT-48359,287.98424006108655,35.42127935592265,889.5527899296893,-5.329130640387928,186648.6972266435,10.5,10500186648.697227,47.655,-122.3035,60.0,6.016666666666667
2026-01-20T23:06:02+00:00,SAT-48359,287.85180155186004,35.72492392598715,884.2379459531282,-5.305760876197043,185830.1892306742,10.5,10500185830.18923,47.655,-122.3035,60.0,6.033333333333333
2026-01-20T23:06:03+00:00,SAT-48359,287.7166703422534,36.031702233195574,878.9464090896453,-5.281960397084016,184996.5957762092,10.5,10500184996.595776,47.655,-122.3035,60.0,6.05
2026-01-20T23:06:04+00:00,SAT-48359,287.57876681715146,36.34165023196643,873.6786088994753,-5.257720672441925,184147.61808530957,10.5,10500184147.618086,47.655,-122.3035,60.0,6.066666666666666
2026-01-20T23:06:05+00:00,SAT-48359,287.4380082614142,36.65480376053019,868.4349834505908,-5.233033174966261,183282.95749570106,10.5,10500183282.957497,47.655,-122.3035,60.0,6.083333333333333
2026-01-20T23:06:06+00:00,SAT-48359,287.29430870781107,36.971198505137004,863.2159793154078,-5.207889112273346,182402.30606091543,10.5,10500182402.30606,47.655,-122.3035,60.0,6.1
2026-01-20T23:06:07+00:00,SAT-48359,287.1475787828998,37.29086994522181,858.0220518351557,-5.182279677764462,181505.35533661372,10.5,10500181505.355337,47.655,-122.3035,60.0,6.116666666666666
2026-01-20T23:06:08+00:00,SAT-48359,286.9977255379116,37.613853310203936,852.853665134053,-5.156195812974165,180591.7880570189,10.5,10500180591.788057,47.655,-122.3035,60.0,6.133333333333334
2026-01-20T23:06:09+00:00,SAT-48359,286.8446522760781,37.940183518192285,847.7112923704984,-5.1296284244544665,179661.285731117,10.5,10500179661.28573,47.655,-122.3035,60.0,6.15
2026-01-20T23:06:10+00:00,SAT-48359,286.6882583643288,38.26989512420436,842.5954157719609,-5.102568235855943,178713.52346191247,10.5,10500178713.523462,47.655,-122.3035,60.0,6.166666666666667
2026-01-20T23:06:11+00:00,SAT-48359,286.52843903808304,38.60302225513307,837.5065268173909,-5.075005893480791,177748.17364334196,10.5,10500177748.173643,47.655,-122.3035,60.0,6.183333333333334
2026-01-20T23:06:12+00:00,SAT-48359,286.36508519167694,38.939598547102854,832.4451263143598,-5.046931845003037,176764.9017125437,10.5,10500176764.901712,47.655,-122.3035,60.0,6.2
2026-01-20T23:06:13+00:00,SAT-48359,286.19808316009465,39.27965707028639,827.4117245971568,-5.0183364980789795,175763.37170506566,10.5,10500175763.371706,47.655,-122.3035,60.0,6.216666666666667
2026-01-20T23:06:14+00:00,SAT-48359,286.02731448307424,39.62323025929393,822.4068415666986,-4.989210090878448,174743.24172032275,10.5,10500174743.24172,47.655,-122.3035,60.0,6.233333333333333
2026-01-20T23:06:15+00:00,SAT-48359,285.8526556591183,39.97034982979865,817.4310068595624,-4.959542771922324,173704.16671784455,10.5,10500173704.166718,47.655,-122.3035,60.0,6.25
2026-01-20T23:06:16+00:00,SAT-48359,285.67397788236735,40.32104669499212,812.484759937395,-4.92932458249229,172645.7979011902,10.5,10500172645.797901,47.655,-122.3035,60.0,6.266666666666667
2026-01-20T23:06:17+00:00,SAT-48359,285.4911467641636,40.67535087504984,807.5686501938617,-4.89854544442199,171567.78229034334,10.5,10500171567.78229,47.655,-122.3035,60.0,6.283333333333333
2026-01-20T23:06:18+00:00,SAT-48359,285.3040220381981,41.03329139948898,802.6832370737768,-4.867195204848836,170469.76428910956,10.5,10500170469.76429,47.655,-122.3035,60.0,6.3
2026-01-20T23:06:19+00:00,SAT-48359,285.11245724615185,41.394896206152275,797.8290901475992,-4.835263621348699,169351.3851644705,10.5,10500169351.385164,47.655,-122.3035,60.0,6.316666666666666
2026-01-20T23:06:20+00:00,SAT-48359,284.91629940460757,41.760192032211464,793.0067892007528,-4.80274034651602,168212.28250651396,10.5,10500168212.282507,47.655,-122.3035,60.0,6.333333333333333
2026-01-20T23:06:21+00:00,SAT-48359,284.71538865194464,42.12920429655592,788.2169243383278,-4.769614975881181,167052.091906703,10.5,10500167052.091908,47.655,-122.3035,60.0,6.35
2026-01-20T23:06:22+00:00,SAT-48359,284.5095578716911,42.501956977893954,783.46009604199,-4.735877032638244,165870.44642297697,10.5,10500165870.446423,47.655,-122.3035,60.0,6.366666666666666
2026-01-20T23:06:23+00:00,SAT-48359,284.29863229279454,42.87847248340607,778.7369152421252,-4.7015159913868265,164666.9774112919,10.5,10500164666.977411,47.655,-122.3035,60.0,6.383333333333334
2026-01-20T23:06:24+00:00,SAT-48359,284.0824290640228,43.258771510408685,774.0480033663022,-4.666521240055375,163441.31319201313,10.5,10500163441.313192,47.655,-122.3035,60.0,6.4
2026-01-20T23:06:25+00:00,SAT-48359,283.86075680302463,43.642872895507175,769.3939924257114,-4.6308821958855715,162193.0831121792,10.5,10500162193.083113,47.655,-122.3035,60.0,6.416666666666667
2026-01-20T23:06:26+00:00,SAT-48359,283.6334151119388,44.03079346321054,764.7755249859314,-4.594588186824874,160921.91339136747,10.5,10500160921.913391,47.655,-122.3035,60.0,6.433333333333334
2026-01-20T23:06:27+00:00,SAT-48359,283.40019406722274,44.422547854307005,760.1932542559817,-4.557628572388694,159627.43135479843,10.5,10500159627.431355,47.655,-122.3035,60.0,6.45
2026-01-20T23:06:28+00:00,SAT-48359,283.1608736715146,44.818148352987386,755.6478440568432,-4.519992665098882,158309.2626817792,10.5,10500158309.262682,47.655,-122.3035,60.0,6.466666666666667
2026-01-20T23:06:29+00:00,SAT-48359,282.91522327380284,45.21760469540098,751.1399688683202,-4.48166983538461,156967.03507977643,10.5,10500156967.03508,47.655,-122.3035,60.0,6.483333333333333
2026-01-20T23:06:30+00:00,SAT-48359,282.66300094720754,45.62092387458491,746.6703137712941,-4.442649439961248,155600.37577594133,10.5,10500155600.375776,47.655,-122.3035,60.0,6.5
2026-01-20T23:06:31+00:00,SAT-48359,282.40395282986196,46.02810992569074,742.2395744613957,-4.402920922160955,154208.91503111136,10.5,10500154208.915031,47.655,-122.3035,60.0,6.516666666666667
2026-01-20T23:06:32+00:00,SAT-48359,282.13781241775456,46.439163705891616,737.8484571626238,-4.362473745666399,152792.2838188851,10.5,10500152792.28382,47.655,-122.3035,60.0,6.533333333333333
2026-01-20T23:06:33+00:00,SAT-48359,281.86429981497827,46.854082653105046,733.4976786070481,-4.32129747143263,151350.1165197512,10.5,10500151350.11652,47.655,-122.3035,60.0,6.55
2026-01-20T23:06:34+00:00,SAT-48359,281.58312093070106,47.2728605355966,729.1879659377975,-4.2793817518239905,149882.05071573847,10.5,10500149882.050716,47.655,-122.3035,60.0,6.566666666666666
2026-01-20T23:06:35+00:00,SAT-48359,281.29396662366366,47.69548718393221,724.9200566178955,-4.23671635602079,148387.7280802651,10.5,10500148387.72808,47.655,-122.3035,60.0,6.583333333333333
2026-01-20T23:06:36+00:00,SAT-48359,280.99651178911677,48.12194820708805,720.6946983137582,-4.193291192276408,146866.79515767633,10.5,10500146866.795158,47.655,-122.3035,60.0,6.6
2026-01-20T23:06:37+00:00,SAT-48359,280.6904143841171,48.55222469130927,716.5126487564941,-4.149096317363061,145318.90369407542,10.5,10500145318.903694,47.655,-122.3035,60.0,6.616666666666666
2026-01-20T23:06:38+00:00,SAT-48359,280.3753143883916,48.98629287915507,712.3746755937825,-4.1041219729371,143743.71191098992,10.5,10500143743.71191,47.655,-122.3035,60.0,6.633333333333334
2026-01-20T23:06:39+00:00,SAT-48359,280.05083269433834,49.424123830139266,708.281556205486,-4.058358628060978,142140.88599467123,10.5,10500142140.885994,47.655,-122.3035,60.0,6.65
2026-01-20T23:06:40+00:00,SAT-48359,279.716569921152,49.86568306240592,704.2340774768534,-4.01179694998063,140510.09907259446,10.5,10500140510.099073,47.655,-122.3035,60.0,6.666666666666667
2026-01-20T23:06:41+00:00,SAT-48359,279.3721051536295,50.31093016616988,700.2330356008678,-3.964427880848989,138851.03390064064,10.5,10500138851.033901,47.655,-122.3035,60.0,6.683333333333334
2026-01-20T23:06:42+00:00,SAT-48359,279.01699459303006,50.75981839856632,696.2792358040763,-3.916242641040721,137163.3829791928,10.5,10500137163.382978,47.655,-122.3035,60.0,6.7
2026-01-20T23:06:43+00:00,SAT-48359,278.65077012037654,51.21229425036196,692.3734920691145,-3.867232780120448,135446.8503382587,10.5,10500135446.850338,47.655,-122.3035,60.0,6.716666666666667
2026-01-20T23:06:44+00:00,SAT-48359,278.27293776292544,51.66829698793668,688.5166268063996,-3.8173901625161557,133701.15103569295,10.5,10500133701.151035,47.655,-122.3035,60.0,6.733333333333333
2026-01-20T23:06:45+00:00,SAT-48359,277.88297606452994,52.127758160926064,684.7094705401094,-3.766707033956477,131926.01348411175,10.5,10500131926.013485,47.655,-122.3035,60.0,6.75
2026-01-20T23:06:46+00:00,SAT-48359,277.4803343477615,52.590601082625,680.9528615279053,-3.715176062937869,130121.18090324882,10.5,10500130121.180902,47.655,-122.3035,60.0,6.766666666666667
2026-01-20T23:06:47+00:00,SAT-48359,277.06443086389515,53.056740278221504,677.2476453392977,-3.6627903456543454,128286.41149261541,10.5,10500128286.411493,47.655,-122.3035,60.0,6.783333333333333
2026-01-20T23:06:48+00:00,SAT-48359,276.6346508301678,53.52608089381576,673.594674429095,-3.6095434348367834,126421.47944157496,10.5,10500126421.47944,47.655,-122.3035,60.0,6.8
2026-01-20T23:06:49+00:00,SAT-48359,276.1903443473909,53.9985180661411,669.9948076820898,-3.5554294040080467,124526.17717982916,10.5,10500124526.17718,47.655,-122.3035,60.0,6.816666666666666
2026-01-20T23:06:50+00:00,SAT-48359,275.7308241902282,54.47393625476381,666.4489098936648,-3.500442846909707,122600.31535733938,10.5,10500122600.315357,47.655,-122.3035,60.0,6.833333333333333
2026-01-20T23:06:51+00:00,SAT-48359,275.25536347416477,54.95220852526008,662.9578512509665,-3.4445789633227024,120643.72585012921,10.5,10500120643.725851,47.655,-122.3035,60.0,6.85
2026-01-20T23:06:52+00:00,SAT-48359,274.76319318707266,55.43319579151367,659.5225067284927,-3.387833535653785,118656.26094024268,10.5,10500118656.26094,47.655,-122.3035,60.0,6.866666666666666
2026-01-20T23:06:53+00:00,SAT-48359,274.25349959842214,55.916745998874504,656.1437555070269,-3.3302030006168644,116637.7958263282,10.5,10500116637.795826,47.655,-122.3035,60.0,6.883333333333334
2026-01-20T23:06:54+00:00,SAT-48359,273.72542153644054,56.402693257155164,652.8224803210866,-3.2716844798563,114588.22969619586,10.5,10500114588.229696,47.655,-122.3035,60.0,6.9
2026-01-20T23:06:55+00:00,SAT-48359,273.17804754249437,56.89085691405504,649.5595667758283,-3.2122758337234147,112507.48761029824,10.5,10500112507.48761,47.655,-122.3035,60.0,6.916666666666667
2026-01-20T23:06:56+00:00,SAT-48359,272.61041290691327,57.381040568286274,646.355902610321,-3.1519756557521457,110395.52030824446,10.5,10500110395.520308,47.655,-122.3035,60.0,6.933333333333334
2026-01-20T23:06:57+00:00,SAT-48359,272.02149660817054,57.87303100913897,643.212376966329,-3.090783353387971,108252.30703626873,10.5,10500108252.307035,47.655,-122.3035,60.0,6.95
2026-01-20T23:06:58+00:00,SAT-48359,271.41021815952394,58.36659709092028,640.1298795765838,-3.0286991510294876,106077.85565375903,10.5,10500106077.855654,47.655,-122.3035,60.0,6.966666666666667
2026-01-20T23:06:59+00:00,SAT-48359,270.7754344001989,58.86148852605429,637.1092999500177,-2.9657241754971175,103872.20562673305,10.5,10500103872.205627,47.655,-122.3035,60.0,6.983333333333333
2026-01-20T23:07:00+00:00,SAT-48359,270.1159362490434,59.357434605471944,634.1515264717649,-2.901860410363342,101635.42642828956,10.5,10500101635.426428,47.655,-122.3035,60.0,7.0
2026-01-20T23:07:01+00:00,SAT-48359,269.4304454898504,59.854142820663725,631.2574455487052,-2.8371108351605736,99367.62241425707,10.5,10500099367.622414,47.655,-122.3035,60.0,7.016666666666667
2026-01-20T23:07:02+00:00,SAT-48359,268.71761160633724,60.351297414000236,628.4279406161722,-2.7714793696938655,97068.9308727893,10.5,10500097068.930872,47.655,-122.3035,60.0,7.033333333333333
2026-01-20T23:07:03+00:00,SAT-48359,267.97600877913334,60.84855782154823,625.6638912002043,-2.704970949031913,94739.52465086726,10.5,10500094739.52465,47.655,-122.3035,60.0,7.05
2026-01-20T23:07:04+00:00,SAT-48359,267.2041331073445,61.345557027614625,622.9661719050008,-2.6375915620054653,92379.61350267651,10.5,10500092379.613503,47.655,-122.3035,60.0,7.066666666666666
2026-01-20T23:07:05+00:00,SAT-48359,266.4004001733592,61.84189982402934,620.3356513619856,-2.5693482592890335,89989.44437266281,10.5,10500089989.444372,47.655,-122.3035,60.0,7.083333333333333
2026-01-20T23:07:06+00:00,SAT-48359,265.56314309785876,62.337160968948616,617.7731911708095,-2.500249196674539,87569.30291115816,10.5,10500087569.302912,47.655,-122.3035,60.0,7.1
2026-01-20T23:07:07+00:00,SAT-48359,264.69061124592423,62.830883254245045,615.2796447971969,-2.4303036478309266,85119.5139212766,10.5,10500085119.513922,47.655,-122.3035,60.0,7.116666666666666
2026-01-20T23:07:08+00:00,SAT-48359,263.78096979921,63.32257548154767,612.8558564580638,-2.359522052555694,82640.44304888681,10.5,10500082640.443048,47.655,-122.3035,60.0,7.133333333333334
2026-01-20T23:07:09+00:00,SAT-48359,262.8323004307382,63.81171036362042,610.502659958517,-2.2879160057927765,80132.49639797193,10.5,10500080132.496397,47.655,-122.3035,60.0,7.15
2026-01-20T23:07:10+00:00,SAT-48359,261.84260339886185,64.29772235401317,608.2208775398034,-2.215498306680575,77596.12224849912,10.5,10500077596.122248,47.655,-122.3035,60.0,7.166666666666667
2026-01-20T23:07:11+00:00,SAT-48359,260.80980138927555,64.78000543816177,606.011318678344,-2.1422829604107743,75031.81112152305,10.5,10500075031.811121,47.655,-122.3035,60.0,7.183333333333334
2026-01-20T23:07:12+00:00,SAT-48359,259.7317455301122,65.25791090547303,603.8747788829152,-2.068285185811491,72440.09604477994,10.5,10500072440.096045,47.655,-122.3035,60.0,7.2
2026-01-20T23:07:13+00:00,SAT-48359,258.6062240518465,65.73074514200401,601.8120384842634,-1.9935214220806727,69821.55278851966,10.5,10500069821.552788,47.655,-122.3035,60.0,7.216666666666667
2026-01-20T23:07:14+00:00,SAT-48359,257.4309741300133,66.19776749389167,599.8238614180094,-1.9180093721084082,67176.80138283627,10.5,10500067176.801382,47.655,-122.3035,60.0,7.233333333333333
2026-01-20T23:07:15+00:00,SAT-48359,256.2036974876495,66.6581882749505,597.9109939643423,-1.84176793769326,64506.50384866997,10.5,10500064506.503849,47.655,-122.3035,60.0,7.25
2026-01-20T23:07:16+00:00,SAT-48359,254.92208047436858,67.11116697416345,596.0741635523259,-1.7648172767963999,61811.36620308907,10.5,10500061811.366203,47.655,-122.3035,60.0,7.266666666666667
2026-01-20T23:07:17+00:00,SAT-48359,253.58381925170377,67.5558107914013,594.314077507104,-1.6871787725305463,59092.13737315145,10.5,10500059092.137373,47.655,-122.3035,60.0,7.283333333333333
2026-01-20T23:07:18+00:00,SAT-48359,252.18665084845975,67.991173602,592.6314218280319,-1.6088750184819411,56349.608681818085,10.5,10500056349.608683,47.655,-122.3035,60.0,7.3
2026-01-20T23:07:19+00:00,SAT-48359,250.72839077738223,68.41625549769172,591.0268599814497,-1.529929801250335,53584.61323642944,10.5,10500053584.613237,47.655,-122.3035,60.0,7.316666666666666
2026-01-20T23:07:20+00:00,SAT-48359,249.2069778416374,68.8300030711428,589.5010317108661,-1.4503681030902027,50798.02602121208,10.5,10500050798.026022,47.655,-122.3035,60.0,7.333333333333333
2026-01-20T23:07:21+00:00,SAT-48359,247.6205265926404,69.23131064144779,588.0545518445095,-1.3702160422304976,47990.761807023926,10.5,10500047990.761806,47.655,-122.3035,60.0,7.35
2026-01-20T23:07:22+00:00,SAT-48359,245.96738774329236,69.61902261683076,586.6880091623984,-1.2895008874777103,45163.77566281523,10.5,10500045163.775663,47.655,-122.3035,60.0,7.366666666666666
2026-01-20T23:07:23+00:00,SAT-48359,244.2462163636183,69.9919372440232,585.4019652488489,-1.2082509718595469,42318.059931064854,10.5,10500042318.05993,47.655,-122.3035,60.0,7.383333333333334
2026-01-20T23:07:24+00:00,SAT-48359,242.45604738865887,70.34881195288614,584.1969534311063,-1.1264957037953474,39454.644619015555,10.5,10500039454.644619,47.655,-122.3035,60.0,7.4
2026-01-20T23:07:25+00:00,SAT-48359,240.59637713420707,70.68837055505402,583.0734777068362,-1.044265489429048,36574.59467844585,10.5,10500036574.594679,47.655,-122.3035,60.0,7.416666666666667
2026-01-20T23:07:26+00:00,SAT-48359,238.66724897518858,71.00931247921024,582.0320117490758,-0.9615917055737216,33679.00905807336,10.5,10500033679.009058,47.655,-122.3035,60.0,7.433333333333334
2026-01-20T23:07:27+00:00,SAT-48359,236.66934030553165,71.31032421948005,581.072997938165,-0.8785066260399167,30769.018123261543,10.5,10500030769.018124,47.655,-122.3035,60.0,7.45
2026-01-20T23:07:28+00:00,SAT-48359,234.60404710199006,71.59009307136708,580.1968464671556,-0.795043393344963,27845.78266516001,10.5,10500027845.782665,47.655,-122.3035,60.0,7.466666666666667
2026-01-20T23:07:29+00:00,SAT-48359,232.47356134646398,71.84732315438494,579.4039344754322,-0.7112359354043197,24910.49098288309,10.5,10500024910.490982,47.655,-122.3035,60.0,7.483333333333333
2026-01-20T23:07:30+00:00,SAT-48359,230.28093596467218,72.08075355561728,578.6946052654203,-0.6271189097080817,21964.356928334928,10.5,10500021964.356928,47.655,-122.3035,60.0,7.5
2026-01-20T23:07:31+00:00,SAT-48359,228.03013129305322,72.2891782941651,578.0691675749664,-0.542727636198867,19008.617555309225,10.5,10500019008.617556,47.655,-122.3035,60.0,7.516666666666667
2026-01-20T23:07:32+00:00,SAT-48359,225.72603708202138,72.4714676171774,577.5278949166639,-0.45809802858731563,16044.53071386744,10.5,10500016044.530714,47.655,-122.3035,60.0,7.533333333333333
2026-01-20T23:07:33+00:00,SAT-48359,223.37446453980826,72.62658996117756,577.0710249856736,-0.3732665122115761,13073.372173430556,10.5,10500013073.372173,47.655,-122.3035,60.0,7.55
2026-01-20T23:07:34+00:00,SAT-48359,220.98210416179504,72.75363374496366,576.6987591494706,-0.2882699562534942,10096.433248703306,10.5,10500010096.433249,47.655,-122.3035,60.0,7.566666666666666
2026-01-20T23:07:35+00:00,SAT-48359,218.55644686906084,72.85182804598053,576.4112620051885,-0.2031455886429306,7115.01781926339,10.5,10500007115.017818,47.655,-122.3035,60.0,7.583333333333333
2026-01-20T23:07:36+00:00,SAT-48359,216.10566859346793,72.92056113948536,576.2086610218346,-0.11793092195576066,4130.439734196005,10.5,10500004130.439734,47.655,-122.3035,60.0,7.6
2026-01-20T23:07:37+00:00,SAT-48359,213.6384811685067,72.95939590836815,576.091046256406,-0.03266366497626565,1144.0197146346798,10.5,10500001144.019714,47.655,-122.3035,60.0,7.616666666666666
2026-01-20T23:07:38+00:00,SAT-48359,211.16395548908662,72.96808123230643,576.0584701582081,0.05261835607731233,-1842.9174052530016,10.5,10499998157.082594,47.655,-122.3035,60.0,7.633333333333334
2026-01-20T23:07:39+00:00,SAT-48359,208.69132532555096,72.94655867146685,576.1109474517341,0.13787728265976112,-4829.045659072223,10.5,10499995170.95434,47.655,-122.3035,60.0,7.65
2026-01-20T23:07:40+00:00,SAT-48359,206.22978221471476,72.89496402630937,576.2484551044261,0.22307530863463465,-7813.040916004844,10.5,10499992186.959084,47.655,-122.3035,60.0,7.666666666666667
2026-01-20T23:07:41+00:00,SAT-48359,203.78827264372651,72.81362367539857,576.4709323789425,0.30817476048924686,-10793.5836902778,10.5,10499989206.41631,47.655,-122.3035,60.0,7.683333333333334
2026-01-20T23:07:42+00:00,SAT-48359,201.3753086775444,72.70304592396404,576.778280965427,0.39313818471111817,-13769.362201455851,10.5,10499986230.637798,47.655,-122.3035,60.0,7.7
2026-01-20T23:07:43+00:00,SAT-48359,198.99880155240479,72.56390789467021,577.170365200918,0.4779284244909165,-16739.075060903044,10.5,10499983260.924938,47.655,-122.3035,60.0,7.716666666666667
2026-01-20T23:07:44+00:00,SAT-48359,196.66592587825699,72.39703874321394,577.6470123652572,0.562508707308417,-19701.4343394135,10.5,10499980298.56566,47.655,-122.3035,60.0,7.733333333333333
2026-01-20T23:07:45+00:00,SAT-48359,194.38301898978318,72.2034001367228,578.2080130643474,0.6468427084264309,-22655.167791037373,10.5,10499977344.832209,47.655,-122.3035,60.0,7.75
2026-01-20T23:07:46+00:00,SAT-48359,192.15551732472343,71.98406501730115,578.8531216767367,0.7308946518994841,-25599.02239083207,10.5,10499974400.97761,47.655,-122.3035,60.0,7.766666666666667
2026-01-20T23:07:47+00:00,SAT-48359,189.98792862682888,71.74019563598682,579.5820569009379,0.8146293514372275,-28531.7657660717,10.5,10499971468.234234,47.655,-122.3035,60.0,7.783333333333333
2026-01-20T23:07:48+00:00,SAT-48359,187.88383695323375,71.47302178625336,580.3945023435027,0.8980123143235642,-31452.18983593451,10.5,10499968547.810163,47.655,-122.3035,60.0,7.8
2026-01-20T23:07:49+00:00,SAT-48359,185.8459353610937,71.18381998158878,581.2901072107375,0.9810097755678735,-34359.1120076232,10.5,10499965640.887993,47.655,-122.3035,60.0,7.816666666666666
2026-01-20T23:07:50+00:00,SAT-48359,183.8760807232789,70.8738941936255,582.2684870344765,1.06358879413452,-37251.37854672935,10.5,10499962748.621452,47.655,-122.3035,60.0,7.833333333333333
2026-01-20T23:07:51+00:00,SAT-48359,181.9753644451675,70.5445585427772,583.3292244938289,1.1457172829999838,-40127.86562996134,10.5,10499959872.13437,47.655,-122.3035,60.0,7.85
2026-01-20T23:07:52+00:00,SAT-48359,180.14419347012083,70.19712220349138,584.4718702669021,1.2273640804573687,-42987.48184252977,10.5,10499957012.518158,47.655,-122.3035,60.0,7.866666666666666
2026-01-20T23:07:53+00:00,SAT-48359,178.3823763205239,69.83287660158258,585.6959439536361,1.3084990011254,-45829.16996469838,10.5,10499954170.830036,47.655,-122.3035,60.0,7.883333333333334
2026-01-20T23:07:54+00:00,SAT-48359,176.6892099285392,69.45308487952875,587.0009350495121,1.3890928780070444,-48651.908444854766,10.5,10499951348.091555,47.655,-122.3035,60.0,7.9
2026-01-20T23:07:55+00:00,SAT-48359,175.06356390113558,69.0589735106597,588.3863039612082,1.4691176101352375,-51454.71306826536,10.5,10499948545.286932,47.655,-122.3035,60.0,7.916666666666667
2026-01-20T23:07:56+00:00,SAT-48359,173.5039597602358,68.65172587712767,589.851483069769,1.5485461881120717,-54236.63785156581,10.5,10499945763.362148,47.655,-122.3035,60.0,7.933333333333334
2026-01-20T23:07:57+00:00,SAT-48359,172.00864355963282,68.23247759821741,591.39587781925,1.627352735381324,-56996.77648829946,10.5,10499943003.223513,47.655,-122.3035,60.0,7.95
2026-01-20T23:07:58+00:00,SAT-48359,170.57565093394078,67.80231336934604,593.0188678465223,1.7055125544896685,-59734.263969180705,10.5,10499940265.73603,47.655,-122.3035,60.0,7.966666666666667
2026-01-20T23:07:59+00:00,SAT-48359,169.20286421719527,67.36226507621126,594.7198081572142,1.7830021038643356,-62448.275768750405,10.5,10499937551.724232,47.655,-122.3035,60.0,7.983333333333333
2026-01-20T23:08:00+00:00,SAT-48359,167.88806174882328,66.91331097901792,596.4980302784925,1.8597990723502758,-65138.03045598263,10.5,10499934861.969543,47.655,-122.3035,60.0,8.0
2026-01-20T23:08:01+00:00,SAT-48359,166.62895963444322,66.45637573650953,598.3528434861821,1.9358823479466392,-67802.78859930395,10.5,10499932197.211401,47.655,-122.3035,60.0,8.016666666666667
2026-01-20T23:08:02+00:00,SAT-48359,165.4232466046166,65.9923311152016,600.2835360007056,2.01123205732137,-70441.85415056167,10.5,10499929558.14585,47.655,-122.3035,60.0,8.033333333333333
2026-01-20T23:08:03+00:00,SAT-48359,164.26861257365638,65.52199720748406,602.2893762224312,2.085829567170062,-73054.57449261667,10.5,10499926945.425507,47.655,-122.3035,60.0,8.05
2026-01-20T23:08:04+00:00,SAT-48359,163.162771640932,65.04614403404365,604.3696139683763,2.1596574514333646,-75640.3392911583,10.5,10499924359.66071,47.655,-122.3035,60.0,8.066666666666666
2026-01-20T23:08:05+00:00,SAT-48359,162.1034802620576,64.5654934258531,606.5234816762148,2.232699546202764,-78198.58241773721,10.5,10499921801.417582,47.655,-122.3035,60.0,8.083333333333334
2026-01-20T23:08:06+00:00,SAT-48359,161.0885512234237,64.08072107382472,608.7501956630468,2.3049409105128236,-80728.78057654353,10.5,10499919271.219423,47.655,-122.3035,60.0,8.1
2026-01-20T23:08:07+00:00,SAT-48359,160.1158641097295,63.59245869408008,611.0489573450606,2.3763678127491,-83230.45282835486,10.5,10499916769.547173,47.655,-122.3035,60.0,8.116666666666667
2026-01-20T23:08:08+00:00,SAT-48359,159.1833728208647,63.10129624388611,613.4189544436426,2.4469677079579113,-85703.15979582805,10.5,10499914296.840204,47.655,-122.3035,60.0,8.133333333333333
2026-01-20T23:08:09+00:00,SAT-48359,158.28911065011354,62.6077841445743,615.8593621688567,2.516729280915038,-88146.50517194765,10.5,10499911853.494827,47.655,-122.3035,60.0,8.15
2026-01-20T23:08:10+00:00,SAT-48359,157.43119334639988,62.11243546385251,618.3693444458783,2.5856423523848417,-90560.13243682346,10.5,10499909439.867563,47.655,-122.3035,60.0,8.166666666666666
2026-01-20T23:08:11+00:00,SAT-48359,156.60782059869007,61.615728059933545,620.948055047935,2.653697884773193,-92943.72505568012,10.5,10499907056.274944,47.655,-122.3035,60.0,8.183333333333334
2026-01-20T23:08:12+00:00,SAT-48359,155.81727622796777,61.118106648282506,623.5946387348895,2.7208879885276116,-95297.00670301693,10.5,10499904702.993298,47.655,-122.3035,60.0,8.2
2026-01-20T23:08:13+00:00,SAT-48359,155.05792736623295,60.61998477926615,626.3082323982023,2.787205843300563,-97619.73850141322,10.5,10499902380.2615,47.655,-122.3035,60.0,8.216666666666667
2026-01-20T23:08:14+00:00,SAT-48359,154.32822288108963,60.121746734725214,629.0879661272713,2.8526457054496372,-99911.71928421625,10.5,10499900088.280716,47.655,-122.3035,60.0,8.233333333333333
2026-01-20T23:08:15+00:00,SAT-48359,153.6266912068038,59.62374932258156,631.9329642832499,2.917202863044603,-102172.78401969782,10.5,10499897827.21598,47.655,-122.3035,60.0,8.25
2026-01-20T23:08:16+00:00,SAT-48359,152.95193775652933,59.126323577696084,634.8423465279928,2.980873601778054,-104402.80261710109,10.5,10499895597.197382,47.655,-122.3035,60.0,8.266666666666667
2026-01-20T23:08:17+00:00,SAT-48359,152.30264203755377,58.6297763670575,637.8152288190049,3.0436551931860207,-106601.67951407643,10.5,10499893398.320486,47.655,-122.3035,60.0,8.283333333333333
2026-01-20T23:08:18+00:00,SAT-48359,151.67755456861815,58.13439189750149,640.8507243926425,3.105545825783683,-108769.35126476288,10.5,10499891230.648735,47.655,-122.3035,60.0,8.3
2026-01-20T23:08:19+00:00,SAT-48359,151.07549369337414,57.640433138347326,643.9479446786323,3.166544580229178,-110905.78566991958,10.5,10499889094.21433,47.655,-122.3035,60.0,8.316666666666666
2026-01-20T23:08:20+00:00,SAT-48359,150.4953423442326,57.14814315490514,647.1060001898252,3.2266514203791856,-113010.98146365459,10.5,10499886989.018536,47.655,-122.3035,60.0,8.333333333333334
2026-01-20T23:08:21+00:00,SAT-48359,149.93604480491018,56.657746354818975,650.3240014030242,3.2858671166148308,-115084.96562797361,10.5,10499884915.034372,47.655,-122.3035,60.0,8.35
2026-01-20T23:08:22+00:00,SAT-48359,149.39660352392926,56.16944966217343,653.6010595633492,3.3441932556446043,-117127.79373611977,10.5,10499882872.206264,47.655,-122.3035,60.0,8.366666666666667
2026-01-20T23:08:23+00:00,SAT-48359,148.87607599159662,55.68344361044115,656.936287498374,3.401632126420718,-119139.54595688175,10.5,10499880860.454042,47.655,-122.3035,60.0,8.383333333333333
2026-01-20T23:08:24+00:00,SAT-48359,148.3735717242387,55.19990337718296,660.328800318489,3.4581867857913116,-121120.32935401188,10.5,10499878879.670647,47.655,-122.3035,60.0,8.4
2026-01-20T23:08:25+00:00,SAT-48359,147.88824933978108,54.71898973848819,663.7777161827373,3.5138609174055606,-123070.27294448609,10.5,10499876929.727055,47.655,-122.3035,60.0,8.416666666666666
2026-01-20T23:08:26+00:00,SAT-48359,147.4193137699193,54.240849977413774,667.2821569239362,3.568658885457788,-124989.52958085014,10.5,10499875010.470419,47.655,-122.3035,60.0,8.433333333333334
2026-01-20T23:08:27+00:00,SAT-48359,146.9660135836816,53.76561872265192,670.8412487273969,3.6225856392714917,-126878.27260934851,10.5,10499873121.72739,47.655,-122.3035,60.0,8.45
2026-01-20T23:08:28+00:00,SAT-48359,146.52763844924309,53.29341874237827,674.4541227144864,3.675646679552663,-128736.69468797298,10.5,10499871263.305311,47.655,-122.3035,60.0,8.466666666666667
2026-01-20T23:08:29+00:00,SAT-48359,146.10351672417823,52.82436168796387,678.1199154925304,3.7278480656075215,-130565.0080392582,10.5,10499869434.99196,47.655,-122.3035,60.0,8.483333333333333
2026-01-20T23:08:30+00:00,SAT-48359,145.69301316922687,52.358548786009216,681.8377697119171,3.779196334819285,-132363.44163001757,10.5,10499867636.55837,47.655,-122.3035,60.0,8.5
2026-01-20T23:08:31+00:00,SAT-48359,145.29552679400783,51.89607149333373,685.6068345428919,3.8296984996674643,-134132.2410669463,10.5,10499865867.758932,47.655,-122.3035,60.0,8.516666666666667
2026-01-20T23:08:32+00:00,SAT-48359,144.91048882157534,51.43701210789936,689.42626614938,3.879361999721421,-135871.6669152328,10.5,10499864128.333084,47.655,-122.3035,60.0,8.533333333333333
2026-01-20T23:08:33+00:00,SAT-48359,144.5373607730542,50.98144434427754,693.2952281149322,3.9281946474875196,-137581.99280189682,10.5,10499862418.007198,47.655,-122.3035,60.0,8.55
2026-01-20T23:08:34+00:00,SAT-48359,144.1756326682047,50.52943387669762,697.2128918146607,3.976204668826444,-139263.50683137486,10.5,10499860736.493168,47.655,-122.3035,60.0,8.566666666666666
2026-01-20T23:08:35+00:00,SAT-48359,143.82482132682856,50.08103884123109,701.1784368274863,4.0234005744575905,-140916.50708506047,10.5,10499859083.492914,47.655,-122.3035,60.0,8.583333333333334
2026-01-20T23:08:36+00:00,SAT-48359,143.4844687836177,49.63631031899148,705.1910512202331,4.069791215342301,-142541.3035610594,10.5,10499857458.69644,47.655,-122.3035,60.0,8.6
2026-01-20T23:08:37+00:00,SAT-48359,143.1541407922275,49.19529278118196,709.2499318869583,4.115385717522352,-144138.2158919578,10.5,10499855861.784107,47.655,-122.3035,60.0,8.616666666666667
2026-01-20T23:08:38+00:00,SAT-48359,142.83342542580164,48.7580245119387,713.3542848232952,4.160193437337782,-145707.57177636106,10.5,10499854292.428225,47.655,-122.3035,60.0,8.633333333333333
2026-01-20T23:08:39+00:00,SAT-48359,142.52193176601722,48.32453800810427,717.5033253561339,4.20422398401942,-147249.70777017984,10.5,10499852750.29223,47.655,-122.3035,60.0,8.65
2026-01-20T23:08:40+00:00,SAT-48359,142.2192886703596,47.894860350562595,721.6962783958352,4.247487142469853,-148764.9665820928,10.5,10499851235.033419,47.655,-122.3035,60.0,8.666666666666666
2026-01-20T23:08:41+00:00,SAT-48359,141.92514362090188,47.46901355929107,725.9323786114293,4.289992887415558,-150253.69756921422,10.5,10499849746.302431,47.655,-122.3035,60.0,8.683333333333334
2026-01-20T23:08:42+00:00,SAT-48359,141.63916164273923,47.04701492396656,730.2108706199327,4.331751344655024,-151716.2553798393,10.5,10499848283.74462,47.655,-122.3035,60.0,8.7
2026-01-20T23:08:43+00:00,SAT-48359,141.3610242914546,46.62887731705578,734.5310091370144,4.372772774507813,-153152.9993737602,10.5,10499846847.000626,47.655,-122.3035,60.0,8.716666666666667
2026-01-20T23:08:44+00:00,SAT-48359,141.09042870438788,46.214609488352,738.8920591111564,4.41306753053644,-154564.29217653174,10.5,10499845435.707823,47.655,-122.3035,60.0,8.733333333333333
2026-01-20T23:08:45+00:00,SAT-48359,140.8270867126004,45.8042163444826,743.2932958166468,4.452646087547759,-155950.5006601983,10.5,10499844049.49934,47.655,-122.3035,60.0,8.75
2026-01-20T23:08:46+00:00,SAT-48359,140.57072400572542,45.39769920797121,747.734004974499,4.491518986958576,-157311.9940297666,10.5,10499842688.00597,47.655,-122.3035,60.0,8.766666666666667
2026-01-20T23:08:47+00:00,SAT-48359,140.32107935145817,44.99505606478683,752.2134828188832,4.5296968024961455,-158649.14262189186,10.5,10499841350.857378,47.655,-122.3035,60.0,8.783333333333333
2026-01-20T23:08:48+00:00,SAT-48359,140.0779038648535,44.596281799130885,756.73103612935,4.56719016286224,-159962.3186986696,10.5,10499840037.681301,47.655,-122.3035,60.0,8.8
2026-01-20T23:08:49+00:00,SAT-48359,139.84096032064005,44.201368411305246,761.2859822856578,4.604009715902254,-161251.89519268583,10.5,10499838748.104807,47.655,-122.3035,60.0,8.816666666666666
2026-01-20T23:08:50+00:00,SAT-48359,139.61002250962284,43.81030522486347,765.8776492868651,4.640166143129233,-162518.24621571013,10.5,10499837481.753784,47.655,-122.3035,60.0,8.833333333333334
2026-01-20T23:08:51+00:00,SAT-48359,139.38487463315127,43.42307907943865,770.5053757849076,4.6756700857834925,-163761.74446899083,10.5,10499836238.255531,47.655,-122.3035,60.0,8.85
2026-01-20T23:08:52+00:00,SAT-48359,139.1653107382257,43.0396745174834,775.1685110444338,4.710532187858246,-164982.7627501943,10.5,10499835017.23725,47.655,-122.3035,60.0,8.866666666666667
2026-01-20T23:08:53+00:00,SAT-48359,138.95113418415022,42.66007395565471,779.8664149455495,4.744763055854448,-166181.67254384933,10.5,10499833818.327456,47.655,-122.3035,60.0,8.883333333333333
2026-01-20T23:08:54+00:00,SAT-48359,138.7421571432698,42.28425784860334,784.5984579464285,4.778373273221473,-167358.84452712105,10.5,10499832641.155474,47.655,-122.3035,60.0,8.9
2026-01-20T23:08:55+00:00,SAT-48359,138.53820013060172,41.91220484127612,789.36402106032,4.811373347430982,-168514.64671611355,10.5,10499831485.353285,47.655,-122.3035,60.0,8.916666666666666
2026-01-20T23:08:56+00:00,SAT-48359,138.33909156410726,41.543891915660346,794.1624957797761,4.8437737471100055,-169649.4457664277,10.5,10499830350.554234,47.655,-122.3035,60.0,8.933333333333334
2026-01-20T23:08:57+00:00,SAT-48359,138.14466734893588,41.179294525406235,798.993284037911,4.875584850857615,-170763.60518050444,10.5,10499829236.39482,47.655,-122.3035,60.0,8.95
2026-01-20T23:08:58+00:00,SAT-48359,137.95477048853184,40.8183867257438,803.8557981186142,4.9068169856043395,-171857.48665113372,10.5,10499828142.51335,47.655,-122.3035,60.0,8.966666666666667
2026-01-20T23:08:59+00:00,SAT-48359,137.76925071668234,40.46114129233302,808.7494606050207,4.937480372462746,-172931.4481649129,10.5,10499827068.551836,47.655,-122.3035,60.0,8.983333333333333
2026-01-20T23:09:00+00:00,SAT-48359,137.5879641533538,40.107529836482996,813.6737042739775,4.967585163218885,-173985.84528033156,10.5,10499826014.15472,47.655,-122.3035,60.0,9.0
2026-01-20T23:09:01+00:00,SAT-48359,137.41077297873582,39.75752291043598,818.6279720269004,4.9971413813077845,-175021.02906048336,10.5,10499824978.97094,47.655,-122.3035,60.0,9.016666666666667
2026-01-20T23:09:02+00:00,SAT-48359,137.23754512860208,39.41109011004196,823.6117167617703,5.026158981921349,-176037.34817829932,10.5,10499823962.651821,47.655,-122.3035,60.0,9.033333333333333
2026-01-20T23:09:03+00:00,SAT-48359,137.06815400449355,39.06820016673962,828.6244013050712,5.054647786003842,-177035.14660478994,10.5,10499822964.853395,47.655,-122.3035,60.0,9.05
2026-01-20T23:09:04+00:00,SAT-48359,136.9024782030339,38.72882103810026,833.665498277902,5.082617505959913,-178014.76450944968,10.5,10499821985.23549,47.655,-122.3035,60.0,9.066666666666666
2026-01-20T23:09:05+00:00,SAT-48359,136.74040125946695,38.39291999081532,838.7344899877298,5.110077736524821,-178976.5379404929,10.5,10499821023.462059,47.655,-122.3035,60.0,9.083333333333334
2026-01-20T23:09:06+00:00,SAT-48359,136.58181140601275,38.06046367891126,843.8308683110338,5.137037983664606,-179920.7998370605,10.5,10499820079.200163,47.655,-122.3035,60.0,9.1
2026-01-20T23:09:07+00:00,SAT-48359,136.42660134257798,37.73141821506762,848.9541346047754,5.163507566529687,-180847.87659522015,10.5,10499819152.123405,47.655,-122.3035,60.0,9.116666666666667
2026-01-20T23:09:08+00:00,SAT-48359,136.27466802374647,37.40574924346952,854.1037995200833,5.189495744688326,-181758.0925242203,10.5,10499818241.907476,47.655,-122.3035,60.0,9.133333333333333
2026-01-20T23:09:09+00:00,SAT-48359,136.1259124530198,37.08342199995567,859.2793829428304,5.215011594935548,-182651.7655318175,10.5,10499817348.234468,47.655,-122.3035,60.0,9.15
2026-01-20T23:09:10+00:00,SAT-48359,135.98023949254016,36.764401375788594,864.4804138113516,5.240064107704083,-183529.21050099557,10.5,10499816470.7895,47.655,-122.3035,60.0,9.166666666666666
2026-01-20T23:09:11+00:00,SAT-48359,135.83755767999864,36.448651971363304,869.7064300303118,5.264662095368187,-184390.73607837714,10.5,10499815609.263922,47.655,-122.3035,60.0,9.183333333333334
2026-01-20T23:09:12+00:00,SAT-48359,135.69777905838646,36.13613815180827,874.9569782931258,5.288814262992012,-185236.64715213122,10.5,10499814763.352848,47.655,-122.3035,60.0,9.2
2026-01-20T23:09:13+00:00,SAT-48359,135.56081901266168,35.826824094693386,880.2316139749349,5.312529180080349,-186067.24386256465,10.5,10499813932.756138,47.655,-122.3035,60.0,9.216666666666667
2026-01-20T23:09:14+00:00,SAT-48359,135.42659611608025,35.52067383617274,885.5299009974127,5.335815284400821,-186882.82173599117,10.5,10499813117.178265,47.655,-122.3035,60.0,9.233333333333333
2026-01-20T23:09:15+00:00,SAT-48359,135.29503198457815,35.217651313774,890.8514116973786,5.358680853778313,-187683.67069685349,10.5,10499812316.329304,47.655,-122.3035,60.0,9.25
2026-01-20T23:09:16+00:00,SAT-48359,135.1660511396197,34.91772040782815,896.1957266672857,5.3811340472449,-188470.07650896758,10.5,10499811529.92349,47.655,-122.3035,60.0,9.266666666666667
2026-01-20T23:09:17+00:00,SAT-48359,135.03958087708438,34.62084497776221,901.5624346367466,5.403182877076576,-189242.31979613059,10.5,10499810757.680204,47.655,-122.3035,60.0,9.283333333333333
2026-01-20T23:09:18+00:00,SAT-48359,134.91555114378096,34.326988897386414,906.9511323261688,5.424835245627876,-190000.67733222528,10.5,10499809999.322668,47.655,-122.3035,60.0,9.3
2026-01-20T23:09:19+00:00,SAT-48359,134.7938944194585,34.036116085727826,912.3614243371304,5.44609885387278,-190745.4188379355,10.5,10499809254.581161,47.655,-122.3035,60.0,9.316666666666666
2026-01-20T23:09:20+00:00,SAT-48359,134.6745456070884,33.748190540485695,917.7929229515375,5.4669813346501455,-191476.81164756493,10.5,10499808523.188353,47.655,-122.3035,60.0,9.333333333333334
2026-01-20T23:09:21+00:00,SAT-48359,134.55744192560627,33.46317636214656,923.2452480636731,5.487490162520265,-192195.1175518324,10.5,10499807804.882448,47.655,-122.3035,60.0,9.35
2026-01-20T23:09:22+00:00,SAT-48359,134.4425228101966,33.18103778097101,928.7180270223413,5.507632661942249,-192900.59308427837,10.5,10499807099.406916,47.655,-122.3035,60.0,9.366666666666667
2026-01-20T23:09:23+00:00,SAT-48359,134.32972981751868,32.90173918157034,934.2108944811702,5.527416023149282,-193593.49007728364,10.5,10499806406.509922,47.655,-122.3035,60.0,9.383333333333333
2026-01-20T23:09:24+00:00,SAT-48359,134.21900653522707,32.62524512484372,939.7234922647447,5.546847326203687,-194274.0565045793,10.5,10499805725.943495,47.655,-122.3035,60.0,9.4
2026-01-20T23:09:25+00:00,SAT-48359,134.1102984955458,32.35152036706869,945.2554692587318,5.565933494986638,-194942.53486977212,10.5,10499805057.46513,47.655,-122.3035,60.0,9.416666666666666
2026-01-20T23:09:26+00:00,SAT-48359,134.00355309415218,32.08052987973658,950.8064812541173,5.584681356062596,-195599.1642680259,10.5,10499804400.835732,47.655,-122.3035,60.0,9.433333333333334
2026-01-20T23:09:27+00:00,SAT-48359,133.89871951173302,31.81223886501931,956.3761908501502,5.603097534183222,-196244.17672616642,10.5,10499803755.823275,47.655,-122.3035,60.0,9.45
2026-01-20T23:09:28+00:00,SAT-48359,133.7957486416636,31.546612774905537,961.964267253072,5.6211886206673185,-196877.80310005948,10.5,10499803122.1969,47.655,-122.3035,60.0,9.466666666666667
2026-01-20T23:09:29+00:00,SAT-48359,133.69459301770843,31.283617320954573,967.5703862427714,5.6389610140443365,-197500.26749327205,10.5,10499802499.732506,47.655,-122.3035,60.0,9.483333333333333
2026-01-20T23:09:30+00:00,SAT-48359,133.595206748409,31.023218490509,973.1942299805135,5.6564209952312465,-198111.78989008488,10.5,10499801888.21011,47.655,-122.3035,60.0,9.5
2026-01-20T23:09:31+00:00,SAT-48359,133.49754545326388,30.76538255813146,978.8354868916427,5.673574746886577,-198712.58683335208,10.5,10499801287.413166,47.655,-122.3035,60.0,9.516666666666667
2026-01-20T23:09:32+00:00,SAT-48359,133.4015662013925,30.510076095159565,984.4938515675864,5.69042830901906,-199302.86986972878,10.5,10499800697.13013,47.655,-122.3035,60.0,9.533333333333333
2026-01-20T23:09:33+00:00,SAT-48359,133.30722745416003,30.257265980319563,990.1690246235879,5.706987606365309,-199882.84650855273,10.5,10499800117.153492,47.655,-122.3035,60.0,9.55
2026-01-20T23:09:34+00:00,SAT-48359,133.21448900988375,30.006919408167104,995.8607125837447,5.723258449418708,-200452.72025788063,10.5,10499799547.279741,47.655,-122.3035,60.0,9.566666666666666
