DopplerPredictor/satellites_20260205_234138/SAT-46342.csv

timestamp,satellite,azimuth_deg,elevation_deg,distance_km,relative_velocity_kms,doppler_shift_hz,tx_freq_ghz,rx_freq_hz,ue_lat,ue_lon,ue_alt_m,time_minutes
2026-01-20T23:01:38+00:00,SAT-46342,314.02849875657313,30.093101760371702,997.4675045244891,-5.230862651394112,183206.93657889878,10.5,10500183206.936579,47.655,-122.3035,60.0,1.6333333333333333
2026-01-20T23:01:39+00:00,SAT-46342,314.2403168552757,30.321935473017227,992.2506650940044,-5.209554620309652,182460.63919743887,10.5,10500182460.639198,47.655,-122.3035,60.0,1.65
2026-01-20T23:01:40+00:00,SAT-46342,314.45532434420574,30.552494527078615,987.0550765707133,-5.187902350458569,181702.28511824328,10.5,10500181702.285118,47.655,-122.3035,60.0,1.6666666666666667
2026-01-20T23:01:41+00:00,SAT-46342,314.6735895630947,30.78478685947717,981.8810822705256,-5.165900000500829,180931.6697528752,10.5,10500180931.669752,47.655,-122.3035,60.0,1.6833333333333333
2026-01-20T23:01:42+00:00,SAT-46342,314.8951826184144,31.018819876107003,976.7290313350319,-5.14354166571885,180148.5862931479,10.5,10500180148.586292,47.655,-122.3035,60.0,1.7
2026-01-20T23:01:43+00:00,SAT-46342,315.1201754326346,31.254600416069483,971.5992787947102,-5.12082139721004,179352.8263833289,10.5,10500179352.826384,47.655,-122.3035,60.0,1.7166666666666666
2026-01-20T23:01:44+00:00,SAT-46342,315.34864179554035,31.492134715086042,966.4921856129929,-5.097733135524356,178544.17779584613,10.5,10500178544.177795,47.655,-122.3035,60.0,1.7333333333333334
2026-01-20T23:01:45+00:00,SAT-46342,315.5806574136617,31.73142836405144,961.4081187965176,-5.074270783408585,177722.4269791008,10.5,10500177722.42698,47.655,-122.3035,60.0,1.75
2026-01-20T23:01:46+00:00,SAT-46342,315.81629996407224,31.972486269039273,956.3474514328298,-5.050428109272295,176887.3556764363,10.5,10500176887.355677,47.655,-122.3035,60.0,1.7666666666666666
2026-01-20T23:01:47+00:00,SAT-46342,316.05564914466277,32.215312604778006,951.3105628243594,-5.026198881618819,176038.7456344802,10.5,10500176038.745634,47.655,-122.3035,60.0,1.7833333333333334
2026-01-20T23:01:48+00:00,SAT-46342,316.2987867318055,32.45991077243354,946.2978384883266,-5.001576764250717,175176.3749327961,10.5,10500175176.374933,47.655,-122.3035,60.0,1.8
2026-01-20T23:01:49+00:00,SAT-46342,316.54579663402654,32.70628335030414,941.3096702611631,-4.97655534988408,174300.01916119867,10.5,10500174300.019161,47.655,-122.3035,60.0,1.8166666666666667
2026-01-20T23:01:50+00:00,SAT-46342,316.7967649481464,32.9544320438556,936.3464563694074,-4.951128169992859,173409.45176454377,10.5,10500173409.451765,47.655,-122.3035,60.0,1.8333333333333333
2026-01-20T23:01:51+00:00,SAT-46342,317.0517800167533,33.204357633933284,931.4086014907829,-4.925288723846263,172504.44505974115,10.5,10500172504.445059,47.655,-122.3035,60.0,1.85
2026-01-20T23:01:52+00:00,SAT-46342,317.31093248811277,33.456059924089004,926.4965167863153,-4.899030402071362,171584.76755859316,10.5,10500171584.76756,47.655,-122.3035,60.0,1.8666666666666667
2026-01-20T23:01:53+00:00,SAT-46342,317.57431537269616,33.70953768156585,921.6106200086858,-4.872346551564691,170650.18624127383,10.5,10500170650.186241,47.655,-122.3035,60.0,1.8833333333333333
2026-01-20T23:01:54+00:00,SAT-46342,317.8420241037493,33.964788578956096,916.7513355458418,-4.84523049318123,169700.46717587177,10.5,10500169700.467176,47.655,-122.3035,60.0,1.9
2026-01-20T23:01:55+00:00,SAT-46342,318.1141565994601,34.2218091341972,911.919094446971,-4.81767546710216,168735.37360493798,10.5,10500168735.373606,47.655,-122.3035,60.0,1.9166666666666667
2026-01-20T23:01:56+00:00,SAT-46342,318.3908133225513,34.48059464498655,907.1143345029568,-4.789674677511461,167754.66751024916,10.5,10500167754.667511,47.655,-122.3035,60.0,1.9333333333333333
2026-01-20T23:01:57+00:00,SAT-46342,318.67209734260706,34.741139122687436,902.3375002822808,-4.761221272345255,166758.10890354414,10.5,10500166758.108904,47.655,-122.3035,60.0,1.95
2026-01-20T23:01:58+00:00,SAT-46342,318.9581143974102,35.00343522223982,897.5890431871182,-4.732308367022619,165745.45665767716,10.5,10500165745.456657,47.655,-122.3035,60.0,1.9666666666666666
2026-01-20T23:01:59+00:00,SAT-46342,319.248972955604,35.267474170334424,892.8694214857688,-4.702929057354749,164716.46895875165,10.5,10500164716.468958,47.655,-122.3035,60.0,1.9833333333333334
2026-01-20T23:02:00+00:00,SAT-46342,319.5447842800698,35.53324569125061,888.1791003322126,-4.673076367147627,163670.9014709439,10.5,10500163670.90147,47.655,-122.3035,60.0,2.0
2026-01-20T23:02:01+00:00,SAT-46342,319.8456624875141,35.800737926555186,883.5185518379207,-4.642743326645748,162608.510083934,10.5,10500162608.510084,47.655,-122.3035,60.0,2.0166666666666666
2026-01-20T23:02:02+00:00,SAT-46342,320.1517246123649,36.0699373559182,878.8882550654353,-4.611922960133458,161529.0504786525,10.5,10500161529.050478,47.655,-122.3035,60.0,2.033333333333333
2026-01-20T23:02:03+00:00,SAT-46342,320.4630906691521,36.34082871397738,874.2886960343124,-4.580608213312,160432.27558371733,10.5,10500160432.275583,47.655,-122.3035,60.0,2.05
2026-01-20T23:02:04+00:00,SAT-46342,320.77988370865666,36.613394899481634,869.7203677994966,-4.5487920976706535,159317.94063192167,10.5,10500159317.940632,47.655,-122.3035,60.0,2.066666666666667
2026-01-20T23:02:05+00:00,SAT-46342,321.1022298824164,36.88761688937238,865.1837703857065,-4.516467558619961,158185.79854170178,10.5,10500158185.798542,47.655,-122.3035,60.0,2.0833333333333335
2026-01-20T23:02:06+00:00,SAT-46342,321.4302584962161,37.1634736415188,860.6794108533383,-4.483627584574753,157035.60373768612,10.5,10500157035.603737,47.655,-122.3035,60.0,2.1
2026-01-20T23:02:07+00:00,SAT-46342,321.7641020689777,37.440942000278845,856.2078032555773,-4.45026517102631,155867.1108923503,10.5,10500155867.110893,47.655,-122.3035,60.0,2.1166666666666667
2026-01-20T23:02:08+00:00,SAT-46342,322.10389638652356,37.71999659625275,851.7694686313379,-4.416373308640115,154680.07450914997,10.5,10500154680.074509,47.655,-122.3035,60.0,2.1333333333333333
2026-01-20T23:02:09+00:00,SAT-46342,322.44978055107964,38.00060974147727,847.3649350100786,-4.381945045559906,153474.2511046726,10.5,10500153474.251104,47.655,-122.3035,60.0,2.15
2026-01-20T23:02:10+00:00,SAT-46342,322.8018970319545,38.282751324709466,842.9947373544775,-4.346973437965774,152249.39747697263,10.5,10500152249.397476,47.655,-122.3035,60.0,2.1666666666666665
2026-01-20T23:02:11+00:00,SAT-46342,323.16039170800696,38.566388699753155,838.6594175524165,-4.311451601404486,151005.27250337665,10.5,10500151005.272503,47.655,-122.3035,60.0,2.183333333333333
2026-01-20T23:02:12+00:00,SAT-46342,323.52541390933186,38.85148657317235,834.359524357775,-4.275372700447212,149741.6367782532,10.5,10500149741.636778,47.655,-122.3035,60.0,2.2
2026-01-20T23:02:13+00:00,SAT-46342,323.897116452509,39.138006887480344,830.0956133415363,-4.23872996287839,148458.25310996678,10.5,10500148458.25311,47.655,-122.3035,60.0,2.216666666666667
2026-01-20T23:02:14+00:00,SAT-46342,324.27565567071844,39.42590870137836,825.8682468287436,-4.2015166857882535,147154.8867342642,10.5,10500147154.886734,47.655,-122.3035,60.0,2.2333333333333334
2026-01-20T23:02:15+00:00,SAT-46342,324.66119143713854,39.715148066522836,821.6779938293805,-4.163726264717342,145831.30633503827,10.5,10500145831.306335,47.655,-122.3035,60.0,2.25
2026-01-20T23:02:16+00:00,SAT-46342,325.05388718301316,40.00567790247633,817.5254299401846,-4.125352171946999,144487.2832839694,10.5,10500144487.283283,47.655,-122.3035,60.0,2.2666666666666666
2026-01-20T23:02:17+00:00,SAT-46342,325.4539099045986,40.29744786639304,813.411137268112,-4.086387987051508,143122.5927105906,10.5,10500143122.59271,47.655,-122.3035,60.0,2.283333333333333
2026-01-20T23:02:18+00:00,SAT-46342,325.86143016280425,40.59040422109249,809.3357043233326,-4.0468274253457,141737.0144986431,10.5,10500141737.014498,47.655,-122.3035,60.0,2.3
2026-01-20T23:02:19+00:00,SAT-46342,326.27662207444774,40.884489701600344,805.2997258838518,-4.006664316744916,140330.3325456627,10.5,10500140330.332546,47.655,-122.3035,60.0,2.316666666666667
2026-01-20T23:02:20+00:00,SAT-46342,326.6996632889973,41.17964337674257,801.3038028812202,-3.965892652259613,138902.33639141763,10.5,10500138902.336391,47.655,-122.3035,60.0,2.3333333333333335
2026-01-20T23:02:21+00:00,SAT-46342,327.1307349562288,41.475800510811226,797.3485422398683,-3.9245065639330177,137452.8205152402,10.5,10500137452.820515,47.655,-122.3035,60.0,2.35
2026-01-20T23:02:22+00:00,SAT-46342,327.5700216765528,41.772892420679945,793.4345567364512,-3.882500356103875,135981.5854309807,10.5,10500135981.58543,47.655,-122.3035,60.0,2.3666666666666667
2026-01-20T23:02:23+00:00,SAT-46342,328.017711437794,42.070846332335776,789.562464828017,-3.839868543121317,134488.43900794137,10.5,10500134488.439009,47.655,-122.3035,60.0,2.3833333333333333
2026-01-20T23:02:24+00:00,SAT-46342,328.4739955380726,42.36958523775126,785.7328904425578,-3.79660580066706,132973.19476597419,10.5,10500132973.194765,47.655,-122.3035,60.0,2.4
2026-01-20T23:02:25+00:00,SAT-46342,328.93906848257893,42.669027745730865,781.9464628181108,-3.752707058157262,131435.67511178434,10.5,10500131435.675112,47.655,-122.3035,60.0,2.4166666666666665
2026-01-20T23:02:26+00:00,SAT-46342,329.4131278693898,42.96908793800771,778.2038162497029,-3.708167476567739,129875.71056227591,10.5,10500129875.710562,47.655,-122.3035,60.0,2.433333333333333
2026-01-20T23:02:27+00:00,SAT-46342,329.89637424880704,43.269675222245624,774.5055898584127,-3.662982437210452,128293.13935145675,10.5,10500128293.13935,47.655,-122.3035,60.0,2.45
2026-01-20T23:02:28+00:00,SAT-46342,330.38901095479343,43.570694183065044,770.8524273716246,-3.6171475967904696,126687.80935876623,10.5,10500126687.809359,47.655,-122.3035,60.0,2.466666666666667
2026-01-20T23:02:29+00:00,SAT-46342,330.89124391488895,43.87204443698285,767.2449768483749,-3.5706589227565995,125059.57934720391,10.5,10500125059.579348,47.655,-122.3035,60.0,2.4833333333333334
2026-01-20T23:02:30+00:00,SAT-46342,331.40328143469765,44.17362049050936,763.6838903694392,-3.5235126442476288,123408.31724525939,10.5,10500123408.317245,47.655,-122.3035,60.0,2.5
2026-01-20T23:02:31+00:00,SAT-46342,331.9253339419683,44.475311594974876,760.1698237763461,-3.4757053183530044,121733.90246764162,10.5,10500121733.902468,47.655,-122.3035,60.0,2.5166666666666666
2026-01-20T23:02:32+00:00,SAT-46342,332.45761370411935,44.77700160838165,756.7034363443041,-3.4272338550856083,120036.22678993108,10.5,10500120036.22679,47.655,-122.3035,60.0,2.533333333333333
2026-01-20T23:02:33+00:00,SAT-46342,333.00033451122874,45.078568861865286,753.2853904302257,-3.3780955115842395,118315.19414552623,10.5,10500118315.194145,47.655,-122.3035,60.0,2.55
2026-01-20T23:02:34+00:00,SAT-46342,333.5537113170109,45.379886029000374,749.9163511265307,-3.3282878935697924,116570.72067664498,10.5,10500116570.720676,47.655,-122.3035,60.0,2.566666666666667
2026-01-20T23:02:35+00:00,SAT-46342,334.1179598352569,45.68081999942021,746.5969859135,-3.2778090267588995,114802.73723553261,10.5,10500114802.737236,47.655,-122.3035,60.0,2.5833333333333335
2026-01-20T23:02:36+00:00,SAT-46342,334.6932961011019,45.98123176417974,743.3279642404042,-3.226657327877238,113011.18836922508,10.5,10500113011.18837,47.655,-122.3035,60.0,2.6
2026-01-20T23:02:37+00:00,SAT-46342,335.27993597722,46.28097630512753,740.1099571355442,-3.174831661120202,111196.03429704065,10.5,10500111196.034298,47.655,-122.3035,60.0,2.6166666666666667
2026-01-20T23:02:38+00:00,SAT-46342,335.87809461713556,46.579902497296054,736.9436367599807,-3.1223312968557275,109357.24946417811,10.5,10500109357.249464,47.655,-122.3035,60.0,2.6333333333333333
2026-01-20T23:02:39+00:00,SAT-46342,336.48798586424124,46.87785301665596,733.8296760024501,-3.0691560262417017,107494.82655610325,10.5,10500107494.826555,47.655,-122.3035,60.0,2.65
2026-01-20T23:02:40+00:00,SAT-46342,337.1098216140477,47.17466426940578,730.7687479599713,-3.0153060760818677,105608.77351644252,10.5,10500105608.773516,47.655,-122.3035,60.0,2.6666666666666665
2026-01-20T23:02:41+00:00,SAT-46342,337.74381109778653,47.47016632557473,727.7615255033672,-2.9607821972194763,103699.11664290268,10.5,10500103699.116642,47.655,-122.3035,60.0,2.683333333333333
2026-01-20T23:02:42+00:00,SAT-46342,338.3901601191766,47.76418287509595,724.8086807546304,-2.905585659766245,101765.90042016859,10.5,10500101765.90042,47.655,-122.3035,60.0,2.7
2026-01-20T23:02:43+00:00,SAT-46342,339.04907022341916,48.05653119937698,721.9108845690472,-2.8497182739901885,99809.18825148356,10.5,10500099809.188251,47.655,-122.3035,60.0,2.716666666666667
2026-01-20T23:02:44+00:00,SAT-46342,339.7207378017623,48.34702216275594,719.0688059964884,-2.793182395727906,97829.06264821049,10.5,10500097829.062649,47.655,-122.3035,60.0,2.7333333333333334
2026-01-20T23:02:45+00:00,SAT-46342,340.405353126104,48.63546022429813,716.2831117373041,-2.7359809577331036,95825.6263277897,10.5,10500095825.626328,47.655,-122.3035,60.0,2.75
2026-01-20T23:02:46+00:00,SAT-46342,341.1030993182444,48.92164347469242,713.5544655669532,-2.6781174746199183,93799.00238687507,10.5,10500093799.002386,47.655,-122.3035,60.0,2.7666666666666666
2026-01-20T23:02:47+00:00,SAT-46342,341.81415124700254,49.20536369779354,710.8835277557027,-2.619596085634059,91749.3357993603,10.5,10500091749.3358,47.655,-122.3035,60.0,2.783333333333333
2026-01-20T23:02:48+00:00,SAT-46342,342.53867436293217,49.48640646306655,708.2709544456698,-2.560421521982407,89676.79227212336,10.5,10500089676.792273,47.655,-122.3035,60.0,2.8
2026-01-20T23:02:49+00:00,SAT-46342,343.2768234509039,49.76455124330993,705.7173970604497,-2.500599174509211,87581.56061533315,10.5,10500087581.560616,47.655,-122.3035,60.0,2.816666666666667
2026-01-20T23:02:50+00:00,SAT-46342,344.0287413292994,50.03957157068114,703.2235016472447,-2.4401350629228755,85463.85166464125,10.5,10500085463.851665,47.655,-122.3035,60.0,2.8333333333333335
2026-01-20T23:02:51+00:00,SAT-46342,344.7945574709384,50.31123522291446,700.7899082496866,-2.3790358599693033,83323.89912783491,10.5,10500083323.899128,47.655,-122.3035,60.0,2.85
2026-01-20T23:02:52+00:00,SAT-46342,345.5743865636653,50.5793044479337,698.4172502565513,-2.3173089368418407,81161.96117528522,10.5,10500081161.961176,47.655,-122.3035,60.0,2.8666666666666667
2026-01-20T23:02:53+00:00,SAT-46342,346.368327024201,50.84353623176006,696.1061537051804,-2.254962304328032,78978.3183786576,10.5,10500078978.318378,47.655,-122.3035,60.0,2.8833333333333333
2026-01-20T23:02:54+00:00,SAT-46342,347.1764594355847,51.10368260021713,693.8572366436053,-2.1920047013600525,76773.27681232245,10.5,10500076773.276812,47.655,-122.3035,60.0,2.9
2026-01-20T23:02:55+00:00,SAT-46342,347.99884496610656,51.35949097324941,691.6711084043528,-2.1284455388857735,74547.16608748252,10.5,10500074547.166088,47.655,-122.3035,60.0,2.9166666666666665
2026-01-20T23:02:56+00:00,SAT-46342,348.8355237282396,51.61070455743759,689.5483689342313,-2.064294939035737,72300.3407239659,10.5,10500072300.340723,47.655,-122.3035,60.0,2.933333333333333
2026-01-20T23:02:57+00:00,SAT-46342,349.68651312178866,51.85706278936293,687.4896080850544,-1.9995637144699876,70033.17942686494,10.5,10500070033.179426,47.655,-122.3035,60.0,2.95
2026-01-20T23:02:58+00:00,SAT-46342,350.55180615042786,52.09830182441292,685.4954049249632,-1.9342634159949716,67746.0867542812,10.5,10500067746.086754,47.655,-122.3035,60.0,2.966666666666667
2026-01-20T23:02:59+00:00,SAT-46342,351.431369754975,52.33415508041944,683.566327002258,-1.8684062751978403,65439.491108136295,10.5,10500065439.491108,47.655,-122.3035,60.0,2.9833333333333334
2026-01-20T23:03:00+00:00,SAT-46342,352.3251431332249,52.5643538243963,681.7029296664441,-1.8020052484047964,63113.846273779054,10.5,10500063113.846273,47.655,-122.3035,60.0,3.0
2026-01-20T23:03:01+00:00,SAT-46342,353.2330361084239,52.78862781498821,679.9057553454336,-1.7350739938260686,60769.63061950584,10.5,10500060769.63062,47.655,-122.3035,60.0,3.0166666666666666
2026-01-20T23:03:02+00:00,SAT-46342,354.15492753568,53.00670599254161,678.1753328455445,-1.6676268793882136,58407.34737088097,10.5,10500058407.34737,47.655,-122.3035,60.0,3.033333333333333
2026-01-20T23:03:03+00:00,SAT-46342,355.09066378232427,53.2183172199573,676.5121766436876,-1.5996789535955898,56027.52359018215,10.5,10500056027.52359,47.655,-122.3035,60.0,3.05
2026-01-20T23:03:04+00:00,SAT-46342,356.0400572836607,53.42319106849245,674.9167862086107,-1.5312459738702167,53630.71116898236,10.5,10500053630.711168,47.655,-122.3035,60.0,3.066666666666667
2026-01-20T23:03:05+00:00,SAT-46342,357.0028852312287,53.62105865394894,673.3896452938845,-1.4623443551766,51217.4850287738,10.5,10500051217.48503,47.655,-122.3035,60.0,3.0833333333333335
2026-01-20T23:03:06+00:00,SAT-46342,357.97888837093643,53.81165351057407,671.9312212821206,-1.3929911915101536,48788.44387358341,10.5,10500048788.443874,47.655,-122.3035,60.0,3.1
2026-01-20T23:03:07+00:00,SAT-46342,358.96776998085517,53.99471250870424,670.541964507762,-1.323204226212082,46344.20915027442,10.5,10500046344.20915,47.655,-122.3035,60.0,3.1166666666666667
2026-01-20T23:03:08+00:00,SAT-46342,359.9691950226992,54.16997680555232,669.2223076094782,-1.2530018330004598,43885.42438417456,10.5,10500043885.424385,47.655,-122.3035,60.0,3.1333333333333333
2026-01-20T23:03:09+00:00,SAT-46342,0.9827894980013281,54.33719282565655,667.9726649014779,-1.1824030020094338,41412.75469010983,10.5,10500041412.75469,47.655,-122.3035,60.0,3.15
2026-01-20T23:03:10+00:00,SAT-46342,2.0081400370403397,54.496113266027606,666.7934317587451,-1.111427328552103,38926.88637883306,10.5,10500038926.88638,47.655,-122.3035,60.0,3.1666666666666665
2026-01-20T23:03:11+00:00,SAT-46342,3.0447937494952826,54.64649812005373,665.6849840134838,-1.0400949719271462,36428.525514257715,10.5,10500036428.525515,47.655,-122.3035,60.0,3.183333333333333
2026-01-20T23:03:12+00:00,SAT-46342,4.092258330886962,54.78811570899933,664.6476773926431,-0.9684266453673792,33918.39756141391,10.5,10500033918.397562,47.655,-122.3035,60.0,3.2
2026-01-20T23:03:13+00:00,SAT-46342,5.150002472220513,54.92074371750695,663.6818469654693,-0.8964435884299528,31397.246419436287,10.5,10500031397.24642,47.655,-122.3035,60.0,3.216666666666667
2026-01-20T23:03:14+00:00,SAT-46342,6.217456575164826,55.044170222371946,662.7878066185908,-0.8241675278560616,28865.83305070552,10.5,10500028865.83305,47.655,-122.3035,60.0,3.2333333333333334
2026-01-20T23:03:15+00:00,SAT-46342,7.294013770193866,55.158194704093475,661.9658485701416,-0.7516206674541945,26324.9351265169,10.5,10500026324.935127,47.655,-122.3035,60.0,3.25
2026-01-20T23:03:16+00:00,SAT-46342,8.379031283231054,55.26262903592246,661.2162428939731,-0.6788256320736062,23775.345064794343,10.5,10500023775.345064,47.655,-122.3035,60.0,3.2666666666666666
2026-01-20T23:03:17+00:00,SAT-46342,9.471832095397028,55.35729843454183,660.5392370997412,-0.6058054605104586,21217.86978163345,10.5,10500021217.869781,47.655,-122.3035,60.0,3.283333333333333
2026-01-20T23:03:18+00:00,SAT-46342,10.57170696467089,55.4420423694934,659.935055720069,-0.5325835490448582,18653.32871372972,10.5,10500018653.328714,47.655,-122.3035,60.0,3.3
2026-01-20T23:03:19+00:00,SAT-46342,11.677916729930974,55.51671541495347,659.4038999540227,-0.45918362807342006,16082.552999952088,10.5,10500016082.553,47.655,-122.3035,60.0,3.316666666666667
2026-01-20T23:03:20+00:00,SAT-46342,12.789694937418867,55.581188039072885,658.9459473338889,-0.38562972080637403,13506.384034740886,10.5,10500013506.384035,47.655,-122.3035,60.0,3.3333333333333335
2026-01-20T23:03:21+00:00,SAT-46342,13.906250746091198,55.63534731949008,658.561351433147,-0.31194610470842266,10925.672117603564,10.5,10500010925.672117,47.655,-122.3035,60.0,3.35
2026-01-20T23:03:22+00:00,SAT-46342,15.026772089942025,55.67909757703761,658.2502416128968,-0.2381572735253222,8341.275123124957,10.5,10500008341.275124,47.655,-122.3035,60.0,3.3666666666666667
2026-01-20T23:03:23+00:00,SAT-46342,16.15042907583858,55.712360920168734,658.012722806156,-0.1642878974376745,5754.057105384493,10.5,10500005754.057106,47.655,-122.3035,60.0,3.3833333333333333
2026-01-20T23:03:24+00:00,SAT-46342,17.276377585539464,55.73507769320311,657.8488753418997,-0.09036277902749532,3164.886755719188,10.5,10500003164.886755,47.655,-122.3035,60.0,3.4
2026-01-20T23:03:25+00:00,SAT-46342,18.403763011728927,55.74720682225649,657.7587548130125,-0.01640681650152621,574.6361146484387,10.5,10500000574.636114,47.655,-122.3035,60.0,3.4166666666666665
2026-01-20T23:03:26+00:00,SAT-46342,19.53172415573106,55.74872605550306,657.7423919809222,0.05755504184652722,-2015.821023051006,10.5,10499997984.178976,47.655,-122.3035,60.0,3.433333333333333
2026-01-20T23:03:27+00:00,SAT-46342,20.659397156199567,55.73963209353474,657.7997927256439,0.13149783724778766,-4605.610495717576,10.5,10499995394.389503,47.655,-122.3035,60.0,3.45
2026-01-20T23:03:28+00:00,SAT-46342,21.78591947833937,55.71994060894729,657.9309380353367,0.2053966437119011,-7193.859289732238,10.5,10499992806.14071,47.655,-122.3035,60.0,3.466666666666667
2026-01-20T23:03:29+00:00,SAT-46342,22.910433877375787,55.689686154425154,658.1357840389915,0.2792266085095367,-9779.696957386885,10.5,10499990220.303043,47.655,-122.3035,60.0,3.4833333333333334
2026-01-20T23:03:30+00:00,SAT-46342,24.03209229919919,55.648921960882916,658.4142620794969,0.3529629948343868,-12362.257111088036,10.5,10499987637.74289,47.655,-122.3035,60.0,3.5
2026-01-20T23:03:31+00:00,SAT-46342,25.150059681417748,55.59771962792347,658.7662788292511,0.4265812232125329,-14940.678873687995,10.5,10499985059.321127,47.655,-122.3035,60.0,3.5166666666666666
2026-01-20T23:03:32+00:00,SAT-46342,26.263517607380514,55.536168710697545,659.1917164470724,0.5000569108795669,-17514.108257638196,10.5,10499982485.891743,47.655,-122.3035,60.0,3.533333333333333
2026-01-20T23:03:33+00:00,SAT-46342,27.371667770329477,55.46437620862135,659.6904327743817,0.5733659121483609,-20081.699578839267,10.5,10499979918.30042,47.655,-122.3035,60.0,3.55
2026-01-20T23:03:34+00:00,SAT-46342,28.47373522122323,55.38246596206011,660.2622615716441,0.6464843554406262,-22642.616753642866,10.5,10499977357.383245,47.655,-122.3035,60.0,3.566666666666667
2026-01-20T23:03:35+00:00,SAT-46342,29.56897136045912,55.290577964739896,660.9070127917425,0.71938868594574,-25196.034792944225,10.5,10499974803.965206,47.655,-122.3035,60.0,3.5833333333333335
2026-01-20T23:03:36+00:00,SAT-46342,30.656656662563734,55.18886759915217,661.6244728958969,0.7920556945904124,-27741.14081682245,10.5,10499972258.859182,47.655,-122.3035,60.0,3.6
2026-01-20T23:03:37+00:00,SAT-46342,31.736103090069925,55.07750480565584,662.4144051984738,0.8644625621281513,-30277.13559874007,10.5,10499969722.8644,47.655,-122.3035,60.0,3.6166666666666667
2026-01-20T23:03:38+00:00,SAT-46342,32.806656209591154,54.956673192342116,663.2765502557686,0.9365868832257018,-32803.23440915204,10.5,10499967196.76559,47.655,-122.3035,60.0,3.6333333333333333
2026-01-20T23:03:39+00:00,SAT-46342,33.86769697184588,54.82656909799689,664.2106262788093,1.0084067085877313,-35318.668490890384,10.5,10499964681.331509,47.655,-122.3035,60.0,3.65
2026-01-20T23:03:40+00:00,SAT-46342,34.91864317895994,54.687400615274385,665.2163295881716,1.0799005690488614,-37822.68590296906,10.5,10499962177.314096,47.655,-122.3035,60.0,3.6666666666666665
2026-01-20T23:03:41+00:00,SAT-46342,35.958950617775976,54.53938658617579,666.2933350928209,1.151047502647042,-40314.55246880807,10.5,10499959685.44753,47.655,-122.3035,60.0,3.683333333333333
2026-01-20T23:03:42+00:00,SAT-46342,36.98811387351547,54.38275557879043,667.4412967959581,1.2218270936590228,-42793.553143420766,10.5,10499957206.446857,47.655,-122.3035,60.0,3.7
2026-01-20T23:03:43+00:00,SAT-46342,38.00566684375104,54.21774485270969,668.659848339791,1.2922194761811432,-45258.99213882827,10.5,10499954741.007862,47.655,-122.3035,60.0,3.716666666666667
2026-01-20T23:03:44+00:00,SAT-46342,39.011182938532414,54.04459932650309,669.9486035538827,1.3622053849959042,-47710.19470562196,10.5,10499952289.805294,47.655,-122.3035,60.0,3.7333333333333334
2026-01-20T23:03:45+00:00,SAT-46342,40.00427502355635,53.86357054884622,671.3071570542259,1.4317661549258962,-50146.50711033535,10.5,10499949853.49289,47.655,-122.3035,60.0,3.75
2026-01-20T23:03:46+00:00,SAT-46342,40.98459508608123,53.674915687614174,672.7350848416743,1.5008837457920876,-52567.29750958885,10.5,10499947432.70249,47.655,-122.3035,60.0,3.7666666666666666
2026-01-20T23:03:47+00:00,SAT-46342,41.951833668205275,53.478896540086026,674.2319449252657,1.5695407622613342,-54971.956645233586,10.5,10499945028.043354,47.655,-122.3035,60.0,3.783333333333333
2026-01-20T23:03:48+00:00,SAT-46342,42.90571908682788,53.27577857082954,675.7972779653401,1.6377204768443392,-57359.89864983715,10.5,10499942640.10135,47.655,-122.3035,60.0,3.8
2026-01-20T23:03:49+00:00,SAT-46342,43.846016466371985,53.06582998200531,677.4306079395914,1.705406826637836,-59730.56093258116,10.5,10499940269.439068,47.655,-122.3035,60.0,3.816666666666667
2026-01-20T23:03:50+00:00,SAT-46342,44.77252659478945,52.84932082378281,679.1314428058729,1.7725844225167615,-62083.40450120995,10.5,10499937916.595499,47.655,-122.3035,60.0,3.8333333333333335
2026-01-20T23:03:51+00:00,SAT-46342,45.68508463735615,52.62652214672019,680.8992751741697,1.8392385871563357,-64417.91529372471,10.5,10499935582.084705,47.655,-122.3035,60.0,3.85
2026-01-20T23:03:52+00:00,SAT-46342,46.5835587463167,52.397705195329245,682.7335830164888,1.905355338205286,-66733.6035890386,10.5,10499933266.396412,47.655,-122.3035,60.0,3.8666666666666667
2026-01-20T23:03:53+00:00,SAT-46342,47.46784856096651,52.16314065186636,684.6338303599715,1.9709213790058826,-69030.00368195308,10.5,10499930969.996319,47.655,-122.3035,60.0,3.8833333333333333
2026-01-20T23:03:54+00:00,SAT-46342,48.33788362845066,51.92309793065785,686.5994679707475,2.0359241594621476,-71306.67601502019,10.5,10499928693.323984,47.655,-122.3035,60.0,3.9
2026-01-20T23:03:55+00:00,SAT-46342,49.19362179565206,51.6778445152089,688.6299340984955,2.1003517989651526,-73563.20447906032,10.5,10499926436.79552,47.655,-122.3035,60.0,3.9166666666666665
2026-01-20T23:03:56+00:00,SAT-46342,50.03504753227646,51.42764535520339,690.7246551441361,2.1641931512498647,-75799.19868472335,10.5,10499924200.801315,47.655,-122.3035,60.0,3.933333333333333
2026-01-20T23:03:57+00:00,SAT-46342,50.862170264169734,51.17276230576769,692.8830463922062,2.2274377665114304,-78014.29263564068,10.5,10499921985.707365,47.655,-122.3035,60.0,3.95
2026-01-20T23:03:58+00:00,SAT-46342,51.67502268971808,50.91345362079328,695.104512705452,2.2900759002234183,-80208.1450372774,10.5,10499919791.854963,47.655,-122.3035,60.0,3.966666666666667
2026-01-20T23:03:59+00:00,SAT-46342,52.473659113360284,50.64997349352539,697.3884492282174,2.3520985168905213,-82380.43942836771,10.5,10499917619.560572,47.655,-122.3035,60.0,3.9833333333333334
2026-01-20T23:04:00+00:00,SAT-46342,53.25815380579029,50.38257164367752,699.7342420935738,2.413497263453031,-84530.88324942725,10.5,10499915469.11675,47.655,-122.3035,60.0,4.0
2026-01-20T23:04:01+00:00,SAT-46342,54.02859939188869,50.111492952844834,702.1412691039262,2.4742644656802533,-86659.20771643514,10.5,10499913340.792284,47.655,-122.3035,60.0,4.016666666666667
2026-01-20T23:04:02+00:00,SAT-46342,54.78510528436899,49.83697714355496,704.6089004080225,2.5343931393723156,-88765.1682131687,10.5,10499911234.831787,47.655,-122.3035,60.0,4.033333333333333
2026-01-20T23:04:03+00:00,SAT-46342,55.527796174252984,49.55925849828977,707.1364991891344,2.5938769509214143,-90848.54290989152,10.5,10499909151.45709,47.655,-122.3035,60.0,4.05
2026-01-20T23:04:04+00:00,SAT-46342,56.25681056961588,49.27856562189551,709.7234223139052,2.652710219028461,-92909.13282347763,10.5,10499907090.867176,47.655,-122.3035,60.0,4.066666666666666
2026-01-20T23:04:05+00:00,SAT-46342,56.972299400127355,48.99512124040892,712.3690209829106,2.710887907810601,-94946.76157600773,10.5,10499905053.238424,47.655,-122.3035,60.0,4.083333333333333
2026-01-20T23:04:06+00:00,SAT-46342,57.67442468826864,48.70914203497031,715.0726413743428,2.7684056228219833,-96961.2752553996,10.5,10499903038.724745,47.655,-122.3035,60.0,4.1
2026-01-20T23:04:07+00:00,SAT-46342,58.363358289807145,48.42083850817643,717.8336252837298,2.8252595340575746,-98952.53971867608,10.5,10499901047.460281,47.655,-122.3035,60.0,4.116666666666666
2026-01-20T23:04:08+00:00,SAT-46342,59.03928068843888,48.130414888047966,720.6513106868624,2.8814464561263513,-100920.44339996934,10.5,10499899079.5566,47.655,-122.3035,60.0,4.133333333333334
2026-01-20T23:04:09+00:00,SAT-46342,59.7023798832988,47.83806905081457,723.5250323826796,2.9369637560602357,-102864.89408159986,10.5,10499897135.105919,47.655,-122.3035,60.0,4.15
2026-01-20T23:04:10+00:00,SAT-46342,60.352850327574856,47.543992478267306,726.4541225442108,2.991809379629971,-104785.81981576966,10.5,10499895214.180183,47.655,-122.3035,60.0,4.166666666666667
2026-01-20T23:04:11+00:00,SAT-46342,60.990891945939914,47.24837023507351,729.4379112957639,3.045981805201428,-106683.16730841505,10.5,10499893316.832691,47.655,-122.3035,60.0,4.183333333333334
2026-01-20T23:04:12+00:00,SAT-46342,61.61670921331607,46.95138097133275,732.4757272440906,3.0994800366704687,-108556.9016717556,10.5,10499891443.098328,47.655,-122.3035,60.0,4.2
2026-01-20T23:04:13+00:00,SAT-46342,62.23051030205848,46.6531969442751,735.5668980025113,3.1523036123118104,-110407.0067342188,10.5,10499889592.993265,47.655,-122.3035,60.0,4.216666666666667
2026-01-20T23:04:14+00:00,SAT-46342,62.83250629809094,46.353984055741286,738.7107507238562,3.204452538686315,-112233.48272559381,10.5,10499887766.517275,47.655,-122.3035,60.0,4.233333333333333
2026-01-20T23:04:15+00:00,SAT-46342,63.422910469244734,46.0539019107625,741.9066125675009,3.2559272976296496,-114036.34652180385,10.5,10499885963.653479,47.655,-122.3035,60.0,4.25
2026-01-20T23:04:16+00:00,SAT-46342,64.00193759802764,45.753103888341116,745.1538111733635,3.306728838294452,-115815.63136618916,10.5,10499884184.368633,47.655,-122.3035,60.0,4.266666666666667
2026-01-20T23:04:17+00:00,SAT-46342,64.56980337227125,45.45173722435479,748.4516751279712,3.3568585451376927,-117571.38574828915,10.5,10499882428.614252,47.655,-122.3035,60.0,4.283333333333333
2026-01-20T23:04:18+00:00,SAT-46342,65.12672382715424,45.14994310725108,751.7995343985958,3.4063182101881413,-119303.67243253159,10.5,10499880696.327568,47.655,-122.3035,60.0,4.3
2026-01-20T23:04:19+00:00,SAT-46342,65.67291483636973,44.84785678459845,755.1967207397344,3.4551100257508733,-121012.56820271366,10.5,10499878987.431797,47.655,-122.3035,60.0,4.316666666666666
2026-01-20T23:04:20+00:00,SAT-46342,66.20859165350515,44.54560767729302,758.6425680923113,3.503236568297968,-122698.16329778604,10.5,10499877301.836702,47.655,-122.3035,60.0,4.333333333333333
2026-01-20T23:04:21+00:00,SAT-46342,66.73396849855632,44.24331950102134,762.1364129668162,3.5507007852530212,-124360.56094899068,10.5,10499875639.43905,47.655,-122.3035,60.0,4.35
2026-01-20T23:04:22+00:00,SAT-46342,67.24925818740982,43.94111039361251,765.6775948132608,3.5975059399776264,-125999.87545305453,10.5,10499874000.124546,47.655,-122.3035,60.0,4.366666666666666
2026-01-20T23:04:23+00:00,SAT-46342,67.75467179559305,43.63909305075694,769.2654563362693,3.6436556715917567,-127616.23426735253,10.5,10499872383.765732,47.655,-122.3035,60.0,4.383333333333334
2026-01-20T23:04:24+00:00,SAT-46342,68.25041836962288,43.337374859375146,772.8993438698299,3.6891538643404562,-129209.77343457649,10.5,10499870790.226566,47.655,-122.3035,60.0,4.4
2026-01-20T23:04:25+00:00,SAT-46342,68.73670465709979,43.036058043844704,776.5786076217631,3.734004746092923,-130780.6410325896,10.5,10499869219.358967,47.655,-122.3035,60.0,4.416666666666667
2026-01-20T23:04:26+00:00,SAT-46342,69.21373488417287,42.73523980505529,780.3026020164245,3.778212773779233,-132328.99316193585,10.5,10499867671.006838,47.655,-122.3035,60.0,4.433333333333334
2026-01-20T23:04:27+00:00,SAT-46342,69.68171054941453,42.435012469302706,784.0706859231506,3.8217827025101276,-133854.9963667076,10.5,10499866145.003633,47.655,-122.3035,60.0,4.45
2026-01-20T23:04:28+00:00,SAT-46342,70.14083025562769,42.135463631318174,787.8822229536413,3.8647194983921755,-135358.8245809634,10.5,10499864641.175419,47.655,-122.3035,60.0,4.466666666666667
2026-01-20T23:04:29+00:00,SAT-46342,70.59128955766411,41.83667630350977,791.7365816723897,3.907028371788209,-136840.66029364953,10.5,10499863159.339706,47.655,-122.3035,60.0,4.483333333333333
2026-01-20T23:04:30+00:00,SAT-46342,71.03328083894667,41.538729061251715,795.6331358402831,3.948714728008824,-138300.69282160746,10.5,10499861699.307178,47.655,-122.3035,60.0,4.5
2026-01-20T23:04:31+00:00,SAT-46342,71.46699320495503,41.24169619028676,799.5712646090287,3.9897841509995504,-139739.1177382297,10.5,10499860260.882261,47.655,-122.3035,60.0,4.516666666666667
2026-01-20T23:04:32+00:00,SAT-46342,71.89261239591961,40.94564783316647,803.5503526993097,4.030242446341825,-141156.13837953575,10.5,10499858843.86162,47.655,-122.3035,60.0,4.533333333333333
2026-01-20T23:04:33+00:00,SAT-46342,72.31032072264482,40.65065013006469,807.5697906218262,4.070095544707125,-142551.9624627275,10.5,10499857448.037537,47.655,-122.3035,60.0,4.55
2026-01-20T23:04:34+00:00,SAT-46342,72.7202970096567,40.35676536405374,811.6289748020513,4.109349541861611,-143926.8034873209,10.5,10499856073.196512,47.655,-122.3035,60.0,4.566666666666666
2026-01-20T23:04:35+00:00,SAT-46342,73.12271655815701,40.06405210035927,815.7273077448813,4.148010674501545,-145280.87988880032,10.5,10499854719.120111,47.655,-122.3035,60.0,4.583333333333333
2026-01-20T23:04:36+00:00,SAT-46342,73.51775112069772,39.77256532420948,819.8641981751899,4.186085311306847,-146614.414725276,10.5,10499853385.585276,47.655,-122.3035,60.0,4.6
2026-01-20T23:04:37+00:00,SAT-46342,73.90556888776948,39.482356575970805,824.0390611694571,4.223579903528289,-147927.63394683876,10.5,10499852072.366053,47.655,-122.3035,60.0,4.616666666666666
2026-01-20T23:04:38+00:00,SAT-46342,74.28633448157427,39.19347408617783,828.2513182381182,4.260501025609362,-149220.76781830948,10.5,10499850779.232182,47.655,-122.3035,60.0,4.633333333333334
2026-01-20T23:04:39+00:00,SAT-46342,74.66020896382261,38.90596290406335,832.5003974484268,4.296855347161906,-150494.04993770728,10.5,10499849505.950062,47.655,-122.3035,60.0,4.65
2026-01-20T23:04:40+00:00,SAT-46342,75.02734985037519,38.61986502436334,836.7857335193689,4.332649591130596,-151747.71577099268,10.5,10499848252.28423,47.655,-122.3035,60.0,4.666666666666667
2026-01-20T23:04:41+00:00,SAT-46342,75.38791113058542,38.33521951310163,841.1067678748514,4.367890581016597,-152982.00430603983,10.5,10499847017.995693,47.655,-122.3035,60.0,4.683333333333334
2026-01-20T23:04:42+00:00,SAT-46342,75.7420432980948,38.052062626391724,845.4629487439893,4.40258515264477,-154197.1549623509,10.5,10499845802.845037,47.655,-122.3035,60.0,4.7
2026-01-20T23:04:43+00:00,SAT-46342,76.08989338106562,37.77042793116377,849.8537311733966,4.436740239194297,-155393.4105691882,10.5,10499844606.589432,47.655,-122.3035,60.0,4.716666666666667
2026-01-20T23:04:44+00:00,SAT-46342,76.43160498493658,37.49034641646811,854.2785771242798,4.470362787388167,-156571.0144301754,10.5,10499843428.985569,47.655,-122.3035,60.0,4.733333333333333
2026-01-20T23:04:45+00:00,SAT-46342,76.7673183336203,37.21184660636499,858.7369554859449,4.503459764669485,-157730.2105746423,10.5,10499842269.789425,47.655,-122.3035,60.0,4.75
2026-01-20T23:04:46+00:00,SAT-46342,77.09717031605372,36.934954668410164,863.2283420964628,4.536038193854065,-158871.24497130504,10.5,10499841128.755028,47.655,-122.3035,60.0,4.766666666666667
2026-01-20T23:04:47+00:00,SAT-46342,77.42129453880396,36.65969451619908,867.7522197978926,4.568105067011055,-159994.3625120018,10.5,10499840005.637487,47.655,-122.3035,60.0,4.783333333333333
2026-01-20T23:04:48+00:00,SAT-46342,77.73982137614487,36.386087913431595,872.3080784056174,4.599667420770314,-161099.80964927506,10.5,10499838900.190351,47.655,-122.3035,60.0,4.8
2026-01-20T23:04:49+00:00,SAT-46342,78.05287802800237,36.11415456962482,876.8954147527866,4.630732286348907,-162187.83264608853,10.5,10499837812.167355,47.655,-122.3035,60.0,4.816666666666666
2026-01-20T23:04:50+00:00,SAT-46342,78.3605885769638,35.84391223523535,881.5137326849169,4.6613066696124985,-163258.67687749251,10.5,10499836741.323122,47.655,-122.3035,60.0,4.833333333333333
2026-01-20T23:04:51+00:00,SAT-46342,78.663074045893,35.575376794310266,886.1625430346085,4.6913975751615435,-164312.58767422428,10.5,10499835687.412325,47.655,-122.3035,60.0,4.85
2026-01-20T23:04:52+00:00,SAT-46342,78.96045245885121,35.3085623521574,890.8413636202839,4.721012001312733,-165349.8101469374,10.5,10499834650.189854,47.655,-122.3035,60.0,4.866666666666666
2026-01-20T23:04:53+00:00,SAT-46342,79.252838902845,35.04348131990345,895.5497192399208,4.75015689883258,-166370.58774087674,10.5,10499833629.41226,47.655,-122.3035,60.0,4.883333333333334
2026-01-20T23:04:54+00:00,SAT-46342,79.54034558802707,34.780144498001974,900.2871416236294,4.77883920475118,-167375.1634201798,10.5,10499832624.83658,47.655,-122.3035,60.0,4.9
2026-01-20T23:04:55+00:00,SAT-46342,79.82308191077044,34.51856115450987,905.0531694199523,4.807065814478977,-168363.77869128805,10.5,10499831636.22131,47.655,-122.3035,60.0,4.916666666666667
2026-01-20T23:04:56+00:00,SAT-46342,80.10115451546987,34.25873910172246,909.8473481543576,4.834843605744067,-169336.67444133203,10.5,10499830663.32556,47.655,-122.3035,60.0,4.933333333333334
2026-01-20T23:04:57+00:00,SAT-46342,80.37466735797244,34.00068476838174,914.6692302116035,4.862179363642203,-170294.088313066,10.5,10499829705.911688,47.655,-122.3035,60.0,4.95
2026-01-20T23:04:58+00:00,SAT-46342,80.64372176494976,33.74440327286412,919.5183747433523,4.889079902431942,-171236.25897064892,10.5,10499828763.74103,47.655,-122.3035,60.0,4.966666666666667
2026-01-20T23:04:59+00:00,SAT-46342,80.9084164997776,33.48989848692129,924.3943476972589,4.915551919144088,-172163.42097242794,10.5,10499827836.579027,47.655,-122.3035,60.0,4.983333333333333
2026-01-20T23:05:00+00:00,SAT-46342,81.16884782026077,33.23717310433965,929.2967217000543,4.9416020824662805,-173075.8078840527,10.5,10499826924.192116,47.655,-122.3035,60.0,5.0
2026-01-20T23:05:01+00:00,SAT-46342,81.42510954079196,32.98622870208688,934.2250760292784,4.967237004855835,-173973.6513017491,10.5,10499826026.348698,47.655,-122.3035,60.0,5.016666666666667
2026-01-20T23:05:02+00:00,SAT-46342,81.67729309246566,32.737065800266805,939.1789965572027,4.992463247976426,-174857.1810427348,10.5,10499825142.818956,47.655,-122.3035,60.0,5.033333333333333
2026-01-20T23:05:03+00:00,SAT-46342,81.92548758284762,32.48968391921436,944.1580757001713,5.017287290610611,-175726.62402138018,10.5,10499824273.375978,47.655,-122.3035,60.0,5.05
2026-01-20T23:05:04+00:00,SAT-46342,82.16977985346357,32.24408163567943,949.1619123359413,5.04171559466589,-176582.20656101976,10.5,10499823417.79344,47.655,-122.3035,60.0,5.066666666666666
2026-01-20T23:05:05+00:00,SAT-46342,82.41025453966091,32.00025663334355,954.1901117868547,5.0657544645149795,-177424.1494674535,10.5,10499822575.850533,47.655,-122.3035,60.0,5.083333333333333
2026-01-20T23:05:06+00:00,SAT-46342,82.64699412307166,31.758205757851822,959.2422856627244,5.089410240957242,-178252.67482229666,10.5,10499821747.325178,47.655,-122.3035,60.0,5.1
2026-01-20T23:05:07+00:00,SAT-46342,82.88007899211026,31.51792506017711,964.3180518971643,5.11268912978791,-179067.99997874882,10.5,10499820932.000021,47.655,-122.3035,60.0,5.116666666666666
2026-01-20T23:05:08+00:00,SAT-46342,83.10958749362446,31.27940984612484,969.4170346129464,5.135597268254551,-179870.3398891802,10.5,10499820129.66011,47.655,-122.3035,60.0,5.133333333333334
2026-01-20T23:05:09+00:00,SAT-46342,83.33559598673362,31.042654720487306,974.538864053637,5.158140762006164,-180659.90839924573,10.5,10499819340.0916,47.655,-122.3035,60.0,5.15
2026-01-20T23:05:10+00:00,SAT-46342,83.55817889701879,30.807653627525973,979.6831765520839,5.180325597094173,-181436.91516578716,10.5,10499818563.084835,47.655,-122.3035,60.0,5.166666666666667
2026-01-20T23:05:11+00:00,SAT-46342,83.77740876603444,30.574399893597718,984.8496144111372,5.202157716516922,-182201.56833774544,10.5,10499817798.431662,47.655,-122.3035,60.0,5.183333333333334
2026-01-20T23:05:12+00:00,SAT-46342,83.99335630287979,30.34288626439249,990.0378258607141,5.223642940963065,-182954.07178025867,10.5,10499817045.928219,47.655,-122.3035,60.0,5.2
2026-01-20T23:05:13+00:00,SAT-46342,84.2060904315673,30.113104943952752,995.2474649358151,5.2447870883913525,-183694.62926285225,10.5,10499816305.370737,47.655,-122.3035,60.0,5.216666666666667
