DopplerPredictor/satellites_20260205_234138/SAT-45580.csv

timestamp,satellite,azimuth_deg,elevation_deg,distance_km,relative_velocity_kms,doppler_shift_hz,tx_freq_ghz,rx_freq_hz,ue_lat,ue_lon,ue_alt_m,time_minutes
2026-01-20T23:09:07+00:00,SAT-45580,204.08951610457854,30.143274599749557,992.0522432841449,-5.048215687515598,176809.86730798206,10.5,10500176809.867308,47.655,-122.3035,60.0,9.116666666666667
2026-01-20T23:09:08+00:00,SAT-45580,203.8480862210885,30.366327697148726,987.017561166234,-5.024239374777159,175970.1154161796,10.5,10500175970.115416,47.655,-122.3035,60.0,9.133333333333333
2026-01-20T23:09:09+00:00,SAT-45580,203.603026589367,30.59084172264403,982.0067910838754,-4.999888559284474,175117.24685377837,10.5,10500175117.246853,47.655,-122.3035,60.0,9.15
2026-01-20T23:09:10+00:00,SAT-45580,203.35426456621838,30.816815278300087,977.0203065358339,-4.975157385311201,174251.05652847217,10.5,10500174251.056528,47.655,-122.3035,60.0,9.166666666666666
2026-01-20T23:09:11+00:00,SAT-45580,203.10172587809512,31.04424614218821,972.058486860901,-4.950039989910724,173371.33909507023,10.5,10500173371.339094,47.655,-122.3035,60.0,9.183333333333334
2026-01-20T23:09:12+00:00,SAT-45580,202.84533458698618,31.273131227430362,967.1217172450978,-4.924530462544564,172477.88754151354,10.5,10500172477.88754,47.655,-122.3035,60.0,9.2
2026-01-20T23:09:13+00:00,SAT-45580,202.58501305849384,31.50346653772764,962.210388769138,-4.898622817885004,171570.4922363075,10.5,10500171570.492237,47.655,-122.3035,60.0,9.216666666666667
2026-01-20T23:09:14+00:00,SAT-45580,202.3206819318885,31.735247119815046,957.3248984830179,-4.872311007362604,170648.9413329649,10.5,10500170648.941334,47.655,-122.3035,60.0,9.233333333333333
2026-01-20T23:09:15+00:00,SAT-45580,202.0522600901101,31.968467014532035,952.4656494690871,-4.845589004428957,169713.02375626823,10.5,10500169713.023756,47.655,-122.3035,60.0,9.25
2026-01-20T23:09:16+00:00,SAT-45580,201.7796646253076,32.203119210084296,947.6330508200879,-4.8184506669345915,168762.52438216176,10.5,10500168762.524382,47.655,-122.3035,60.0,9.266666666666667
2026-01-20T23:09:17+00:00,SAT-45580,201.50281081314205,32.43919558680577,942.8275177544451,-4.790889872140344,167797.22876642083,10.5,10500167797.228765,47.655,-122.3035,60.0,9.283333333333333
2026-01-20T23:09:18+00:00,SAT-45580,201.2216120799879,32.676686866389446,938.0494715969091,-4.762900405311526,166816.91924274835,10.5,10500166816.919243,47.655,-122.3035,60.0,9.3
2026-01-20T23:09:19+00:00,SAT-45580,200.9359799780019,32.9155825536655,933.2993398703043,-4.734476089894221,165821.3794820993,10.5,10500165821.379482,47.655,-122.3035,60.0,9.316666666666666
2026-01-20T23:09:20+00:00,SAT-45580,200.6458241530996,33.155870882726774,928.5775562574491,-4.705610664806762,164810.39019490944,10.5,10500164810.390196,47.655,-122.3035,60.0,9.333333333333334
2026-01-20T23:09:21+00:00,SAT-45580,200.3510523222977,33.39753875484056,923.8845606854607,-4.676297874455115,163783.73228381452,10.5,10500163783.732285,47.655,-122.3035,60.0,9.35
2026-01-20T23:09:22+00:00,SAT-45580,200.0515702467029,33.640571678691785,919.2207993202777,-4.646531420408799,162741.18515113677,10.5,10500162741.185152,47.655,-122.3035,60.0,9.366666666666667
2026-01-20T23:09:23+00:00,SAT-45580,199.74728170967535,33.88495370596988,914.5867246093857,-4.61630503764516,161682.5293692818,10.5,10500161682.52937,47.655,-122.3035,60.0,9.383333333333333
2026-01-20T23:09:24+00:00,SAT-45580,199.43808849167598,34.13066736871287,909.9827952484965,-4.585612381105694,160607.54270746128,10.5,10500160607.542707,47.655,-122.3035,60.0,9.4
2026-01-20T23:09:25+00:00,SAT-45580,199.12389035548495,34.37769360842672,905.4094762613701,-4.554447176191237,159516.0054026709,10.5,10500159516.005404,47.655,-122.3035,60.0,9.416666666666666
2026-01-20T23:09:26+00:00,SAT-45580,198.80458502334074,34.62601171089206,900.8672389295444,-4.5228030802560575,158407.69530862785,10.5,10500158407.695309,47.655,-122.3035,60.0,9.433333333333334
2026-01-20T23:09:27+00:00,SAT-45580,198.48006816694567,34.8755992312757,896.3565608601998,-4.490673823803264,157282.39284103096,10.5,10500157282.392841,47.655,-122.3035,60.0,9.45
2026-01-20T23:09:28+00:00,SAT-45580,198.15023339034067,35.12643192457561,891.8779259132053,-4.458053123328152,156139.87792496633,10.5,10500156139.877926,47.655,-122.3035,60.0,9.466666666666667
2026-01-20T23:09:29+00:00,SAT-45580,197.81497222286785,35.37848366906037,887.4318242150896,-4.42493467136206,154979.92964620085,10.5,10500154979.929646,47.655,-122.3035,60.0,9.483333333333333
2026-01-20T23:09:30+00:00,SAT-45580,197.47417411704782,35.63172638669576,883.0187521829404,-4.391312262497275,153802.3306651076,10.5,10500153802.330666,47.655,-122.3035,60.0,9.5
2026-01-20T23:09:31+00:00,SAT-45580,197.12772644101372,35.886129968428584,878.6392124226176,-4.357179695612916,152606.8637922026,10.5,10500152606.863792,47.655,-122.3035,60.0,9.516666666666667
2026-01-20T23:09:32+00:00,SAT-45580,196.77551448314887,36.14166219172451,874.293713724478,-4.322530789269932,151393.3125273428,10.5,10500151393.312527,47.655,-122.3035,60.0,9.533333333333333
2026-01-20T23:09:33+00:00,SAT-45580,196.4174214613285,36.3982886366435,869.9827710437447,-4.287359434454396,150161.46290701936,10.5,10500150161.462908,47.655,-122.3035,60.0,9.55
2026-01-20T23:09:34+00:00,SAT-45580,196.05332853334448,36.65597260278844,865.7069054282786,-4.251659583730961,148911.10312446585,10.5,10500148911.103125,47.655,-122.3035,60.0,9.566666666666666
2026-01-20T23:09:35+00:00,SAT-45580,195.68311481456186,36.91467502352625,861.4666439571625,-4.215425242159822,147642.02321153166,10.5,10500147642.023212,47.655,-122.3035,60.0,9.583333333333334
2026-01-20T23:09:36+00:00,SAT-45580,195.3066574033429,37.17435437756584,857.2625196883486,-4.17865051901494,146354.0168500732,10.5,10500146354.01685,47.655,-122.3035,60.0,9.6
2026-01-20T23:09:37+00:00,SAT-45580,194.9238314092683,37.434966601703664,853.0950715547212,-4.1413295490821485,145046.87861548056,10.5,10500145046.878616,47.655,-122.3035,60.0,9.616666666666667
2026-01-20T23:09:38+00:00,SAT-45580,194.53450999708758,37.69646499678627,848.9648443386566,-4.103456622580833,143720.40852708425,10.5,10500143720.408527,47.655,-122.3035,60.0,9.633333333333333
2026-01-20T23:09:39+00:00,SAT-45580,194.13856442715493,37.958800139951926,844.8723885170041,-4.0650261204580245,142374.4097818807,10.5,10500142374.409782,47.655,-122.3035,60.0,9.65
2026-01-20T23:09:40+00:00,SAT-45580,193.7358641115529,38.22191979127525,840.8182601706013,-4.026032535950644,141008.6895097333,10.5,10500141008.68951,47.655,-122.3035,60.0,9.666666666666666
2026-01-20T23:09:41+00:00,SAT-45580,193.32627667856676,38.48576880026427,836.8030208722872,-3.98647046245912,139623.05834865518,10.5,10500139623.058348,47.655,-122.3035,60.0,9.683333333333334
2026-01-20T23:09:42+00:00,SAT-45580,192.90966804986445,38.750289010192546,832.8272375870049,-3.9463346691114114,138217.33309138092,10.5,10500138217.333092,47.655,-122.3035,60.0,9.7
2026-01-20T23:09:43+00:00,SAT-45580,192.4859025217469,39.015419166287145,828.8914824965474,-3.9056200711968154,136791.33564983335,10.5,10500136791.33565,47.655,-122.3035,60.0,9.716666666666667
2026-01-20T23:09:44+00:00,SAT-45580,192.0548428622235,39.28109482117042,824.996332853786,-3.8643217099390745,135344.89234669233,10.5,10500135344.892347,47.655,-122.3035,60.0,9.733333333333333
2026-01-20T23:09:45+00:00,SAT-45580,191.61635042483155,39.5472482382383,821.1423708570748,-3.8224348570395934,133877.8375769404,10.5,10500133877.837578,47.655,-122.3035,60.0,9.75
2026-01-20T23:09:46+00:00,SAT-45580,191.17028526495162,39.813808301824245,817.3301834203912,-3.779954925571527,132390.01068699677,10.5,10500132390.010687,47.655,-122.3035,60.0,9.766666666666667
2026-01-20T23:09:47+00:00,SAT-45580,190.71650628281495,40.08070042127173,813.560362032341,-3.7368775551534683,130881.25895786015,10.5,10500130881.258957,47.655,-122.3035,60.0,9.783333333333333
2026-01-20T23:09:48+00:00,SAT-45580,190.25487137316122,40.34784644118988,809.8335025302238,-3.6931985710108273,129351.43617126514,10.5,10500129351.43617,47.655,-122.3035,60.0,9.8
2026-01-20T23:09:49+00:00,SAT-45580,189.78523759838473,40.615164549545675,806.1502049149207,-3.648914070176,127800.40562877669,10.5,10500127800.405628,47.655,-122.3035,60.0,9.816666666666666
2026-01-20T23:09:50+00:00,SAT-45580,189.30746136946414,40.88256919304819,802.5110730798168,-3.604020338678404,126228.03725143493,10.5,10500126228.03725,47.655,-122.3035,60.0,9.833333333333334
2026-01-20T23:09:51+00:00,SAT-45580,188.82139865881103,41.14997098814773,798.9167146223115,-3.558513977286305,124634.2119837658,10.5,10500124634.211985,47.655,-122.3035,60.0,9.85
2026-01-20T23:09:52+00:00,SAT-45580,188.32690521703213,41.41727664328814,795.3677405299234,-3.5123918056940555,123018.81843801282,10.5,10500123018.818438,47.655,-122.3035,60.0,9.866666666666667
2026-01-20T23:09:53+00:00,SAT-45580,187.8238368264538,41.684388876736506,791.8647649619503,-3.4656509540993548,121381.75610156018,10.5,10500121381.756102,47.655,-122.3035,60.0,9.883333333333333
2026-01-20T23:09:54+00:00,SAT-45580,187.31204956539506,41.95120634437431,788.4084049397992,-3.418288858896594,119722.93518609542,10.5,10500119722.935186,47.655,-122.3035,60.0,9.9
2026-01-20T23:09:55+00:00,SAT-45580,186.7914000982025,42.2176235710761,784.9992800416096,-3.370303255278448,118042.27636848591,10.5,10500118042.27637,47.655,-122.3035,60.0,9.916666666666666
2026-01-20T23:09:56+00:00,SAT-45580,186.26174599292207,42.4835308859801,781.6380121042563,-3.321692215986236,116339.71214798032,10.5,10500116339.712149,47.655,-122.3035,60.0,9.933333333333334
2026-01-20T23:09:57+00:00,SAT-45580,185.72294606079134,42.748814365939054,778.3252248867077,-3.2724541799940985,114615.18785084992,10.5,10500114615.18785,47.655,-122.3035,60.0,9.95
2026-01-20T23:09:58+00:00,SAT-45580,185.17486071927053,43.01335578726175,775.0615437047716,-3.222587915439828,112868.66033206943,10.5,10500112868.660332,47.655,-122.3035,60.0,9.966666666666667
2026-01-20T23:09:59+00:00,SAT-45580,184.61735239163957,43.27703258124942,771.8475951028161,-3.172092590884903,111100.10047114488,10.5,10500111100.100471,47.655,-122.3035,60.0,9.983333333333333
2026-01-20T23:10:00+00:00,SAT-45580,184.0502859250453,43.53971780305085,768.6840064544184,-3.120967762930066,109309.49273835865,10.5,10500109309.492739,47.655,-122.3035,60.0,10.0
2026-01-20T23:10:01+00:00,SAT-45580,183.4735290425078,43.80128010808453,765.5714055753673,-3.0692133948443674,107496.83584723755,10.5,10500107496.835848,47.655,-122.3035,60.0,10.016666666666667
2026-01-20T23:10:02+00:00,SAT-45580,182.88695282406619,44.06158373943817,762.5104203180831,-3.0168298845364427,105662.14373422513,10.5,10500105662.143734,47.655,-122.3035,60.0,10.033333333333333
2026-01-20T23:10:03+00:00,SAT-45580,182.2904322158526,44.320488528065674,759.5016781381447,-2.963818051947864,103805.4451171436,10.5,10500103805.445118,47.655,-122.3035,60.0,10.05
2026-01-20T23:10:04+00:00,SAT-45580,181.6838465754413,44.577849903363855,756.5458056733872,-2.910179191789964,101926.78534226041,10.5,10500101926.785343,47.655,-122.3035,60.0,10.066666666666666
2026-01-20T23:10:05+00:00,SAT-45580,181.06708024066694,44.833518920777024,753.6434282704057,-2.855915048514392,100026.22550765141,10.5,10500100026.225508,47.655,-122.3035,60.0,10.083333333333334
2026-01-20T23:10:06+00:00,SAT-45580,180.4400231377229,45.08734230084649,750.7951695360202,-2.8010278743664223,98103.84449647307,10.5,10500098103.844496,47.655,-122.3035,60.0,10.1
2026-01-20T23:10:07+00:00,SAT-45580,179.80257141059525,45.33916248805128,748.001650830843,-2.74552037960013,96159.73723328747,10.5,10500096159.737234,47.655,-122.3035,60.0,10.116666666666667
2026-01-20T23:10:08+00:00,SAT-45580,179.154628095697,45.588817721044336,745.2634908124986,-2.689395839158419,94194.01842044805,10.5,10500094194.018421,47.655,-122.3035,60.0,10.133333333333333
2026-01-20T23:10:09+00:00,SAT-45580,178.49610380389012,45.8361421294336,742.5813048724486,-2.632658012695746,92206.81973695726,10.5,10500092206.819736,47.655,-122.3035,60.0,10.15
2026-01-20T23:10:10+00:00,SAT-45580,177.82691745312795,46.080965841482474,739.9557046525781,-2.5753112061456465,90198.29199482159,10.5,10500090198.291994,47.655,-122.3035,60.0,10.166666666666666
2026-01-20T23:10:11+00:00,SAT-45580,177.1469970166321,46.32311511658252,737.3872975003834,-2.5173602781979914,88168.60536591253,10.5,10500088168.605366,47.655,-122.3035,60.0,10.183333333333334
2026-01-20T23:10:12+00:00,SAT-45580,176.4562802969356,46.56241249870034,734.8766859176955,-2.458810644665106,86117.9495348866,10.5,10500086117.949535,47.655,-122.3035,60.0,10.2
2026-01-20T23:10:13+00:00,SAT-45580,175.75471572441492,46.7986769916473,732.4244670050527,-2.3996682908491684,84046.53413234388,10.5,10500084046.534132,47.655,-122.3035,60.0,10.216666666666667
2026-01-20T23:10:14+00:00,SAT-45580,175.0422631747303,47.03172425792858,730.031231893737,-2.3399397790643732,81954.58899828601,10.5,10500081954.588999,47.655,-122.3035,60.0,10.233333333333333
2026-01-20T23:10:15+00:00,SAT-45580,174.31889480378442,47.26136684169044,727.697565170309,-2.2796322664220807,79842.36480502738,10.5,10500079842.364805,47.655,-122.3035,60.0,10.25
2026-01-20T23:10:16+00:00,SAT-45580,173.58459589139486,47.4874144176439,725.4240442834038,-2.218753493103772,77710.13264646441,10.5,10500077710.132647,47.655,-122.3035,60.0,10.266666666666667
2026-01-20T23:10:17+00:00,SAT-45580,172.83936569978854,47.70967406385949,723.2112389622271,-2.157311806136969,75558.18487080878,10.5,10500075558.184872,47.655,-122.3035,60.0,10.283333333333333
2026-01-20T23:10:18+00:00,SAT-45580,172.0832183290723,47.927950562553136,721.0597106113336,-2.0953161636001165,73386.83522786028,10.5,10500073386.835228,47.655,-122.3035,60.0,10.3
2026-01-20T23:10:19+00:00,SAT-45580,171.31618356995804,48.14204672752061,718.9700117012142,-2.032776121207487,71196.41839915336,10.5,10500071196.4184,47.655,-122.3035,60.0,10.316666666666666
2026-01-20T23:10:20+00:00,SAT-45580,170.5383077541545,48.35176375672686,716.9426851722648,-1.9697018610359214,68987.29100408916,10.5,10500068987.291004,47.655,-122.3035,60.0,10.333333333333334
2026-01-20T23:10:21+00:00,SAT-45580,169.7496545791129,48.55690161452556,714.9782638100993,-1.906104165606003,66759.83069214848,10.5,10500066759.830692,47.655,-122.3035,60.0,10.35
2026-01-20T23:10:22+00:00,SAT-45580,168.95030592023062,48.75725943789485,713.077269646719,-1.8419944456956525,64514.437117041656,10.5,10500064514.437117,47.655,-122.3035,60.0,10.366666666666667
2026-01-20T23:10:23+00:00,SAT-45580,168.1403626007503,48.95263597197028,711.2402133339369,-1.7773847088829788,62251.530834946076,10.5,10500062251.530834,47.655,-122.3035,60.0,10.383333333333333
2026-01-20T23:10:24+00:00,SAT-45580,167.31994513527948,49.142830028193515,709.4675935481797,-1.7122875789388,59971.553983714286,10.5,10500059971.553984,47.655,-122.3035,60.0,10.4
2026-01-20T23:10:25+00:00,SAT-45580,166.48919441568995,49.327640969640754,707.7598963759442,-1.6467162976939709,57674.97034827572,10.5,10500057674.970348,47.655,-122.3035,60.0,10.416666666666666
2026-01-20T23:10:26+00:00,SAT-45580,165.64827233501777,49.5068692207076,706.1175946973976,-1.5806846785123707,55362.26373106388,10.5,10500055362.263731,47.655,-122.3035,60.0,10.433333333333334
2026-01-20T23:10:27+00:00,SAT-45580,164.79736236696098,49.680316794532615,704.5411476163738,-1.5142071502759278,53033.93949255801,10.5,10500053033.939493,47.655,-122.3035,60.0,10.45
2026-01-20T23:10:28+00:00,SAT-45580,163.93667004146405,49.847787846305394,703.0309998465073,-1.4472987140036124,50690.52303189672,10.5,10500050690.523031,47.655,-122.3035,60.0,10.466666666666667
2026-01-20T23:10:29+00:00,SAT-45580,163.0664233532679,50.00908924105679,701.5875811406286,-1.3799749352367845,48332.55952018058,10.5,10500048332.55952,47.655,-122.3035,60.0,10.483333333333333
2026-01-20T23:10:30+00:00,SAT-45580,162.1868730750115,50.164031137472605,700.2113057277566,-1.3122519530683485,45960.61421671141,10.5,10500045960.614216,47.655,-122.3035,60.0,10.5
2026-01-20T23:10:31+00:00,SAT-45580,161.29829295219903,50.31242758705958,698.9025717410838,-1.244146438329992,43575.271004532464,10.5,10500043575.271004,47.655,-122.3035,60.0,10.516666666666667
2026-01-20T23:10:32+00:00,SAT-45580,160.40097980377365,50.454097140075376,697.6617606876626,-1.1756755953943305,41177.13245354715,10.5,10500041177.132454,47.655,-122.3035,60.0,10.533333333333333
2026-01-20T23:10:33+00:00,SAT-45580,159.49525349107805,50.58886345988726,696.4892369162965,-1.1068571429828782,38766.81914833302,10.5,10500038766.819149,47.655,-122.3035,60.0,10.55
2026-01-20T23:10:34+00:00,SAT-45580,158.58145675882383,50.71655593995757,695.3853471045677,-1.0377092835313244,36344.96861518413,10.5,10500036344.968615,47.655,-122.3035,60.0,10.566666666666666
2026-01-20T23:10:35+00:00,SAT-45580,157.6599549536487,50.83701031837881,694.3504197764216,-0.9682506988658499,33912.23517067739,10.5,10500033912.23517,47.655,-122.3035,60.0,10.583333333333334
2026-01-20T23:10:36+00:00,SAT-45580,156.7311355883038,50.950069289046645,693.384764824061,-0.8985005194975089,31469.288846231895,10.5,10500031469.288847,47.655,-122.3035,60.0,10.6
2026-01-20T23:10:37+00:00,SAT-45580,155.79540777165568,51.05558310229356,692.488673060463,-0.8284782981410543,29016.814460626192,10.5,10500029016.81446,47.655,-122.3035,60.0,10.616666666666667
2026-01-20T23:10:38+00:00,SAT-45580,154.85320149655632,51.15341015118164,691.6624157983093,-0.7582039919756552,26555.51099869357,10.5,10500026555.510998,47.655,-122.3035,60.0,10.633333333333333
2026-01-20T23:10:39+00:00,SAT-45580,153.90496677520224,51.24341754010957,690.906244446604,-0.6876979312150612,24086.090510516253,10.5,10500024086.090511,47.655,-122.3035,60.0,10.65
2026-01-20T23:10:40+00:00,SAT-45580,152.9511726353754,51.32548162972603,690.2203901386403,-0.6169807978771026,21609.27736784351,10.5,10500021609.277369,47.655,-122.3035,60.0,10.666666666666666
2026-01-20T23:10:41+00:00,SAT-45580,151.99230596520772,51.39948855497605,689.605063381139,-0.5460735850653765,19125.80683796406,10.5,10500019125.806837,47.655,-122.3035,60.0,10.683333333333334
2026-01-20T23:10:42+00:00,SAT-45580,151.02887024057125,51.465334709644715,689.0604537439971,-0.4749975801438701,16636.42449441018,10.5,10500016636.424494,47.655,-122.3035,60.0,10.7
2026-01-20T23:10:43+00:00,SAT-45580,150.06138410141074,51.52292719609498,688.5867295668155,-0.4037743274337554,14141.884910441715,10.5,10500014141.88491,47.655,-122.3035,60.0,10.716666666666667
2026-01-20T23:10:44+00:00,SAT-45580,149.09037981393755,51.572184233820984,688.1840377026332,-0.3324255963628762,11642.950543506335,10.5,10500011642.950544,47.655,-122.3035,60.0,10.733333333333333
2026-01-20T23:10:45+00:00,SAT-45580,148.11640162438897,51.61303552375398,687.8525032934192,-0.2609733507352227,9140.390658926577,10.5,10500009140.39066,47.655,-122.3035,60.0,10.75
2026-01-20T23:10:46+00:00,SAT-45580,147.14000400396424,51.645422565145644,687.5922295762231,-0.18943971317829092,6634.980084695975,10.5,10500006634.980085,47.655,-122.3035,60.0,10.766666666666667
2026-01-20T23:10:47+00:00,SAT-45580,146.16174982150164,51.66929892144687,687.4032977247731,-0.11784693420088418,4127.498127752379,10.5,10500004127.498127,47.655,-122.3035,60.0,10.783333333333333
2026-01-20T23:10:48+00:00,SAT-45580,145.18220842186508,51.684630433255,687.2857667219399,-0.04621735531795758,1618.727282454032,10.5,10500001618.727282,47.655,-122.3035,60.0,10.8
2026-01-20T23:10:49+00:00,SAT-45580,144.20195367445646,51.69139537552858,687.2396732689734,0.025426624404219177,-890.5479411503453,10.5,10499999109.452059,47.655,-122.3035,60.0,10.816666666666666
2026-01-20T23:10:50+00:00,SAT-45580,143.22156195594238,51.689584558000334,687.2650317281068,0.09706258298654212,-3399.5422305076545,10.5,10499996600.45777,47.655,-122.3035,60.0,10.833333333333334
2026-01-20T23:10:51+00:00,SAT-45580,142.24161013385114,51.67920136762109,687.3618340997028,0.1686681121945839,-5907.470754461513,10.5,10499994092.529245,47.655,-122.3035,60.0,10.85
2026-01-20T23:10:52+00:00,SAT-45580,141.2626735271959,51.660261752421256,687.5300500359648,0.2402208489420015,-8413.550263132422,10.5,10499991586.449738,47.655,-122.3035,60.0,10.866666666666667
2026-01-20T23:10:53+00:00,SAT-45580,140.2853238984948,51.63279414752497,687.7696268859613,0.31169851449918295,-10917.000461170446,10.5,10499989082.999538,47.655,-122.3035,60.0,10.883333333333333
2026-01-20T23:10:54+00:00,SAT-45580,139.31012745915268,51.596839343159985,688.0804897797576,0.38307894500282397,-13417.04507632961,10.5,10499986582.954924,47.655,-122.3035,60.0,10.9
2026-01-20T23:10:55+00:00,SAT-45580,138.33764293674776,51.55245029692516,688.4625417429738,0.454340129713822,-15912.913199421217,10.5,10499984087.086802,47.655,-122.3035,60.0,10.916666666666666
2026-01-20T23:10:56+00:00,SAT-45580,137.36841969680984,51.49969189124781,688.9156638494989,0.5254602366015684,-18403.84018038395,10.5,10499981596.15982,47.655,-122.3035,60.0,10.933333333333334
2026-01-20T23:10:57+00:00,SAT-45580,136.40299595881385,51.438640639801605,689.4397153997195,0.5964176581661855,-20889.069233172464,10.5,10499979110.930767,47.655,-122.3035,60.0,10.95
2026-01-20T23:10:58+00:00,SAT-45580,135.44189708433515,51.369384343305136,690.0345341444499,0.6671910273567329,-23367.85199328028,10.5,10499976632.148006,47.655,-122.3035,60.0,10.966666666666667
2026-01-20T23:10:59+00:00,SAT-45580,134.48563399691528,51.29202170135953,690.6999365247344,0.7377592636494601,-25839.450131595142,10.5,10499974160.549868,47.655,-122.3035,60.0,10.983333333333333
2026-01-20T23:11:00+00:00,SAT-45580,133.5347016976884,51.20666188035553,691.435717957609,0.8081015935772174,-28303.136073425783,10.5,10499971696.863926,47.655,-122.3035,60.0,11.0
2026-01-20T23:11:01+00:00,SAT-45580,132.58957792118437,51.11342404426091,692.2416531423321,0.8781975838409907,-30758.19415820795,10.5,10499969241.805841,47.655,-122.3035,60.0,11.016666666666667
2026-01-20T23:11:02+00:00,SAT-45580,131.65072192019684,51.012436850893934,693.1174963996417,0.9480271675087567,-33203.921557099166,10.5,10499966796.078444,47.655,-122.3035,60.0,11.033333333333333
2026-01-20T23:11:03+00:00,SAT-45580,130.71857339149759,50.903837918737864,694.0629820371424,1.01757067148184,-35639.62923496668,10.5,10499964360.370766,47.655,-122.3035,60.0,11.05
2026-01-20T23:11:04+00:00,SAT-45580,129.793551545369,50.78777326850695,695.0778247420786,1.0868088450043896,-38064.642948909976,10.5,10499961935.357052,47.655,-122.3035,60.0,11.066666666666666
2026-01-20T23:11:05+00:00,SAT-45580,128.87605431690008,50.66439674375629,696.1617200025493,1.1557228750512571,-40478.303787209356,10.5,10499959521.696213,47.655,-122.3035,60.0,11.083333333333334
2026-01-20T23:11:06+00:00,SAT-45580,127.96645773040079,50.53386941643047,697.3143445440621,1.2242944186779652,-42879.969302358615,10.5,10499957120.030697,47.655,-122.3035,60.0,11.1
2026-01-20T23:11:07+00:00,SAT-45580,127.06511539920093,50.3963589797447,698.5353567983562,1.2925056147319949,-45269.01392124397,10.5,10499954730.986078,47.655,-122.3035,60.0,11.116666666666667
2026-01-20T23:11:08+00:00,SAT-45580,126.17235817388031,50.252039134952234,699.824397383901,1.3603391137428429,-47644.82999202018,10.5,10499952355.170008,47.655,-122.3035,60.0,11.133333333333333
2026-01-20T23:11:09+00:00,SAT-45580,125.28849391874728,50.101088973997655,701.1810896162068,1.4277780866261747,-50006.82808896691,10.5,10499949993.171911,47.655,-122.3035,60.0,11.15
2026-01-20T23:11:10+00:00,SAT-45580,124.4138074263446,49.9436923642734,702.605040026816,1.4948062447634596,-52354.43771576243,10.5,10499947645.562284,47.655,-122.3035,60.0,11.166666666666666
2026-01-20T23:11:11+00:00,SAT-45580,123.54856045238098,49.780037337803805,704.0958389023206,1.5614078545439178,-54687.10781480413,10.5,10499945312.892185,47.655,-122.3035,60.0,11.183333333333334
2026-01-20T23:11:12+00:00,SAT-45580,122.69299186760381,49.61031548880201,705.6530608378806,1.6275677500355832,-57004.307211002706,10.5,10499942995.69279,47.655,-122.3035,60.0,11.2
2026-01-20T23:11:13+00:00,SAT-45580,121.84731791775575,49.4347213828631,707.2762653033828,1.6932713456408646,-59305.5250550335,10.5,10499940694.474945,47.655,-122.3035,60.0,11.216666666666667
2026-01-20T23:11:14+00:00,SAT-45580,121.01173258203359,49.253451980523415,708.9649972222173,1.7585046365751595,-61590.27084009957,10.5,10499938409.72916,47.655,-122.3035,60.0,11.233333333333333
2026-01-20T23:11:15+00:00,SAT-45580,120.18640802571906,49.06670607892258,710.7187875505355,1.823254230953949,-63858.07552575744,10.5,10499936141.924475,47.655,-122.3035,60.0,11.25
2026-01-20T23:11:16+00:00,SAT-45580,119.37149512264781,48.87468377029633,712.5371538885055,1.8875073239588394,-66108.49063310263,10.5,10499933891.509367,47.655,-122.3035,60.0,11.266666666666667
2026-01-20T23:11:17+00:00,SAT-45580,118.56712406303394,48.67758592528425,714.4196010658045,1.9512517291886249,-68341.0893428165,10.5,10499931658.910658,47.655,-122.3035,60.0,11.283333333333333
2026-01-20T23:11:18+00:00,SAT-45580,117.7734050114786,48.475613696430685,716.3656217583804,2.014475862600179,-70555.46593270828,10.5,10499929444.534067,47.655,-122.3035,60.0,11.3
2026-01-20T23:11:19+00:00,SAT-45580,116.99042882515508,48.26896804806931,718.3746970891902,2.077168763158183,-72751.23650095602,10.5,10499927248.763498,47.655,-122.3035,60.0,11.316666666666666
2026-01-20T23:11:20+00:00,SAT-45580,116.21826780850076,48.05784930966723,720.4462972495437,2.139320085543448,-74928.03871072101,10.5,10499925071.961288,47.655,-122.3035,60.0,11.333333333333334
2026-01-20T23:11:21+00:00,SAT-45580,115.45697650586887,47.842456756155755,722.5798821131641,2.2009200828783917,-77085.53118512112,10.5,10499922914.468815,47.655,-122.3035,60.0,11.35
2026-01-20T23:11:22+00:00,SAT-45580,114.70659252659317,47.622988216572,724.774901833027,2.261959629668339,-79223.394310732,10.5,10499920776.60569,47.655,-122.3035,60.0,11.366666666666667
2026-01-20T23:11:23+00:00,SAT-45580,113.96713738017024,47.39963970708468,727.0307974610787,2.322430210634023,-81341.3298464541,10.5,10499918658.670153,47.655,-122.3035,60.0,11.383333333333333
2026-01-20T23:11:24+00:00,SAT-45580,113.23861732687685,47.17260509180842,729.3470015568134,2.3823239036854624,-83439.06032718593,10.5,10499916560.939672,47.655,-122.3035,60.0,11.4
2026-01-20T23:11:25+00:00,SAT-45580,112.5210242372578,46.942075771653705,731.7229387788739,2.4416333977569185,-85516.3296884795,10.5,10499914483.670311,47.655,-122.3035,60.0,11.416666666666666
2026-01-20T23:11:26+00:00,SAT-45580,111.81433644485068,46.70824039736523,734.1580264944369,2.5003519456177994,-87572.90161377873,10.5,10499912427.098387,47.655,-122.3035,60.0,11.433333333333334
2026-01-20T23:11:27+00:00,SAT-45580,111.11851960391078,46.47128461244548,736.6516753415369,2.5584734128795295,-89608.56125084727,10.5,10499910391.43875,47.655,-122.3035,60.0,11.45
2026-01-20T23:11:28+00:00,SAT-45580,110.43352752144405,46.23139081598946,739.2032898402659,2.6159922179834356,-91623.11310989043,10.5,10499908376.88689,47.655,-122.3035,60.0,11.466666666666667
2026-01-20T23:11:29+00:00,SAT-45580,109.75930298860122,45.988737955057715,741.8122689441199,2.6729033335432106,-93616.38111057387,10.5,10499906383.618889,47.655,-122.3035,60.0,11.483333333333333
2026-01-20T23:11:30+00:00,SAT-45580,109.09577859002934,45.74350133969937,744.4780065926865,2.7292023077173284,-95588.20933057612,10.5,10499904411.790668,47.655,-122.3035,60.0,11.5
2026-01-20T23:11:31+00:00,SAT-45580,108.4428774845219,45.49585247790349,747.1998922856468,2.784885221882603,-97538.46052313742,10.5,10499902461.539476,47.655,-122.3035,60.0,11.516666666666667
2026-01-20T23:11:32+00:00,SAT-45580,107.80051416939413,45.245958935326115,749.9773116145636,2.839948666051084,-99467.01525605553,10.5,10499900532.984743,47.655,-122.3035,60.0,11.533333333333333
2026-01-20T23:11:33+00:00,SAT-45580,107.16859522118233,44.993984216917454,752.8096467701541,2.8943897690815663,-101373.7729698205,10.5,10499898626.22703,47.655,-122.3035,60.0,11.55
2026-01-20T23:11:34+00:00,SAT-45580,106.5470199988253,44.740087664447195,755.6962770796903,2.9482061501171537,-103258.65027675284,10.5,10499896741.349724,47.655,-122.3035,60.0,11.566666666666666
2026-01-20T23:11:35+00:00,SAT-45580,105.93568132586674,44.48442437588785,758.6365794959714,3.00139592016138,-105121.58101620586,10.5,10499894878.418983,47.655,-122.3035,60.0,11.583333333333334
2026-01-20T23:11:36+00:00,SAT-45580,105.33446613893234,44.22714514097845,761.6299290878634,3.0539576574899003,-106962.51539337909,10.5,10499893037.484606,47.655,-122.3035,60.0,11.6
2026-01-20T23:11:37+00:00,SAT-45580,104.74325610794168,43.968396394143056,764.6756995063198,3.1058903998344487,-108781.41970556747,10.5,10499891218.580294,47.655,-122.3035,60.0,11.616666666666667
2026-01-20T23:11:38+00:00,SAT-45580,104.16192822340659,43.7083201821626,767.7732634426052,3.1571936476064804,-110578.27645506694,10.5,10499889421.723545,47.655,-122.3035,60.0,11.633333333333333
2026-01-20T23:11:39+00:00,SAT-45580,103.59035535009029,43.447054144628126,770.921993089735,3.207867300873726,-112353.08214182667,10.5,10499887646.917858,47.655,-122.3035,60.0,11.65
2026-01-20T23:11:40+00:00,SAT-45580,103.0284067577727,43.18473151161082,774.1212605410608,3.2579117024525277,-114105.84877272509,10.5,10499885894.151228,47.655,-122.3035,60.0,11.666666666666666
2026-01-20T23:11:41+00:00,SAT-45580,102.4759486115299,42.921481108632626,777.370438231831,3.307327561162077,-115836.60117360861,10.5,10499884163.398827,47.655,-122.3035,60.0,11.683333333333334
2026-01-20T23:11:42+00:00,SAT-45580,101.93284444210808,42.65742737784775,780.6688993042128,3.3561160006354984,-117545.37869886217,10.5,10499882454.621302,47.655,-122.3035,60.0,11.7
2026-01-20T23:11:43+00:00,SAT-45580,101.3989555764857,42.39269040419203,784.0160180209946,3.40427849360957,-119232.23292995745,10.5,10499880767.76707,47.655,-122.3035,60.0,11.716666666666667
2026-01-20T23:11:44+00:00,SAT-45580,100.87414154789246,42.12738595487324,787.4111701137529,3.4518168467863832,-120897.227145244,10.5,10499879102.772854,47.655,-122.3035,60.0,11.733333333333333
2026-01-20T23:11:45+00:00,SAT-45580,100.35826047775501,41.86162552711264,790.853733115924,3.4987332558626143,-122540.43824730725,10.5,10499877459.561752,47.655,-122.3035,60.0,11.75
2026-01-20T23:11:46+00:00,SAT-45580,99.85116942056051,41.59551639799548,794.343086750753,3.545030186835695,-124161.95260580837,10.5,10499875838.047394,47.655,-122.3035,60.0,11.766666666666667
2026-01-20T23:11:47+00:00,SAT-45580,99.35272469828163,41.32916168906332,797.8786132008718,3.5907104347466348,-125761.86811490657,10.5,10499874238.131886,47.655,-122.3035,60.0,11.783333333333333
2026-01-20T23:11:48+00:00,SAT-45580,98.86278219921883,41.06266043114585,801.459697436461,3.635777066075992,-127340.29217572216,10.5,10499872659.707825,47.655,-122.3035,60.0,11.8
2026-01-20T23:11:49+00:00,SAT-45580,98.3811976592306,40.79610763767824,805.0857274859601,3.6802334571986957,-128897.34304318724,10.5,10499871102.656958,47.655,-122.3035,60.0,11.816666666666666
2026-01-20T23:11:50+00:00,SAT-45580,97.90782691356402,40.52959437866179,808.7560947451323,3.724083197159193,-130433.14642081998,10.5,10499869566.853579,47.655,-122.3035,60.0,11.833333333333334
2026-01-20T23:11:51+00:00,SAT-45580,97.44252613789448,40.26320786464111,812.4701941891631,3.767330172766875,-131947.83844112646,10.5,10499868052.161558,47.655,-122.3035,60.0,11.85
2026-01-20T23:11:52+00:00,SAT-45580,96.98515205670438,39.99703152680459,816.2274246696282,3.809978453583533,-133441.5616373748,10.5,10499866558.438362,47.655,-122.3035,60.0,11.866666666666667
2026-01-20T23:11:53+00:00,SAT-45580,96.53556214483547,39.731145107176516,820.0271890967548,3.852032366558987,-134914.46755765073,10.5,10499865085.532442,47.655,-122.3035,60.0,11.883333333333333
2026-01-20T23:11:54+00:00,SAT-45580,96.09361480045577,39.46562474480711,823.8688946961195,3.8934964167935235,-136366.71398962277,10.5,10499863633.28601,47.655,-122.3035,60.0,11.9
2026-01-20T23:11:55+00:00,SAT-45580,95.6591695087739,39.20054306845642,827.7519531863219,3.934375313363087,-137798.46586504992,10.5,10499862201.534136,47.655,-122.3035,60.0,11.916666666666666
2026-01-20T23:11:56+00:00,SAT-45580,95.23208698526147,38.93596928794921,831.6757809824139,3.9746739337422405,-139209.89401372307,10.5,10499860790.105986,47.655,-122.3035,60.0,11.933333333333334
2026-01-20T23:11:57+00:00,SAT-45580,94.81222930652403,38.671969288109885,835.6397993638449,4.01439734146671,-140601.17578208205,10.5,10499859398.824219,47.655,-122.3035,60.0,11.95
2026-01-20T23:11:58+00:00,SAT-45580,94.39946002403232,38.40860572133569,839.6434346600257,4.053550744027631,-141972.49355849417,10.5,10499858027.506441,47.655,-122.3035,60.0,11.966666666666667
2026-01-20T23:11:59+00:00,SAT-45580,93.99364426805043,38.14593810251285,843.6861183938986,4.092139457483065,-143324.03353379952,10.5,10499856675.966467,47.655,-122.3035,60.0,11.983333333333333
2026-01-20T23:12:00+00:00,SAT-45580,93.59464884134212,37.88402290540658,847.7672873902112,4.130168985833281,-144655.9884813695,10.5,10499855344.011518,47.655,-122.3035,60.0,12.0
2026-01-20T23:12:01+00:00,SAT-45580,93.20234229307837,37.62291365293765,851.886383962957,4.167644904964076,-145968.5536923107,10.5,10499854031.446308,47.655,-122.3035,60.0,12.016666666666667
2026-01-20T23:12:02+00:00,SAT-45580,92.81659499215611,37.36266101374048,856.0428559870659,4.2045729285476305,-147261.92928359166,10.5,10499852738.070717,47.655,-122.3035,60.0,12.033333333333333
2026-01-20T23:12:03+00:00,SAT-45580,92.43727918372727,37.103312893082254,860.2361570358231,4.240958853535686,-148536.31828898346,10.5,10499851463.681711,47.655,-122.3035,60.0,12.05
2026-01-20T23:12:04+00:00,SAT-45580,92.06426904075045,36.84491452567723,864.4657464639246,4.276808572918779,-149791.927105942,10.5,10499850208.072893,47.655,-122.3035,60.0,12.066666666666666
2026-01-20T23:12:05+00:00,SAT-45580,91.69744070529175,36.58750856597126,868.7310895032593,4.312128045871638,-151028.96444997357,10.5,10499848971.03555,47.655,-122.3035,60.0,12.083333333333334
2026-01-20T23:12:06+00:00,SAT-45580,91.33667232378212,36.33113517841015,873.0316573289134,4.346923313978476,-152247.64192291323,10.5,10499847752.358078,47.655,-122.3035,60.0,12.1
2026-01-20T23:12:07+00:00,SAT-45580,90.98184407335717,36.07583212477781,877.3669271413626,4.381200470135665,-153448.17292376477,10.5,10499846551.827076,47.655,-122.3035,60.0,12.116666666666667
2026-01-20T23:12:08+00:00,SAT-45580,90.63283818335917,35.82163485136696,881.7363822176435,4.414965672245204,-154630.7731283041,10.5,10499845369.226871,47.655,-122.3035,60.0,12.133333333333333
2026-01-20T23:12:09+00:00,SAT-45580,90.28953894941145,35.56857657323227,886.1395119761863,4.448225110308375,-155795.65933655985,10.5,10499844204.340664,47.655,-122.3035,60.0,12.15
2026-01-20T23:12:10+00:00,SAT-45580,89.95183274391646,35.31668835819505,890.5758120088293,4.480985019291845,-156943.04992343858,10.5,10499843056.950077,47.655,-122.3035,60.0,12.166666666666666
2026-01-20T23:12:11+00:00,SAT-45580,89.61960802015822,35.06599920787638,895.0447841256603,4.513251646590667,-158073.1636991415,10.5,10499841926.836302,47.655,-122.3035,60.0,12.183333333333334
2026-01-20T23:12:12+00:00,SAT-45580,89.2927553136523,34.81653613830729,899.545936367415,4.5450312904146255,-159186.22125361662,10.5,10499840813.778746,47.655,-122.3035,60.0,12.2
2026-01-20T23:12:13+00:00,SAT-45580,88.97116723638015,34.56832425612418,904.0787830561543,4.576330236150362,-160282.44272769132,10.5,10499839717.557272,47.655,-122.3035,60.0,12.216666666666667
2026-01-20T23:12:14+00:00,SAT-45580,88.65473847124815,34.32138683600258,908.6428447824752,4.607154786676044,-161362.04887482012,10.5,10499838637.951126,47.655,-122.3035,60.0,12.233333333333333
2026-01-20T23:12:15+00:00,SAT-45580,88.34336576072565,34.07574539408201,913.2376484229555,4.637511272517246,-162425.26141678682,10.5,10499837574.738583,47.655,-122.3035,60.0,12.25
2026-01-20T23:12:16+00:00,SAT-45580,88.0369478915568,33.83141975860114,917.8627271677277,4.6674059896203985,-163472.3008642672,10.5,10499836527.699135,47.655,-122.3035,60.0,12.266666666666667
2026-01-20T23:12:17+00:00,SAT-45580,87.73538568046872,33.5884281415557,922.517620485992,4.696845237889059,-164503.3878665324,10.5,10499835496.612133,47.655,-122.3035,60.0,12.283333333333333
2026-01-20T23:12:18+00:00,SAT-45580,87.43858195460514,33.346787206000016,927.2018741299628,4.725835296740191,-165518.74235532637,10.5,10499834481.257645,47.655,-122.3035,60.0,12.3
2026-01-20T23:12:19+00:00,SAT-45580,87.14644153113649,33.10651213237392,931.9150401144378,4.754382443990625,-166518.58420634974,10.5,10499833481.415794,47.655,-122.3035,60.0,12.316666666666666
2026-01-20T23:12:20+00:00,SAT-45580,86.85887119353856,32.86761668163232,936.6566767152008,4.78249293271706,-167503.1324287989,10.5,10499832496.86757,47.655,-122.3035,60.0,12.333333333333334
2026-01-20T23:12:21+00:00,SAT-45580,86.57577966749483,32.63011325737778,941.4263484443492,4.8101729796874455,-168472.60476018436,10.5,10499831527.395239,47.655,-122.3035,60.0,12.35
2026-01-20T23:12:22+00:00,SAT-45580,86.29707759560026,32.39401296638438,946.223626014082,4.837428782125757,-169427.21825350405,10.5,10499830572.781746,47.655,-122.3035,60.0,12.366666666666667
2026-01-20T23:12:23+00:00,SAT-45580,86.02267750985003,32.15932567614818,951.048086317208,4.864266488773206,-170367.18826368425,10.5,10499829632.811737,47.655,-122.3035,60.0,12.383333333333333
2026-01-20T23:12:24+00:00,SAT-45580,85.75249380425886,31.926060071764947,955.8993123787936,4.8906922166200975,-171292.7290336004,10.5,10499828707.270966,47.655,-122.3035,60.0,12.4
2026-01-20T23:12:25+00:00,SAT-45580,85.486442705621,31.694223709926714,960.7768933244967,4.916712080135462,-172204.054717822,10.5,10499827795.945282,47.655,-122.3035,60.0,12.416666666666666
2026-01-20T23:12:26+00:00,SAT-45580,85.2244422418204,31.46382306956672,965.6804243780514,4.942332052170729,-173101.37451087128,10.5,10499826898.625488,47.655,-122.3035,60.0,12.433333333333334
2026-01-20T23:12:27+00:00,SAT-45580,84.96641221653324,31.234863607081742,970.6095067200318,4.967558192108985,-173984.90063797517,10.5,10499826015.099361,47.655,-122.3035,60.0,12.45
2026-01-20T23:12:28+00:00,SAT-45580,84.71227417163664,31.00734979893515,975.5637475741511,4.9923964173598385,-174854.8403518487,10.5,10499825145.159649,47.655,-122.3035,60.0,12.466666666666667
2026-01-20T23:12:29+00:00,SAT-45580,84.4619513608127,30.781285193106754,980.5427600656665,5.016852587329397,-175711.39887367902,10.5,10499824288.601126,47.655,-122.3035,60.0,12.483333333333333
2026-01-20T23:12:30+00:00,SAT-45580,84.21536871817747,30.556672454698628,985.5461631635349,5.040932584106245,-176554.78221908963,10.5,10499823445.217781,47.655,-122.3035,60.0,12.5
2026-01-20T23:12:31+00:00,SAT-45580,83.97245282309129,30.333513406202382,990.5735817030319,5.064642163882646,-177385.19199428218,10.5,10499822614.808006,47.655,-122.3035,60.0,12.516666666666667
2026-01-20T23:12:32+00:00,SAT-45580,83.7331318717167,30.11180907275105,995.624646260194,5.087987065752822,-178202.82920661275,10.5,10499821797.170794,47.655,-122.3035,60.0,12.533333333333333
