DopplerPredictor/satellites_20260205_234138/SAT-55788.csv

timestamp,satellite,azimuth_deg,elevation_deg,distance_km,relative_velocity_kms,doppler_shift_hz,tx_freq_ghz,rx_freq_hz,ue_lat,ue_lon,ue_alt_m,time_minutes
2026-01-20T23:08:30+00:00,SAT-55788,193.47284626364984,30.083966869412635,1038.334949256432,-5.748406374962392,201333.50698604004,10.5,10500201333.506987,47.655,-122.3035,60.0,8.5
2026-01-20T23:08:31+00:00,SAT-55788,193.37346357451557,30.329065787129636,1032.601953565681,-5.731644754443203,200746.44413387356,10.5,10500200746.444134,47.655,-122.3035,60.0,8.516666666666667
2026-01-20T23:08:32+00:00,SAT-55788,193.2724218037809,30.576466757955973,1026.8856745598573,-5.714595193514786,200149.29639058915,10.5,10500200149.29639,47.655,-122.3035,60.0,8.533333333333333
2026-01-20T23:08:33+00:00,SAT-55788,193.1696805970384,30.826198539533838,1021.1863994074425,-5.697252155951672,199541.86985415276,10.5,10500199541.869854,47.655,-122.3035,60.0,8.55
2026-01-20T23:08:34+00:00,SAT-55788,193.06519830515694,31.07829011395435,1015.5044207983003,-5.679609921914941,198923.96419161046,10.5,10500198923.964191,47.655,-122.3035,60.0,8.566666666666666
2026-01-20T23:08:35+00:00,SAT-55788,192.95893193456004,31.332770674415805,1009.8400371267996,-5.661662787832264,198295.3796397332,10.5,10500198295.37964,47.655,-122.3035,60.0,8.583333333333334
2026-01-20T23:08:36+00:00,SAT-55788,192.85083709082824,31.589669619872513,1004.1935524755925,-5.643404796856941,197655.90756455215,10.5,10500197655.907564,47.655,-122.3035,60.0,8.6
2026-01-20T23:08:37+00:00,SAT-55788,192.74086792571273,31.84901653671634,998.5652768682061,-5.624830005639066,197005.3398048132,10.5,10500197005.339806,47.655,-122.3035,60.0,8.616666666666667
2026-01-20T23:08:38+00:00,SAT-55788,192.628977075407,32.110841191455066,992.9555262555856,-5.605932277849424,196343.46144031064,10.5,10500196343.461441,47.655,-122.3035,60.0,8.633333333333333
2026-01-20T23:08:39+00:00,SAT-55788,192.51511560068786,32.37517351297516,987.3646227085542,-5.586705416252475,195670.0554176416,10.5,10500195670.055418,47.655,-122.3035,60.0,8.65
2026-01-20T23:08:40+00:00,SAT-55788,192.39923292104353,32.642043579733595,981.7928944785576,-5.567143053107745,194984.8987115991,10.5,10500194984.898712,47.655,-122.3035,60.0,8.666666666666666
2026-01-20T23:08:41+00:00,SAT-55788,192.28127674820132,32.911481600598094,976.2406761677095,-5.54723877603794,194287.76673360597,10.5,10500194287.766733,47.655,-122.3035,60.0,8.683333333333334
2026-01-20T23:08:42+00:00,SAT-55788,192.16119301337235,33.18351790040965,970.7083087733113,-5.526985991595449,193578.4285532367,10.5,10500193578.428553,47.655,-122.3035,60.0,8.7
2026-01-20T23:08:43+00:00,SAT-55788,192.03892579410615,33.45818289762705,965.1961398684351,-5.506378008366569,192856.64980887872,10.5,10500192856.649809,47.655,-122.3035,60.0,8.716666666666667
2026-01-20T23:08:44+00:00,SAT-55788,191.91441723578268,33.73550708448344,959.704523699629,-5.485408087561096,192122.19447959398,10.5,10500192122.194479,47.655,-122.3035,60.0,8.733333333333333
2026-01-20T23:08:45+00:00,SAT-55788,191.78760746736367,34.01552100827242,954.2338212341642,-5.464069233452347,191374.8175454422,10.5,10500191374.817545,47.655,-122.3035,60.0,8.75
2026-01-20T23:08:46+00:00,SAT-55788,191.65843451900585,34.29825524037492,948.7844004162852,-5.442354471324846,190614.27472238438,10.5,10500190614.274723,47.655,-122.3035,60.0,8.766666666666667
2026-01-20T23:08:47+00:00,SAT-55788,191.52683422752057,34.583740357639726,943.3566361462531,-5.4202566064953075,189840.31402217838,10.5,10500189840.314022,47.655,-122.3035,60.0,8.783333333333333
2026-01-20T23:08:48+00:00,SAT-55788,191.39274014407633,34.87200690961016,937.9509104997245,-5.397768404139723,189052.68205068418,10.5,10500189052.68205,47.655,-122.3035,60.0,8.8
2026-01-20T23:08:49+00:00,SAT-55788,191.2560834317555,35.16308539311251,932.5676127677842,-5.37488243771898,188251.11869908776,10.5,10500188251.1187,47.655,-122.3035,60.0,8.816666666666666
2026-01-20T23:08:50+00:00,SAT-55788,191.11679276260767,35.45700621676925,927.2071396481468,-5.351591235586661,187435.36227872665,10.5,10500187435.362278,47.655,-122.3035,60.0,8.833333333333334
2026-01-20T23:08:51+00:00,SAT-55788,190.97479420467636,35.75379967115576,921.8698952901435,-5.327887135757505,186605.14443446675,10.5,10500186605.144434,47.655,-122.3035,60.0,8.85
2026-01-20T23:08:52+00:00,SAT-55788,190.83001110788757,36.053495888734496,916.5562914845486,-5.3037624268986185,185760.19508281123,10.5,10500185760.195084,47.655,-122.3035,60.0,8.866666666666667
2026-01-20T23:08:53+00:00,SAT-55788,190.68236397935112,36.35612480906035,911.2667477127972,-5.279209231728738,184900.23832804943,10.5,10500184900.238329,47.655,-122.3035,60.0,8.883333333333333
2026-01-20T23:08:54+00:00,SAT-55788,190.53177035603068,36.66171613488954,906.001691312488,-5.254219584866072,184024.99518881744,10.5,10500184024.99519,47.655,-122.3035,60.0,8.9
2026-01-20T23:08:55+00:00,SAT-55788,190.37814466789763,36.970299289855284,900.7615575652466,-5.228785384425954,183134.18190284335,10.5,10500183134.181902,47.655,-122.3035,60.0,8.916666666666666
2026-01-20T23:08:56+00:00,SAT-55788,190.22139809582515,37.28190337042487,895.5467898328639,-5.202898438503638,182227.51155497116,10.5,10500182227.511555,47.655,-122.3035,60.0,8.933333333333334
2026-01-20T23:08:57+00:00,SAT-55788,190.06143841993878,37.59655709743596,890.357839647074,-5.1765504485369656,181304.69349445123,10.5,10500181304.693495,47.655,-122.3035,60.0,8.95
2026-01-20T23:08:58+00:00,SAT-55788,189.89816986061876,37.91428876340745,885.1951668159256,-5.149732963934152,180365.43174581332,10.5,10500180365.431746,47.655,-122.3035,60.0,8.966666666666667
2026-01-20T23:08:59+00:00,SAT-55788,189.73149291251664,38.23512617351479,880.0592395754044,-5.122437493165931,179409.42889978332,10.5,10500179409.4289,47.655,-122.3035,60.0,8.983333333333333
2026-01-20T23:09:00+00:00,SAT-55788,189.5613041655244,38.559096589682,874.9505346302616,-5.094655372155561,178436.3815037448,10.5,10500178436.381504,47.655,-122.3035,60.0,9.0
2026-01-20T23:09:01+00:00,SAT-55788,189.38749612083598,38.886226662589685,869.8695373260964,-5.066377905214272,177445.9849978943,10.5,10500177445.984999,47.655,-122.3035,60.0,9.016666666666667
2026-01-20T23:09:02+00:00,SAT-55788,189.209956991745,39.216542368374284,864.8167416808855,-5.037596231401313,176437.92903460495,10.5,10500176437.929035,47.655,-122.3035,60.0,9.033333333333333
2026-01-20T23:09:03+00:00,SAT-55788,189.0285704985376,39.55006893240881,859.7926505497928,-5.008301456478268,175411.90210002486,10.5,10500175411.9021,47.655,-122.3035,60.0,9.05
2026-01-20T23:09:04+00:00,SAT-55788,188.843215646825,39.886830756938956,854.7977756583734,-4.978484567494964,174367.58852251418,10.5,10500174367.588522,47.655,-122.3035,60.0,9.066666666666666
2026-01-20T23:09:05+00:00,SAT-55788,188.6537664970431,40.22685133827381,849.8326377209731,-4.948136467426943,173304.6696857961,10.5,10500173304.669685,47.655,-122.3035,60.0,9.083333333333334
2026-01-20T23:09:06+00:00,SAT-55788,188.46009191980005,40.57015318098304,844.8977665245726,-4.917247980613153,172222.8242194075,10.5,10500172222.824219,47.655,-122.3035,60.0,9.1
2026-01-20T23:09:07+00:00,SAT-55788,188.26205533699317,40.91675770695611,839.9937010072156,-4.885809861996153,171121.72832233028,10.5,10500171121.728323,47.655,-122.3035,60.0,9.116666666666667
2026-01-20T23:09:08+00:00,SAT-55788,188.0595144483995,41.26668515927541,835.1209893272176,-4.853812807610366,170001.05613033415,10.5,10500170001.05613,47.655,-122.3035,60.0,9.133333333333333
2026-01-20T23:09:09+00:00,SAT-55788,187.85232094184408,41.619954500706335,830.2801889219179,-4.821247436321234,168860.4790764048,10.5,10500168860.479076,47.655,-122.3035,60.0,9.15
2026-01-20T23:09:10+00:00,SAT-55788,187.6403201881831,41.97658330434152,825.4718665846417,-4.788104337967866,167699.6675769028,10.5,10500167699.667578,47.655,-122.3035,60.0,9.166666666666666
2026-01-20T23:09:11+00:00,SAT-55788,187.42335091631332,42.33658764085699,820.6965984936454,-4.754374012230035,166518.28889042756,10.5,10500166518.28889,47.655,-122.3035,60.0,9.183333333333334
2026-01-20T23:09:12+00:00,SAT-55788,187.20124487302354,42.69998195392582,815.9549703020386,-4.720046981815596,165316.01108211922,10.5,10500165316.011082,47.655,-122.3035,60.0,9.2
2026-01-20T23:09:13+00:00,SAT-55788,186.97382645717198,43.066778936420356,811.2475771148147,-4.685113677038294,164092.49898108543,10.5,10500164092.498981,47.655,-122.3035,60.0,9.216666666666667
2026-01-20T23:09:14+00:00,SAT-55788,186.74091233929224,43.43698938970609,806.5750235809991,-4.649564572877156,162847.41898080084,10.5,10500162847.418982,47.655,-122.3035,60.0,9.233333333333333
2026-01-20T23:09:15+00:00,SAT-55788,186.50231105159395,43.81062208488032,801.9379238491018,-4.613390068961146,161580.43483566234,10.5,10500161580.434835,47.655,-122.3035,60.0,9.25
2026-01-20T23:09:16+00:00,SAT-55788,186.25782256129006,44.1876836054788,797.3369016422677,-4.576580641492956,160291.21298200253,10.5,10500160291.212982,47.655,-122.3035,60.0,9.266666666666667
2026-01-20T23:09:17+00:00,SAT-55788,186.00723781012934,44.568178192685515,792.7725901819067,-4.539126718468474,158979.41816774782,10.5,10500158979.418167,47.655,-122.3035,60.0,9.283333333333333
2026-01-20T23:09:18+00:00,SAT-55788,185.75033823497324,44.952107570289634,788.2456322357707,-4.501018774172366,157644.7167620536,10.5,10500157644.716763,47.655,-122.3035,60.0,9.3
2026-01-20T23:09:19+00:00,SAT-55788,185.48689525490545,45.33947076646885,783.7566800717916,-4.462247337713513,156286.7770542509,10.5,10500156286.777054,47.655,-122.3035,60.0,9.316666666666666
2026-01-20T23:09:20+00:00,SAT-55788,185.21666972764547,45.730263925042735,779.3063954034002,-4.422802980166149,154905.26880347525,10.5,10500154905.268803,47.655,-122.3035,60.0,9.333333333333334
2026-01-20T23:09:21+00:00,SAT-55788,184.93941137578196,46.1244801035785,774.8954493476772,-4.382676326453569,153499.86365488378,10.5,10500153499.863655,47.655,-122.3035,60.0,9.35
2026-01-20T23:09:22+00:00,SAT-55788,184.6548581787,46.522109059648315,770.5245223716455,-4.341858118655164,152070.23735693583,10.5,10500152070.237356,47.655,-122.3035,60.0,9.366666666666667
2026-01-20T23:09:23+00:00,SAT-55788,184.36273572505112,46.92313702926266,766.19430417543,-4.300339180463934,150616.06851654456,10.5,10500150616.068516,47.655,-122.3035,60.0,9.383333333333333
2026-01-20T23:09:24+00:00,SAT-55788,184.06275653030937,47.32754648787816,761.9054936108621,-4.258110435295003,149137.03923331364,10.5,10500149137.039234,47.655,-122.3035,60.0,9.4
2026-01-20T23:09:25+00:00,SAT-55788,183.7546193141464,47.735315897759065,757.6587985820249,-4.215162974768612,147632.83749810152,10.5,10500147632.837498,47.655,-122.3035,60.0,9.416666666666666
2026-01-20T23:09:26+00:00,SAT-55788,183.43800823095015,48.14641944577084,753.4549358774993,-4.17148802353635,146103.15596108715,10.5,10500146103.155962,47.655,-122.3035,60.0,9.433333333333334
2026-01-20T23:09:27+00:00,SAT-55788,183.11259205941522,48.560826760920705,749.2946310376888,-4.127077008529281,144547.6943571324,10.5,10500144547.694357,47.655,-122.3035,60.0,9.45
2026-01-20T23:09:28+00:00,SAT-55788,182.7780233405933,48.978502620669616,745.1786181530828,-4.08192148602091,142966.1569512184,10.5,10500142966.156952,47.655,-122.3035,60.0,9.466666666666667
2026-01-20T23:09:29+00:00,SAT-55788,182.43393747476213,49.399406630815555,741.1076397352607,-4.036013318847604,141358.25874545463,10.5,10500141358.258745,47.655,-122.3035,60.0,9.483333333333333
2026-01-20T23:09:30+00:00,SAT-55788,182.0799517514915,49.82349290311974,737.0824464111512,-3.989344536657179,139723.72058439304,10.5,10500139723.720585,47.655,-122.3035,60.0,9.5
2026-01-20T23:09:31+00:00,SAT-55788,181.71566434071158,50.25070969738946,733.1037967566673,-3.941907485477096,138062.27439353897,10.5,10500138062.274393,47.655,-122.3035,60.0,9.516666666666667
2026-01-20T23:09:32+00:00,SAT-55788,181.34065321439803,50.68099905639243,729.1724569811756,-3.89369473795788,136373.66003569623,10.5,10500136373.660036,47.655,-122.3035,60.0,9.533333333333333
2026-01-20T23:09:33+00:00,SAT-55788,180.95447502141585,51.1142964072147,725.2892007014801,-3.844699240838944,134657.63047584376,10.5,10500134657.630476,47.655,-122.3035,60.0,9.55
2026-01-20T23:09:34+00:00,SAT-55788,180.55666388843989,51.55053015316442,721.4548085687373,-3.794914222580019,132913.9485459978,10.5,10500132913.948545,47.655,-122.3035,60.0,9.566666666666666
2026-01-20T23:09:35+00:00,SAT-55788,180.14673017136354,51.9896212285958,717.6700679874899,-3.744333326650305,131142.39161356154,10.5,10500131142.391613,47.655,-122.3035,60.0,9.583333333333334
2026-01-20T23:09:36+00:00,SAT-55788,179.72415913084293,52.43148264014905,713.9357727017705,-3.6929505366034068,129342.74895713278,10.5,10500129342.748957,47.655,-122.3035,60.0,9.6
2026-01-20T23:09:37+00:00,SAT-55788,179.28840955558795,52.87601896918761,710.2527224559286,-3.640760301754621,127514.82616825378,10.5,10500127514.826168,47.655,-122.3035,60.0,9.616666666666667
2026-01-20T23:09:38+00:00,SAT-55788,178.8389123088791,53.323125856890734,706.6217225301182,-3.5877574903426406,125658.44351093624,10.5,10500125658.44351,47.655,-122.3035,60.0,9.633333333333333
2026-01-20T23:09:39+00:00,SAT-55788,178.37506882072475,53.77268945004348,703.0435833224966,-3.533937435718596,123773.43753939687,10.5,10500123773.43754,47.655,-122.3035,60.0,9.65
2026-01-20T23:09:40+00:00,SAT-55788,177.8962495162713,54.224585816355756,699.5191198853597,-3.479296024624089,121859.66418992748,10.5,10500121859.66419,47.655,-122.3035,60.0,9.666666666666666
2026-01-20T23:09:41+00:00,SAT-55788,177.40179217614065,54.678680333192624,696.0491513732347,-3.423829623667036,119916.99620576804,10.5,10500119916.996206,47.655,-122.3035,60.0,9.683333333333334
2026-01-20T23:09:42+00:00,SAT-55788,176.89100025750966,55.134827027051166,692.6345005643004,-3.3675352153048848,117945.32789981423,10.5,10500117945.3279,47.655,-122.3035,60.0,9.7
2026-01-20T23:09:43+00:00,SAT-55788,176.3631411513687,55.59286788854689,689.275993246188,-3.310410336108242,115944.5729923484,10.5,10500115944.572992,47.655,-122.3035,60.0,9.716666666666667
2026-01-20T23:09:44+00:00,SAT-55788,175.81744441528306,56.052632135167315,685.9744576633542,-3.252453179064496,113914.66819414518,10.5,10500113914.668194,47.655,-122.3035,60.0,9.733333333333333
2026-01-20T23:09:45+00:00,SAT-55788,175.25309996760572,56.51393544139328,682.7307238624244,-3.1936625872659765,111855.5729854043,10.5,10500111855.572985,47.655,-122.3035,60.0,9.75
2026-01-20T23:09:46+00:00,SAT-55788,174.66925627569287,56.97657911973886,679.5456230438294,-3.1340381063111016,109767.27145106021,10.5,10500109767.271452,47.655,-122.3035,60.0,9.766666666666667
2026-01-20T23:09:47+00:00,SAT-55788,174.06501854818592,57.44034925883989,676.419986861184,-3.0735799577366802,107649.77135026906,10.5,10500107649.77135,47.655,-122.3035,60.0,9.783333333333333
2026-01-20T23:09:48+00:00,SAT-55788,173.43944697156675,57.90501580524541,673.35464674716,-3.012289173734775,105503.10883476307,10.5,10500105503.108835,47.655,-122.3035,60.0,9.8
2026-01-20T23:09:49+00:00,SAT-55788,172.79155498801882,58.37033161131965,670.3504331050041,-2.9501675252397317,103327.34593015407,10.5,10500103327.34593,47.655,-122.3035,60.0,9.816666666666666
2026-01-20T23:09:50+00:00,SAT-55788,172.12030769508965,58.83603141759663,667.4081745717765,-2.887217613348913,101122.57373787432,10.5,10500101122.573738,47.655,-122.3035,60.0,9.833333333333334
2026-01-20T23:09:51+00:00,SAT-55788,171.4246203792375,59.30183079320699,664.5286971904129,-2.823442853372219,98888.91187652324,10.5,10500098888.911877,47.655,-122.3035,60.0,9.85
2026-01-20T23:09:52+00:00,SAT-55788,170.70335726184365,59.76742501803231,661.7128235976955,-2.7588475647520445,96626.51163124481,10.5,10500096626.511631,47.655,-122.3035,60.0,9.866666666666667
2026-01-20T23:09:53+00:00,SAT-55788,169.95533049910523,60.23248792442261,658.9613721225436,-2.6934369260718602,94335.55437793747,10.5,10500094335.554379,47.655,-122.3035,60.0,9.883333333333333
2026-01-20T23:09:54+00:00,SAT-55788,169.17929954984552,60.69667067862673,656.2751559291762,-2.6272170480920867,92016.25414127967,10.5,10500092016.25414,47.655,-122.3035,60.0,9.9
2026-01-20T23:09:55+00:00,SAT-55788,168.37397097568586,61.15960052453241,653.6549820874344,-2.5601949809354374,89668.85784639083,10.5,10500089668.857847,47.655,-122.3035,60.0,9.916666666666666
2026-01-20T23:09:56+00:00,SAT-55788,167.53799880200455,61.62087948422604,651.1016506359358,-2.492378736838772,87293.6461156975,10.5,10500087293.646116,47.655,-122.3035,60.0,9.933333333333334
2026-01-20T23:09:57+00:00,SAT-55788,166.6699855670937,62.080083025257586,648.6159536225423,-2.423777322753235,84890.93441072814,10.5,10500084890.93441,47.655,-122.3035,60.0,9.95
2026-01-20T23:09:58+00:00,SAT-55788,165.76848420611657,62.5367587066337,646.1986741123101,-2.3544007286841717,82461.07262372758,10.5,10500082461.072624,47.655,-122.3035,60.0,9.966666666666667
2026-01-20T23:09:59+00:00,SAT-55788,164.8320009623806,62.99042480871482,643.8505852070722,-2.2842599844943385,80004.44706714588,10.5,10500080004.447067,47.655,-122.3035,60.0,9.983333333333333
2026-01-20T23:10:00+00:00,SAT-55788,163.8589994971527,63.44056897712597,641.5724490083683,-2.2133671438054128,77521.47990980092,10.5,10500077521.47991,47.655,-122.3035,60.0,10.0
2026-01-20T23:10:01+00:00,SAT-55788,162.8479064517758,63.88664688916453,639.3650155964308,-2.14173530770517,75012.63000720412,10.5,10500075012.630007,47.655,-122.3035,60.0,10.016666666666667
2026-01-20T23:10:02+00:00,SAT-55788,161.79711869562084,64.32808097766763,637.2290219855262,-2.069378630147319,72478.3930906856,10.5,10500072478.393091,47.655,-122.3035,60.0,10.033333333333333
2026-01-20T23:10:03+00:00,SAT-55788,160.70501254240313,64.76425924291226,635.1651910739121,-1.996312333907065,69919.30232622524,10.5,10500069919.302326,47.655,-122.3035,60.0,10.05
2026-01-20T23:10:04+00:00,SAT-55788,159.5699552229466,65.19453419611341,633.1742305778812,-1.922552689194964,67335.92756541968,10.5,10500067335.927565,47.655,-122.3035,60.0,10.066666666666666
2026-01-20T23:10:05+00:00,SAT-55788,158.3903189485402,65.61822197624862,631.2568319871338,-1.8481170465560224,64728.87649774777,10.5,10500064728.876497,47.655,-122.3035,60.0,10.083333333333334
2026-01-20T23:10:06+00:00,SAT-55788,157.16449784842158,66.03460171059092,629.4136694873393,-1.7730238077213885,62098.79362967356,10.5,10500062098.79363,47.655,-122.3035,60.0,10.1
2026-01-20T23:10:07+00:00,SAT-55788,155.89092813161548,66.44291517430565,627.6453989117691,-1.6972924371867413,59446.360690170484,10.5,10500059446.360691,47.655,-122.3035,60.0,10.116666666666667
2026-01-20T23:10:08+00:00,SAT-55788,154.5681117332943,66.84236683688447,625.9526566813801,-1.6209434310519388,56772.29553935395,10.5,10500056772.29554,47.655,-122.3035,60.0,10.133333333333333
2026-01-20T23:10:09+00:00,SAT-55788,153.19464371907955,67.23212437490385,624.3360587759765,-1.5439983234355146,54077.35239314427,10.5,10500054077.352392,47.655,-122.3035,60.0,10.15
2026-01-20T23:10:10+00:00,SAT-55788,151.76924357958137,67.61131975859905,622.7961996989745,-1.4664796666341584,51362.32112836762,10.5,10500051362.321129,47.655,-122.3035,60.0,10.166666666666666
2026-01-20T23:10:11+00:00,SAT-55788,150.29079048477934,67.97905101343487,621.3336514619524,-1.3884109997442116,48628.02618374816,10.5,10500048628.026184,47.655,-122.3035,60.0,10.183333333333334
2026-01-20T23:10:12+00:00,SAT-55788,148.75836240429294,68.3343847664675,619.9489626004979,-1.3098168259040943,45875.32576284154,10.5,10500045875.325764,47.655,-122.3035,60.0,10.2
2026-01-20T23:10:13+00:00,SAT-55788,147.17127877910644,68.67635969407486,618.6426572127493,-1.2307225935932153,43105.11117904361,10.5,10500043105.11118,47.655,-122.3035,60.0,10.216666666666667
2026-01-20T23:10:14+00:00,SAT-55788,145.52914617188208,69.00399098345986,617.4152340165896,-1.1511546599236395,40318.30556990935,10.5,10500040318.30557,47.655,-122.3035,60.0,10.233333333333333
2026-01-20T23:10:15+00:00,SAT-55788,143.8319060535989,69.31627590396192,616.26716544345,-1.0711402497041287,37515.86246340244,10.5,10500037515.862463,47.655,-122.3035,60.0,10.25
2026-01-20T23:10:16+00:00,SAT-55788,142.0798835252123,69.61220056817238,615.198896772938,-0.9907074259448456,34698.764744845175,10.5,10500034698.764746,47.655,-122.3035,60.0,10.266666666666667
2026-01-20T23:10:17+00:00,SAT-55788,140.27383538416584,69.89074793756353,614.2108452968845,-0.9098850329350875,31868.022663259988,10.5,10500031868.022663,47.655,-122.3035,60.0,10.283333333333333
2026-01-20T23:10:18+00:00,SAT-55788,138.41499563677866,70.15090707563976,613.3033995401587,-0.8287026698793859,29024.672907994074,10.5,10500029024.672909,47.655,-122.3035,60.0,10.3
2026-01-20T23:10:19+00:00,SAT-55788,136.5051161161108,70.39168361481056,612.4769185077761,-0.7471906219553354,26169.776194072972,10.5,10500026169.776194,47.655,-122.3035,60.0,10.316666666666666
2026-01-20T23:10:20+00:00,SAT-55788,134.5464997467335,70.61211131873793,611.7317310007661,-0.6653798232434083,23304.41596384585,10.5,10500023304.415964,47.655,-122.3035,60.0,10.333333333333334
2026-01-20T23:10:21+00:00,SAT-55788,132.5420237014451,70.81126457017459,611.0681349690062,-0.5833017887722537,20429.69600692444,10.5,10500020429.696007,47.655,-122.3035,60.0,10.35
2026-01-20T23:10:22+00:00,SAT-55788,130.49514987348633,70.98827151844692,610.4863969318342,-0.50098856856661,17546.738850746555,10.5,10500017546.738852,47.655,-122.3035,60.0,10.366666666666667
2026-01-20T23:10:23+00:00,SAT-55788,128.40992019402984,71.14232755881531,609.9867514444833,-0.4184726794684795,14656.683372665215,10.5,10500014656.683372,47.655,-122.3035,60.0,10.383333333333333
2026-01-20T23:10:24+00:00,SAT-55788,126.29093494123317,71.27270873290124,609.5694006325194,-0.3357870433946521,11760.682637465972,10.5,10500011760.682638,47.655,-122.3035,60.0,10.4
2026-01-20T23:10:25+00:00,SAT-55788,124.1433128547154,71.37878459320599,609.2345137878494,-0.2529649287274037,8859.901844621252,10.5,10500008859.901844,47.655,-122.3035,60.0,10.416666666666666
2026-01-20T23:10:26+00:00,SAT-55788,121.97263277949813,71.46003004253063,608.9822270231869,-0.17003987631833392,5955.515736631727,10.5,10500005955.515738,47.655,-122.3035,60.0,10.433333333333334
2026-01-20T23:10:27+00:00,SAT-55788,119.78485784553774,71.51603565160387,608.8126430003113,-0.08704563877401779,3048.7064725530445,10.5,10500003048.706472,47.655,-122.3035,60.0,10.45
2026-01-20T23:10:28+00:00,SAT-55788,117.58624410172642,71.54651600023696,608.7258307188824,-0.004016108590935787,140.66111097706724,10.5,10500000140.661112,47.655,-122.3035,60.0,10.466666666666667
2026-01-20T23:10:29+00:00,SAT-55788,115.38323695743291,71.55131564741392,608.7218253769246,0.0790147496570524,-2767.4307650496335,10.5,10499997232.569235,47.655,-122.3035,60.0,10.483333333333333
2026-01-20T23:10:30+00:00,SAT-55788,113.18235935639898,71.530412441386,608.8006282989418,0.16201296749041813,-5674.37943568744,10.5,10499994325.620564,47.655,-122.3035,60.0,10.5
2026-01-20T23:10:31+00:00,SAT-55788,110.99009665478277,71.48391800443387,608.9622069320241,0.24494464489090137,-8578.997578899947,10.5,10499991421.00242,47.655,-122.3035,60.0,10.516666666666667
2026-01-20T23:10:32+00:00,SAT-55788,108.81278307486426,71.41207536663052,609.2064949141244,0.3277760131209044,-11480.102470654869,10.5,10499988519.89753,47.655,-122.3035,60.0,10.533333333333333
2026-01-20T23:10:33+00:00,SAT-55788,106.65649477685872,71.3152538692759,609.5333922049872,0.41047351138501365,-14376.518669934796,10.5,10499985623.48133,47.655,-122.3035,60.0,10.55
2026-01-20T23:10:34+00:00,SAT-55788,104.52695381438389,71.19394158376392,609.9427652935335,0.4930038465390883,-17267.080110002054,10.5,10499982732.91989,47.655,-122.3035,60.0,10.566666666666666
2026-01-20T23:10:35+00:00,SAT-55788,102.42944661807054,71.04873561087646,610.4344474647947,0.5753340667022089,-20150.632676600533,10.5,10499979849.367323,47.655,-122.3035,60.0,10.583333333333334
2026-01-20T23:10:36+00:00,SAT-55788,100.36875939296064,70.8803306960367,611.0082391402601,0.6574316130174642,-23026.036020837368,10.5,10499976973.96398,47.655,-122.3035,60.0,10.6
2026-01-20T23:10:37+00:00,SAT-55788,98.34913180051655,70.68950665174506,611.6639082698485,0.7392643990808553,-25892.166341119162,10.5,10499974107.833658,47.655,-122.3035,60.0,10.616666666666667
2026-01-20T23:10:38+00:00,SAT-55788,96.37422898858433,70.47711507366515,612.4011908030939,0.820800860642394,-28747.918123894688,10.5,10499971252.081877,47.655,-122.3035,60.0,10.633333333333333
2026-01-20T23:10:39+00:00,SAT-55788,94.44713119160615,70.24406583195633,613.2197912098995,0.9020100130248999,-31592.20615470403,10.5,10499968407.793846,47.655,-122.3035,60.0,10.65
2026-01-20T23:10:40+00:00,SAT-55788,92.57033918077502,69.99131376075674,614.1193830585569,0.982861511993863,-34423.96765009866,10.5,10499965576.03235,47.655,-122.3035,60.0,10.666666666666666
2026-01-20T23:10:41+00:00,SAT-55788,90.74579329581896,69.71984590450914,615.0996096544719,1.0633257023903897,-37242.16396097293,10.5,10499962757.836039,47.655,-122.3035,60.0,10.683333333333334
2026-01-20T23:10:42+00:00,SAT-55788,88.97490349419705,69.43066960852512,616.1600847273932,1.1433736739386908,-40045.782527178366,10.5,10499959954.217472,47.655,-122.3035,60.0,10.7
2026-01-20T23:10:43+00:00,SAT-55788,87.25858770815299,69.12480165730128,617.3003931742976,1.2229772928906375,-42833.837985849845,10.5,10499957166.162014,47.655,-122.3035,60.0,10.716666666666667
2026-01-20T23:10:44+00:00,SAT-55788,85.59731593820159,68.80325859752698,618.5200918338367,1.3021092647261057,-45605.37436743692,10.5,10499954394.625633,47.655,-122.3035,60.0,10.733333333333333
2026-01-20T23:10:45+00:00,SAT-55788,83.99115765406721,68.46704830044708,619.8187103233151,1.3807431590754382,-48359.465968593846,10.5,10499951640.53403,47.655,-122.3035,60.0,10.75
2026-01-20T23:10:46+00:00,SAT-55788,82.43983049240072,68.11716278000834,621.1957519005239,1.4588534537563058,-51095.21889453674,10.5,10499948904.781105,47.655,-122.3035,60.0,10.766666666666667
2026-01-20T23:10:47+00:00,SAT-55788,80.94274851872653,67.75457222265196,622.6506943694922,1.536415550538685,-53811.77161119975,10.5,10499946188.22839,47.655,-122.3035,60.0,10.783333333333333
2026-01-20T23:10:48+00:00,SAT-55788,79.49906875268837,67.38022016352373,624.1829910019654,1.6134058451927893,-56508.29739860997,10.5,10499943491.7026,47.655,-122.3035,60.0,10.8
2026-01-20T23:10:49+00:00,SAT-55788,78.10773492743336,66.99501970049866,625.7920715287372,1.6898016867616061,-59184.00292443936,10.5,10499940815.997076,47.655,-122.3035,60.0,10.816666666666666
2026-01-20T23:10:50+00:00,SAT-55788,76.76751791985872,66.5998506646628,627.4773430903692,1.7655814797497902,-61838.13182309208,10.5,10499938161.868177,47.655,-122.3035,60.0,10.833333333333334
2026-01-20T23:10:51+00:00,SAT-55788,75.47705233897645,66.1955575983297,629.2381912898219,1.8407246097290553,-64469.962090090616,10.5,10499935530.03791,47.655,-122.3035,60.0,10.85
2026-01-20T23:10:52+00:00,SAT-55788,74.23486924065989,65.78294846854526,631.0739811708924,1.9152115420009126,-67078.80953766216,10.5,10499932921.190462,47.655,-122.3035,60.0,10.866666666666667
2026-01-20T23:10:53+00:00,SAT-55788,73.03942484084851,65.3627939659553,632.984058295048,1.989023789111896,-69664.02665698451,10.5,10499930335.973343,47.655,-122.3035,60.0,10.883333333333333
2026-01-20T23:10:54+00:00,SAT-55788,71.88912545273558,64.93582731780488,634.9677497858668,2.062143902456884,-72225.00232409876,10.5,10499927774.997677,47.655,-122.3035,60.0,10.9
2026-01-20T23:10:55+00:00,SAT-55788,70.78234883993845,64.50274451596972,637.0243653650971,2.134555527269748,-74761.16372591452,10.5,10499925238.836273,47.655,-122.3035,60.0,10.916666666666666
2026-01-20T23:10:56+00:00,SAT-55788,69.7174622297881,64.06420486420247,639.1531984435667,2.206243345403778,-77271.97435613831,10.5,10499922728.025644,47.655,-122.3035,60.0,10.933333333333334
2026-01-20T23:10:57+00:00,SAT-55788,68.692837351446,63.62083179636873,641.353527155023,2.27719313265392,-79756.93602294076,10.5,10499920243.063976,47.655,-122.3035,60.0,10.95
2026-01-20T23:10:58+00:00,SAT-55788,67.7068627596708,63.173213879508225,643.6246154471412,2.347391680669438,-82215.58611400792,10.5,10499917784.413885,47.655,-122.3035,60.0,10.966666666666667
2026-01-20T23:10:59+00:00,SAT-55788,66.75795381969235,62.72190597662952,645.9657140946546,2.416826859393421,-84647.49978343658,10.5,10499915352.500217,47.655,-122.3035,60.0,10.983333333333333
2026-01-20T23:11:00+00:00,SAT-55788,65.8445605949462,62.26743049684177,648.37606177476,2.485487550883415,-87052.28763385321,10.5,10499912947.712366,47.655,-122.3035,60.0,11.0
2026-01-20T23:11:01+00:00,SAT-55788,64.96517397242712,61.8102787219008,650.854886076517,2.553363679904096,-89429.59678789854,10.5,10499910570.403212,47.655,-122.3035,60.0,11.016666666666667
2026-01-20T23:11:02+00:00,SAT-55788,64.11833024761745,61.3509121607275,653.4014045407594,2.620446162686774,-91779.10909356875,10.5,10499908220.890907,47.655,-122.3035,60.0,11.033333333333333
2026-01-20T23:11:03+00:00,SAT-55788,63.30261443095978,60.88976392354517,656.0148256489055,2.686726900092313,-94100.54088475196,10.5,10499905899.459116,47.655,-122.3035,60.0,11.05
2026-01-20T23:11:04+00:00,SAT-55788,62.5166624688143,60.4272400882762,658.6943498049469,2.7521987650390414,-96393.64254090053,10.5,10499903606.35746,47.655,-122.3035,60.0,11.066666666666666
2026-01-20T23:11:05+00:00,SAT-55788,61.759162563436256,59.963721045825174,661.4391703049001,2.8168555774082624,-98658.19760811579,10.5,10499901341.802391,47.655,-122.3035,60.0,11.083333333333334
2026-01-20T23:11:06+00:00,SAT-55788,61.028855756542306,59.49956281534852,664.2484742812316,2.880692056820341,-100894.02114516699,10.5,10499899105.978855,47.655,-122.3035,60.0,11.1
2026-01-20T23:11:07+00:00,SAT-55788,60.3245359178344,59.03509832472268,667.121443600183,2.9437038480307045,-103100.96061296645,10.5,10499896899.039387,47.655,-122.3035,60.0,11.116666666666667
2026-01-20T23:11:08+00:00,SAT-55788,59.64504924041964,58.57063863840981,670.0572557844283,3.0058874434411895,-105278.89316058942,10.5,10499894721.10684,47.655,-122.3035,60.0,11.133333333333333
2026-01-20T23:11:09+00:00,SAT-55788,58.98929336687686,58.10647414570443,673.0550848584461,3.0672401820191872,-107427.72558741776,10.5,10499892572.274412,47.655,-122.3035,60.0,11.15
2026-01-20T23:11:10+00:00,SAT-55788,58.35621621397793,57.64287569426094,676.1141021928164,3.1277602143946353,-109547.39312068907,10.5,10499890452.60688,47.655,-122.3035,60.0,11.166666666666666
2026-01-20T23:11:11+00:00,SAT-55788,57.7448145739303,57.180095673268596,679.233477313707,3.1874464716903885,-111637.8583238044,10.5,10499888362.141676,47.655,-122.3035,60.0,11.183333333333334
2026-01-20T23:11:12+00:00,SAT-55788,57.154132551352085,56.71836904528875,682.4123786812746,3.2462986522876713,-113699.11063279833,10.5,10499886300.889368,47.655,-122.3035,60.0,11.2
2026-01-20T23:11:13+00:00,SAT-55788,56.58325988170875,56.25791432464891,685.6499744548646,3.3043171461977643,-115731.1637075157,10.5,10499884268.836292,47.655,-122.3035,60.0,11.216666666666667
2026-01-20T23:11:14+00:00,SAT-55788,56.031330181809054,55.79893451228385,688.945433182789,3.361503075371202,-117734.05684341007,10.5,10499882265.943157,47.655,-122.3035,60.0,11.233333333333333
2026-01-20T23:11:15+00:00,SAT-55788,55.49751914651592,55.34161797191102,692.2979245323025,3.4178581920613156,-119707.85141180507,10.5,10499880292.148588,47.655,-122.3035,60.0,11.25
2026-01-20T23:11:16+00:00,SAT-55788,54.98104274104505,54.88613926932024,695.7066199182154,3.473384896027853,-121652.6314624381,10.5,10499878347.368538,47.655,-122.3035,60.0,11.266666666666667
2026-01-20T23:11:17+00:00,SAT-55788,54.481155391008976,54.43265995993323,699.1706931486639,3.528086172096081,-123568.5015365158,10.5,10499876431.498463,47.655,-122.3035,60.0,11.283333333333333
2026-01-20T23:11:18+00:00,SAT-55788,53.99714819942405,53.981329337615016,702.6893210086087,3.5819655918118043,-125455.58672467986,10.5,10499874544.413275,47.655,-122.3035,60.0,11.3
2026-01-20T23:11:19+00:00,SAT-55788,53.52834719439585,53.53228513825703,706.26168384498,3.635027250616891,-127314.03046662819,10.5,10499872685.969534,47.655,-122.3035,60.0,11.316666666666666
2026-01-20T23:11:20+00:00,SAT-55788,53.07411162641403,53.085654208633635,709.8869660891714,3.6872757707794053,-129143.99465374062,10.5,10499870856.005346,47.655,-122.3035,60.0,11.333333333333334
2026-01-20T23:11:21+00:00,SAT-55788,52.63383231381003,52.64155313418745,713.5643567824537,3.7387162253569546,-130945.6569659535,10.5,10499869054.343035,47.655,-122.3035,60.0,11.35
2026-01-20T23:11:22+00:00,SAT-55788,52.206930051506895,52.20008883755151,717.293050025553,3.789354152206396,-132719.21136243912,10.5,10499867280.788637,47.655,-122.3035,60.0,11.366666666666667
2026-01-20T23:11:23+00:00,SAT-55788,51.79285407579998,51.761359138704314,721.0722454422086,3.8391955309449584,-134464.8672746866,10.5,10499865535.132725,47.655,-122.3035,60.0,11.383333333333333
2026-01-20T23:11:24+00:00,SAT-55788,51.391080592718524,51.3254532835289,724.9011486197439,3.8882466871590853,-136182.8462514904,10.5,10499863817.153748,47.655,-122.3035,60.0,11.4
2026-01-20T23:11:25+00:00,SAT-55788,51.00111137698535,50.8924524506806,728.7789714541127,3.9365143670455236,-137873.38457319696,10.5,10499862126.615427,47.655,-122.3035,60.0,11.416666666666666
2026-01-20T23:11:26+00:00,SAT-55788,50.62247242634022,50.4624302190663,732.7049325693791,3.984005600840094,-139536.72846840258,10.5,10499860463.271532,47.655,-122.3035,60.0,11.433333333333334
2026-01-20T23:11:27+00:00,SAT-55788,50.25471268942401,50.03545302151256,736.678257600996,4.030727787587218,-141173.13708294087,10.5,10499858826.862917,47.655,-122.3035,60.0,11.45
2026-01-20T23:11:28+00:00,SAT-55788,49.89740284723323,49.61158056155805,740.6981795636252,4.076688559632277,-142782.87773383182,10.5,10499857217.122267,47.655,-122.3035,60.0,11.466666666666667
2026-01-20T23:11:29+00:00,SAT-55788,49.550134165223625,49.19086621894696,744.7639390838121,4.121895865695333,-144366.22881887507,10.5,10499855633.771181,47.655,-122.3035,60.0,11.483333333333333
2026-01-20T23:11:30+00:00,SAT-55788,49.212517396105994,48.773357421771976,748.874784715513,4.166357857261648,-145923.4758375653,10.5,10499854076.524162,47.655,-122.3035,60.0,11.5
2026-01-20T23:11:31+00:00,SAT-55788,48.884181747489365,48.359096007418614,753.0299731423169,4.210082925193083,-147454.91267337807,10.5,10499852545.087326,47.655,-122.3035,60.0,11.516666666666667
2026-01-20T23:11:32+00:00,SAT-55788,48.56477390005029,47.94811855785913,757.2287694161787,4.253079635908514,-148960.8393585385,10.5,10499851039.16064,47.655,-122.3035,60.0,11.533333333333333
2026-01-20T23:11:33+00:00,SAT-55788,48.253957081932164,47.54045672076371,761.4704471325085,4.295356767971352,-150441.56335547043,10.5,10499849558.436644,47.655,-122.3035,60.0,11.55
2026-01-20T23:11:34+00:00,SAT-55788,47.9514101896685,47.13613750767396,765.7542886417441,4.336923220178619,-151897.3963376874,10.5,10499848102.603662,47.655,-122.3035,60.0,11.566666666666666
2026-01-20T23:11:35+00:00,SAT-55788,47.65682696243122,46.735183582736475,770.0795851692646,4.377788045961842,-153328.65539465751,10.5,10499846671.344604,47.655,-122.3035,60.0,11.583333333333334
2026-01-20T23:11:36+00:00,SAT-55788,47.36991519830447,46.33761353076891,774.4456369696098,4.417960419233032,-154735.66183558508,10.5,10499845264.338165,47.655,-122.3035,60.0,11.6
2026-01-20T23:11:37+00:00,SAT-55788,47.09039601568678,45.94344211228536,778.8517534466375,4.457449602776848,-156118.74008237026,10.5,10499843881.259918,47.655,-122.3035,60.0,11.616666666666667
2026-01-20T23:11:38+00:00,SAT-55788,46.81800315626494,45.552680505929274,783.2972532421576,4.496264953520193,-157478.21785417304,10.5,10499842521.782146,47.655,-122.3035,60.0,11.633333333333333
2026-01-20T23:11:39+00:00,SAT-55788,46.5524823263744,45.165336535859495,787.7814643298218,4.534415900761737,-158814.42540491876,10.5,10499841185.574594,47.655,-122.3035,60.0,11.65
2026-01-20T23:11:40+00:00,SAT-55788,46.29359057527247,44.78141488735746,792.3037240873028,4.5719119375597534,-160127.6952216637,10.5,10499839872.30478,47.655,-122.3035,60.0,11.666666666666666
2026-01-20T23:11:41+00:00,SAT-55788,46.0410957084736,44.40091731023755,796.863379359882,4.6087625577607625,-161418.35981907192,10.5,10499838581.64018,47.655,-122.3035,60.0,11.683333333333334
2026-01-20T23:11:42+00:00,SAT-55788,45.7947757361935,44.02384281522067,801.4597864612344,4.644977346614099,-162686.75491312073,10.5,10499837313.245087,47.655,-122.3035,60.0,11.7
2026-01-20T23:11:43+00:00,SAT-55788,45.554418348038595,43.650187851204144,806.0923112645891,4.680565820036872,-163933.21379147953,10.5,10499836066.78621,47.655,-122.3035,60.0,11.716666666666667
2026-01-20T23:11:44+00:00,SAT-55788,45.319820423915864,43.27994648474036,810.7603291335805,4.715537598653944,-165158.07340912631,10.5,10499834841.92659,47.655,-122.3035,60.0,11.733333333333333
2026-01-20T23:11:45+00:00,SAT-55788,45.09078756427857,42.91311055510253,815.4632250266767,4.749902209689806,-166361.6674497627,10.5,10499833638.33255,47.655,-122.3035,60.0,11.75
2026-01-20T23:11:46+00:00,SAT-55788,44.86713365456688,42.549669835419614,820.2003934040288,4.7836692036017014,-167544.3304107999,10.5,10499832455.66959,47.655,-122.3035,60.0,11.766666666666667
2026-01-20T23:11:47+00:00,SAT-55788,44.648680448813636,42.18961217522373,824.9712382506419,4.816848094717408,-168706.39552424228,10.5,10499831293.604475,47.655,-122.3035,60.0,11.783333333333333
2026-01-20T23:11:48+00:00,SAT-55788,44.435257178371984,41.83292363894478,829.7751730403425,4.849448365174827,-169848.19489466836,10.5,10499830151.805105,47.655,-122.3035,60.0,11.8
2026-01-20T23:11:49+00:00,SAT-55788,44.22670018194445,41.479588635815944,834.611620703674,4.881479439151679,-170970.0585966463,10.5,10499829029.941402,47.655,-122.3035,60.0,11.816666666666666
2026-01-20T23:11:50+00:00,SAT-55788,44.02285255664554,41.12959004384133,839.4800135700937,4.912950696572955,-172072.31515482633,10.5,10499827927.684845,47.655,-122.3035,60.0,11.833333333333334
2026-01-20T23:11:51+00:00,SAT-55788,43.823563827598726,40.78290932534249,844.379793323836,4.943871465645937,-173155.29128248562,10.5,10499826844.708717,47.655,-122.3035,60.0,11.85
2026-01-20T23:11:52+00:00,SAT-55788,43.62868963564471,40.43952663610558,849.310410952337,4.974250990966984,-174219.31076449336,10.5,10499825780.689236,47.655,-122.3035,60.0,11.866666666666667
2026-01-20T23:11:53+00:00,SAT-55788,43.43809144303731,40.09942093014692,854.2713266628438,5.00409847411,-175264.6958788903,10.5,10499824735.304121,47.655,-122.3035,60.0,11.883333333333333
2026-01-20T23:11:54+00:00,SAT-55788,43.251636253556164,39.76257005542961,859.2620098395103,5.033422973727838,-176291.76389801738,10.5,10499823708.236101,47.655,-122.3035,60.0,11.9
2026-01-20T23:11:55+00:00,SAT-55788,43.06919635090764,39.428950850432464,864.2819389008577,5.062233550718661,-177300.83217285585,10.5,10499822699.167828,47.655,-122.3035,60.0,11.916666666666666
2026-01-20T23:11:56+00:00,SAT-55788,42.89064904635531,39.09853922535167,869.330601302015,5.090539108727148,-178292.21254670474,10.5,10499821707.787453,47.655,-122.3035,60.0,11.933333333333334
2026-01-20T23:11:57+00:00,SAT-55788,42.71587644485574,38.77131024872353,874.4074933778861,5.1183485062335015,-179266.21528101206,10.5,10499820733.78472,47.655,-122.3035,60.0,11.95
2026-01-20T23:11:58+00:00,SAT-55788,42.544765220008756,38.44723822160974,879.5121202981065,5.145670457202074,-180223.14557566948,10.5,10499819776.854424,47.655,-122.3035,60.0,11.966666666666667
2026-01-20T23:11:59+00:00,SAT-55788,42.37720640388428,38.12629675349905,884.6439959229152,5.172513623574704,-181163.30680852014,10.5,10499818836.693192,47.655,-122.3035,60.0,11.983333333333333
2026-01-20T23:12:00+00:00,SAT-55788,42.21309518509284,37.80845882784328,889.8026427512717,5.198886520199432,-182086.99720556024,10.5,10499817913.002794,47.655,-122.3035,60.0,12.0
2026-01-20T23:12:01+00:00,SAT-55788,42.05233072014805,37.49369686936587,894.987591774157,5.2247976091701975,-182994.51314511415,10.5,10499817005.486855,47.655,-122.3035,60.0,12.016666666666667
2026-01-20T23:12:02+00:00,SAT-55788,41.89481595195758,37.1819828015715,900.1983824219591,5.250255172712819,-183886.14470576376,10.5,10499816113.855295,47.655,-122.3035,60.0,12.033333333333333
2026-01-20T23:12:03+00:00,SAT-55788,41.74045744110451,36.873288108193016,905.434562385089,5.275267467947692,-184762.1810867929,10.5,10499815237.818913,47.655,-122.3035,60.0,12.05
2026-01-20T23:12:04+00:00,SAT-55788,41.58916520176413,36.56758388182315,910.695687588942,5.299842563218122,-185622.90487571328,10.5,10499814377.095125,47.655,-122.3035,60.0,12.066666666666666
2026-01-20T23:12:05+00:00,SAT-55788,41.44085255017816,36.26484087890611,915.9813220056263,5.323988457453739,-186468.59622887598,10.5,10499813531.40377,47.655,-122.3035,60.0,12.083333333333334
2026-01-20T23:12:06+00:00,SAT-55788,41.29543595774304,35.965029564509784,921.291037584736,5.347713008114855,-187299.53034777805,10.5,10499812700.469652,47.655,-122.3035,60.0,12.1
2026-01-20T23:12:07+00:00,SAT-55788,41.1528349134954,35.66812015830033,926.6244141122608,5.371023978137857,-188115.97912328903,10.5,10499811884.020876,47.655,-122.3035,60.0,12.116666666666667
2026-01-20T23:12:08+00:00,SAT-55788,41.012971792138096,35.37408267502169,931.9810391163145,5.393929023697529,-188918.21070703538,10.5,10499811081.789293,47.655,-122.3035,60.0,12.133333333333333
2026-01-20T23:12:09+00:00,SAT-55788,40.87577172921694,35.082886963068646,937.3605077606612,5.416435622402214,-189706.48699649159,10.5,10499810293.513004,47.655,-122.3035,60.0,12.15
2026-01-20T23:12:10+00:00,SAT-55788,40.7411625038862,34.79450274438947,942.7624226666281,5.438551213154996,-190481.06853351012,10.5,10499809518.931467,47.655,-122.3035,60.0,12.166666666666666
2026-01-20T23:12:11+00:00,SAT-55788,40.60907442459425,34.508899644459504,948.1863938745007,5.460283045905901,-191242.2092420082,10.5,10499808757.790758,47.655,-122.3035,60.0,12.183333333333334
2026-01-20T23:12:12+00:00,SAT-55788,40.479440223425,34.22604722809546,953.6320386550794,5.48163833253116,-191990.16171239765,10.5,10499808009.838287,47.655,-122.3035,60.0,12.2
2026-01-20T23:12:13+00:00,SAT-55788,40.35219495267846,33.94591502520557,959.0989814717071,5.502624072076385,-192725.17108086168,10.5,10499807274.828918,47.655,-122.3035,60.0,12.216666666666667
2026-01-20T23:12:14+00:00,SAT-55788,40.227275889836996,33.66847256364,964.5868537680085,5.523247216361243,-193447.48082953124,10.5,10499806552.51917,47.655,-122.3035,60.0,12.233333333333333
2026-01-20T23:12:15+00:00,SAT-55788,40.10462244396852,33.393689391601114,970.0952939207907,5.543514566422316,-194157.32915947578,10.5,10499805842.670841,47.655,-122.3035,60.0,12.25
2026-01-20T23:12:16+00:00,SAT-55788,39.98417606860243,33.12153510362977,975.6239470896655,5.563432839491127,-194854.9513365571,10.5,10499805145.048664,47.655,-122.3035,60.0,12.266666666666667
2026-01-20T23:12:17+00:00,SAT-55788,39.865880177533484,32.851979361578195,981.1724651334678,5.583008568966961,-195540.57618805437,10.5,10499804459.423813,47.655,-122.3035,60.0,12.283333333333333
2026-01-20T23:12:18+00:00,SAT-55788,39.74968006639404,32.58499191889872,986.7405064269161,5.602248244431283,-196214.43100656144,10.5,10499803785.568993,47.655,-122.3035,60.0,12.3
2026-01-20T23:12:19+00:00,SAT-55788,39.63552283552311,32.32054263664728,992.3277358169147,5.621158216324386,-196876.73821135974,10.5,10499803123.26179,47.655,-122.3035,60.0,12.316666666666666
2026-01-20T23:12:20+00:00,SAT-55788,39.52335731807809,32.05860150278607,997.9338244837807,5.639744712029663,-197527.7159117574,10.5,10499802472.284088,47.655,-122.3035,60.0,12.333333333333334
2026-01-20T23:12:21+00:00,SAT-55788,39.413134011329014,31.799138649357182,1003.5584498185221,5.6580138250697365,-198167.57752869232,10.5,10499801832.422472,47.655,-122.3035,60.0,12.35
2026-01-20T23:12:22+00:00,SAT-55788,39.30480501111423,31.542124368897156,1009.2012952893327,5.675971586822499,-198796.53430653093,10.5,10499801203.465693,47.655,-122.3035,60.0,12.366666666666667
2026-01-20T23:12:23+00:00,SAT-55788,39.19832394844068,31.287529126431973,1014.8620503796152,5.693623902080874,-199414.79305609874,10.5,10499800585.206944,47.655,-122.3035,60.0,12.383333333333333
2026-01-20T23:12:24+00:00,SAT-55788,39.093645929781495,31.035323573401993,1020.5404104617345,5.710976527623863,-200022.5554041475,10.5,10499799977.444595,47.655,-122.3035,60.0,12.4
2026-01-20T23:12:25+00:00,SAT-55788,38.99072748061827,30.78547856145583,1026.2360766494025,5.728035160114421,-200620.0208719107,10.5,10499799379.979128,47.655,-122.3035,60.0,12.416666666666666
2026-01-20T23:12:26+00:00,SAT-55788,38.88952649008024,30.537965151389297,1031.9487557377213,5.7448053600532605,-201207.3842116443,10.5,10499798792.615788,47.655,-122.3035,60.0,12.433333333333334
2026-01-20T23:12:27+00:00,SAT-55788,38.790002159323954,30.292754624581768,1037.6781600673874,5.761292611218334,-201784.83748844845,10.5,10499798215.162512,47.655,-122.3035,60.0,12.45
2026-01-20T23:12:28+00:00,SAT-55788,38.692114951279315,30.049818491012,1043.4240074481736,5.777502239390327,-202352.56723369085,10.5,10499797647.432766,47.655,-122.3035,60.0,12.466666666666667
