DopplerPredictor/satellites_20260205_234138/SAT-60077.csv

timestamp,satellite,azimuth_deg,elevation_deg,distance_km,relative_velocity_kms,doppler_shift_hz,tx_freq_ghz,rx_freq_hz,ue_lat,ue_lon,ue_alt_m,time_minutes
2026-01-20T23:00:01+00:00,SAT-60077,302.54187073487407,30.24157691110885,873.1259214805268,-5.865822530726622,205445.9174307498,10.5,10500205445.91743,47.655,-122.3035,60.0,0.016666666666666666
2026-01-20T23:00:02+00:00,SAT-60077,302.60262854397877,30.527821307840338,867.2758244105214,-5.847900189148852,204818.2012172666,10.5,10500204818.201218,47.655,-122.3035,60.0,0.03333333333333333
2026-01-20T23:00:03+00:00,SAT-60077,302.66451240472253,30.81750450598489,861.4436016347697,-5.829604362291107,204177.4039694375,10.5,10500204177.403969,47.655,-122.3035,60.0,0.05
2026-01-20T23:00:04+00:00,SAT-60077,302.72755576921224,31.110684847771093,855.6296256372882,-5.8109260247725425,203523.209580248,10.5,10500203523.20958,47.655,-122.3035,60.0,0.06666666666666667
2026-01-20T23:00:05+00:00,SAT-60077,302.79179342118664,31.40742161775451,849.8342779032804,-5.7918559730923365,202855.29570416856,10.5,10500202855.295704,47.655,-122.3035,60.0,0.08333333333333333
2026-01-20T23:00:06+00:00,SAT-60077,302.85726154322725,31.70777504656765,844.0579490967758,-5.772384769076013,202173.3317764056,10.5,10500202173.331776,47.655,-122.3035,60.0,0.1
2026-01-20T23:00:07+00:00,SAT-60077,302.92399778749694,32.011806310791485,838.3010392946763,-5.752502714269427,201476.9781160705,10.5,10500201476.978117,47.655,-122.3035,60.0,0.11666666666666667
2026-01-20T23:00:08+00:00,SAT-60077,302.9920413504335,32.31957753020162,832.5639582463386,-5.732199886016517,200765.88718977524,10.5,10500200765.88719,47.655,-122.3035,60.0,0.13333333333333333
2026-01-20T23:00:09+00:00,SAT-60077,303.06143305263777,32.63115176551079,826.847125597173,-5.711466141328514,200039.7037471483,10.5,10500200039.703747,47.655,-122.3035,60.0,0.15
2026-01-20T23:00:10+00:00,SAT-60077,303.13221542381655,32.946593014907045,821.1509711083872,-5.690291021691838,199298.06148680463,10.5,10500199298.061487,47.655,-122.3035,60.0,0.16666666666666666
2026-01-20T23:00:11+00:00,SAT-60077,303.2044327918311,33.26596620368623,815.4759349716643,-5.66866388851031,198540.5878001049,10.5,10500198540.587801,47.655,-122.3035,60.0,0.18333333333333332
2026-01-20T23:00:12+00:00,SAT-60077,303.27813137934686,33.5893371795003,809.8224679887633,-5.646573822854116,197766.9002599399,10.5,10500197766.900259,47.655,-122.3035,60.0,0.2
2026-01-20T23:00:13+00:00,SAT-60077,303.35335940536,33.91677270016206,804.1910318511011,-5.624009625896481,196976.60663602504,10.5,10500196976.606636,47.655,-122.3035,60.0,0.21666666666666667
2026-01-20T23:00:14+00:00,SAT-60077,303.4301671933036,34.248340419173175,798.5820994188983,-5.600959854636193,196169.30614605398,10.5,10500196169.306147,47.655,-122.3035,60.0,0.23333333333333334
2026-01-20T23:00:15+00:00,SAT-60077,303.50860728689224,34.584108870931075,792.9961549646999,-5.5774127979623485,195344.58861738496,10.5,10500195344.588617,47.655,-122.3035,60.0,0.25
2026-01-20T23:00:16+00:00,SAT-60077,303.58873457328144,34.92414745199348,787.4336944407659,-5.553356460696001,194502.03392811175,10.5,10500194502.033928,47.655,-122.3035,60.0,0.26666666666666666
2026-01-20T23:00:17+00:00,SAT-60077,303.6706064143288,35.26852639853584,781.8952257623777,-5.528778582651207,193641.21267466198,10.5,10500193641.212675,47.655,-122.3035,60.0,0.2833333333333333
2026-01-20T23:00:18+00:00,SAT-60077,303.7542827870204,35.61731676187005,776.3812690721352,-5.5036666328845,192761.68597038972,10.5,10500192761.68597,47.655,-122.3035,60.0,0.3
2026-01-20T23:00:19+00:00,SAT-60077,303.83982643354744,35.97059038032601,770.8923570099873,-5.478007805751633,191863.00530746556,10.5,10500191863.005308,47.655,-122.3035,60.0,0.31666666666666665
2026-01-20T23:00:20+00:00,SAT-60077,303.92730302168616,36.32841984730837,765.4290349871982,-5.451788997056429,190944.7117215087,10.5,10500190944.711721,47.655,-122.3035,60.0,0.3333333333333333
2026-01-20T23:00:21+00:00,SAT-60077,304.01678131605627,36.690878473871166,759.9918614840956,-5.424996819715903,190006.3363402457,10.5,10500190006.33634,47.655,-122.3035,60.0,0.35
2026-01-20T23:00:22+00:00,SAT-60077,304.10833336171817,37.058040248011395,754.581408332204,-5.39761763272586,189047.40139800825,10.5,10500189047.401398,47.655,-122.3035,60.0,0.36666666666666664
2026-01-20T23:00:23+00:00,SAT-60077,304.2020346816274,37.42997979139274,749.1982609674801,-5.369637473527138,188067.41786691296,10.5,10500188067.417868,47.655,-122.3035,60.0,0.38333333333333336
2026-01-20T23:00:24+00:00,SAT-60077,304.2979644869502,37.80677230655251,743.8430187510095,-5.341042128735062,187065.8879341059,10.5,10500187065.887934,47.655,-122.3035,60.0,0.4
2026-01-20T23:00:25+00:00,SAT-60077,304.39620590427506,38.18849352359378,738.5162952191579,-5.31181708795421,186042.30338416054,10.5,10500186042.303385,47.655,-122.3035,60.0,0.4166666666666667
2026-01-20T23:00:26+00:00,SAT-60077,304.49684621867834,38.57521963797751,733.2187183797856,-5.281947546464349,184996.14569315038,10.5,10500184996.145693,47.655,-122.3035,60.0,0.43333333333333335
2026-01-20T23:00:27+00:00,SAT-60077,304.59997713507084,38.9670272422082,727.9509310057845,-5.251418451285105,183926.88764202868,10.5,10500183926.887642,47.655,-122.3035,60.0,0.45
2026-01-20T23:00:28+00:00,SAT-60077,304.7056950602979,39.36399325424391,722.7135908826715,-5.220214442108745,182833.9912478446,10.5,10500182833.991247,47.655,-122.3035,60.0,0.4666666666666667
2026-01-20T23:00:29+00:00,SAT-60077,304.8141014055899,39.76619483439019,717.5073711150926,-5.18831989944257,181716.90944989346,10.5,10500181716.90945,47.655,-122.3035,60.0,0.48333333333333334
2026-01-20T23:00:30+00:00,SAT-60077,304.92530291349453,40.17370929801011,712.3329603853123,-5.155718949746254,180575.086289648,10.5,10500180575.08629,47.655,-122.3035,60.0,0.5
2026-01-20T23:00:31+00:00,SAT-60077,305.03941201064316,40.58661402045823,707.1910632065809,-5.122395430429479,179407.95568482755,10.5,10500179407.955685,47.655,-122.3035,60.0,0.5166666666666667
2026-01-20T23:00:32+00:00,SAT-60077,305.1565471875587,41.004986330332684,702.08240021141,-5.088332938332031,178214.9431273762,10.5,10500178214.943127,47.655,-122.3035,60.0,0.5333333333333333
2026-01-20T23:00:33+00:00,SAT-60077,305.276833410272,41.428903396961566,697.0077083914956,-5.05351483617286,176995.46590933597,10.5,10500176995.46591,47.655,-122.3035,60.0,0.55
2026-01-20T23:00:34+00:00,SAT-60077,305.4004025655298,41.85844210829847,691.9677413312135,-5.0179242191605455,175748.931953404,10.5,10500175748.931953,47.655,-122.3035,60.0,0.5666666666666667
2026-01-20T23:00:35+00:00,SAT-60077,305.52739394171664,42.29367893499518,686.9632694744109,-4.981543991600697,174474.74249604813,10.5,10500174474.742496,47.655,-122.3035,60.0,0.5833333333333334
2026-01-20T23:00:36+00:00,SAT-60077,305.65795475209165,42.73468978917968,681.9950803147987,-4.944356808637446,173172.2900470471,10.5,10500173172.290047,47.655,-122.3035,60.0,0.6
2026-01-20T23:00:37+00:00,SAT-60077,305.79224070033683,43.1815498656253,677.0639786444438,-4.906345160370301,171840.96133561892,10.5,10500171840.961336,47.655,-122.3035,60.0,0.6166666666666667
2026-01-20T23:00:38+00:00,SAT-60077,305.9304165971308,43.63433347678828,672.1707867183729,-4.867491318603512,170480.13544535826,10.5,10500170480.135445,47.655,-122.3035,60.0,0.6333333333333333
2026-01-20T23:00:39+00:00,SAT-60077,306.0726570283702,44.0931138686346,667.3163444722808,-4.827777430356356,169089.18708936215,10.5,10500169089.18709,47.655,-122.3035,60.0,0.65
2026-01-20T23:00:40+00:00,SAT-60077,306.21914708512315,44.557963029580755,662.5015096469817,-4.787185428973204,167667.48349692853,10.5,10500167667.483498,47.655,-122.3035,60.0,0.6666666666666666
2026-01-20T23:00:41+00:00,SAT-60077,306.37008315543403,45.02895147443211,657.727158001512,-4.745697196923212,166214.39011549024,10.5,10500166214.390116,47.655,-122.3035,60.0,0.6833333333333333
2026-01-20T23:00:42+00:00,SAT-60077,306.52567379328315,45.50614802616434,652.9941833638676,-4.703294487570438,164729.2678706734,10.5,10500164729.26787,47.655,-122.3035,60.0,0.7
2026-01-20T23:00:43+00:00,SAT-60077,306.6861406641112,45.989619571419844,648.3034977597637,-4.659958938984204,163211.4736499947,10.5,10500163211.47365,47.655,-122.3035,60.0,0.7166666666666667
2026-01-20T23:00:44+00:00,SAT-60077,306.85171957856414,46.47943079665162,643.6560315276207,-4.615672188391583,161660.36431147184,10.5,10500161660.364311,47.655,-122.3035,60.0,0.7333333333333333
2026-01-20T23:00:45+00:00,SAT-60077,307.02266162774845,46.975643914199466,639.0527333194032,-4.57041585104626,160075.29594352146,10.5,10500160075.295944,47.655,-122.3035,60.0,0.75
2026-01-20T23:00:46+00:00,SAT-60077,307.1992344261868,47.47831836318306,634.4945701225362,-4.524171522013775,158455.62392748598,10.5,10500158455.623928,47.655,-122.3035,60.0,0.7666666666666667
2026-01-20T23:00:47+00:00,SAT-60077,307.3817234749461,47.98751048532526,629.9825272800374,-4.476920886647202,156800.70680695915,10.5,10500156800.706806,47.655,-122.3035,60.0,0.7833333333333333
2026-01-20T23:00:48+00:00,SAT-60077,307.5704336636134,48.503273186031095,625.517608400472,-4.428645696920236,155109.90545887072,10.5,10500155109.905458,47.655,-122.3035,60.0,0.8
2026-01-20T23:00:49+00:00,SAT-60077,307.7656909210263,49.02565556419931,621.1008352915122,-4.379327854608413,153382.58600684456,10.5,10500153382.586006,47.655,-122.3035,60.0,0.8166666666666667
2026-01-20T23:00:50+00:00,SAT-60077,307.96784403707625,49.554702520586545,616.7332478105346,-4.328949414737894,151618.11994198963,10.5,10500151618.119942,47.655,-122.3035,60.0,0.8333333333333334
2026-01-20T23:00:51+00:00,SAT-60077,308.1772666720402,50.09045433329368,612.4159037117827,-4.277492678016788,149815.88736023597,10.5,10500149815.88736,47.655,-122.3035,60.0,0.85
2026-01-20T23:00:52+00:00,SAT-60077,308.39435958063183,50.63294620847723,608.1498784013417,-4.22494018234623,147975.27666501672,10.5,10500147975.276665,47.655,-122.3035,60.0,0.8666666666666667
2026-01-20T23:00:53+00:00,SAT-60077,308.6195530714423,51.182207791236664,603.9362647005827,-4.171274851406435,146095.68977138028,10.5,10500146095.689772,47.655,-122.3035,60.0,0.8833333333333333
2026-01-20T23:00:54+00:00,SAT-60077,308.85330974023543,51.73826265352245,599.7761724614168,-4.116479949428949,144176.54052192322,10.5,10500144176.540522,47.655,-122.3035,60.0,0.9
2026-01-20T23:00:55+00:00,SAT-60077,309.0961275000516,52.30112773108252,595.670728226658,-4.060539172856125,142217.25789709264,10.5,10500142217.257896,47.655,-122.3035,60.0,0.9166666666666666
2026-01-20T23:00:56+00:00,SAT-60077,309.3485429543309,52.87081272270247,591.6210747989699,-4.003436794829391,140217.29107577685,10.5,10500140217.291077,47.655,-122.3035,60.0,0.9333333333333333
2026-01-20T23:00:57+00:00,SAT-60077,309.61113516174584,53.44731945593004,587.6283706657132,-3.9451575847697016,138176.1066186724,10.5,10500138176.106619,47.655,-122.3035,60.0,0.95
2026-01-20T23:00:58+00:00,SAT-60077,309.8845298290638,54.03064118297456,583.6937895039965,-3.885686994194754,136093.194976389,10.5,10500136093.194977,47.655,-122.3035,60.0,0.9666666666666667
2026-01-20T23:00:59+00:00,SAT-60077,310.16940400792726,54.620761838343505,579.8185195004082,-3.8250112091092037,133968.0723243766,10.5,10500133968.072325,47.655,-122.3035,60.0,0.9833333333333333
2026-01-20T23:01:00+00:00,SAT-60077,310.4664913557267,55.21765523408324,576.0037626184991,-3.763117165318857,131800.28109929303,10.5,10500131800.2811,47.655,-122.3035,60.0,1.0
2026-01-20T23:01:01+00:00,SAT-60077,310.77658803431206,55.82128417893062,572.2507338509903,-3.699992708130402,129589.39559236416,10.5,10500129589.395592,47.655,-122.3035,60.0,1.0166666666666666
2026-01-20T23:01:02+00:00,SAT-60077,311.1005593495518,56.431599535371205,568.5606603127114,-3.635626628283695,127335.02320788469,10.5,10500127335.023209,47.655,-122.3035,60.0,1.0333333333333334
2026-01-20T23:01:03+00:00,SAT-60077,311.439347226172,57.048539186266275,564.9347802977016,-3.5700087214550194,125036.8065472738,10.5,10500125036.806547,47.655,-122.3035,60.0,1.05
2026-01-20T23:01:04+00:00,SAT-60077,311.79397864113076,57.6720269025691,561.3743422769676,-3.503129956270857,122694.4292936282,10.5,10500122694.429293,47.655,-122.3035,60.0,1.0666666666666667
2026-01-20T23:01:05+00:00,SAT-60077,312.1655751679457,58.301971117862735,557.8806037286776,-3.4349825057581764,120307.61731324425,10.5,10500120307.617313,47.655,-122.3035,60.0,1.0833333333333333
2026-01-20T23:01:06+00:00,SAT-60077,312.5553637839896,58.93826357156375,554.4548299369898,-3.3655597920270552,117876.14022059247,10.5,10500117876.14022,47.655,-122.3035,60.0,1.1
2026-01-20T23:01:07+00:00,SAT-60077,312.9646891315265,59.58077780302555,551.0982927463178,-3.294856703217373,115399.81897670827,10.5,10500115399.818977,47.655,-122.3035,60.0,1.1166666666666667
2026-01-20T23:01:08+00:00,SAT-60077,313.39502747847337,60.2293675072846,547.8122690992315,-3.222869553366474,112878.52448358783,10.5,10500112878.524483,47.655,-122.3035,60.0,1.1333333333333333
2026-01-20T23:01:09+00:00,SAT-60077,313.84800260850267,60.883864678838506,544.5980396143817,-3.1495962700782756,110312.18415715413,10.5,10500110312.184156,47.655,-122.3035,60.0,1.15
2026-01-20T23:01:10+00:00,SAT-60077,314.32540397539486,61.54407755528017,541.4568869772592,-3.075036426676046,107700.78305338316,10.5,10500107700.783052,47.655,-122.3035,60.0,1.1666666666666667
2026-01-20T23:01:11+00:00,SAT-60077,314.8292074575679,62.209788293731144,538.390094298888,-2.9991913693336407,105044.36832097766,10.5,10500105044.36832,47.655,-122.3035,60.0,1.1833333333333333
2026-01-20T23:01:12+00:00,SAT-60077,315.36159914372826,62.880750354171695,535.398943347727,-2.9220642751504142,102343.05123539615,10.5,10500102343.051235,47.655,-122.3035,60.0,1.2
2026-01-20T23:01:13+00:00,SAT-60077,315.92500262482633,63.55668552127265,532.4847127236535,-2.843660292798941,99597.01212493105,10.5,10500099597.012125,47.655,-122.3035,60.0,1.2166666666666666
2026-01-20T23:01:14+00:00,SAT-60077,316.5221103749959,64.2372805179534,529.6486758916743,-2.7639865520023634,96806.50070264548,10.5,10500096806.500702,47.655,-122.3035,60.0,1.2333333333333334
2026-01-20T23:01:15+00:00,SAT-60077,317.15591985281884,64.92218310165246,526.8920992061877,-2.6830523056718993,93971.8410446301,10.5,10500093971.841045,47.655,-122.3035,60.0,1.25
2026-01-20T23:01:16+00:00,SAT-60077,317.8297751096363,65.61099757761545,524.2162397934861,-2.6008689899969664,91093.43369461331,10.5,10500091093.433695,47.655,-122.3035,60.0,1.2666666666666666
2026-01-20T23:01:17+00:00,SAT-60077,318.547414760762,66.303279594197,521.6223433743315,-2.5174502816880726,88171.75766884956,10.5,10500088171.75767,47.655,-122.3035,60.0,1.2833333333333334
2026-01-20T23:01:18+00:00,SAT-60077,319.31302730727833,66.99853007671044,519.1116420294404,-2.4328121715211717,85207.37303195367,10.5,10500085207.373032,47.655,-122.3035,60.0,1.3
2026-01-20T23:01:19+00:00,SAT-60077,320.13131491869933,67.69618813127411,516.6853518916231,-2.346973052353768,82200.92397959714,10.5,10500082200.923979,47.655,-122.3035,60.0,1.3166666666666667
2026-01-20T23:01:20+00:00,SAT-60077,321.00756689654565,68.3956227142183,514.3446707501404,-2.259953724180749,79153.13901558479,10.5,10500079153.139015,47.655,-122.3035,60.0,1.3333333333333333
2026-01-20T23:01:21+00:00,SAT-60077,321.94774407049596,69.09612278950533,512.0907756500205,-2.171777451137013,76064.832948328,10.5,10500076064.832949,47.655,-122.3035,60.0,1.35
2026-01-20T23:01:22+00:00,SAT-60077,322.9585754183349,69.79688568085844,509.9248204345246,-2.082470028674723,72936.90924367614,10.5,10500072936.909245,47.655,-122.3035,60.0,1.3666666666666667
2026-01-20T23:01:23+00:00,SAT-60077,324.0476680629656,70.49700325508111,507.8479332206158,-1.9920597727187188,69770.35964509337,10.5,10500069770.359646,47.655,-122.3035,60.0,1.3833333333333333
2026-01-20T23:01:24+00:00,SAT-60077,325.2236313967375,71.19544547398549,505.86121388524356,-1.9005775366298163,66566.26476778502,10.5,10500066566.264769,47.655,-122.3035,60.0,1.4
2026-01-20T23:01:25+00:00,SAT-60077,326.49621539333117,71.89104080826615,503.96573153470973,-1.8080567258667564,63325.79461222117,10.5,10500063325.794613,47.655,-122.3035,60.0,1.4166666666666667
2026-01-20T23:01:26+00:00,SAT-60077,327.87646183522725,72.58245292258576,502.1625219594132,-1.7145332892972969,60050.20825981425,10.5,10500060050.20826,47.655,-122.3035,60.0,1.4333333333333333
2026-01-20T23:01:27+00:00,SAT-60077,329.3768649117345,73.26815296844124,500.45258509725886,-1.6200456665343228,56740.8520284069,10.5,10500056740.852028,47.655,-122.3035,60.0,1.45
2026-01-20T23:01:28+00:00,SAT-60077,331.01153392339285,73.94638677776196,498.8368825495902,-1.5246348135379868,53399.16036896719,10.5,10500053399.16037,47.655,-122.3035,60.0,1.4666666666666666
2026-01-20T23:01:29+00:00,SAT-60077,332.79634512499007,74.61513633567539,497.31633507158773,-1.4283440699475445,50026.65121898836,10.5,10500050026.651218,47.655,-122.3035,60.0,1.4833333333333334
2026-01-20T23:01:30+00:00,SAT-60077,334.74906060959444,75.27207498151232,495.8918201949801,-1.331219182904918,46624.926836890736,10.5,10500046624.926836,47.655,-122.3035,60.0,1.5
2026-01-20T23:01:31+00:00,SAT-60077,336.8893793070425,75.91451631582352,494.56416982699636,-1.233308170087626,43195.66900485559,10.5,10500043195.669004,47.655,-122.3035,60.0,1.5166666666666666
2026-01-20T23:01:32+00:00,SAT-60077,339.2388661594873,76.53935743767262,493.33416798591617,-1.134661247844984,39740.63651185091,10.5,10500039740.636513,47.655,-122.3035,60.0,1.5333333333333334
2026-01-20T23:01:33+00:00,SAT-60077,341.8206807528939,77.14301861381956,492.20254860829334,-1.0353307390006226,36261.66192448556,10.5,10500036261.661924,47.655,-122.3035,60.0,1.55
2026-01-20T23:01:34+00:00,SAT-60077,344.65899585812036,77.72138371304281,491.16999344812837,-0.9353709418432128,32760.646998510332,10.5,10500032760.647,47.655,-122.3035,60.0,1.5666666666666667
2026-01-20T23:01:35+00:00,SAT-60077,347.7779639899256,78.2697491846595,490.23713010669906,-0.8348380036637291,29239.55824955795,10.5,10500029239.55825,47.655,-122.3035,60.0,1.5833333333333333
2026-01-20T23:01:36+00:00,SAT-60077,351.2000675795804,78.78279423496147,489.40453018851554,-0.7337897813486055,25700.422070525732,10.5,10500025700.422071,47.655,-122.3035,60.0,1.6
2026-01-20T23:01:37+00:00,SAT-60077,354.9436979786522,79.25459090386755,488.6727075963076,-0.632285689607208,22145.319415859638,10.5,10500022145.319416,47.655,-122.3035,60.0,1.6166666666666667
2026-01-20T23:01:38+00:00,SAT-60077,359.01988698441284,79.67867891293194,488.0421169773788,-0.5303865280310008,18576.379744434762,10.5,10500018576.379744,47.655,-122.3035,60.0,1.6333333333333333
2026-01-20T23:01:39+00:00,SAT-60077,3.428306839063023,80.0482337878065,487.5131523424362,-0.42815431412073485,14995.775171461171,10.5,10500014995.775171,47.655,-122.3035,60.0,1.65
2026-01-20T23:01:40+00:00,SAT-60077,8.152989852678745,80.35635331752727,487.0861458509463,-0.32565209904020287,11405.714015401047,10.5,10500011405.714016,47.655,-122.3035,60.0,1.6666666666666667
2026-01-20T23:01:41+00:00,SAT-60077,13.158657836996296,80.59647121300918,486.7613667802435,-0.22294377824103784,7808.434165248072,10.5,10500007808.434166,47.655,-122.3035,60.0,1.6833333333333333
2026-01-20T23:01:42+00:00,SAT-60077,18.38892893144232,80.76287452486406,486.53902068350567,-0.12009389141693066,4206.196074077928,10.5,10500004206.196074,47.655,-122.3035,60.0,1.7
2026-01-20T23:01:43+00:00,SAT-60077,23.76769045366592,80.85125739203082,486.41924874723867,-0.017167425388305648,601.2758552358556,10.5,10500000601.275856,47.655,-122.3035,60.0,1.7166666666666666
2026-01-20T23:01:44+00:00,SAT-60077,29.204317022958524,80.8592045354222,486.4021273453488,0.08577039155992598,-3004.0419208251824,10.5,10499996995.958078,47.655,-122.3035,60.0,1.7333333333333334
2026-01-20T23:01:45+00:00,SAT-60077,34.60220127801702,80.78648787681732,486.4876677983252,0.18865429592728877,-6607.471450254203,10.5,10499993392.52855,47.655,-122.3035,60.0,1.75
2026-01-20T23:01:46+00:00,SAT-60077,39.86876130643494,80.63509526993714,486.67581633811943,0.2914191957005697,-10206.73293540954,10.5,10499989793.267065,47.655,-122.3035,60.0,1.7666666666666666
2026-01-20T23:01:47+00:00,SAT-60077,44.924447381420094,80.40898315739173,486.966454279172,0.39400037259447485,-13799.559668182133,10.5,10499986200.440332,47.655,-122.3035,60.0,1.7833333333333334
2026-01-20T23:01:48+00:00,SAT-60077,49.708709057174566,80.11362176196,487.3593983911396,0.4963336897256009,-17383.705303616443,10.5,10499982616.294697,47.655,-122.3035,60.0,1.8
2026-01-20T23:01:49+00:00,SAT-60077,54.18211344291488,79.75544609603855,487.85440147873715,0.5983557851876907,-20956.950639734747,10.5,10499979043.04936,47.655,-122.3035,60.0,1.8166666666666667
2026-01-20T23:01:50+00:00,SAT-60077,58.32509042818216,79.34132448741421,488.45115315463784,0.7000042646620336,-24517.110363568096,10.5,10499975482.889637,47.655,-122.3035,60.0,1.8333333333333333
2026-01-20T23:01:51+00:00,SAT-60077,62.13452775478219,78.87812100111171,489.1492808044669,0.8012178903897118,-28062.03966976372,10.5,10499971937.960331,47.655,-122.3035,60.0,1.85
2026-01-20T23:01:52+00:00,SAT-60077,65.61952677116497,78.3723834185577,489.94835074026054,0.9019367515661895,-31589.640228524328,10.5,10499968410.359772,47.655,-122.3035,60.0,1.8666666666666667
2026-01-20T23:01:53+00:00,SAT-60077,68.79729727060173,77.83015309139752,490.84786952386304,1.002102442565665,-35097.86642777879,10.5,10499964902.133572,47.655,-122.3035,60.0,1.8833333333333333
2026-01-20T23:01:54+00:00,SAT-60077,71.68972508963388,77.2568736682581,491.84728546807037,1.101658213919122,-38584.730661072135,10.5,10499961415.269339,47.655,-122.3035,60.0,1.9
2026-01-20T23:01:55+00:00,SAT-60077,74.32078376079407,76.65737015280523,492.9459902883468,1.200549112473848,-42048.30823654478,10.5,10499957951.691763,47.655,-122.3035,60.0,1.9166666666666667
2026-01-20T23:01:56+00:00,SAT-60077,76.71474182851843,76.03587237880001,494.14332089432577,1.2987221289945563,-45486.74254654812,10.5,10499954513.257454,47.655,-122.3035,60.0,1.9333333333333333
2026-01-20T23:01:57+00:00,SAT-60077,78.89501984665388,75.3960629102914,495.43856132851624,1.3961263052968762,-48898.2488199126,10.5,10499951101.75118,47.655,-122.3035,60.0,1.95
2026-01-20T23:01:58+00:00,SAT-60077,80.88353094625302,74.74113560490659,496.830944811854,1.4927128611021192,-52281.11856493819,10.5,10499947718.881435,47.655,-122.3035,60.0,1.9666666666666666
2026-01-20T23:01:59+00:00,SAT-60077,82.70035738172251,74.07385617438892,498.3196559157698,1.5884352658137948,-55633.722083311535,10.5,10499944366.277916,47.655,-122.3035,60.0,1.9833333333333334
2026-01-20T23:02:00+00:00,SAT-60077,84.36364687550497,73.39661984049116,499.90383280583995,1.6832493353236262,-58954.5118606622,10.5,10499941045.48814,47.655,-122.3035,60.0,2.0
2026-01-20T23:02:01+00:00,SAT-60077,85.8896442696684,72.71150362552659,501.5825695819841,1.777113299816137,-62242.024941366064,10.5,10499937757.97506,47.655,-122.3035,60.0,2.0166666666666666
2026-01-20T23:02:02+00:00,SAT-60077,87.29280020389857,72.02031237746485,503.354918686285,1.8699878451966943,-65494.88437953062,10.5,10499934505.11562,47.655,-122.3035,60.0,2.033333333333333
2026-01-20T23:02:03+00:00,SAT-60077,88.58591845650636,71.32461850729159,505.219893352127,1.961836159886415,-68711.80087795056,10.5,10499931288.199121,47.655,-122.3035,60.0,2.05
2026-01-20T23:02:04+00:00,SAT-60077,89.78031776684193,70.62579586422065,507.17647010000223,2.052623970477784,-71891.57403691835,10.5,10499928108.425962,47.655,-122.3035,60.0,2.066666666666667
2026-01-20T23:02:05+00:00,SAT-60077,90.88599358574426,69.92504838623266,509.22359126887716,2.1423195413857004,-75033.09234200232,10.5,10499924966.907658,47.655,-122.3035,60.0,2.0833333333333335
2026-01-20T23:02:06+00:00,SAT-60077,91.91177154274375,69.2234342275541,511.36016754721265,2.230893682699659,-78135.33343906344,10.5,10499921864.666561,47.655,-122.3035,60.0,2.1
2026-01-20T23:02:07+00:00,SAT-60077,92.8654484985679,68.52188602538646,513.5850805118123,2.3183197489121903,-81197.36408971969,10.5,10499918802.63591,47.655,-122.3035,60.0,2.1166666666666667
2026-01-20T23:02:08+00:00,SAT-60077,93.75391953691849,67.82122791437588,515.8971851654056,2.404573600673666,-84218.33883183777,10.5,10499915781.66117,47.655,-122.3035,60.0,2.1333333333333333
2026-01-20T23:02:09+00:00,SAT-60077,94.58329072506396,67.1221898299389,518.2953124360871,2.4896335852754565,-87197.49929597059,10.5,10499912802.500704,47.655,-122.3035,60.0,2.15
2026-01-20T23:02:10+00:00,SAT-60077,95.35897832416894,66.42541954718412,520.7782716572899,2.573480493945363,-90134.17270966274,10.5,10499909865.82729,47.655,-122.3035,60.0,2.1666666666666665
2026-01-20T23:02:11+00:00,SAT-60077,96.08579553271085,65.73149284442619,523.3448530051713,2.6560975296539975,-93027.77076989366,10.5,10499906972.22923,47.655,-122.3035,60.0,2.183333333333333
2026-01-20T23:02:12+00:00,SAT-60077,96.76802802768987,65.04092210703415,525.9938299038897,2.73747020490003,-95877.78606308473,10.5,10499904122.213938,47.655,-122.3035,60.0,2.2
2026-01-20T23:02:13+00:00,SAT-60077,97.40949957318982,64.35416365393444,528.7239613289413,2.81758633187493,-98683.79172062683,10.5,10499901316.208279,47.655,-122.3035,60.0,2.216666666666667
2026-01-20T23:02:14+00:00,SAT-60077,98.01362894831986,63.67162397987894,531.5339941006873,2.8964359160074453,-101445.43769035769,10.5,10499898554.56231,47.655,-122.3035,60.0,2.2333333333333334
2026-01-20T23:02:15+00:00,SAT-60077,98.5834792999979,62.99366511839121,534.4226650717121,2.9740110998405704,-104162.448770896,10.5,10499895837.55123,47.655,-122.3035,60.0,2.25
2026-01-20T23:02:16+00:00,SAT-60077,99.12180094630824,62.320609259602215,537.3887032582076,3.0503060546540013,-106834.62081580123,10.5,10499893165.379185,47.655,-122.3035,60.0,2.2666666666666666
2026-01-20T23:02:17+00:00,SAT-60077,99.63106851559131,61.65274275660558,540.4308318632712,3.1253169483177743,-109461.81960767217,10.5,10499890538.180393,47.655,-122.3035,60.0,2.283333333333333
2026-01-20T23:02:18+00:00,SAT-60077,100.11351321523915,60.99031960280826,543.5477702681444,3.199041806842146,-112043.976009038,10.5,10499887956.02399,47.655,-122.3035,60.0,2.3
2026-01-20T23:02:19+00:00,SAT-60077,100.57115089005345,60.33356448646423,546.7382358853702,3.271480452059877,-114581.0837797284,10.5,10499885418.91622,47.655,-122.3035,60.0,2.316666666666667
2026-01-20T23:02:20+00:00,SAT-60077,101.0058064664414,59.68267547279283,550.0009459498023,3.3426344074891925,-117073.19627979609,10.5,10499882926.80372,47.655,-122.3035,60.0,2.3333333333333335
2026-01-20T23:02:21+00:00,SAT-60077,101.41913527933495,59.03782637699389,553.3346192157286,3.4125067960279343,-119520.4228863333,10.5,10499880479.577114,47.655,-122.3035,60.0,2.35
2026-01-20T23:02:22+00:00,SAT-60077,101.81264171092296,58.39916887587952,556.7379775519623,3.4811022616626257,-121922.92625139213,10.5,10499878077.07375,47.655,-122.3035,60.0,2.3666666666666667
2026-01-20T23:02:23+00:00,SAT-60077,102.18769551264855,57.766834391926466,560.2097474588535,3.548426878660903,-124280.91912151931,10.5,10499875719.08088,47.655,-122.3035,60.0,2.3833333333333333
2026-01-20T23:02:24+00:00,SAT-60077,102.54554612373352,57.140935784512514,563.7486614947358,3.614488050796494,-126594.6608081888,10.5,10499873405.339191,47.655,-122.3035,60.0,2.4
2026-01-20T23:02:25+00:00,SAT-60077,102.8873352556262,56.52156887680936,567.3534596018674,3.679294399681075,-128864.45327671082,10.5,10499871135.546722,47.655,-122.3035,60.0,2.4166666666666665
2026-01-20T23:02:26+00:00,SAT-60077,103.21410797256328,55.90881384218507,571.0228903210055,3.7428557532478783,-131090.64074287927,10.5,10499868909.359257,47.655,-122.3035,60.0,2.433333333333333
2026-01-20T23:02:27+00:00,SAT-60077,103.52682247477324,55.30273645232139,574.7557119944929,3.805182953727275,-133273.6029474644,10.5,10499866726.397053,47.655,-122.3035,60.0,2.45
2026-01-20T23:02:28+00:00,SAT-60077,103.82635873889504,54.703389233404714,578.5506937778365,3.866287849751578,-135413.75487968934,10.5,10499864586.245121,47.655,-122.3035,60.0,2.466666666666667
2026-01-20T23:02:29+00:00,SAT-60077,104.1135261772028,54.11081251277675,582.4066166434108,3.9261831978509316,-137511.5433272,10.5,10499862488.456673,47.655,-122.3035,60.0,2.4833333333333334
2026-01-20T23:02:30+00:00,SAT-60077,104.38907043287783,53.52503538316781,586.3222742859217,3.9848825536525494,-139567.4430654015,10.5,10499860432.556934,47.655,-122.3035,60.0,2.5
2026-01-20T23:02:31+00:00,SAT-60077,104.65367942005506,52.946076595253516,590.2964739193615,4.042400233741358,-141581.95552165707,10.5,10499858418.044477,47.655,-122.3035,60.0,2.5166666666666666
2026-01-20T23:02:32+00:00,SAT-60077,104.90798870580353,52.37394537631297,594.3280370359273,4.098751199387439,-143555.60470293122,10.5,10499856444.395298,47.655,-122.3035,60.0,2.533333333333333
2026-01-20T23:02:33+00:00,SAT-60077,105.15258631036554,51.8086421938847,598.4158000489768,4.153951059541367,-145488.93730069872,10.5,10499854511.062698,47.655,-122.3035,60.0,2.55
2026-01-20T23:02:34+00:00,SAT-60077,105.3880170018807,51.25015945382962,602.5586149389729,4.208015901090947,-147382.51674581802,10.5,10499852617.483253,47.655,-122.3035,60.0,2.566666666666667
2026-01-20T23:02:35+00:00,SAT-60077,105.61478613698955,50.69848216241233,606.7553497301393,4.260962291478561,-149236.92330020154,10.5,10499850763.0767,47.655,-122.3035,60.0,2.5833333333333335
2026-01-20T23:02:36+00:00,SAT-60077,105.8333631090626,50.1535885330573,611.0048889697271,4.312807230727627,-151052.75237657942,10.5,10499848947.247623,47.655,-122.3035,60.0,2.6
2026-01-20T23:02:37+00:00,SAT-60077,106.04418444708477,49.615450549825205,615.3061341594365,4.363568027370783,-152830.61019297963,10.5,10499847169.389807,47.655,-122.3035,60.0,2.6166666666666667
2026-01-20T23:02:38+00:00,SAT-60077,106.24765660122313,49.08403450076354,619.6580040630984,4.413262313371347,-154571.11429534075,10.5,10499845428.885704,47.655,-122.3035,60.0,2.6333333333333333
2026-01-20T23:02:39+00:00,SAT-60077,106.44415845699365,48.559301466791965,624.0594350292379,4.4619079403129485,-156274.88992163356,10.5,10499843725.110079,47.655,-122.3035,60.0,2.65
2026-01-20T23:02:40+00:00,SAT-60077,106.6340436025293,48.04120778416462,628.5093812101061,4.509522945487295,-157942.5688141114,10.5,10499842057.431187,47.655,-122.3035,60.0,2.6666666666666665
2026-01-20T23:02:41+00:00,SAT-60077,106.81764237952304,47.529705474369145,633.0068147468908,4.556125544907674,-159574.78897461316,10.5,10499840425.211025,47.655,-122.3035,60.0,2.683333333333333
2026-01-20T23:02:42+00:00,SAT-60077,106.99526374128178,47.02474264126524,637.5507259479579,4.601734038004788,-161172.1913266086,10.5,10499838827.808674,47.655,-122.3035,60.0,2.7
2026-01-20T23:02:43+00:00,SAT-60077,107.16719693609652,46.52626384782592,642.140123372046,4.646366772677239,-162735.4184911183,10.5,10499837264.581509,47.655,-122.3035,60.0,2.716666666666667
2026-01-20T23:02:44+00:00,SAT-60077,107.33371303596985,46.03421046728495,646.7740338766043,4.690042144172564,-164265.11474752284,10.5,10499835734.885252,47.655,-122.3035,60.0,2.7333333333333334
2026-01-20T23:02:45+00:00,SAT-60077,107.49506632780366,45.548521007193635,651.4515026650141,4.732778544413903,-165761.9242587683,10.5,10499834238.07574,47.655,-122.3035,60.0,2.75
2026-01-20T23:02:46+00:00,SAT-60077,107.65149557979119,45.069131413678925,656.171593283274,4.774594319748392,-167226.4895915364,10.5,10499832773.510408,47.655,-122.3035,60.0,2.7666666666666666
2026-01-20T23:02:47+00:00,SAT-60077,107.80322519560876,44.595975356389346,660.9333875745451,4.815507732492969,-168659.4503694158,10.5,10499831340.549631,47.655,-122.3035,60.0,2.783333333333333
2026-01-20T23:02:48+00:00,SAT-60077,107.95046626800591,44.128984495080296,665.7359855953473,4.855536992726818,-170061.4443864081,10.5,10499829938.555614,47.655,-122.3035,60.0,2.8
2026-01-20T23:02:49+00:00,SAT-60077,108.0934175432729,43.66808872250825,670.5785055634606,4.894700146453044,-171433.10368987656,10.5,10499828566.89631,47.655,-122.3035,60.0,2.816666666666667
2026-01-20T23:02:50+00:00,SAT-60077,108.23226630184656,43.21321639894872,675.4600836942898,4.933015146043514,-172775.0570478224,10.5,10499827224.942953,47.655,-122.3035,60.0,2.8333333333333335
2026-01-20T23:02:51+00:00,SAT-60077,108.36718916728886,42.76429456190253,680.3798741074828,4.9704997202276076,-174087.92539534092,10.5,10499825912.074604,47.655,-122.3035,60.0,2.85
2026-01-20T23:02:52+00:00,SAT-60077,108.49835284599246,42.32124913105151,685.3370486038896,5.007171487079375,-175372.3257919098,10.5,10499824627.674208,47.655,-122.3035,60.0,2.8666666666666667
2026-01-20T23:02:53+00:00,SAT-60077,108.6259148093895,41.8840050870892,690.3307965552018,5.0430478318119105,-176628.86714123093,10.5,10499823371.132858,47.655,-122.3035,60.0,2.8833333333333333
2026-01-20T23:02:54+00:00,SAT-60077,108.7500239189232,41.452486646997386,695.3603246717171,5.078145943786541,-177858.15148744895,10.5,10499822141.848513,47.655,-122.3035,60.0,2.9
2026-01-20T23:02:55+00:00,SAT-60077,108.87082100231586,41.0266174221543,700.4248568070126,5.112482776841578,-179060.77262569618,10.5,10499820939.227375,47.655,-122.3035,60.0,2.9166666666666665
2026-01-20T23:02:56+00:00,SAT-60077,108.98843938408808,40.606320567025634,705.5236337230521,5.146075055968039,-180237.31633590467,10.5,10499819762.683664,47.655,-122.3035,60.0,2.933333333333333
2026-01-20T23:02:57+00:00,SAT-60077,109.10300537516245,40.19151891524702,710.6559128619533,5.178939293177534,-181388.36093856677,10.5,10499818611.639061,47.655,-122.3035,60.0,2.95
2026-01-20T23:02:58+00:00,SAT-60077,109.21463872543123,39.78213510336115,715.8209681335795,5.211091691874624,-182514.47394545047,10.5,10499817485.526054,47.655,-122.3035,60.0,2.966666666666667
2026-01-20T23:02:59+00:00,SAT-60077,109.3234530403875,39.37809169176206,721.0180896077588,5.242548243698856,-183616.21545141735,10.5,10499816383.784548,47.655,-122.3035,60.0,2.9833333333333334
2026-01-20T23:03:00+00:00,SAT-60077,109.42955616847684,38.97931126812302,726.2465833030881,5.273324658106591,-184694.13566808013,10.5,10499815305.864332,47.655,-122.3035,60.0,3.0
2026-01-20T23:03:01+00:00,SAT-60077,109.53305055853285,38.58571654739335,731.5057709055052,5.303436368091918,-185748.77512417323,10.5,10499814251.224876,47.655,-122.3035,60.0,3.0166666666666666
2026-01-20T23:03:02+00:00,SAT-60077,109.63403359140393,38.19723046280068,736.7949894925683,5.332898518759195,-186780.664265315,10.5,10499813219.335735,47.655,-122.3035,60.0,3.033333333333333
2026-01-20T23:03:03+00:00,SAT-60077,109.73259788734642,37.813776249750326,742.113591246339,5.361726035497556,-187790.3258417673,10.5,10499812209.674158,47.655,-122.3035,60.0,3.05
2026-01-20T23:03:04+00:00,SAT-60077,109.82883159259325,37.43527751754771,747.4609432342534,5.389933490658481,-188778.2702389199,10.5,10499811221.729761,47.655,-122.3035,60.0,3.066666666666667
2026-01-20T23:03:05+00:00,SAT-60077,109.92281864366066,37.06165832391765,752.8364270570345,5.417535214670039,-189744.9993689815,10.5,10499810255.000631,47.655,-122.3035,60.0,3.0833333333333335
2026-01-20T23:03:06+00:00,SAT-60077,110.01463901487595,36.69284323514788,758.2394386074136,5.444545237305235,-190691.00461394852,10.5,10499809308.995386,47.655,-122.3035,60.0,3.1
2026-01-20T23:03:07+00:00,SAT-60077,110.10436894786075,36.32875738455204,763.669387770285,5.470977350303705,-191616.76901888204,10.5,10499808383.230982,47.655,-122.3035,60.0,3.1166666666666667
2026-01-20T23:03:08+00:00,SAT-60077,110.19208116627549,35.96932652126888,769.1256981853072,5.496844969733608,-192522.76247123897,10.5,10499807477.237528,47.655,-122.3035,60.0,3.1333333333333333
2026-01-20T23:03:09+00:00,SAT-60077,110.27784507415853,35.614477063126294,774.6078068722418,5.522161317171079,-193409.4480465427,10.5,10499806590.551954,47.655,-122.3035,60.0,3.15
2026-01-20T23:03:10+00:00,SAT-60077,110.36172694333993,35.264136132789005,780.1151640369798,5.546939301367617,-194277.27786387468,10.5,10499805722.722136,47.655,-122.3035,60.0,3.1666666666666665
2026-01-20T23:03:11+00:00,SAT-60077,110.44379008686593,34.91823159747457,785.6472327595579,5.571191551219561,-195126.6942406049,10.5,10499804873.30576,47.655,-122.3035,60.0,3.183333333333333
2026-01-20T23:03:12+00:00,SAT-60077,110.52409502152713,34.576692102434585,791.2034887150531,5.594930404657399,-195958.12930324848,10.5,10499804041.870697,47.655,-122.3035,60.0,3.2
2026-01-20T23:03:13+00:00,SAT-60077,110.60269961962634,34.23944710138657,796.783419883396,5.6181679630019,-196772.00689124723,10.5,10499803227.993109,47.655,-122.3035,60.0,3.216666666666667
2026-01-20T23:03:14+00:00,SAT-60077,110.67965925162812,33.90642688024612,802.3865263133965,5.640916003782572,-197568.7395035035,10.5,10499802431.260496,47.655,-122.3035,60.0,3.2333333333333334
2026-01-20T23:03:15+00:00,SAT-60077,110.75502691870949,33.57756258296656,808.0123197998192,5.663186082898095,-198348.73187647035,10.5,10499801651.268124,47.655,-122.3035,60.0,3.25
2026-01-20T23:03:16+00:00,SAT-60077,110.82885337812783,33.2527862283579,813.6603236623487,5.684989463451447,-199112.378491657,10.5,10499800887.621508,47.655,-122.3035,60.0,3.2666666666666666
2026-01-20T23:03:17+00:00,SAT-60077,110.90118725987243,32.93203072848592,819.3300724535773,5.706337170596856,-199860.06549660096,10.5,10499800139.934504,47.655,-122.3035,60.0,3.283333333333333
2026-01-20T23:03:18+00:00,SAT-60077,110.97207517673954,32.61522990143912,825.0211117216942,5.727239943145466,-200592.16900989346,10.5,10499799407.83099,47.655,-122.3035,60.0,3.3
2026-01-20T23:03:19+00:00,SAT-60077,111.04156182712315,32.302318484595574,830.7329977249113,5.7477082850441805,-201309.05692418682,10.5,10499798690.943075,47.655,-122.3035,60.0,3.316666666666667
2026-01-20T23:03:20+00:00,SAT-60077,111.10969009210636,31.99323214293128,836.4652971972271,5.767752456458059,-202011.08859386187,10.5,10499797988.911406,47.655,-122.3035,60.0,3.3333333333333335
2026-01-20T23:03:21+00:00,SAT-60077,111.17650112652049,31.687907476014097,842.217587105299,5.787382421963038,-202698.613020518,10.5,10499797301.38698,47.655,-122.3035,60.0,3.35
2026-01-20T23:03:22+00:00,SAT-60077,111.24203444423237,31.386282025983046,847.9894543536477,5.806608004490768,-203371.9742447726,10.5,10499796628.025755,47.655,-122.3035,60.0,3.3666666666666667
2026-01-20T23:03:23+00:00,SAT-60077,111.3063279996025,31.088294275886064,853.7804956433904,5.82543869125436,-204031.50454895958,10.5,10499795968.495451,47.655,-122.3035,60.0,3.3833333333333333
2026-01-20T23:03:24+00:00,SAT-60077,111.36941826259792,30.79388365679932,859.590317137424,5.843883792046255,-204677.53000139078,10.5,10499795322.47,47.655,-122.3035,60.0,3.4
2026-01-20T23:03:25+00:00,SAT-60077,111.43134029080156,30.502990545379085,865.4185342834797,5.861952358773705,-205310.36763814752,10.5,10499794689.632362,47.655,-122.3035,60.0,3.4166666666666665
2026-01-20T23:03:26+00:00,SAT-60077,111.4921277966763,30.215556264414015,871.2647715569288,5.879653250712528,-205930.3277485438,10.5,10499794069.67225,47.655,-122.3035,60.0,3.433333333333333
