DopplerPredictor/satellites_20260205_234138/SAT-53529.csv

timestamp,satellite,azimuth_deg,elevation_deg,distance_km,relative_velocity_kms,doppler_shift_hz,tx_freq_ghz,rx_freq_hz,ue_lat,ue_lon,ue_alt_m,time_minutes
2026-01-20T23:00:00+00:00,SAT-53529,62.32808911922708,30.9655943220863,965.2746551890165,5.787291375763096,-202695.424197471,10.5,10499797304.575802,47.655,-122.3035,60.0,0.0
2026-01-20T23:00:01+00:00,SAT-53529,62.3212873426059,30.701782772499197,971.0464316352475,5.8030284063653115,-203246.60157673404,10.5,10499796753.398424,47.655,-122.3035,60.0,0.016666666666666666
2026-01-20T23:00:02+00:00,SAT-53529,62.314658653392186,30.440735142815626,976.8339029232733,5.818480774588131,-203787.80887534993,10.5,10499796212.191124,47.655,-122.3035,60.0,0.03333333333333333
2026-01-20T23:00:03+00:00,SAT-53529,62.30819862959904,30.18240992994215,982.6367851538549,5.833654417457809,-204319.25403309177,10.5,10499795680.745966,47.655,-122.3035,60.0,0.05
