DopplerPredictor/satellites_20260205_234138/SAT-55585.csv

timestamp,satellite,azimuth_deg,elevation_deg,distance_km,relative_velocity_kms,doppler_shift_hz,tx_freq_ghz,rx_freq_hz,ue_lat,ue_lon,ue_alt_m,time_minutes
2026-01-20T23:00:39+00:00,SAT-55585,233.0420046149014,30.06389903632112,1010.6626602478855,-4.500060266831562,157611.1457804966,10.5,10500157611.14578,47.655,-122.3035,60.0,0.65
2026-01-20T23:00:40+00:00,SAT-55585,232.7468013641485,30.258696035844213,1006.174664021621,-4.472332116372085,156639.98866144556,10.5,10500156639.98866,47.655,-122.3035,60.0,0.6666666666666666
2026-01-20T23:00:41+00:00,SAT-55585,232.44773769046435,30.454202866610544,1001.7143216104708,-4.444227017929461,155655.62922953634,10.5,10500155655.629229,47.655,-122.3035,60.0,0.6833333333333333
2026-01-20T23:00:42+00:00,SAT-55585,232.14475454194468,30.65040125616298,997.2820089518732,-4.415740651414837,154657.9161769833,10.5,10500154657.916178,47.655,-122.3035,60.0,0.7
2026-01-20T23:00:43+00:00,SAT-55585,231.83779220012963,30.847271901369762,992.8781062917726,-4.386868713689379,153646.6987896623,10.5,10500153646.69879,47.655,-122.3035,60.0,0.7166666666666667
2026-01-20T23:00:44+00:00,SAT-55585,231.5267902958404,31.0447944360144,988.5029981677169,-4.35760689009304,152621.82594992738,10.5,10500152621.82595,47.655,-122.3035,60.0,0.7333333333333333
2026-01-20T23:00:45+00:00,SAT-55585,231.21168782939625,31.242947396467937,984.1570734203463,-4.327950935818796,151583.1489866812,10.5,10500151583.148987,47.655,-122.3035,60.0,0.75
2026-01-20T23:00:46+00:00,SAT-55585,230.8924231874015,31.441708190444476,979.8407251237293,-4.297896586936845,150530.51855906553,10.5,10500150530.518559,47.655,-122.3035,60.0,0.7666666666666667
2026-01-20T23:00:47+00:00,SAT-55585,230.56893416851554,31.641053061172403,975.5543506044324,-4.267439634166886,149463.78724027905,10.5,10500149463.787241,47.655,-122.3035,60.0,0.7833333333333333
2026-01-20T23:00:48+00:00,SAT-55585,230.24115800658504,31.84095705438222,971.2983513870179,-4.23657585946691,148382.80729664842,10.5,10500148382.807297,47.655,-122.3035,60.0,0.8
2026-01-20T23:00:49+00:00,SAT-55585,229.90903140150382,32.04139398185253,967.0731332027825,-4.2053011589544145,147287.43499284878,10.5,10500147287.434994,47.655,-122.3035,60.0,0.8166666666666667
2026-01-20T23:00:50+00:00,SAT-55585,229.57249054355063,32.24233639028312,962.879105875904,-4.173611374073495,146177.52467866187,10.5,10500146177.52468,47.655,-122.3035,60.0,0.8333333333333334
2026-01-20T23:00:51+00:00,SAT-55585,229.23147115423654,32.44375552178323,958.716683377966,-4.1415024881808735,145052.9356742496,10.5,10500145052.935675,47.655,-122.3035,60.0,0.85
2026-01-20T23:00:52+00:00,SAT-55585,228.8859085148781,32.64562128335378,954.5862836864285,-4.108970444422668,143913.52589142858,10.5,10500143913.525892,47.655,-122.3035,60.0,0.8666666666666667
2026-01-20T23:00:53+00:00,SAT-55585,228.53573751357828,32.84790220732559,950.4883288247293,-4.0760113013188874,142759.1572828971,10.5,10500142759.157284,47.655,-122.3035,60.0,0.8833333333333333
2026-01-20T23:00:54+00:00,SAT-55585,228.1808926832159,33.050565419063425,946.4232447472199,-4.042621181863952,141589.69405952,10.5,10500141589.69406,47.655,-122.3035,60.0,0.9
2026-01-20T23:00:55+00:00,SAT-55585,227.82130824741012,33.253576602094334,942.3914612748625,-4.008796238162731,140405.00145173323,10.5,10500140405.001451,47.655,-122.3035,60.0,0.9166666666666666
2026-01-20T23:00:56+00:00,SAT-55585,227.45691817390278,33.45689996133825,938.3934120662005,-3.9745327200497367,139204.94811287825,10.5,10500139204.948112,47.655,-122.3035,60.0,0.9333333333333333
2026-01-20T23:00:57+00:00,SAT-55585,227.08765622633263,33.66049818973302,934.4295345198879,-3.9398269645318797,137989.4057494426,10.5,10500137989.40575,47.655,-122.3035,60.0,0.95
2026-01-20T23:00:58+00:00,SAT-55585,226.71345602133485,33.86433243445108,930.5002696877518,-3.904675372094876,136758.24829121016,10.5,10500136758.248291,47.655,-122.3035,60.0,0.9666666666666667
2026-01-20T23:00:59+00:00,SAT-55585,226.3342510927286,34.06836226204933,926.6060622114842,-3.869074453754748,135511.3535392036,10.5,10500135511.353539,47.655,-122.3035,60.0,0.9833333333333333
2026-01-20T23:01:00+00:00,SAT-55585,225.94997495625012,34.27254562630815,922.7473602124078,-3.8330207939468504,134248.60186590126,10.5,10500134248.601866,47.655,-122.3035,60.0,1.0
2026-01-20T23:01:01+00:00,SAT-55585,225.56056118315664,34.47683883450813,918.9246152182526,-3.796511137324853,132969.87925530452,10.5,10500132969.879255,47.655,-122.3035,60.0,1.0166666666666666
2026-01-20T23:01:02+00:00,SAT-55585,225.16594347045134,34.681196518807205,915.1382820033684,-3.759542259020873,131675.07275889898,10.5,10500131675.07276,47.655,-122.3035,60.0,1.0333333333333334
2026-01-20T23:01:03+00:00,SAT-55585,224.76605573006339,34.88557160131512,911.3888185583269,-3.7221111240895186,130364.07608005918,10.5,10500130364.07608,47.655,-122.3035,60.0,1.05
2026-01-20T23:01:04+00:00,SAT-55585,224.36083216746704,35.08991526844249,907.6766859005099,-3.6842147868935853,129036.7860501102,10.5,10500129036.78605,47.655,-122.3035,60.0,1.0666666666666667
2026-01-20T23:01:05+00:00,SAT-55585,223.9502073767747,35.294176940753495,904.0023479850381,-3.6458504582425593,127693.10497980198,10.5,10500127693.10498,47.655,-122.3035,60.0,1.0833333333333333
2026-01-20T23:01:06+00:00,SAT-55585,223.53411643493112,35.498304247506624,900.3662715487469,-3.60701545761119,126332.93898580161,10.5,10500126332.938986,47.655,-122.3035,60.0,1.1
2026-01-20T23:01:07+00:00,SAT-55585,223.11249500776384,35.70224299974497,896.7689260018095,-3.5677072892166866,124956.20065523867,10.5,10500124956.200655,47.655,-122.3035,60.0,1.1166666666666667
2026-01-20T23:01:08+00:00,SAT-55585,222.68527945404261,35.90593716899462,893.2107832434916,-3.527923584102628,123562.80701723855,10.5,10500123562.807016,47.655,-122.3035,60.0,1.1333333333333333
2026-01-20T23:01:09+00:00,SAT-55585,222.25240694309952,36.10932886425628,889.6923175356648,-3.487662160437207,122152.68165482226,10.5,10500122152.681654,47.655,-122.3035,60.0,1.15
2026-01-20T23:01:10+00:00,SAT-55585,221.81381557235437,36.31235831413607,886.2140053161821,-3.446920998701431,120725.7538358921,10.5,10500120725.753836,47.655,-122.3035,60.0,1.1666666666666667
2026-01-20T23:01:11+00:00,SAT-55585,221.36944449497017,36.51496384949064,882.7763250370033,-3.4056982572672023,119281.95905884205,10.5,10500119281.959059,47.655,-122.3035,60.0,1.1833333333333333
2026-01-20T23:01:12+00:00,SAT-55585,220.91923405302782,36.71708188906514,879.379756986777,-3.363992274123616,117821.23911301988,10.5,10500117821.239113,47.655,-122.3035,60.0,1.2
2026-01-20T23:01:13+00:00,SAT-55585,220.46312591809013,36.91864692754164,876.0247831117096,-3.321801625755739,116343.54414091118,10.5,10500116343.544142,47.655,-122.3035,60.0,1.2166666666666666
2026-01-20T23:01:14+00:00,SAT-55585,220.0010632313176,37.11959152965443,872.711886777704,-3.2791250316156897,114848.82929231242,10.5,10500114848.829292,47.655,-122.3035,60.0,1.2333333333333334
2026-01-20T23:01:15+00:00,SAT-55585,219.53299076433905,37.31984632133925,869.4415526277788,-3.2359614806960386,113337.05915746688,10.5,10500113337.059158,47.655,-122.3035,60.0,1.25
2026-01-20T23:01:16+00:00,SAT-55585,219.05885507047597,37.519339991480216,866.2142663132498,-3.1923101485592458,111808.20486108452,10.5,10500111808.20486,47.655,-122.3035,60.0,1.2666666666666666
2026-01-20T23:01:17+00:00,SAT-55585,218.57860465527884,37.717999291884304,863.0305143076598,-3.1481704562097153,110262.24612429045,10.5,10500110262.246124,47.655,-122.3035,60.0,1.2833333333333334
2026-01-20T23:01:18+00:00,SAT-55585,218.09219014653408,37.91574904429029,859.8907836619959,-3.1035420571809444,108699.1708123622,10.5,10500108699.170813,47.655,-122.3035,60.0,1.3
2026-01-20T23:01:19+00:00,SAT-55585,217.59956447385179,38.11251215032249,856.7955617727813,-3.058424865933701,107118.97592935398,10.5,10500107118.97593,47.655,-122.3035,60.0,1.3166666666666667
2026-01-20T23:01:20+00:00,SAT-55585,217.10068305149466,38.30820960718887,853.7453361218509,-3.0128190278268447,105521.66656634795,10.5,10500105521.666567,47.655,-122.3035,60.0,1.3333333333333333
2026-01-20T23:01:21+00:00,SAT-55585,216.59550397362747,38.50276052568915,850.7405940460684,-2.966724968336755,103907.25762532667,10.5,10500103907.257626,47.655,-122.3035,60.0,1.35
2026-01-20T23:01:22+00:00,SAT-55585,216.08398820913538,38.69608215581584,847.7818224579636,-2.9201433868489226,102275.77360172846,10.5,10500102275.773602,47.655,-122.3035,60.0,1.3666666666666667
2026-01-20T23:01:23+00:00,SAT-55585,215.56609980440845,38.88808991671615,844.8695075725552,-2.8730752549683727,100627.24852527113,10.5,10500100627.248526,47.655,-122.3035,60.0,1.3833333333333333
2026-01-20T23:01:24+00:00,SAT-55585,215.04180609340648,39.07869743151768,842.004134635861,-2.82552183916479,98961.72675308026,10.5,10500098961.726753,47.655,-122.3035,60.0,1.4
2026-01-20T23:01:25+00:00,SAT-55585,214.5110779103474,39.26781656886477,839.186187630825,-2.777484681908551,97279.26230899306,10.5,10500097279.262308,47.655,-122.3035,60.0,1.4166666666666667
2026-01-20T23:01:26+00:00,SAT-55585,213.97388981218722,39.45535748867297,836.4161490020556,-2.7289656580616417,95579.9208586069,10.5,10500095579.920858,47.655,-122.3035,60.0,1.4333333333333333
2026-01-20T23:01:27+00:00,SAT-55585,213.43022029622878,39.64122869736782,833.694499324326,-2.6799669304325673,93863.77815262435,10.5,10500093863.778152,47.655,-122.3035,60.0,1.45
2026-01-20T23:01:28+00:00,SAT-55585,212.88005203131308,39.82533710610882,831.0217170153985,-2.6304910025500226,92130.92187521022,10.5,10500092130.921875,47.655,-122.3035,60.0,1.4666666666666666
2026-01-20T23:01:29+00:00,SAT-55585,212.32337208320124,40.00758809875877,828.3982779962188,-2.5805406514861517,90381.44929117794,10.5,10500090381.449291,47.655,-122.3035,60.0,1.4833333333333334
2026-01-20T23:01:30+00:00,SAT-55585,211.76017215803333,40.18788560159247,825.8246554181046,-2.530119048990721,88615.47148862085,10.5,10500088615.471489,47.655,-122.3035,60.0,1.5
2026-01-20T23:01:31+00:00,SAT-55585,211.1904488234056,40.3661321679603,823.3013192691277,-2.4792296708797346,86833.11020531814,10.5,10500086833.110205,47.655,-122.3035,60.0,1.5166666666666666
2026-01-20T23:01:32+00:00,SAT-55585,210.6142037506854,40.54222906344607,820.8287360708619,-2.4278763165078745,85034.49851074199,10.5,10500085034.49851,47.655,-122.3035,60.0,1.5333333333333334
2026-01-20T23:01:33+00:00,SAT-55585,210.03144395548813,40.71607635920962,818.4073685557115,-2.376063184567823,83219.78346087059,10.5,10500083219.78346,47.655,-122.3035,60.0,1.55
2026-01-20T23:01:34+00:00,SAT-55585,209.44218202050388,40.88757303777643,816.037675268645,-2.323794772956489,81389.12259107977,10.5,10500081389.122591,47.655,-122.3035,60.0,1.5666666666666667
2026-01-20T23:01:35+00:00,SAT-55585,208.84643634140102,41.05661709882659,813.7201102687912,-2.271075970930875,79542.68714383131,10.5,10500079542.687143,47.655,-122.3035,60.0,1.5833333333333333
2026-01-20T23:01:36+00:00,SAT-55585,208.24423134882184,41.22310567879033,811.4551227391298,-2.2179120199102336,77680.66069579861,10.5,10500077680.660696,47.655,-122.3035,60.0,1.6
2026-01-20T23:01:37+00:00,SAT-55585,207.63559773657283,41.38693517490608,809.2431566352731,-2.1643085109997653,75803.23907113612,10.5,10500075803.23907,47.655,-122.3035,60.0,1.6166666666666667
2026-01-20T23:01:38+00:00,SAT-55585,207.02057268664956,41.548001376335584,807.0846503367167,-2.110271435500802,73910.6321105597,10.5,10500073910.63211,47.655,-122.3035,60.0,1.6333333333333333
2026-01-20T23:01:39+00:00,SAT-55585,206.3992000742898,41.70619960626842,804.9800362477172,-2.0558071208096838,72003.06142625402,10.5,10500072003.061426,47.655,-122.3035,60.0,1.65
2026-01-20T23:01:40+00:00,SAT-55585,205.7715306836326,41.86142486645533,802.9297404620969,-2.0009222918791902,70080.76255451195,10.5,10500070080.762554,47.655,-122.3035,60.0,1.6666666666666667
2026-01-20T23:01:41+00:00,SAT-55585,205.1376223969129,42.01357199339166,800.934182366755,-1.9456240239365643,68143.98329971972,10.5,10500068143.9833,47.655,-122.3035,60.0,1.6833333333333333
2026-01-20T23:01:42+00:00,SAT-55585,204.49754038721977,42.162535817870385,798.9937742923304,-1.8899197868037132,66192.98528663782,10.5,10500066192.985287,47.655,-122.3035,60.0,1.7
2026-01-20T23:01:43+00:00,SAT-55585,203.85135728528485,42.3082113346147,797.1089211196662,-1.8338174197375283,64228.04307920264,10.5,10500064228.04308,47.655,-122.3035,60.0,1.7166666666666666
2026-01-20T23:01:44+00:00,SAT-55585,203.1991533397818,42.45049387648988,795.2800199113643,-1.7773251170184294,62249.443675776216,10.5,10500062249.443676,47.655,-122.3035,60.0,1.7333333333333334
2026-01-20T23:01:45+00:00,SAT-55585,202.5410165675404,42.58927929375068,793.5074595577139,-1.7204514642056148,60257.48777895858,10.5,10500060257.48778,47.655,-122.3035,60.0,1.75
2026-01-20T23:01:46+00:00,SAT-55585,201.8770428734495,42.72446414192704,791.7916203864615,-1.6632054130251641,58252.4889160628,10.5,10500058252.488916,47.655,-122.3035,60.0,1.7666666666666666
2026-01-20T23:01:47+00:00,SAT-55585,201.20733615930618,42.85594587320442,790.1328737976263,-1.6055962671909592,56234.77294250368,10.5,10500056234.772942,47.655,-122.3035,60.0,1.7833333333333334
2026-01-20T23:01:48+00:00,SAT-55585,200.5320084175617,42.98362303163875,788.5315819124552,-1.5476337155564936,54204.67920291438,10.5,10500054204.679203,47.655,-122.3035,60.0,1.8
2026-01-20T23:01:49+00:00,SAT-55585,199.85117978843908,43.1073954554616,786.9880971893168,-1.4893277771638675,52162.558606529754,10.5,10500052162.558607,47.655,-122.3035,60.0,1.8166666666666667
2026-01-20T23:01:50+00:00,SAT-55585,199.16497861505215,43.22716447892845,785.5027620943963,-1.4306888520929513,50108.77540813915,10.5,10500050108.775408,47.655,-122.3035,60.0,1.8333333333333333
2026-01-20T23:01:51+00:00,SAT-55585,198.47354144989094,43.34283314151613,784.0759087216807,-1.3717276672658467,48043.70530992941,10.5,10500048043.70531,47.655,-122.3035,60.0,1.85
2026-01-20T23:01:52+00:00,SAT-55585,197.77701305671778,43.454306395424304,782.7078584669924,-1.31245529917562,45967.73625754124,10.5,10500045967.736258,47.655,-122.3035,60.0,1.8666666666666667
2026-01-20T23:01:53+00:00,SAT-55585,197.0755463722316,43.561491316828516,781.398921679355,-1.2528831476147675,43881.26751992893,10.5,10500043881.267519,47.655,-122.3035,60.0,1.8833333333333333
2026-01-20T23:01:54+00:00,SAT-55585,196.3693024490147,43.66429731618265,780.1493973385612,-1.1930229444464562,41784.70999656633,10.5,10500041784.709997,47.655,-122.3035,60.0,1.9
2026-01-20T23:01:55+00:00,SAT-55585,195.6584503607113,43.76263634963671,778.9595727239918,-1.1328867388261272,39678.485699844845,10.5,10500039678.4857,47.655,-122.3035,60.0,1.9166666666666667
2026-01-20T23:01:56+00:00,SAT-55585,194.94316707965228,43.85642312882254,777.829723098174,-1.0724868732238129,37563.026915273615,10.5,10500037563.026915,47.655,-122.3035,60.0,1.9333333333333333
2026-01-20T23:01:57+00:00,SAT-55585,194.2236373331527,43.945575327375444,776.7601114142541,-1.011835992116984,35438.77650593976,10.5,10500035438.776506,47.655,-122.3035,60.0,1.95
2026-01-20T23:01:58+00:00,SAT-55585,193.50005341770319,44.0300137860027,775.7509880147987,-0.9509470239199053,33306.18727959796,10.5,10500033306.187279,47.655,-122.3035,60.0,1.9666666666666666
2026-01-20T23:01:59+00:00,SAT-55585,192.77261498553187,44.10966271300331,774.8025903486191,-0.8898331625685465,31165.721343696172,10.5,10500031165.721344,47.655,-122.3035,60.0,1.9833333333333334
2026-01-20T23:02:00+00:00,SAT-55585,192.04152880511566,44.18444987927224,773.9151427059625,-0.8285078634632094,29017.84996326925,10.5,10500029017.849964,47.655,-122.3035,60.0,2.0
2026-01-20T23:02:01+00:00,SAT-55585,191.3070084847483,44.25430680807706,773.0888559577471,-0.7669848255644542,26863.052933862564,10.5,10500026863.052935,47.655,-122.3035,60.0,2.0166666666666666
2026-01-20T23:02:02+00:00,SAT-55585,190.56927416892256,44.31916895752879,772.3239273126561,-0.7052779780826969,24701.818115345373,10.5,10500024701.818115,47.655,-122.3035,60.0,2.033333333333333
2026-01-20T23:02:03+00:00,SAT-55585,189.82855220460908,44.37897589522114,771.6205400875044,-0.6434014653290666,22534.640901323804,10.5,10500022534.640902,47.655,-122.3035,60.0,2.05
2026-01-20T23:02:04+00:00,SAT-55585,189.08507477931406,44.433671464002614,770.9788634927145,-0.5813696345726381,20362.023793849745,10.5,10500020362.023794,47.655,-122.3035,60.0,2.066666666666667
2026-01-20T23:02:05+00:00,SAT-55585,188.33907952782965,44.48320393825766,770.399052429903,-0.5191970121093796,18184.475565254168,10.5,10500018184.475565,47.655,-122.3035,60.0,2.0833333333333335
2026-01-20T23:02:06+00:00,SAT-55585,187.59080912251108,44.52752616887972,769.881247313334,-0.45689829804146503,16002.511075296574,10.5,10500016002.511076,47.655,-122.3035,60.0,2.1
2026-01-20T23:02:07+00:00,SAT-55585,186.8405108253815,44.56659571773342,769.4255738965776,-0.3944883395154368,13816.65033385225,10.5,10500013816.650333,47.655,-122.3035,60.0,2.1166666666666667
2026-01-20T23:02:08+00:00,SAT-55585,186.08843603043684,44.60037497903144,769.0321431258608,-0.33198212057102544,11627.418145374982,10.5,10500011627.418146,47.655,-122.3035,60.0,2.1333333333333333
2026-01-20T23:02:09+00:00,SAT-55585,185.3348397749459,44.62883128837213,768.7010510035417,-0.26939474021769116,9435.343341044814,10.5,10500009435.343342,47.655,-122.3035,60.0,2.15
2026-01-20T23:02:10+00:00,SAT-55585,184.5799802386371,44.65193701780793,768.4323784734461,-0.20674139553657123,7240.958186926763,10.5,10500007240.958187,47.655,-122.3035,60.0,2.1666666666666665
2026-01-20T23:02:11+00:00,SAT-55585,183.82411822635476,44.669669656829896,768.2261913230607,-0.14403736461445996,5044.79778624661,10.5,10500005044.797787,47.655,-122.3035,60.0,2.183333333333333
2026-01-20T23:02:12+00:00,SAT-55585,183.067516634334,44.682011878793105,768.0825401027436,-0.08129798741606847,2847.3994094565214,10.5,10500002847.39941,47.655,-122.3035,60.0,2.2
2026-01-20T23:02:13+00:00,SAT-55585,182.31043990514593,44.68895159221106,768.0014600640125,-0.018538646263684445,649.301810550173,10.5,10500000649.301811,47.655,-122.3035,60.0,2.216666666666667
2026-01-20T23:02:14+00:00,SAT-55585,181.55315348032047,44.690481976593276,767.9829711173011,0.04422525150519221,-1548.9553803402157,10.5,10499998451.04462,47.655,-122.3035,60.0,2.2333333333333334
2026-01-20T23:02:15+00:00,SAT-55585,180.79592324198003,44.68660150279328,768.0270778070103,0.10697829319553578,-3746.83234543921,10.5,10499996253.167654,47.655,-122.3035,60.0,2.25
2026-01-20T23:02:16+00:00,SAT-55585,180.03901495264975,44.67731393755511,768.1337693061648,0.1697050801196197,-5943.78975756624,10.5,10499994056.210243,47.655,-122.3035,60.0,2.2666666666666666
2026-01-20T23:02:17+00:00,SAT-55585,179.28269369649482,44.66262833225336,768.3030194303839,0.23239024308933398,-8139.289322742091,10.5,10499991860.710678,47.655,-122.3035,60.0,2.283333333333333
2026-01-20T23:02:18+00:00,SAT-55585,178.5272233345347,44.64255899622644,768.5347866673014,0.2950184673965841,-10332.794655108146,10.5,10499989667.205345,47.655,-122.3035,60.0,2.3
2026-01-20T23:02:19+00:00,SAT-55585,177.77286594010644,44.6171254540476,768.8290142308995,0.35757450485733755,-12523.771698759829,10.5,10499987476.228302,47.655,-122.3035,60.0,2.316666666666667
2026-01-20T23:02:20+00:00,SAT-55585,177.0198812723113,44.586352388089,769.1856301278546,0.4200431964581506,-14711.689520923775,10.5,10499985288.310478,47.655,-122.3035,60.0,2.3333333333333335
2026-01-20T23:02:21+00:00,SAT-55585,176.2685262439823,44.550269565813906,769.6045472464691,0.48240948730037064,-16896.020835367017,10.5,10499983103.979164,47.655,-122.3035,60.0,2.35
2026-01-20T23:02:22+00:00,SAT-55585,175.5190544126421,44.50891175287106,770.0856634605067,0.5446584478141188,-19076.242745400377,10.5,10499980923.757254,47.655,-122.3035,60.0,2.3666666666666667
2026-01-20T23:02:23+00:00,SAT-55585,174.77171548210657,44.462318611964065,770.6288617541848,0.6067752906132712,-21251.837334211214,10.5,10499978748.162666,47.655,-122.3035,60.0,2.3833333333333333
2026-01-20T23:02:24+00:00,SAT-55585,174.02675482604445,44.41053458843023,771.234010363979,0.6687453830173591,-23422.292103433338,10.5,10499976577.707897,47.655,-122.3035,60.0,2.4
2026-01-20T23:02:25+00:00,SAT-55585,173.2844130385916,44.353608783561576,771.9009629329115,0.7305542674501129,-25587.100687590297,10.5,10499974412.899313,47.655,-122.3035,60.0,2.4166666666666665
2026-01-20T23:02:26+00:00,SAT-55585,172.5449255022741,44.291594815679865,772.6295586851869,0.792187682407466,-27745.763588483576,10.5,10499972254.236412,47.655,-122.3035,60.0,2.433333333333333
2026-01-20T23:02:27+00:00,SAT-55585,171.8085219776221,44.224550669695816,773.4196226217398,0.8536315654873063,-29897.78828130732,10.5,10499970102.21172,47.655,-122.3035,60.0,2.45
2026-01-20T23:02:28+00:00,SAT-55585,171.07542623228252,44.15253853747351,774.2709657188012,0.9148720865304892,-32042.690375386752,10.5,10499967957.309624,47.655,-122.3035,60.0,2.466666666666667
2026-01-20T23:02:29+00:00,SAT-55585,170.34585568100945,44.0756246472921,775.1833851595202,0.9758956340913901,-34179.99314031975,10.5,10499965820.006859,47.655,-122.3035,60.0,2.4833333333333334
2026-01-20T23:02:30+00:00,SAT-55585,169.62002107879704,43.99387908722755,776.1566645520901,1.0366888686443223,-36309.229369490626,10.5,10499963690.77063,47.655,-122.3035,60.0,2.5
2026-01-20T23:02:31+00:00,SAT-55585,168.89812621180283,43.90737561772668,777.1905742009405,1.0972386972924886,-38429.94049427064,10.5,10499961570.059505,47.655,-122.3035,60.0,2.5166666666666666
2026-01-20T23:02:32+00:00,SAT-55585,168.18036764956696,43.81619148089566,778.2848713527047,1.1575323070927126,-40541.67775119107,10.5,10499959458.322248,47.655,-122.3035,60.0,2.533333333333333
2026-01-20T23:02:33+00:00,SAT-55585,167.46693451110505,43.720407202482015,779.4393004754214,1.2175571768077693,-42644.002593559504,10.5,10499957355.997406,47.655,-122.3035,60.0,2.55
2026-01-20T23:02:34+00:00,SAT-55585,166.75800826317493,43.62010638930448,780.6535935494613,1.277301078814493,-44736.48675828988,10.5,10499955263.51324,47.655,-122.3035,60.0,2.566666666666667
2026-01-20T23:02:35+00:00,SAT-55585,166.05376255518627,43.51537552384034,781.9274703603509,1.3367521025071727,-46818.7130855884,10.5,10499953181.286915,47.655,-122.3035,60.0,2.5833333333333335
2026-01-20T23:02:36+00:00,SAT-55585,165.35436307692274,43.40630375509208,783.2606388149431,1.3958986406920002,-48890.27504242953,10.5,10499951109.724958,47.655,-122.3035,60.0,2.6
2026-01-20T23:02:37+00:00,SAT-55585,164.65996745908498,43.29298268965225,784.6527952440131,1.4547294260829673,-50950.778000796665,10.5,10499949049.222,47.655,-122.3035,60.0,2.6166666666666667
2026-01-20T23:02:38+00:00,SAT-55585,163.97072518786877,43.17550617969089,786.1036247412579,1.5132335285192344,-52999.83914022267,10.5,10499947000.16086,47.655,-122.3035,60.0,2.6333333333333333
2026-01-20T23:02:39+00:00,SAT-55585,163.2867775549064,43.053970111927484,787.6128014995131,1.5714003523010436,-55037.08735448227,10.5,10499944962.912645,47.655,-122.3035,60.0,2.65
2026-01-20T23:02:40+00:00,SAT-55585,162.60825763898967,42.92847219831314,789.179989144323,1.6292196525003957,-57062.16382286094,10.5,10499942937.836178,47.655,-122.3035,60.0,2.6666666666666665
2026-01-20T23:02:41+00:00,SAT-55585,161.9352903092997,42.799111767624055,790.8048410837673,1.6866815423890655,-59074.722270315375,10.5,10499940925.277729,47.655,-122.3035,60.0,2.683333333333333
2026-01-20T23:02:42+00:00,SAT-55585,161.26799225330487,42.66598955938631,792.4870008657033,1.7437764917758312,-61074.428909236354,10.5,10499938925.57109,47.655,-122.3035,60.0,2.7
2026-01-20T23:02:43+00:00,SAT-55585,160.60647203145783,42.52920752149577,794.2261025333461,1.8004953406219373,-63060.96291631973,10.5,10499936939.037085,47.655,-122.3035,60.0,2.716666666666667
2026-01-20T23:02:44+00:00,SAT-55585,159.95083015058393,42.38886861091116,796.021770994428,1.8568292874892587,-65034.016027972306,10.5,10499934965.983973,47.655,-122.3035,60.0,2.7333333333333334
2026-01-20T23:02:45+00:00,SAT-55585,159.30115916397514,42.245076599932524,797.87362237884,1.9127699066645136,-66993.29314007424,10.5,10499933006.70686,47.655,-122.3035,60.0,2.75
2026-01-20T23:02:46+00:00,SAT-55585,158.6575437854796,42.09793588631384,799.781264413347,1.9683091431092086,-68938.51213110468,10.5,10499931061.48787,47.655,-122.3035,60.0,2.7666666666666666
2026-01-20T23:02:47+00:00,SAT-55585,158.02006102420123,41.94755130936887,801.7442967912704,2.023439316604553,-70869.4040073143,10.5,10499929130.595993,47.655,-122.3035,60.0,2.783333333333333
2026-01-20T23:02:48+00:00,SAT-55585,157.3887803346193,41.79402797174394,803.7623115463016,2.078153110152865,-72785.71249649343,10.5,10499927214.287504,47.655,-122.3035,60.0,2.8
2026-01-20T23:02:49+00:00,SAT-55585,156.76376378524395,41.6374710683732,805.8348934147513,2.1324436068196984,-74687.19533833914,10.5,10499925312.80466,47.655,-122.3035,60.0,2.816666666666667
2026-01-20T23:02:50+00:00,SAT-55585,156.14506622930205,41.47798571924282,807.9616202345385,2.1863042285587886,-76573.62214184615,10.5,10499923426.377857,47.655,-122.3035,60.0,2.8333333333333335
2026-01-20T23:02:51+00:00,SAT-55585,155.53273550553567,41.315676813573894,810.1420632831704,2.2397287898879403,-78444.7762652634,10.5,10499921555.223734,47.655,-122.3035,60.0,2.85
2026-01-20T23:02:52+00:00,SAT-55585,154.92681263252499,41.150648856961,812.3757876692553,2.2927114673357436,-80300.45374598887,10.5,10499919699.546253,47.655,-122.3035,60.0,2.8666666666666667
2026-01-20T23:02:53+00:00,SAT-55585,154.32733202044,40.98300582792278,814.6623526935413,2.345246807656693,-82140.46358829773,10.5,10499917859.536411,47.655,-122.3035,60.0,2.8833333333333333
2026-01-20T23:02:54+00:00,SAT-55585,153.73432168714743,40.81285104106154,817.0013122181507,2.397329725662739,-83964.62768739418,10.5,10499916035.372313,47.655,-122.3035,60.0,2.9
2026-01-20T23:02:55+00:00,SAT-55585,153.1478034803241,40.64028701765966,819.3922150336507,2.4489554768533695,-85772.77987080108,10.5,10499914227.220129,47.655,-122.3035,60.0,2.9166666666666665
2026-01-20T23:02:56+00:00,SAT-55585,152.56779331017455,40.465415365514005,821.8346051988264,2.5001196974009403,-87564.76729881535,10.5,10499912435.2327,47.655,-122.3035,60.0,2.933333333333333
2026-01-20T23:02:57+00:00,SAT-55585,151.9943013747978,40.288336663142736,824.3280224203348,2.550818346189103,-89340.44843444855,10.5,10499910659.551565,47.655,-122.3035,60.0,2.95
2026-01-20T23:02:58+00:00,SAT-55585,151.4273324009234,40.10915035533134,826.872002374551,2.6010477583716707,-91099.69491928494,10.5,10499908900.30508,47.655,-122.3035,60.0,2.966666666666667
2026-01-20T23:02:59+00:00,SAT-55585,150.86688587226277,39.92795465197085,829.466077082827,2.65080458480794,-92842.38945225022,10.5,10499907157.610548,47.655,-122.3035,60.0,2.9833333333333334
2026-01-20T23:03:00+00:00,SAT-55585,150.31295627094642,39.74484643816105,832.1097752263541,2.700085821901419,-94568.42683469008,10.5,10499905431.573166,47.655,-122.3035,60.0,3.0
2026-01-20T23:03:01+00:00,SAT-55585,149.76553331023547,39.55992118904359,834.8026224907786,2.7488887936460755,-96277.71334155375,10.5,10499903722.28666,47.655,-122.3035,60.0,3.0166666666666666
2026-01-20T23:03:02+00:00,SAT-55585,149.2246021686157,39.373272892579514,837.5441418929157,2.7972111336664827,-97970.16609236403,10.5,10499902029.833908,47.655,-122.3035,60.0,3.033333333333333
2026-01-20T23:03:03+00:00,SAT-55585,148.69014372383006,39.18499398002969,840.3338540895481,2.845050811341206,-99645.71396616875,10.5,10499900354.286034,47.655,-122.3035,60.0,3.05
2026-01-20T23:03:04+00:00,SAT-55585,148.162134777614,38.99517526096849,843.1712777122814,2.8924060943148615,-101304.29628855456,10.5,10499898695.70371,47.655,-122.3035,60.0,3.066666666666667
2026-01-20T23:03:05+00:00,SAT-55585,147.6405482830507,38.803905866930826,846.0559296650093,2.9392755268468114,-102945.86207332647,10.5,10499897054.137926,47.655,-122.3035,60.0,3.0833333333333335
2026-01-20T23:03:06+00:00,SAT-55585,147.12535357007582,38.611273202308794,848.9873253997885,2.985657986195985,-104570.37199734304,10.5,10499895429.628002,47.655,-122.3035,60.0,3.1
2026-01-20T23:03:07+00:00,SAT-55585,146.61651655487273,38.41736289715404,851.9649792489444,3.0315525979526097,-106177.7954350753,10.5,10499893822.204565,47.655,-122.3035,60.0,3.1166666666666667
2026-01-20T23:03:08+00:00,SAT-55585,146.11399995818604,38.22225877093564,854.9884046727361,3.0769587956775477,-107768.11254742857,10.5,10499892231.887453,47.655,-122.3035,60.0,3.1333333333333333
2026-01-20T23:03:09+00:00,SAT-55585,145.6177635063793,38.02604279752554,858.0571145665028,3.1218762577545913,-109341.31207004283,10.5,10499890658.68793,47.655,-122.3035,60.0,3.15
2026-01-20T23:03:10+00:00,SAT-55585,145.1277641362838,37.8287950791608,861.1706215048295,3.166304930791316,-110897.39213288952,10.5,10499889102.607866,47.655,-122.3035,60.0,3.1666666666666665
2026-01-20T23:03:11+00:00,SAT-55585,144.64395618865385,37.63059382349113,864.3284380090513,3.2102450046676463,-112436.35938636684,10.5,10499887563.640614,47.655,-122.3035,60.0,3.183333333333333
2026-01-20T23:03:12+00:00,SAT-55585,144.1662915981704,37.431515326584986,867.5300767898751,3.2536969354088003,-113958.22980240686,10.5,10499886041.770197,47.655,-122.3035,60.0,3.2
2026-01-20T23:03:13+00:00,SAT-55585,143.69472007238494,37.23163395862433,870.7750510128105,3.2966614006456676,-115463.02711450969,10.5,10499884536.972885,47.655,-122.3035,60.0,3.216666666666667
2026-01-20T23:03:14+00:00,SAT-55585,143.22918926983482,37.03102215625798,874.0628745191804,3.3391392876746946,-116950.7823995502,10.5,10499883049.2176,47.655,-122.3035,60.0,3.2333333333333334
2026-01-20T23:03:15+00:00,SAT-55585,142.76964497176021,36.82975041924139,877.3930620352259,3.381131739033001,-118421.53567401122,10.5,10499881578.464327,47.655,-122.3035,60.0,3.25
2026-01-20T23:03:16+00:00,SAT-55585,142.31603123969634,36.62788730769757,880.7651294266628,3.4226400763901825,-119875.33322835264,10.5,10499880124.66677,47.655,-122.3035,60.0,3.2666666666666666
2026-01-20T23:03:17+00:00,SAT-55585,141.86829057601543,36.42549944712355,884.1785938773322,3.463665840237098,-121312.22901708065,10.5,10499878687.770983,47.655,-122.3035,60.0,3.283333333333333
2026-01-20T23:03:18+00:00,SAT-55585,141.4263640711545,36.222651533882335,887.6329741074378,3.5042107498884665,-122732.28325786935,10.5,10499877267.716742,47.655,-122.3035,60.0,3.3
2026-01-20T23:03:19+00:00,SAT-55585,140.99019154855563,36.019406345747704,891.1277905518872,3.5442767244992774,-124135.5631676445,10.5,10499875864.436832,47.655,-122.3035,60.0,3.316666666666667
2026-01-20T23:03:20+00:00,SAT-55585,140.55971169931192,35.815824753658525,894.6625655595982,3.5838658675197475,-125522.14241813032,10.5,10499874477.857582,47.655,-122.3035,60.0,3.3333333333333335
2026-01-20T23:03:21+00:00,SAT-55585,140.13486221152397,35.611965736648294,898.2368235773004,3.6229804102966465,-126892.09916052921,10.5,10499873107.900839,47.655,-122.3035,60.0,3.35
2026-01-20T23:03:22+00:00,SAT-55585,139.7155798990848,35.40788640200535,901.8500912770884,3.66162279554865,-128245.51894918193,10.5,10499871754.48105,47.655,-122.3035,60.0,3.3666666666666667
2026-01-20T23:03:23+00:00,SAT-55585,139.30180081325508,35.20364200251127,905.5018977672261,3.699795587673174,-129582.49160013335,10.5,10499870417.5084,47.655,-122.3035,60.0,3.3833333333333333
2026-01-20T23:03:24+00:00,SAT-55585,138.89346035806238,34.999285960430434,909.1917747135006,3.7375015259249627,-130903.11305367165,10.5,10499869096.886946,47.655,-122.3035,60.0,3.4
2026-01-20T23:03:25+00:00,SAT-55585,138.49049339271838,34.79486988998523,912.9192565136096,3.7747434287212345,-132207.4820226897,10.5,10499867792.517977,47.655,-122.3035,60.0,3.4166666666666665
2026-01-20T23:03:26+00:00,SAT-55585,138.09283433802176,34.59044362638442,916.6838803761134,3.8115243134737984,-133495.70418971273,10.5,10499866504.29581,47.655,-122.3035,60.0,3.433333333333333
2026-01-20T23:03:27+00:00,SAT-55585,137.70041726321662,34.38605524941754,920.485186518893,3.847847294986908,-134767.8886483613,10.5,10499865232.111351,47.655,-122.3035,60.0,3.45
2026-01-20T23:03:28+00:00,SAT-55585,137.31317597793102,34.18175111362256,924.3227182662849,3.8837155809784405,-136024.1477464841,10.5,10499863975.852253,47.655,-122.3035,60.0,3.466666666666667
2026-01-20T23:03:29+00:00,SAT-55585,136.93104411822546,33.97757587945036,928.1960221417434,3.9191325315867225,-137264.59917033865,10.5,10499862735.40083,47.655,-122.3035,60.0,3.4833333333333334
2026-01-20T23:03:30+00:00,SAT-55585,136.55395522091317,33.77357254198158,932.1046480198534,3.95410155202663,-138489.362184954,10.5,10499861510.637815,47.655,-122.3035,60.0,3.5
2026-01-20T23:03:31+00:00,SAT-55585,136.18184280300585,33.56978246585555,936.0481491712849,3.9886262143993236,-139698.5619004228,10.5,10499860301.438099,47.655,-122.3035,60.0,3.5166666666666666
2026-01-20T23:03:32+00:00,SAT-55585,135.81464042395737,33.366245414296806,940.026082429234,4.022710112460574,-140892.32418527364,10.5,10499859107.675816,47.655,-122.3035,60.0,3.533333333333333
2026-01-20T23:03:33+00:00,SAT-55585,135.45228175673813,33.162999585998904,944.0380082110173,4.0563569804631285,-142070.77982883362,10.5,10499857929.220171,47.655,-122.3035,60.0,3.55
2026-01-20T23:03:34+00:00,SAT-55585,135.09470064280194,32.96008164612421,948.0834906581929,4.089570578699005,-143234.06053243525,10.5,10499856765.939468,47.655,-122.3035,60.0,3.566666666666667
2026-01-20T23:03:35+00:00,SAT-55585,134.74183115286755,32.75752676325177,952.162097662531,4.1223547757062065,-144382.30178864326,10.5,10499855617.698212,47.655,-122.3035,60.0,3.5833333333333335
2026-01-20T23:03:36+00:00,SAT-55585,134.39360763578375,32.55536864220659,956.2734009739687,4.154713489129469,-145515.64080994797,10.5,10499854484.35919,47.655,-122.3035,60.0,3.6
2026-01-20T23:03:37+00:00,SAT-55585,134.04996476838252,32.35363955981875,960.4169762495842,4.18665070196513,-146634.2170977292,10.5,10499853365.782902,47.655,-122.3035,60.0,3.6166666666666667
2026-01-20T23:03:38+00:00,SAT-55585,133.71083759984484,32.152370399735084,964.5924031187751,4.218170438655736,-147738.17160498825,10.5,10499852261.828396,47.655,-122.3035,60.0,3.6333333333333333
2026-01-20T23:03:39+00:00,SAT-55585,133.37616159408813,31.951590688189622,968.7992652245927,4.249276797089853,-148827.64785711674,10.5,10499851172.352142,47.655,-122.3035,60.0,3.65
2026-01-20T23:03:40+00:00,SAT-55585,133.04587266592705,31.751328627980886,973.0371502969895,4.279973890840338,-149902.78992883654,10.5,10499850097.210072,47.655,-122.3035,60.0,3.6666666666666665
2026-01-20T23:03:41+00:00,SAT-55585,132.7199072183338,31.551611134880854,977.3056501684651,4.310265905669622,-150963.74442325375,10.5,10499849036.255577,47.655,-122.3035,60.0,3.683333333333333
2026-01-20T23:03:42+00:00,SAT-55585,132.39820217192394,31.352463870994516,981.6043608460581,4.340157013976748,-152010.6574754321,10.5,10499847989.342525,47.655,-122.3035,60.0,3.7
2026-01-20T23:03:43+00:00,SAT-55585,132.08069499785077,31.153911281681815,985.9328824980223,4.3696514932338015,-153043.67890053763,10.5,10499846956.3211,47.655,-122.3035,60.0,3.716666666666667
2026-01-20T23:03:44+00:00,SAT-55585,131.76732373880955,30.955976626545773,990.2908195586145,4.3987535451477155,-154062.95586012042,10.5,10499845937.04414,47.655,-122.3035,60.0,3.7333333333333334
2026-01-20T23:03:45+00:00,SAT-55585,131.45802704060262,30.758682018182213,994.6777806525355,4.427467507379804,-155068.640277428,10.5,10499844931.359722,47.655,-122.3035,60.0,3.75
2026-01-20T23:03:46+00:00,SAT-55585,131.1527441655686,30.562048450762866,999.0933787305188,4.4557976360581915,-156060.88122007062,10.5,10499843939.11878,47.655,-122.3035,60.0,3.7666666666666666
2026-01-20T23:03:47+00:00,SAT-55585,130.85141501919375,30.3660958378599,1003.5372309880148,4.483748262830426,-157039.83040066832,10.5,10499842960.1696,47.655,-122.3035,60.0,3.783333333333333
2026-01-20T23:03:48+00:00,SAT-55585,130.5539801631079,30.17084304260339,1008.00895894051,4.511323706840454,-158005.63909391194,10.5,10499841994.360907,47.655,-122.3035,60.0,3.8
