DopplerPredictor/satellites_20260205_234138/SAT-55403.csv

timestamp,satellite,azimuth_deg,elevation_deg,distance_km,relative_velocity_kms,doppler_shift_hz,tx_freq_ghz,rx_freq_hz,ue_lat,ue_lon,ue_alt_m,time_minutes
2026-01-20T23:09:05+00:00,SAT-55403,314.48772645332303,30.182844934127875,1036.1870977392998,-5.528334619866911,193625.66321999521,10.5,10500193625.66322,47.655,-122.3035,60.0,9.083333333333334
2026-01-20T23:09:06+00:00,SAT-55403,314.3237731539839,30.41784706139933,1030.6735838216387,-5.50902532352594,192949.36998389187,10.5,10500192949.369984,47.655,-122.3035,60.0,9.1
2026-01-20T23:09:07+00:00,SAT-55403,314.15720351638913,30.65480441513523,1025.1793274347594,-5.489397337284626,192261.91487942162,10.5,10500192261.914879,47.655,-122.3035,60.0,9.116666666666667
2026-01-20T23:09:08+00:00,SAT-55403,313.98795839049683,30.893733689347414,1019.7046464141993,-5.46944494269683,191563.09762241156,10.5,10500191563.097622,47.655,-122.3035,60.0,9.133333333333333
2026-01-20T23:09:09+00:00,SAT-55403,313.81597693099803,31.13465136648449,1014.2498642986105,-5.44916236272718,190852.7158766462,10.5,10500190852.715878,47.655,-122.3035,60.0,9.15
2026-01-20T23:09:10+00:00,SAT-55403,313.6411965395676,31.377573693134945,1008.8153103881933,-5.428543710472341,190130.56345786917,10.5,10500190130.563457,47.655,-122.3035,60.0,9.166666666666666
2026-01-20T23:09:11+00:00,SAT-55403,313.46355280656616,31.62251665203891,1003.4013198542698,-5.407583025816741,189396.4316176219,10.5,10500189396.431618,47.655,-122.3035,60.0,9.183333333333334
2026-01-20T23:09:12+00:00,SAT-55403,313.2829794494674,31.869495934192347,998.008233812299,-5.3862742015849445,188650.10645678724,10.5,10500188650.106457,47.655,-122.3035,60.0,9.2
2026-01-20T23:09:13+00:00,SAT-55403,313.0994082513845,32.1185269059561,992.6363994685424,-5.36461112325964,187891.3738191046,10.5,10500187891.37382,47.655,-122.3035,60.0,9.216666666666667
2026-01-20T23:09:14+00:00,SAT-55403,312.9127689930631,32.369624580860304,987.2861701273881,-5.342587538261552,187120.01471279937,10.5,10500187120.014713,47.655,-122.3035,60.0,9.233333333333333
2026-01-20T23:09:15+00:00,SAT-55403,312.7229893864226,32.622803583679215,981.9579053290391,-5.320197075754637,186335.80600424475,10.5,10500186335.806004,47.655,-122.3035,60.0,9.25
2026-01-20T23:09:16+00:00,SAT-55403,312.5299950052079,32.87807811342852,976.6519709674576,-5.297433353458634,185538.52415898888,10.5,10500185538.524158,47.655,-122.3035,60.0,9.266666666666667
2026-01-20T23:09:17+00:00,SAT-55403,312.33370920969514,33.135461909517815,971.3687393017735,-5.274289816569564,184727.93960006966,10.5,10500184727.9396,47.655,-122.3035,60.0,9.283333333333333
2026-01-20T23:09:18+00:00,SAT-55403,312.13405307401104,33.39496820815284,966.1085891283503,-5.250759876337929,183903.82156160934,10.5,10500183903.821562,47.655,-122.3035,60.0,9.3
2026-01-20T23:09:19+00:00,SAT-55403,311.93094530624217,33.65660970321728,960.8719058146361,-5.226836843361684,183065.9357524521,10.5,10500183065.935753,47.655,-122.3035,60.0,9.316666666666666
2026-01-20T23:09:20+00:00,SAT-55403,311.72430216813245,33.92039850170135,955.6590813995479,-5.202513904402911,182214.04354418605,10.5,10500182214.043545,47.655,-122.3035,60.0,9.333333333333334
2026-01-20T23:09:21+00:00,SAT-55403,311.51403739267585,34.186346075514614,950.4705147169759,-5.177784238858691,181347.90605044592,10.5,10500181347.90605,47.655,-122.3035,60.0,9.35
2026-01-20T23:09:22+00:00,SAT-55403,311.30006209486476,34.45446321672726,945.3066114031275,-5.152640865110398,180467.2787454152,10.5,10500180467.278746,47.655,-122.3035,60.0,9.366666666666667
2026-01-20T23:09:23+00:00,SAT-55403,311.0822846848804,34.72475998240308,940.1677840571117,-5.127076765233712,179571.9158316984,10.5,10500179571.915833,47.655,-122.3035,60.0,9.383333333333333
2026-01-20T23:09:24+00:00,SAT-55403,310.86061077386836,34.99724564305781,935.0544522771492,-5.101084801099914,178661.5673018335,10.5,10500178661.567303,47.655,-122.3035,60.0,9.4
2026-01-20T23:09:25+00:00,SAT-55403,310.6349430797192,35.271928623898305,929.9670427804514,-5.0746578365448105,177735.98321716455,10.5,10500177735.983217,47.655,-122.3035,60.0,9.416666666666666
2026-01-20T23:09:26+00:00,SAT-55403,310.4051813249176,35.548816449610705,924.9059894012634,-5.0477885719914815,176794.9079156306,10.5,10500176794.907915,47.655,-122.3035,60.0,9.433333333333334
2026-01-20T23:09:27+00:00,SAT-55403,310.171222137821,35.82791567716079,919.8717332538384,-5.020469649301982,175838.08368411593,10.5,10500175838.083685,47.655,-122.3035,60.0,9.45
2026-01-20T23:09:28+00:00,SAT-55403,309.9329589466291,36.10923183085868,914.8647227908415,-4.992693718553487,174865.25309723307,10.5,10500174865.253098,47.655,-122.3035,60.0,9.466666666666667
2026-01-20T23:09:29+00:00,SAT-55403,309.69028186694425,36.39276933788197,909.8854137951558,-4.964453256052161,173876.15264339864,10.5,10500173876.152643,47.655,-122.3035,60.0,9.483333333333333
2026-01-20T23:09:30+00:00,SAT-55403,309.44307759408514,36.678531450046364,904.9342695531885,-4.935740761042666,172870.5196144327,10.5,10500172870.519615,47.655,-122.3035,60.0,9.5
2026-01-20T23:09:31+00:00,SAT-55403,309.1912292832507,36.9665201729161,900.0117608319939,-4.906548615089219,171848.08718048804,10.5,10500171848.087181,47.655,-122.3035,60.0,9.516666666666667
2026-01-20T23:09:32+00:00,SAT-55403,308.9346164328444,37.25673618306243,895.1183659966382,-4.876869200154604,170808.58852567713,10.5,10500170808.588526,47.655,-122.3035,60.0,9.533333333333333
2026-01-20T23:09:33+00:00,SAT-55403,308.6731147588016,37.54917874812522,890.2545710098012,-4.846694797625301,169751.7533115048,10.5,10500169751.753311,47.655,-122.3035,60.0,9.55
2026-01-20T23:09:34+00:00,SAT-55403,308.4065960704553,37.8438456367545,885.4208695320845,-4.816017657035999,168677.3100838914,10.5,10500168677.310083,47.655,-122.3035,60.0,9.566666666666666
2026-01-20T23:09:35+00:00,SAT-55403,308.1349281398617,38.140733028177316,880.6177629537767,-4.784830018018981,167584.9870419332,10.5,10500167584.987041,47.655,-122.3035,60.0,9.583333333333334
2026-01-20T23:09:36+00:00,SAT-55403,307.85797456669474,38.43983541865379,875.8457604047293,-4.753124060734019,166474.5103017475,10.5,10500166474.510302,47.655,-122.3035,60.0,9.6
2026-01-20T23:09:37+00:00,SAT-55403,307.57559464238904,38.741145520183544,871.1053788136711,-4.7208919343342695,165345.60489346876,10.5,10500165345.604893,47.655,-122.3035,60.0,9.616666666666667
2026-01-20T23:09:38+00:00,SAT-55403,307.2876432099637,39.04465415599648,866.3971429391297,-4.688125775153423,164197.9953982396,10.5,10500164197.995398,47.655,-122.3035,60.0,9.633333333333333
2026-01-20T23:09:39+00:00,SAT-55403,306.99397051984835,39.35035015211001,861.7215853822181,-4.6548177174629455,163031.40632497476,10.5,10500163031.406324,47.655,-122.3035,60.0,9.65
2026-01-20T23:09:40+00:00,SAT-55403,306.69442208226974,39.658220224351815,857.0792465886906,-4.620959864517014,161845.56109623224,10.5,10500161845.561096,47.655,-122.3035,60.0,9.666666666666666
2026-01-20T23:09:41+00:00,SAT-55403,306.3888385187984,39.96824885800762,852.4706748798781,-4.586544337641208,160640.1837675072,10.5,10500160640.183767,47.655,-122.3035,60.0,9.683333333333334
2026-01-20T23:09:42+00:00,SAT-55403,306.0770554088438,40.28041818501455,847.896426434663,-4.551563259383255,159414.99843709936,10.5,10500159414.998438,47.655,-122.3035,60.0,9.7
2026-01-20T23:09:43+00:00,SAT-55403,305.75890313500855,40.594707854211244,843.3570652882623,-4.516008787312555,158169.7304299157,10.5,10500158169.73043,47.655,-122.3035,60.0,9.716666666666667
2026-01-20T23:09:44+00:00,SAT-55403,305.4342067248277,40.91109489786601,838.8531632972995,-4.479873082758066,156904.10520253878,10.5,10500156904.105202,47.655,-122.3035,60.0,9.733333333333333
2026-01-20T23:09:45+00:00,SAT-55403,305.10278569316796,41.22955358981245,834.3853001360537,-4.443148361670173,155617.8501246246,10.5,10500155617.850124,47.655,-122.3035,60.0,9.75
2026-01-20T23:09:46+00:00,SAT-55403,304.76445388083164,41.550055300702034,829.9540632419867,-4.405826879944446,154310.69396487848,10.5,10500154310.693964,47.655,-122.3035,60.0,9.766666666666667
2026-01-20T23:09:47+00:00,SAT-55403,304.419019293734,41.87256834566313,825.5600477759031,-4.367900968868192,152982.36813254326,10.5,10500152982.368132,47.655,-122.3035,60.0,9.783333333333333
2026-01-20T23:09:48+00:00,SAT-55403,304.06628394030315,42.19705782776693,821.2038565467622,-4.329363007326417,151632.6057039346,10.5,10500151632.605703,47.655,-122.3035,60.0,9.8
2026-01-20T23:09:49+00:00,SAT-55403,303.7060436720138,42.52348547253161,816.8860999642063,-4.290205473763492,150261.14324235823,10.5,10500150261.143242,47.655,-122.3035,60.0,9.816666666666666
2026-01-20T23:09:50+00:00,SAT-55403,303.33808802252156,42.85180945916563,812.6073959392697,-4.250420933684122,148867.72036034102,10.5,10500148867.72036,47.655,-122.3035,60.0,9.833333333333334
2026-01-20T23:09:51+00:00,SAT-55403,302.96220005047536,43.18198424368325,808.3683697975506,-4.210002070995257,147452.08081735732,10.5,10500147452.080818,47.655,-122.3035,60.0,9.85
2026-01-20T23:09:52+00:00,SAT-55403,302.5781561846011,43.51396037706301,804.1696541611273,-4.168941702043763,146013.97301148754,10.5,10500146013.973011,47.655,-122.3035,60.0,9.866666666666667
2026-01-20T23:09:53+00:00,SAT-55403,302.18572607255896,43.84768431710745,800.0118888164727,-4.12723273804652,144553.14866356133,10.5,10500144553.148664,47.655,-122.3035,60.0,9.883333333333333
2026-01-20T23:09:54+00:00,SAT-55403,301.7846724405068,44.183098229709564,795.8957206198389,-4.084868293585313,143069.36661710744,10.5,10500143069.366617,47.655,-122.3035,60.0,9.9
2026-01-20T23:09:55+00:00,SAT-55403,301.3747509516883,44.52013979117403,791.8218032944369,-4.041841612346263,141562.39023743474,10.5,10500141562.390238,47.655,-122.3035,60.0,9.916666666666666
2026-01-20T23:09:56+00:00,SAT-55403,300.955710082021,44.85874197696312,787.7907973016789,-3.99814615797441,140031.9905937437,10.5,10500140031.990593,47.655,-122.3035,60.0,9.933333333333334
2026-01-20T23:09:57+00:00,SAT-55403,300.52729099972635,45.19883285024771,783.80336962181,-3.953775574478808,138477.94507234564,10.5,10500138477.945072,47.655,-122.3035,60.0,9.95
2026-01-20T23:09:58+00:00,SAT-55403,300.0892274634076,45.5403353396442,779.8601935740254,-3.908723717677233,136900.03847798915,10.5,10500136900.038479,47.655,-122.3035,60.0,9.966666666666667
2026-01-20T23:09:59+00:00,SAT-55403,299.6412457344058,45.88316701200884,775.9619486052313,-3.862984704881779,135298.06477406007,10.5,10500135298.064774,47.655,-122.3035,60.0,9.983333333333333
2026-01-20T23:10:00+00:00,SAT-55403,299.18306450423864,46.227239842211276,772.1093200292514,-3.816552887536048,133671.82612421992,10.5,10500133671.826124,47.655,-122.3035,60.0,10.0
2026-01-20T23:10:01+00:00,SAT-55403,298.71439484783633,46.57245997339841,768.3029987933227,-3.7694228923358555,132021.13433262715,10.5,10500132021.134333,47.655,-122.3035,60.0,10.016666666666667
2026-01-20T23:10:02+00:00,SAT-55403,298.23494019942467,46.91872747393034,764.5436812035806,-3.7215896527539645,130345.8119480665,10.5,10500130345.811949,47.655,-122.3035,60.0,10.033333333333333
2026-01-20T23:10:03+00:00,SAT-55403,297.7443963550313,47.26593609067181,760.8320686191063,-3.6730484165048227,128645.69252539582,10.5,10500128645.692526,47.655,-122.3035,60.0,10.05
2026-01-20T23:10:04+00:00,SAT-55403,297.2424515088927,47.6139729969155,757.1688671385257,-3.623794748552339,126920.62073089098,10.5,10500126920.620731,47.655,-122.3035,60.0,10.066666666666666
2026-01-20T23:10:05+00:00,SAT-55403,296.7287863287194,47.96271853495241,753.5547872836103,-3.5738245797998704,125170.45404757527,10.5,10500125170.454048,47.655,-122.3035,60.0,10.083333333333334
2026-01-20T23:10:06+00:00,SAT-55403,296.20307406971824,48.31204595823765,749.990543634321,-3.5231342232057465,123395.06333965325,10.5,10500123395.06334,47.655,-122.3035,60.0,10.1
2026-01-20T23:10:07+00:00,SAT-55403,295.6649807359818,48.6618211710016,746.4768544477754,-3.471720389791306,121594.33341317983,10.5,10500121594.333414,47.655,-122.3035,60.0,10.116666666666667
2026-01-20T23:10:08+00:00,SAT-55403,295.11416529578844,49.011902466149685,743.0144412612516,-3.4195801763165607,119768.16258440995,10.5,10500119768.162584,47.655,-122.3035,60.0,10.133333333333333
2026-01-20T23:10:09+00:00,SAT-55403,294.5502799613599,49.36214025953501,739.6040285074856,-3.366711180269375,117916.46670720595,10.5,10500117916.466707,47.655,-122.3035,60.0,10.15
2026-01-20T23:10:10+00:00,SAT-55403,293.97297052154926,49.712376834819075,736.2463430152844,-3.3131114139863507,116039.17616518786,10.5,10500116039.176165,47.655,-122.3035,60.0,10.166666666666666
2026-01-20T23:10:11+00:00,SAT-55403,293.38187676399684,50.06244607998994,732.9421135957896,-3.2587794091362134,114136.23953118341,10.5,10500114136.23953,47.655,-122.3035,60.0,10.183333333333334
2026-01-20T23:10:12+00:00,SAT-55403,292.7766329667036,50.41217323651275,729.6920705245378,-3.2037141680979144,112207.62186428353,10.5,10500112207.621864,47.655,-122.3035,60.0,10.2
2026-01-20T23:10:13+00:00,SAT-55403,292.1568684913946,50.76137464709712,726.4969450720121,-3.1479152768667373,110253.30866429182,10.5,10500110253.308664,47.655,-122.3035,60.0,10.216666666666667
2026-01-20T23:10:14+00:00,SAT-55403,291.5222084609738,51.10985752132382,723.3574689215901,-3.091382824981349,108273.30306723113,10.5,10500108273.303068,47.655,-122.3035,60.0,10.233333333333333
2026-01-20T23:10:15+00:00,SAT-55403,290.87227456317373,51.4574197006899,720.2743736673516,-3.0341175068234345,106267.62939328536,10.5,10500106267.629393,47.655,-122.3035,60.0,10.25
2026-01-20T23:10:16+00:00,SAT-55403,290.20668595963417,51.803849445318455,717.2483902108559,-2.976120599135201,104236.33235936712,10.5,10500104236.33236,47.655,-122.3035,60.0,10.266666666666667
2026-01-20T23:10:17+00:00,SAT-55403,289.5250603317575,52.148925231736165,714.2802481803421,-2.9173939979491625,102179.47837255534,10.5,10500102179.478373,47.655,-122.3035,60.0,10.283333333333333
2026-01-20T23:10:18+00:00,SAT-55403,288.82701506402066,52.49241557143069,711.3706753131011,-2.857940266478074,100097.15720740306,10.5,10500100097.157207,47.655,-122.3035,60.0,10.3
2026-01-20T23:10:19+00:00,SAT-55403,288.112168571431,52.83407885526841,708.5203967900818,-2.7977625761776994,97989.47994170635,10.5,10500097989.479942,47.655,-122.3035,60.0,10.316666666666666
2026-01-20T23:10:20+00:00,SAT-55403,287.38014180650714,53.17366321492812,705.7301346292795,-2.7368648235194506,95856.58304637614,10.5,10500095856.583046,47.655,-122.3035,60.0,10.333333333333334
2026-01-20T23:10:21+00:00,SAT-55403,286.6305599165471,53.51090642640061,703.0006069626646,-2.6752515806822723,93698.62665845935,10.5,10500093698.62666,47.655,-122.3035,60.0,10.35
2026-01-20T23:10:22+00:00,SAT-55403,285.86305409926746,53.845535840504034,700.3325273622852,-2.6129281448096804,91515.79630632885,10.5,10500091515.796307,47.655,-122.3035,60.0,10.366666666666667
2026-01-20T23:10:23+00:00,SAT-55403,285.0772636429677,54.17726835709501,697.7266041172478,-2.549900532347818,89308.30271137804,10.5,10500089308.302711,47.655,-122.3035,60.0,10.383333333333333
2026-01-20T23:10:24+00:00,SAT-55403,284.2728381741703,54.505810441608034,695.1835395163409,-2.4861755180604614,87076.38315449165,10.5,10500087076.383154,47.655,-122.3035,60.0,10.4
2026-01-20T23:10:25+00:00,SAT-55403,283.44944010740323,54.83085819519568,692.7040290917521,-2.421760648993766,84820.30196514998,10.5,10500084820.301966,47.655,-122.3035,60.0,10.416666666666666
2026-01-20T23:10:26+00:00,SAT-55403,282.60674730878503,55.15209748144007,690.2887608488555,-2.356664236817768,82540.35025319605,10.5,10500082540.350254,47.655,-122.3035,60.0,10.433333333333334
2026-01-20T23:10:27+00:00,SAT-55403,281.7444559832793,55.469204113005894,687.9384145036367,-2.290895382265788,80236.84676480677,10.5,10500080236.846766,47.655,-122.3035,60.0,10.45
2026-01-20T23:10:28+00:00,SAT-55403,280.8622837771264,55.78184410889836,685.6536606957471,-2.2244639804952575,77910.13807025194,10.5,10500077910.138071,47.655,-122.3035,60.0,10.466666666666667
2026-01-20T23:10:29+00:00,SAT-55403,279.9599730975087,56.08967402657901,683.4351601962077,-2.1573807542599877,75560.59972572715,10.5,10500075560.599726,47.655,-122.3035,60.0,10.483333333333333
2026-01-20T23:10:30+00:00,SAT-55403,279.0372946324121,56.392341379595706,681.2835630820312,-2.08965721159706,73188.63479137002,10.5,10500073188.63479,47.655,-122.3035,60.0,10.5
2026-01-20T23:10:31+00:00,SAT-55403,278.0940510865972,56.689485137064715,679.1995079530458,-2.021305699630023,70794.67571567542,10.5,10500070794.675716,47.655,-122.3035,60.0,10.516666666666667
2026-01-20T23:10:32+00:00,SAT-55403,277.1300810815369,56.98073632497095,677.1836210950563,-1.9523393856699742,68379.18367357571,10.5,10500068379.183674,47.655,-122.3035,60.0,10.533333333333333
2026-01-20T23:10:33+00:00,SAT-55403,276.1452632223105,57.26571872562979,675.2365156618564,-1.8827722435894285,65942.64808919576,10.5,10500065942.648088,47.655,-122.3035,60.0,10.55
2026-01-20T23:10:34+00:00,SAT-55403,275.1395203032808,57.54404968176761,673.3587908708296,-1.8126190837003033,63485.58768230648,10.5,10500063485.587683,47.655,-122.3035,60.0,10.566666666666666
2026-01-20T23:10:35+00:00,SAT-55403,274.11282359469055,57.815341016878506,671.5510311687511,-1.7418955320024163,61008.54974151942,10.5,10500061008.549742,47.655,-122.3035,60.0,10.583333333333334
2026-01-20T23:10:36+00:00,SAT-55403,273.0651971895427,58.07920006900239,669.8138054182883,-1.670618016141373,58512.10963247254,10.5,10500058512.109632,47.655,-122.3035,60.0,10.6
2026-01-20T23:10:37+00:00,SAT-55403,271.99672235573894,58.33523084208191,668.1476660985031,-1.5988037738861811,55996.87109475216,10.5,10500055996.871096,47.655,-122.3035,60.0,10.616666666666667
2026-01-20T23:10:38+00:00,SAT-55403,270.90754182332876,58.583035280358644,666.5531484968996,-1.5264708325304668,53463.46552043648,10.5,10500053463.46552,47.655,-122.3035,60.0,10.633333333333333
2026-01-20T23:10:39+00:00,SAT-55403,269.79786395232895,58.82221466184655,665.0307699220182,-1.4536379981865735,50912.551579129526,10.5,10500050912.551579,47.655,-122.3035,60.0,10.65
2026-01-20T23:10:40+00:00,SAT-55403,268.6679667021909,59.05237111093089,663.5810289267027,-1.3803248378431139,48344.8145895408,10.5,10500048344.81459,47.655,-122.3035,60.0,10.666666666666666
2026-01-20T23:10:41+00:00,SAT-55403,267.5182013243799,59.27310922544425,662.2044045492651,-1.3065516693742625,45760.966169568404,10.5,10500045760.96617,47.655,-122.3035,60.0,10.683333333333334
2026-01-20T23:10:42+00:00,SAT-55403,266.34899568529727,59.48403781363303,660.9013555646123,-1.2323395199481897,43161.74277958651,10.5,10500043161.742779,47.655,-122.3035,60.0,10.7
2026-01-20T23:10:43+00:00,SAT-55403,265.1608571512273,59.68477172752841,659.672319776854,-1.1577101342175338,40547.906009310296,10.5,10500040547.90601,47.655,-122.3035,60.0,10.716666666666667
2026-01-20T23:10:44+00:00,SAT-55403,263.95437490328925,59.87493378968186,658.5177133037423,-1.0826859183541122,37920.240617654825,10.5,10500037920.240618,47.655,-122.3035,60.0,10.733333333333333
2026-01-20T23:10:45+00:00,SAT-55403,262.73022163889493,60.054156788999194,657.4379299169246,-1.0072899267179356,35279.55406582751,10.5,10500035279.554066,47.655,-122.3035,60.0,10.75
2026-01-20T23:10:46+00:00,SAT-55403,261.4891545368127,60.2220855358828,656.4333403954942,-0.9315458317652623,32626.675463380918,10.5,10500032626.675463,47.655,-122.3035,60.0,10.766666666666667
2026-01-20T23:10:47+00:00,SAT-55403,260.2320154115825,60.378378954560496,655.5042919095505,-0.8554778915532794,29962.454430089212,10.5,10500029962.45443,47.655,-122.3035,60.0,10.783333333333333
2026-01-20T23:10:48+00:00,SAT-55403,258.95972998451805,60.52271219018051,654.6511074361686,-0.7791109028100733,27287.759452260034,10.5,10500027287.759453,47.655,-122.3035,60.0,10.8
2026-01-20T23:10:49+00:00,SAT-55403,257.67330622546126,60.65477870387457,653.8740852221716,-0.7024701728976699,24603.47690076157,10.5,10500024603.4769,47.655,-122.3035,60.0,10.816666666666666
2026-01-20T23:10:50+00:00,SAT-55403,256.37383169759755,60.77429233269453,653.1734982748663,-0.6255814893856783,21910.509965362846,10.5,10500021910.509966,47.655,-122.3035,60.0,10.833333333333334
2026-01-20T23:10:51+00:00,SAT-55403,255.06246987099107,60.88098928633056,652.5495938831236,-0.5484710614903997,19209.776603683596,10.5,10500019209.776604,47.655,-122.3035,60.0,10.85
2026-01-20T23:10:52+00:00,SAT-55403,253.74045543974697,60.974630047195866,652.00259319686,-0.4711654863070522,16502.20835850396,10.5,10500016502.208359,47.655,-122.3035,60.0,10.866666666666667
2026-01-20T23:10:53+00:00,SAT-55403,252.40908862355673,61.05500114927921,651.5326908402009,-0.39369170299020173,13788.748752969357,10.5,10500013788.748753,47.655,-122.3035,60.0,10.883333333333333
2026-01-20T23:10:54+00:00,SAT-55403,251.06972851086041,61.12191680547107,651.140054570337,-0.31607695180687706,11070.351856457339,10.5,10500011070.351856,47.655,-122.3035,60.0,10.9
2026-01-20T23:10:55+00:00,SAT-55403,249.7237854937422,61.175220357213824,650.8248249772192,-0.23834871649021694,8347.980265558508,10.5,10500008347.980265,47.655,-122.3035,60.0,10.916666666666666
2026-01-20T23:10:56+00:00,SAT-55403,248.37271292701269,61.21478551878949,650.5871152407458,-0.1605346871234192,5622.603804115383,10.5,10500005622.603804,47.655,-122.3035,60.0,10.933333333333334
2026-01-20T23:10:57+00:00,SAT-55403,247.0179980701068,61.240517397746316,650.4270109249649,-0.08266270502546583,2895.1975928873803,10.5,10500002895.197594,47.655,-122.3035,60.0,10.95
2026-01-20T23:10:58+00:00,SAT-55403,245.66115249178807,61.252353269972964,650.3445698272441,-0.004760714204065424,166.74034922748774,10.5,10500000166.740349,47.655,-122.3035,60.0,10.966666666666667
2026-01-20T23:10:59+00:00,SAT-55403,244.30370207326317,61.25026309628248,650.3398218758576,0.07314328550309901,-2561.78725410944,10.5,10499997438.212746,47.655,-122.3035,60.0,10.983333333333333
2026-01-20T23:11:00+00:00,SAT-55403,242.94717674632707,61.23424977114668,650.4127690743061,0.1510212936184958,-5289.404521958341,10.5,10499994710.595478,47.655,-122.3035,60.0,11.0
2026-01-20T23:11:01+00:00,SAT-55403,241.5931002177811,61.204349097617744,650.5633855006774,0.22884535415529525,-8015.132317406731,10.5,10499991984.867683,47.655,-122.3035,60.0,11.016666666666667
2026-01-20T23:11:02+00:00,SAT-55403,240.24297972214106,61.160629490469,650.7916173520188,0.3065876087211263,-10737.994921712894,10.5,10499989262.005077,47.655,-122.3035,60.0,11.033333333333333
2026-01-20T23:11:03+00:00,SAT-55403,238.8982961281673,61.10319141205217,651.0973830416699,0.3842203459441005,-13457.021765414309,10.5,10499986542.978235,47.655,-122.3035,60.0,11.05
2026-01-20T23:11:04+00:00,SAT-55403,237.56049441407956,61.03216655177077,651.480573345889,0.4617160476563943,-16171.24904587206,10.5,10499983828.750954,47.655,-122.3035,60.0,11.066666666666666
2026-01-20T23:11:05+00:00,SAT-55403,236.23097478168592,60.94771676508702,651.9410515965384,0.5390474393623779,-18879.72149487819,10.5,10499981120.278505,47.655,-122.3035,60.0,11.083333333333334
2026-01-20T23:11:06+00:00,SAT-55403,234.91108444918225,60.850032790270724,652.4786539241043,0.6161875393712688,-21581.49409948906,10.5,10499978418.505901,47.655,-122.3035,60.0,11.1
2026-01-20T23:11:07+00:00,SAT-55403,233.6021102757536,60.7393327657924,653.0931895497163,0.6931096992316067,-24275.63351821169,10.5,10499975724.366482,47.655,-122.3035,60.0,11.116666666666667
2026-01-20T23:11:08+00:00,SAT-55403,232.3052723103041,60.615860575230386,653.7844411174934,0.7697876518237065,-26961.219765404898,10.5,10499973038.780235,47.655,-122.3035,60.0,11.133333333333333
2026-01-20T23:11:09+00:00,SAT-55403,231.0217183030543,60.4798840455064,654.5521650748534,0.8461955543027061,-29637.347715326494,10.5,10499970362.652285,47.655,-122.3035,60.0,11.15
2026-01-20T23:11:10+00:00,SAT-55403,229.75251922397055,60.331693027806764,655.3960920956499,0.9223080326990425,-32303.128664230597,10.5,10499967696.871336,47.655,-122.3035,60.0,11.166666666666666
2026-01-20T23:11:11+00:00,SAT-55403,228.49866580284265,60.171597389708715,656.3159275477918,0.9981002129591193,-34957.69141754311,10.5,10499965042.308582,47.655,-122.3035,60.0,11.183333333333334
2026-01-20T23:11:12+00:00,SAT-55403,227.26106609387077,59.999924949338514,657.3113519918178,1.0735477580547494,-37600.1835895914,10.5,10499962399.81641,47.655,-122.3035,60.0,11.2
2026-01-20T23:11:13+00:00,SAT-55403,226.0405440171412,59.81701937790084,658.3820217164827,1.1486269250117682,-40229.773600987544,10.5,10499959770.226398,47.655,-122.3035,60.0,11.216666666666667
2026-01-20T23:11:14+00:00,SAT-55403,224.83783880424767,59.623238093160104,659.5275693312191,1.223314564764809,-42845.65067354193,10.5,10499957154.349327,47.655,-122.3035,60.0,11.233333333333333
2026-01-20T23:11:15+00:00,SAT-55403,223.65360535688112,59.418950177542655,660.747604358453,1.2975881802707065,-45447.02686564055,10.5,10499954552.973135,47.655,-122.3035,60.0,11.25
2026-01-20T23:11:16+00:00,SAT-55403,222.4884153598236,59.204534332388874,662.0417138838797,1.3714259399256312,-48033.13754216968,10.5,10499951966.862457,47.655,-122.3035,60.0,11.266666666666667
2026-01-20T23:11:17+00:00,SAT-55403,221.34275912142792,58.98037689488149,663.409463220117,1.444806713525952,-50603.24263401748,10.5,10499949396.757366,47.655,-122.3035,60.0,11.283333333333333
2026-01-20T23:11:18+00:00,SAT-55403,220.2170480204472,58.74686992997542,664.8503966062273,1.5177100850948169,-53156.62708731511,10.5,10499946843.372913,47.655,-122.3035,60.0,11.3
2026-01-20T23:11:19+00:00,SAT-55403,219.1116174900728,58.504409414474104,666.364037920028,1.5901163839234542,-55692.60195063435,10.5,10499944307.39805,47.655,-122.3035,60.0,11.316666666666666
2026-01-20T23:11:20+00:00,SAT-55403,218.02673042602393,58.253393520826556,667.949891421362,1.6620067001817762,-58210.50492173706,10.5,10499941789.495079,47.655,-122.3035,60.0,11.333333333333334
2026-01-20T23:11:21+00:00,SAT-55403,216.96258094429996,57.99422101106677,669.6074425109379,1.7333628933577523,-60709.7006431576,10.5,10499939290.299356,47.655,-122.3035,60.0,11.35
2026-01-20T23:11:22+00:00,SAT-55403,215.91929840342138,57.72728974738772,671.3361584975823,1.8041676279796648,-63189.58195334747,10.5,10499936810.418047,47.655,-122.3035,60.0,11.366666666666667
2026-01-20T23:11:23+00:00,SAT-55403,214.89695159359488,57.452995318242536,673.1354894011265,1.8744043503813206,-65649.56907289465,10.5,10499934350.430927,47.655,-122.3035,60.0,11.383333333333333
2026-01-20T23:11:24+00:00,SAT-55403,213.8955530573551,57.17172979015021,675.0048687321124,1.9440573325869543,-68089.11114155853,10.5,10499931910.888859,47.655,-122.3035,60.0,11.4
2026-01-20T23:11:25+00:00,SAT-55403,212.91506343200788,56.88388057414948,676.9437143152704,2.0131116534886724,-70507.68555902451,10.5,10499929492.314442,47.655,-122.3035,60.0,11.416666666666666
2026-01-20T23:11:26+00:00,SAT-55403,211.95539579370202,56.589829414219196,678.9514290942255,2.0815532225981075,-72904.79881678721,10.5,10499927095.201183,47.655,-122.3035,60.0,11.433333333333334
2026-01-20T23:11:27+00:00,SAT-55403,211.01641992970548,56.289951487686686,681.027401959888,2.149368758291303,-75279.98573619449,10.5,10499924720.014263,47.655,-122.3035,60.0,11.45
2026-01-20T23:11:28+00:00,SAT-55403,210.09796651821418,55.984614619744185,683.1710085571513,2.2165458011938326,-77632.8099372508,10.5,10499922367.190063,47.655,-122.3035,60.0,11.466666666666667
2026-01-20T23:11:29+00:00,SAT-55403,209.19983116269418,55.67417860145739,685.3816121049356,2.2830727307791223,-79962.86441996077,10.5,10499920037.13558,47.655,-122.3035,60.0,11.483333333333333
2026-01-20T23:11:30+00:00,SAT-55403,208.32177825384133,55.35899460501485,687.6585642327874,2.3489387181911767,-82269.76991198142,10.5,10499917730.230087,47.655,-122.3035,60.0,11.5
2026-01-20T23:11:31+00:00,SAT-55403,207.46354466455807,55.03940469870855,690.0012057704286,2.414133751291046,-84553.17574585542,10.5,10499915446.824255,47.655,-122.3035,60.0,11.516666666666667
2026-01-20T23:11:32+00:00,SAT-55403,206.62484322975538,54.715741444751345,692.4088675622829,2.478648623475101,-86812.75946737979,10.5,10499913187.240532,47.655,-122.3035,60.0,11.533333333333333
2026-01-20T23:11:33+00:00,SAT-55403,205.80536601683215,54.388327578353476,694.8808712708518,2.5424749087144543,-89048.22596138083,10.5,10499910951.774038,47.655,-122.3035,60.0,11.55
2026-01-20T23:11:34+00:00,SAT-55403,205.00478738576794,54.057475763042255,697.4165301551976,2.605604958231458,-91259.30733531098,10.5,10499908740.692665,47.655,-122.3035,60.0,11.566666666666666
2026-01-20T23:11:35+00:00,SAT-55403,204.22276682651415,53.72348841258768,700.0151498461092,2.668031899337278,-93445.76287853585,10.5,10499906554.237122,47.655,-122.3035,60.0,11.583333333333334
2026-01-20T23:11:36+00:00,SAT-55403,203.45895157638122,53.386657572932016,702.676029120113,2.7297496057583372,-95607.37802304066,10.5,10499904392.621977,47.655,-122.3035,60.0,11.6
2026-01-20T23:11:37+00:00,SAT-55403,202.71297902874764,53.0472648615562,705.3984606438838,2.790752671178017,-97743.96341674872,10.5,10499902256.036583,47.655,-122.3035,60.0,11.616666666666667
2026-01-20T23:11:38+00:00,SAT-55403,201.9844789384831,52.70558145777841,708.1817316922742,2.851036433511136,-99855.35577371638,10.5,10499900144.644226,47.655,-122.3035,60.0,11.633333333333333
2026-01-20T23:11:39+00:00,SAT-55403,201.2730754147898,52.361868132158186,711.02512489055,2.910596909295193,-101941.41557623682,10.5,10499898058.584423,47.655,-122.3035,60.0,11.65
2026-01-20T23:11:40+00:00,SAT-55403,200.5783887389232,52.016375320902235,713.9279188911938,2.9694308223360477,-104002.02807813298,10.5,10499895997.971922,47.655,-122.3035,60.0,11.666666666666666
2026-01-20T23:11:41+00:00,SAT-55403,199.90003698744908,51.669343228799946,716.8893890792765,3.0275355206796757,-106037.10039675713,10.5,10499893962.899603,47.655,-122.3035,60.0,11.683333333333334
2026-01-20T23:11:42+00:00,SAT-55403,199.23763750250114,51.321001969543396,719.9088081950251,3.084909032681133,-108046.5634767633,10.5,10499891953.436523,47.655,-122.3035,60.0,11.7
2026-01-20T23:11:43+00:00,SAT-55403,198.59080818296073,50.97157172280967,722.9854470123071,3.141549973548784,-110030.36881689077,10.5,10499889969.631184,47.655,-122.3035,60.0,11.716666666666667
2026-01-20T23:11:44+00:00,SAT-55403,197.95916864547948,50.62126292179696,726.1185749239107,3.1974575906997442,-111988.49005850346,10.5,10499888011.509941,47.655,-122.3035,60.0,11.733333333333333
2026-01-20T23:11:45+00:00,SAT-55403,197.34234123173567,50.27027645171293,729.3074605720589,3.252631692835771,-113920.92050152774,10.5,10499886079.079498,47.655,-122.3035,60.0,11.75
2026-01-20T23:11:46+00:00,SAT-55403,196.73995190088993,49.91880386934812,732.5513724081892,3.3070726361603504,-115827.67262171645,10.5,10499884172.32738,47.655,-122.3035,60.0,11.766666666666667
2026-01-20T23:11:47+00:00,SAT-55403,196.1516310021762,49.56702763426569,735.8495792389881,3.360781337971794,-117708.7785467366,10.5,10499882291.221453,47.655,-122.3035,60.0,11.783333333333333
2026-01-20T23:11:48+00:00,SAT-55403,195.57701393420336,49.215121346301736,739.2013507859806,3.4137591975517165,-119564.28728534933,10.5,10499880435.712715,47.655,-122.3035,60.0,11.8
2026-01-20T23:11:49+00:00,SAT-55403,195.01574171787138,48.86324999700031,742.6059581662224,3.466008134155227,-121394.26605798697,10.5,10499878605.733942,47.655,-122.3035,60.0,11.816666666666666
2026-01-20T23:11:50+00:00,SAT-55403,194.46746146952898,48.51157022049559,746.0626744108791,3.5175304916086763,-123198.7969553627,10.5,10499876801.203045,47.655,-122.3035,60.0,11.833333333333334
2026-01-20T23:11:51+00:00,SAT-55403,193.93182680702725,48.160230555949674,749.5707748886589,3.568329104029715,-124977.97924026498,10.5,10499875022.02076,47.655,-122.3035,60.0,11.85
2026-01-20T23:11:52+00:00,SAT-55403,193.40849816834552,47.80937170343548,753.12953779479,3.6184072057842185,-126731.92619386809,10.5,10499873268.073807,47.655,-122.3035,60.0,11.866666666666667
2026-01-20T23:11:53+00:00,SAT-55403,192.89714307723736,47.45912678778055,756.7382445501956,3.6677684258928176,-128460.76491982525,10.5,10499871539.23508,47.655,-122.3035,60.0,11.883333333333333
2026-01-20T23:11:54+00:00,SAT-55403,192.39743634773149,47.10962162045013,760.396180195091,3.71641679051254,-130164.63643118624,10.5,10499869835.36357,47.655,-122.3035,60.0,11.9
2026-01-20T23:11:55+00:00,SAT-55403,191.90906023312257,46.76097495784362,764.1026337850533,3.7643566689370607,-131843.6937590976,10.5,10499868156.30624,47.655,-122.3035,60.0,11.916666666666666
2026-01-20T23:11:56+00:00,SAT-55403,191.43170453417446,46.41329876051923,767.8568987332424,3.811592792466899,-133498.10261371697,10.5,10499866501.897387,47.655,-122.3035,60.0,11.933333333333334
2026-01-20T23:11:57+00:00,SAT-55403,190.96506666069425,46.066698445670774,771.6582731714324,3.8581301494030877,-135128.03770644698,10.5,10499864871.962294,47.655,-122.3035,60.0,11.95
2026-01-20T23:11:58+00:00,SAT-55403,190.5088516689002,45.721273143606695,775.5060602063269,3.9039741063805744,-136733.6869995443,10.5,10499863266.313,47.655,-122.3035,60.0,11.966666666666667
2026-01-20T23:11:59+00:00,SAT-55403,190.06277224807334,45.37711593706079,779.3995682968765,3.9491302538784323,-138315.2462952338,10.5,10499861684.753704,47.655,-122.3035,60.0,11.983333333333333
2026-01-20T23:12:00+00:00,SAT-55403,189.62654869813338,45.0343141080054,783.3381114775244,3.9936044327180578,-139872.92016378746,10.5,10499860127.079836,47.655,-122.3035,60.0,12.0
2026-01-20T23:12:01+00:00,SAT-55403,189.19990887651628,44.69294937497069,787.3210096078758,4.037402775840999,-141406.92340676056,10.5,10499858593.076593,47.655,-122.3035,60.0,12.016666666666667
2026-01-20T23:12:02+00:00,SAT-55403,188.78258811778704,44.35309811973597,791.3475886640362,4.0805315747353275,-142917.4763786784,10.5,10499857082.52362,47.655,-122.3035,60.0,12.033333333333333
2026-01-20T23:12:03+00:00,SAT-55403,188.37432914908325,44.01483161814552,795.417180896733,4.122997384924149,-144404.80868168996,10.5,10499855595.191319,47.655,-122.3035,60.0,12.05
2026-01-20T23:12:04+00:00,SAT-55403,187.97488197643617,43.67821625448056,799.5291250946417,4.164806881039881,-145869.15408965608,10.5,10499854130.845911,47.655,-122.3035,60.0,12.066666666666666
2026-01-20T23:12:05+00:00,SAT-55403,187.5840037725801,43.34331374035031,803.6827667031772,4.2059669801041295,-147310.75486593248,10.5,10499852689.245134,47.655,-122.3035,60.0,12.083333333333334
2026-01-20T23:12:06+00:00,SAT-55403,187.2014587394032,43.010181315844484,807.877458066231,4.246484702496172,-148729.85689389758,10.5,10499851270.143106,47.655,-122.3035,60.0,12.1
2026-01-20T23:12:07+00:00,SAT-55403,186.8270179744724,42.67887195442796,812.1125585292546,4.286367232583196,-150126.71180048017,10.5,10499849873.2882,47.655,-122.3035,60.0,12.116666666666667
2026-01-20T23:12:08+00:00,SAT-55403,186.46045932316378,42.34943455531872,816.3874346028056,4.325621862111981,-151501.5749734965,10.5,10499848498.425026,47.655,-122.3035,60.0,12.133333333333333
2026-01-20T23:12:09+00:00,SAT-55403,186.10156722910244,42.02191413283888,820.7014600696413,4.364256015375946,-152854.7064431068,10.5,10499847145.293556,47.655,-122.3035,60.0,12.15
2026-01-20T23:12:10+00:00,SAT-55403,185.75013257701642,41.696351996402896,825.0540161169074,4.402277200199132,-154186.36916506712,10.5,10499845813.630835,47.655,-122.3035,60.0,12.166666666666666
2026-01-20T23:12:11+00:00,SAT-55403,185.40595253578277,41.37278592695901,829.4444914194468,4.439693013018137,-155496.82919872,10.5,10499844503.170801,47.655,-122.3035,60.0,12.183333333333334
2026-01-20T23:12:12+00:00,SAT-55403,185.0688303980558,41.051250345827896,833.8722822281751,4.4765111304252265,-156786.3554107985,10.5,10499843213.644588,47.655,-122.3035,60.0,12.2
2026-01-20T23:12:13+00:00,SAT-55403,184.7385754182924,40.73177647715891,838.3367924500179,4.512739252779687,-158055.2175004573,10.5,10499841944.7825,47.655,-122.3035,60.0,12.216666666666667
2026-01-20T23:12:14+00:00,SAT-55403,184.4150026543237,40.41439250751441,842.8374336716188,4.54838521653634,-159303.68993349245,10.5,10499840696.310066,47.655,-122.3035,60.0,12.233333333333333
2026-01-20T23:12:15+00:00,SAT-55403,184.09793279923971,40.09912373080553,847.3736252950666,4.58345677739579,-160532.0443473458,10.5,10499839467.955652,47.655,-122.3035,60.0,12.25
2026-01-20T23:12:16+00:00,SAT-55403,183.78719203072313,39.785992701937786,851.9447944573595,4.617961822081392,-161740.55696842985,10.5,10499838259.443031,47.655,-122.3035,60.0,12.266666666666667
2026-01-20T23:12:17+00:00,SAT-55403,183.48261184431695,39.475019369226835,856.5503761610745,4.651908219915172,-162929.5034136893,10.5,10499837070.496586,47.655,-122.3035,60.0,12.283333333333333
2026-01-20T23:12:18+00:00,SAT-55403,183.18402889963983,39.16622121103717,861.1898132570154,4.685303843348651,-164099.1594096768,10.5,10499835900.84059,47.655,-122.3035,60.0,12.3
2026-01-20T23:12:19+00:00,SAT-55403,182.89128486625754,38.8596133648826,865.8625564473319,4.718156574962172,-165249.80103769922,10.5,10499834750.198963,47.655,-122.3035,60.0,12.316666666666666
2026-01-20T23:12:20+00:00,SAT-55403,182.60422627113792,38.55520875023765,870.5680642956222,4.750474275882338,-166381.7036276628,10.5,10499833618.296371,47.655,-122.3035,60.0,12.333333333333334
2026-01-20T23:12:21+00:00,SAT-55403,182.3227043503083,38.25301818777722,875.3058032055364,4.782264841818205,-167495.14372069747,10.5,10499832504.85628,47.655,-122.3035,60.0,12.35
2026-01-20T23:12:22+00:00,SAT-55403,182.04657489969935,37.95305050962219,880.0752474552661,4.813536101084441,-168590.39549749662,10.5,10499831409.604502,47.655,-122.3035,60.0,12.366666666666667
2026-01-20T23:12:23+00:00,SAT-55403,181.7756981350199,37.65531267085795,884.8758791303319,4.844295862955894,-169667.73247189858,10.5,10499830332.267529,47.655,-122.3035,60.0,12.383333333333333
2026-01-20T23:12:24+00:00,SAT-55403,181.50993855165908,37.359809852824775,889.7071881045916,4.8745519239521125,-170727.42771099726,10.5,10499829272.572289,47.655,-122.3035,60.0,12.4
2026-01-20T23:12:25+00:00,SAT-55403,181.249164786924,37.066545561203945,894.5686720275241,4.904312030006101,-171769.75251013174,10.5,10499828230.24749,47.655,-122.3035,60.0,12.416666666666666
2026-01-20T23:12:26+00:00,SAT-55403,180.9932494880338,36.775521721740354,899.4598362737727,4.933583874774235,-172794.97633369235,10.5,10499827205.023666,47.655,-122.3035,60.0,12.433333333333334
2026-01-20T23:12:27+00:00,SAT-55403,180.74206918314692,36.4867387714921,904.3801938910134,4.962375110890662,-173803.36720929766,10.5,10499826196.632792,47.655,-122.3035,60.0,12.45
2026-01-20T23:12:28+00:00,SAT-55403,180.49550415513573,36.200195745050415,909.3292655590395,4.99069334565048,-174795.1915766008,10.5,10499825204.808424,47.655,-122.3035,60.0,12.466666666666667
2026-01-20T23:12:29+00:00,SAT-55403,180.2534383187125,35.9158903568735,914.3065795445457,5.018546120224442,-175770.71355930052,10.5,10499824229.28644,47.655,-122.3035,60.0,12.483333333333333
2026-01-20T23:12:30+00:00,SAT-55403,180.0157591023973,35.633819080809864,919.3116716351813,5.045940901131658,-176730.19466647963,10.5,10499823269.805334,47.655,-122.3035,60.0,12.5
2026-01-20T23:12:31+00:00,SAT-55403,179.78235733379222,35.353977226209715,924.3440850650969,5.072885118652634,-177673.89513799126,10.5,10499822326.104862,47.655,-122.3035,60.0,12.516666666666667
2026-01-20T23:12:32+00:00,SAT-55403,179.55312712638565,35.07635900820125,929.4033704788045,5.099386100426533,-178602.07161875497,10.5,10499821397.928381,47.655,-122.3035,60.0,12.533333333333333
2026-01-20T23:12:33+00:00,SAT-55403,179.32796577298424,34.80095761812467,934.4890858288111,5.125451140309122,-179514.97957045265,10.5,10499820485.02043,47.655,-122.3035,60.0,12.55
2026-01-20T23:12:34+00:00,SAT-55403,179.10677363895272,34.52776528678561,939.6007963419252,5.151087401800846,-180412.86988917142,10.5,10499819587.130112,47.655,-122.3035,60.0,12.566666666666666
2026-01-20T23:12:35+00:00,SAT-55403,178.88945406333528,34.25677334967249,944.7380743892519,5.176302048351201,-181295.99346921398,10.5,10499818704.00653,47.655,-122.3035,60.0,12.583333333333334
2026-01-20T23:12:36+00:00,SAT-55403,178.67591325686502,33.987972302116795,949.900499486141,5.20110208214329,-182164.59555665188,10.5,10499817835.404444,47.655,-122.3035,60.0,12.6
2026-01-20T23:12:37+00:00,SAT-55403,178.46606021077167,33.72135186000702,955.0876581313541,5.225494501655298,-183018.92126779465,10.5,10499816981.078732,47.655,-122.3035,60.0,12.616666666666667
2026-01-20T23:12:38+00:00,SAT-55403,178.25980660122872,33.4569010094114,960.2991438033687,5.2494861393405525,-183859.20990405904,10.5,10499816140.790096,47.655,-122.3035,60.0,12.633333333333333
2026-01-20T23:12:39+00:00,SAT-55403,178.0570667041536,33.19460806184834,965.5345567947988,5.273083816836832,-184685.7003880556,10.5,10499815314.299612,47.655,-122.3035,60.0,12.65
2026-01-20T23:12:40+00:00,SAT-55403,177.85775730599892,32.934460699037835,970.7935042016084,5.296294230216947,-185498.6272445785,10.5,10499814501.372755,47.655,-122.3035,60.0,12.666666666666666
2026-01-20T23:12:41+00:00,SAT-55403,177.6617976224645,32.676446021010015,976.0755997978828,5.3191240011995005,-186298.222394223,10.5,10499813701.777605,47.655,-122.3035,60.0,12.683333333333334
2026-01-20T23:12:42+00:00,SAT-55403,177.46910921769654,32.42055058924997,981.3804639616739,5.341579649623331,-187084.71418932418,10.5,10499812915.28581,47.655,-122.3035,60.0,12.7
2026-01-20T23:12:43+00:00,SAT-55403,177.27961592737864,32.1667604689372,986.7077235733946,5.363667610250778,-187858.3280024782,10.5,10499812141.671997,47.655,-122.3035,60.0,12.716666666666667
2026-01-20T23:12:44+00:00,SAT-55403,177.0932437837348,31.915061268195927,992.0570119309684,5.385394263858537,-188619.28731547555,10.5,10499811380.712685,47.655,-122.3035,60.0,12.733333333333333
2026-01-20T23:12:45+00:00,SAT-55403,176.90992094182954,31.665438173878908,997.4279686959901,5.406765824097138,-189367.80975664154,10.5,10499810632.190243,47.655,-122.3035,60.0,12.75
2026-01-20T23:12:46+00:00,SAT-55403,176.72957761289004,31.417875990660328,1002.8202397270464,5.4277884901929445,-190104.11244910612,10.5,10499809895.88755,47.655,-122.3035,60.0,12.766666666666667
2026-01-20T23:12:47+00:00,SAT-55403,176.5521459939222,31.172359171146,1008.2334770653322,5.448468334081947,-190828.4080577519,10.5,10499809171.591942,47.655,-122.3035,60.0,12.783333333333333
2026-01-20T23:12:48+00:00,SAT-55403,176.37756020422526,30.92887184946633,1013.667338807699,5.468811331724481,-191540.90588598815,10.5,10499808459.094114,47.655,-122.3035,60.0,12.8
2026-01-20T23:12:49+00:00,SAT-55403,176.20575622268947,30.687397871690706,1019.1214890109392,5.488823381129756,-192241.81250704592,10.5,10499807758.187492,47.655,-122.3035,60.0,12.816666666666666
2026-01-20T23:12:50+00:00,SAT-55403,176.03667182695918,30.447920823829254,1024.5955976140417,5.5085102799735965,-192931.33098005675,10.5,10499807068.66902,47.655,-122.3035,60.0,12.833333333333334
2026-01-20T23:12:51+00:00,SAT-55403,175.87024653512933,30.210424059305367,1030.089340338129,5.527877748377112,-193609.661647858,10.5,10499806390.338352,47.655,-122.3035,60.0,12.85
