DopplerPredictor/satellites_20260205_234138/SAT-54788.csv

timestamp,satellite,azimuth_deg,elevation_deg,distance_km,relative_velocity_kms,doppler_shift_hz,tx_freq_ghz,rx_freq_hz,ue_lat,ue_lon,ue_alt_m,time_minutes
2026-01-20T23:07:08+00:00,SAT-54788,324.9103942652119,30.074952408998442,986.6736487865535,-4.060606149683093,142219.60370888477,10.5,10500142219.603708,47.655,-122.3035,60.0,7.133333333333334
2026-01-20T23:07:09+00:00,SAT-54788,325.26223612418715,30.253824791042607,982.623928561594,-4.028103480914164,141081.2227624443,10.5,10500141081.222763,47.655,-122.3035,60.0,7.15
2026-01-20T23:07:10+00:00,SAT-54788,325.6182328751377,30.43288022751278,978.6066238702339,-3.9951942884576397,139928.60363687074,10.5,10500139928.603638,47.655,-122.3035,60.0,7.166666666666667
2026-01-20T23:07:11+00:00,SAT-54788,325.9784328853404,30.612087638998158,974.6221401463265,-3.961875272768839,138761.63076815233,10.5,10500138761.630768,47.655,-122.3035,60.0,7.183333333333334
2026-01-20T23:07:12+00:00,SAT-54788,326.34288439739754,30.79141478498859,970.6708861144252,-3.928143182359964,137580.19027543257,10.5,10500137580.190275,47.655,-122.3035,60.0,7.2
2026-01-20T23:07:13+00:00,SAT-54788,326.7116354771631,30.970828241244632,966.7532737418535,-3.893994843497919,136384.17100115356,10.5,10500136384.171001,47.655,-122.3035,60.0,7.216666666666667
2026-01-20T23:07:14+00:00,SAT-54788,327.084733960986,31.150293378811803,962.8697181611597,-3.8594272243055587,135173.46675615292,10.5,10500135173.466757,47.655,-122.3035,60.0,7.233333333333333
2026-01-20T23:07:15+00:00,SAT-54788,327.4622274059097,31.32977434642738,959.0206375286413,-3.824437274443771,133947.97070465193,10.5,10500133947.970705,47.655,-122.3035,60.0,7.25
2026-01-20T23:07:16+00:00,SAT-54788,327.84416302083196,31.50923404600432,955.2064530427581,-3.7890221434895612,132707.5830127801,10.5,10500132707.583014,47.655,-122.3035,60.0,7.266666666666667
2026-01-20T23:07:17+00:00,SAT-54788,328.2305876153452,31.688634118787196,951.4275887447502,-3.753179013543207,131452.20498576944,10.5,10500131452.204987,47.655,-122.3035,60.0,7.283333333333333
2026-01-20T23:07:18+00:00,SAT-54788,328.6215475284844,31.867934924395986,947.6844714862036,-3.7169051985932278,130181.74254813606,10.5,10500130181.742548,47.655,-122.3035,60.0,7.3
2026-01-20T23:07:19+00:00,SAT-54788,329.01708856354395,32.04709552524622,943.9775307975146,-3.680198107404138,128896.10494385235,10.5,10500128896.104944,47.655,-122.3035,60.0,7.316666666666666
2026-01-20T23:07:20+00:00,SAT-54788,329.4172559152256,32.226073670062185,940.3071987933693,-3.643055282403649,127595.20609834125,10.5,10500127595.206099,47.655,-122.3035,60.0,7.333333333333333
2026-01-20T23:07:21+00:00,SAT-54788,329.82209409695196,32.404825780193704,936.6739100394359,-3.605474391665758,126278.96433769011,10.5,10500126278.964338,47.655,-122.3035,60.0,7.35
2026-01-20T23:07:22+00:00,SAT-54788,330.2316468633846,32.58330693661688,933.0781014270589,-3.5674532091521787,124947.30169662199,10.5,10500124947.301697,47.655,-122.3035,60.0,7.366666666666666
2026-01-20T23:07:23+00:00,SAT-54788,330.6459571265067,32.76147086709558,929.5202120676518,-3.528989657061781,123600.14540175225,10.5,10500123600.145401,47.655,-122.3035,60.0,7.383333333333334
2026-01-20T23:07:24+00:00,SAT-54788,331.06506687217905,32.939269936683345,926.0006831448601,-3.490081834451125,122237.4288740006,10.5,10500122237.428873,47.655,-122.3035,60.0,7.4
2026-01-20T23:07:25+00:00,SAT-54788,331.48901707616415,33.1166551410924,922.5199577381758,-3.450727916495002,120859.08820026928,10.5,10500120859.0882,47.655,-122.3035,60.0,7.416666666666667
2026-01-20T23:07:26+00:00,SAT-54788,331.91784760357586,33.293576096463696,919.0784807470243,-3.4109263136852634,119465.06770925927,10.5,10500119465.067709,47.655,-122.3035,60.0,7.433333333333334
2026-01-20T23:07:27+00:00,SAT-54788,332.3515971233754,33.469981038836316,915.6766986560782,-3.3706755361587604,118055.31521966102,10.5,10500118055.31522,47.655,-122.3035,60.0,7.45
2026-01-20T23:07:28+00:00,SAT-54788,332.79030300178243,33.645816818465256,912.3150594358787,-3.329974314699514,116629.78627816212,10.5,10500116629.786278,47.655,-122.3035,60.0,7.466666666666667
2026-01-20T23:07:29+00:00,SAT-54788,333.2340012066192,33.82102890224963,908.9940123227805,-3.288821509716935,115188.44097147974,10.5,10500115188.440971,47.655,-122.3035,60.0,7.483333333333333
2026-01-20T23:07:30+00:00,SAT-54788,333.6827261954675,33.99556137346475,905.714007689674,-3.247216214566397,113731.2475450839,10.5,10500113731.247545,47.655,-122.3035,60.0,7.5
2026-01-20T23:07:31+00:00,SAT-54788,334.13651081328675,34.16935693906575,902.4754968136625,-3.205157656388823,112258.17893018055,10.5,10500112258.17893,47.655,-122.3035,60.0,7.516666666666667
2026-01-20T23:07:32+00:00,SAT-54788,334.595386172149,34.34235693405583,899.2789317426387,-3.1626453165070596,110769.21696050181,10.5,10500110769.21696,47.655,-122.3035,60.0,7.533333333333333
2026-01-20T23:07:33+00:00,SAT-54788,335.05938154354675,34.51450133470064,896.12476504178,-3.119678854486666,109264.34971259348,10.5,10500109264.349712,47.655,-122.3035,60.0,7.55
2026-01-20T23:07:34+00:00,SAT-54788,335.52852423600143,34.685728770295434,893.0134496157868,-3.0762581184044895,107743.57186546412,10.5,10500107743.571865,47.655,-122.3035,60.0,7.566666666666666
2026-01-20T23:07:35+00:00,SAT-54788,336.00283946964635,34.85597653814325,889.945438520874,-3.03238322517077,106206.88751380492,10.5,10500106206.887514,47.655,-122.3035,60.0,7.583333333333333
2026-01-20T23:07:36+00:00,SAT-54788,336.48235025922475,35.02518062583303,886.9211846966608,-2.98805447690018,104654.3072389496,10.5,10500104654.30724,47.655,-122.3035,60.0,7.6
2026-01-20T23:07:37+00:00,SAT-54788,336.96707728060835,35.19327573192662,883.9411407814617,-2.943272423760057,103085.85031008553,10.5,10500103085.85031,47.655,-122.3035,60.0,7.616666666666666
2026-01-20T23:07:38+00:00,SAT-54788,337.45703874339,35.36019529325874,881.0057588648983,-2.898037854630219,101501.54435712089,10.5,10500101501.544357,47.655,-122.3035,60.0,7.633333333333334
2026-01-20T23:07:39+00:00,SAT-54788,337.9522502588201,35.525871515017776,878.1154902498271,-2.85235179080713,99901.42515017794,10.5,10500099901.42515,47.655,-122.3035,60.0,7.65
2026-01-20T23:07:40+00:00,SAT-54788,338.4527247033831,35.690235403868535,875.2707852205464,-2.806215532782233,98285.5382379681,10.5,10500098285.538239,47.655,-122.3035,60.0,7.666666666666667
2026-01-20T23:07:41+00:00,SAT-54788,338.9584720877812,35.85321680730865,872.4720927643498,-2.7596306021087207,96653.93691172033,10.5,10500096653.936913,47.655,-122.3035,60.0,7.683333333333334
2026-01-20T23:07:42+00:00,SAT-54788,339.46949941302904,36.0147444533402,869.7198603510564,-2.7125988234363385,95006.68507838697,10.5,10500095006.685078,47.655,-122.3035,60.0,7.7
2026-01-20T23:07:43+00:00,SAT-54788,339.9858105392271,36.17474599867543,867.0145336307269,-2.6651222530729646,93343.85475856811,10.5,10500093343.85476,47.655,-122.3035,60.0,7.716666666666667
2026-01-20T23:07:44+00:00,SAT-54788,340.50740603926977,36.333148076673815,864.3565562026275,-2.6172032608711375,91665.52895452407,10.5,10500091665.528955,47.655,-122.3035,60.0,7.733333333333333
2026-01-20T23:07:45+00:00,SAT-54788,341.0342830668015,36.489876354078405,861.7463693025247,-2.5688444611470156,89971.7992306653,10.5,10500089971.79923,47.655,-122.3035,60.0,7.75
2026-01-20T23:07:46+00:00,SAT-54788,341.56643520970755,36.64485558774881,859.1844115588775,-2.5200487886726983,88262.76837512481,10.5,10500088262.768375,47.655,-122.3035,60.0,7.766666666666667
2026-01-20T23:07:47+00:00,SAT-54788,342.1038523584382,36.79800969008456,856.6711186732407,-2.4708194429096544,86538.5484465769,10.5,10500086538.548447,47.655,-122.3035,60.0,7.783333333333333
2026-01-20T23:07:48+00:00,SAT-54788,342.6465205629774,36.94926179532938,854.2069231562841,-2.4211599395803205,84799.26258049281,10.5,10500084799.26258,47.655,-122.3035,60.0,7.8
2026-01-20T23:07:49+00:00,SAT-54788,343.194421901422,37.098534333270855,851.7922540123817,-2.37107407946379,83045.04389623368,10.5,10500083045.043896,47.655,-122.3035,60.0,7.816666666666666
2026-01-20T23:07:50+00:00,SAT-54788,343.7475343429735,37.245749105358186,849.4275364553167,-2.3205659769803795,81276.036498203,10.5,10500081276.036499,47.655,-122.3035,60.0,7.833333333333333
2026-01-20T23:07:51+00:00,SAT-54788,344.30583161927234,37.39082736689645,847.1131915954822,-2.269640050403445,79492.3951330229,10.5,10500079492.395134,47.655,-122.3035,60.0,7.85
2026-01-20T23:07:52+00:00,SAT-54788,344.86928309607606,37.533689912987484,844.8496361368436,-2.2183010392026294,77694.28579696828,10.5,10500077694.285797,47.655,-122.3035,60.0,7.866666666666666
2026-01-20T23:07:53+00:00,SAT-54788,345.4378536525899,37.674257169872334,842.6372820566017,-2.166553977984521,75881.8848232582,10.5,10500075881.884823,47.655,-122.3035,60.0,7.883333333333334
2026-01-20T23:07:54+00:00,SAT-54788,346.01150355815116,37.81244928891348,840.4765363108475,-2.1144042391719267,74055.38037686469,10.5,10500074055.380377,47.655,-122.3035,60.0,7.9
2026-01-20T23:07:55+00:00,SAT-54788,346.59018836475883,37.94818624750142,838.3678004976532,-2.06185749357822,72214.97107365959,10.5,10500072214.971073,47.655,-122.3035,60.0,7.916666666666667
2026-01-20T23:07:56+00:00,SAT-54788,347.1738587947988,38.0813879515996,836.311470559479,-2.0089197607016547,70360.86774193423,10.5,10500070360.867743,47.655,-122.3035,60.0,7.933333333333334
2026-01-20T23:07:57+00:00,SAT-54788,347.76246064931513,38.21197434556315,834.3079364354247,-1.9555973461111662,68493.29122938526,10.5,10500068493.29123,47.655,-122.3035,60.0,7.95
2026-01-20T23:07:58+00:00,SAT-54788,348.35593470568915,38.33986552182705,832.3575817759257,-1.9018969016705434,66612.47451241988,10.5,10500066612.474512,47.655,-122.3035,60.0,7.966666666666667
2026-01-20T23:07:59+00:00,SAT-54788,348.9542166408908,38.46498183824945,830.4607835973869,-1.8478254000195673,64718.661802377486,10.5,10500064718.661802,47.655,-122.3035,60.0,7.983333333333333
2026-01-20T23:08:00+00:00,SAT-54788,349.5572369569021,38.587244037399905,828.6179119622649,-1.7933901129629837,62812.10778861998,10.5,10500062812.107788,47.655,-122.3035,60.0,8.0
2026-01-20T23:08:01+00:00,SAT-54788,350.1649209086339,38.70657336778474,826.8293296807068,-1.7385986635508304,60893.07946260516,10.5,10500060893.079462,47.655,-122.3035,60.0,8.016666666666667
2026-01-20T23:08:02+00:00,SAT-54788,350.7771884601257,38.822891711667204,825.0953919602463,-1.6834589682761911,58961.85409340754,10.5,10500058961.854094,47.655,-122.3035,60.0,8.033333333333333
2026-01-20T23:08:03+00:00,SAT-54788,351.39395423335054,38.93612171195159,823.4164461131469,-1.6279792758853981,57018.72058701584,10.5,10500057018.720587,47.655,-122.3035,60.0,8.05
2026-01-20T23:08:04+00:00,SAT-54788,352.0151274832378,39.04618690426028,821.792831225039,-1.5721681298625165,55063.97817238092,10.5,10500055063.978172,47.655,-122.3035,60.0,8.066666666666666
2026-01-20T23:08:05+00:00,SAT-54788,352.64061207250325,39.15301184878933,820.224877860973,-1.5160344089577138,53097.93782089073,10.5,10500053097.93782,47.655,-122.3035,60.0,8.083333333333334
2026-01-20T23:08:06+00:00,SAT-54788,353.2703064770747,39.25652226688232,818.7129077310533,-1.4595872682182647,51120.92018102663,10.5,10500051120.920181,47.655,-122.3035,60.0,8.1
2026-01-20T23:08:07+00:00,SAT-54788,353.90410378346434,39.356645175205514,817.257233414878,-1.4028361889315624,49133.257327578955,10.5,10500049133.257328,47.655,-122.3035,60.0,8.116666666666667
2026-01-20T23:08:08+00:00,SAT-54788,354.5418917230783,39.453309024564795,815.8581580361774,-1.3457909256080136,47135.290904763664,10.5,10500047135.290905,47.655,-122.3035,60.0,8.133333333333333
2026-01-20T23:08:09+00:00,SAT-54788,355.1835527010682,39.54644383592114,814.5159749903219,-1.288461544292931,45127.37346806695,10.5,10500045127.373468,47.655,-122.3035,60.0,8.15
2026-01-20T23:08:10+00:00,SAT-54788,355.8289638607482,39.635981339451604,813.2309676336215,-1.230858373112557,43109.86675215775,10.5,10500043109.866753,47.655,-122.3035,60.0,8.166666666666666
2026-01-20T23:08:11+00:00,SAT-54788,356.4779971435292,39.721855110169706,812.0034090219489,-1.17299203088849,41083.142673086004,10.5,10500041083.142673,47.655,-122.3035,60.0,8.183333333333334
2026-01-20T23:08:12+00:00,SAT-54788,357.1305193823618,39.804000705035705,810.8335616208223,-1.1148733899447612,39047.582025629184,10.5,10500039047.582026,47.655,-122.3035,60.0,8.2
2026-01-20T23:08:13+00:00,SAT-54788,357.7863923962493,39.88235579652787,809.7216770525831,-1.0565135990781005,37003.575287808126,10.5,10500037003.575287,47.655,-122.3035,60.0,8.216666666666667
2026-01-20T23:08:14+00:00,SAT-54788,358.4454731187724,39.95686030638843,808.6679958206652,-0.9979240409912262,34951.5211300208,10.5,10500034951.52113,47.655,-122.3035,60.0,8.233333333333333
2026-01-20T23:08:15+00:00,SAT-54788,359.10761372371076,40.02745653446429,807.6727470763145,-0.9391163473843033,32891.82694360905,10.5,10500032891.826944,47.655,-122.3035,60.0,8.25
2026-01-20T23:08:16+00:00,SAT-54788,359.7726617813712,40.094089286190574,806.7361483702596,-0.8801023776294079,30824.90809394806,10.5,10500030824.908094,47.655,-122.3035,60.0,8.266666666666667
2026-01-20T23:08:17+00:00,SAT-54788,0.44046042482060666,40.15670599566874,805.8584054256503,-0.8208942134548027,28751.187734267245,10.5,10500028751.187735,47.655,-122.3035,60.0,8.283333333333333
2026-01-20T23:08:18+00:00,SAT-54788,1.1108485357135998,40.21525684496982,805.0397119162984,-0.7615041404905859,26671.096159300818,10.5,10500026671.096159,47.655,-122.3035,60.0,8.3
2026-01-20T23:08:19+00:00,SAT-54788,1.7836609403793895,40.269694878240216,804.2802492633208,-0.7019446437560831,24585.07064723714,10.5,10500024585.070646,47.655,-122.3035,60.0,8.316666666666666
2026-01-20T23:08:20+00:00,SAT-54788,2.4587286266716357,40.31997611112732,803.5801864362861,-0.6422283912648034,22493.554885494937,10.5,10500022493.554886,47.655,-122.3035,60.0,8.333333333333334
2026-01-20T23:08:21+00:00,SAT-54788,3.1358789721053384,40.36605963420086,802.939679770711,-0.5823682244767692,20396.99863632352,10.5,10500020396.998636,47.655,-122.3035,60.0,8.35
2026-01-20T23:08:22+00:00,SAT-54788,3.8149359895020196,40.40790771042461,802.3588727950771,-0.5223771395937409,18295.85708168242,10.5,10500018295.857082,47.655,-122.3035,60.0,8.366666666666667
2026-01-20T23:08:23+00:00,SAT-54788,4.495720579537323,40.445485865573,801.8378960765065,-0.46226828140696397,16190.59060776346,10.5,10500016190.590609,47.655,-122.3035,60.0,8.383333333333333
2026-01-20T23:08:24+00:00,SAT-54788,5.178050804252614,40.47876297209345,801.376867072569,-0.40205492206272925,14081.664061270872,10.5,10500014081.66406,47.655,-122.3035,60.0,8.4
2026-01-20T23:08:25+00:00,SAT-54788,5.86174216295203,40.50771132495378,800.9758900042685,-0.3417504532051688,11969.546474228755,10.5,10500011969.546474,47.655,-122.3035,60.0,8.416666666666666
2026-01-20T23:08:26+00:00,SAT-54788,6.546607887753636,40.53230671007749,800.6350557368669,-0.28136836606992277,9854.710366777104,10.5,10500009854.710367,47.655,-122.3035,60.0,8.433333333333334
2026-01-20T23:08:27+00:00,SAT-54788,7.232459239823072,40.552528464180334,800.3544416805576,-0.22092224039135386,7737.631358655512,10.5,10500007737.63136,47.655,-122.3035,60.0,8.45
2026-01-20T23:08:28+00:00,SAT-54788,7.9191058200771245,40.56835952636808,800.1341117022054,-0.16042572738595143,5618.78757321003,10.5,10500005618.787573,47.655,-122.3035,60.0,8.466666666666667
2026-01-20T23:08:29+00:00,SAT-54788,8.606355883587755,40.57978648081749,799.9741160540556,-0.09989253555013033,3498.6591399719887,10.5,10500003498.65914,47.655,-122.3035,60.0,8.483333333333333
2026-01-20T23:08:30+00:00,SAT-54788,9.294016662919441,40.58679959053478,799.8744913166082,-0.039336414115009224,1377.7276151743513,10.5,10500001377.727615,47.655,-122.3035,60.0,8.5
2026-01-20T23:08:31+00:00,SAT-54788,9.981894689432787,40.5893928218746,799.8352603579909,0.021228861325790348,-743.5245216235514,10.5,10499999256.47548,47.655,-122.3035,60.0,8.516666666666667
2026-01-20T23:08:32+00:00,SAT-54788,10.669796126386924,40.58756385983699,799.8564323076689,0.08178950509086562,-2864.61443754562,10.5,10499997135.385563,47.655,-122.3035,60.0,8.533333333333333
2026-01-20T23:08:33+00:00,SAT-54788,11.357527094265603,40.581314113953496,799.9380025463838,0.14233173711883504,-4985.059496552672,10.5,10499995014.940504,47.655,-122.3035,60.0,8.55
2026-01-20T23:08:34+00:00,SAT-54788,12.044894006067194,40.57064871475223,800.0799527117573,0.20284179656296308,-7104.377735583703,10.5,10499992895.622265,47.655,-122.3035,60.0,8.566666666666666
2026-01-20T23:08:35+00:00,SAT-54788,12.731703888091811,40.55557650099494,800.2822507174558,0.2633059628379382,-9222.088601703088,10.5,10499990777.911398,47.655,-122.3035,60.0,8.583333333333334
2026-01-20T23:08:36+00:00,SAT-54788,13.417764719125397,40.536109997182486,800.5448507933434,0.32371056220208166,-11337.713182637362,10.5,10499988662.286818,47.655,-122.3035,60.0,8.6
2026-01-20T23:08:37+00:00,SAT-54788,14.102885737960255,40.512265382515814,800.8676935322002,0.384041993176975,-13450.775097078118,10.5,10499986549.224903,47.655,-122.3035,60.0,8.616666666666667
2026-01-20T23:08:38+00:00,SAT-54788,14.786877772724475,40.48406245006559,801.2507059617914,0.44428673240329597,-15560.800699778136,10.5,10499984439.1993,47.655,-122.3035,60.0,8.633333333333333
2026-01-20T23:08:39+00:00,SAT-54788,15.46955354234972,40.45152455779186,801.6938016227767,0.5044313560423335,-17667.31983112297,10.5,10499982332.680168,47.655,-122.3035,60.0,8.65
2026-01-20T23:08:40+00:00,SAT-54788,16.15072796364119,40.41467857050114,802.1968806679647,0.5644625512282123,-19769.866218236315,10.5,10499980230.133781,47.655,-122.3035,60.0,8.666666666666666
2026-01-20T23:08:41+00:00,SAT-54788,16.83021844291351,40.373554793744184,802.7598299729891,0.624367132555813,-21867.978052456663,10.5,10499978132.021948,47.655,-122.3035,60.0,8.683333333333334
2026-01-20T23:08:42+00:00,SAT-54788,17.507845160718514,40.32818689960112,803.3825232634255,0.6841320547513253,-23961.19843311374,10.5,10499976038.801567,47.655,-122.3035,60.0,8.7
2026-01-20T23:08:43+00:00,SAT-54788,18.183431342794595,40.27861184496948,804.0648212545478,0.7437444238125537,-26049.075757709066,10.5,10499973950.924242,47.655,-122.3035,60.0,8.716666666666667
2026-01-20T23:08:44+00:00,SAT-54788,18.856803517770324,40.22486978284193,804.8065718021967,0.803191518760595,-28131.16448375178,10.5,10499971868.835516,47.655,-122.3035,60.0,8.733333333333333
2026-01-20T23:08:45+00:00,SAT-54788,19.52779176859878,40.16700396621122,805.607610075336,0.8624607893016476,-30207.02504686526,10.5,10499969792.974953,47.655,-122.3035,60.0,8.75
2026-01-20T23:08:46+00:00,SAT-54788,20.196229957730683,40.10506064675842,806.4677587262812,0.9215398905293997,-32276.225076211547,10.5,10499967723.774923,47.655,-122.3035,60.0,8.766666666666667
2026-01-20T23:08:47+00:00,SAT-54788,20.861955955276088,40.03908896611263,807.3868280955365,0.9804166722559728,-34338.33902081591,10.5,10499965661.660978,47.655,-122.3035,60.0,8.783333333333333
2026-01-20T23:08:48+00:00,SAT-54788,21.5248118345825,39.96914084340072,808.3646164059918,1.0390792025142894,-36392.94897271912,10.5,10499963607.051027,47.655,-122.3035,60.0,8.8
2026-01-20T23:08:49+00:00,SAT-54788,22.184644061702635,39.8952708571177,809.400909980557,1.0975157765597894,-38439.64498225565,10.5,10499961560.355019,47.655,-122.3035,60.0,8.816666666666666
2026-01-20T23:08:50+00:00,SAT-54788,22.84130366751791,39.81753612282956,810.4954834687769,1.1557149283545456,-40478.025460276025,10.5,10499959521.974539,47.655,-122.3035,60.0,8.833333333333334
2026-01-20T23:08:51+00:00,SAT-54788,23.494646403855583,39.73599616704729,811.6481000848972,1.2136654411228602,-42507.697547848366,10.5,10499957492.302452,47.655,-122.3035,60.0,8.85
2026-01-20T23:08:52+00:00,SAT-54788,24.14453288358656,39.65071279781198,812.858511856458,1.2713563460326904,-44528.27707007642,10.5,10499955471.722929,47.655,-122.3035,60.0,8.866666666666667
2026-01-20T23:08:53+00:00,SAT-54788,24.79082869879082,39.56174997333747,814.1264598715742,1.3287769449472464,-46539.38933295676,10.5,10499953460.610666,47.655,-122.3035,60.0,8.883333333333333
2026-01-20T23:08:54+00:00,SAT-54788,25.433404530243667,39.469173667495234,815.4516745489033,1.3859168147599825,-48540.66927520844,10.5,10499951459.330725,47.655,-122.3035,60.0,8.9
2026-01-20T23:08:55+00:00,SAT-54788,26.07213623792607,39.3730517339296,816.8338759119395,1.442765808639607,-50531.76151187856,10.5,10499949468.238487,47.655,-122.3035,60.0,8.916666666666666
2026-01-20T23:08:56+00:00,SAT-54788,26.706904932877908,39.27345376949218,818.2727738645476,1.4993140712760396,-52512.32086832023,10.5,10499947487.679132,47.655,-122.3035,60.0,8.933333333333334
2026-01-20T23:08:57+00:00,SAT-54788,27.337597036806997,39.1704509764689,819.7680684817042,1.5555520282933055,-54482.012009387196,10.5,10499945517.987991,47.655,-122.3035,60.0,8.95
2026-01-20T23:08:58+00:00,SAT-54788,27.964104319478796,39.06411602584307,821.3194502896756,1.6114704260912955,-56440.51083486097,10.5,10499943559.489164,47.655,-122.3035,60.0,8.966666666666667
2026-01-20T23:08:59+00:00,SAT-54788,28.586323934677214,38.95452291854744,822.9266005859374,1.6670602972507396,-58387.50326778656,10.5,10499941612.496733,47.655,-122.3035,60.0,8.983333333333333
2026-01-20T23:09:00+00:00,SAT-54788,29.204158425718262,38.84174685022781,824.5891917245857,1.722312983781846,-60322.6860687382,10.5,10499939677.31393,47.655,-122.3035,60.0,9.0
2026-01-20T23:09:01+00:00,SAT-54788,29.81751572473679,38.725864075930254,826.3068874249371,1.7772201524157458,-62245.767371390415,10.5,10499937754.232628,47.655,-122.3035,60.0,9.016666666666667
2026-01-20T23:09:02+00:00,SAT-54788,30.426309142351755,38.60695177564132,828.0793430953806,1.8317737705527377,-64156.46584012379,10.5,10499935843.53416,47.655,-122.3035,60.0,9.033333333333333
2026-01-20T23:09:03+00:00,SAT-54788,31.030457334727327,38.48508792368064,829.9062061332393,1.8859661320154353,-66054.51157200916,10.5,10499933945.488428,47.655,-122.3035,60.0,9.05
2026-01-20T23:09:04+00:00,SAT-54788,31.629884266701644,38.36035115889167,831.7871162503179,1.9397898419936461,-67939.64556951358,10.5,10499932060.354431,47.655,-122.3035,60.0,9.066666666666666
2026-01-20T23:09:05+00:00,SAT-54788,32.22451915775744,38.232820658665645,833.7217057834362,1.9932378360530618,-69811.62040626502,10.5,10499930188.379593,47.655,-122.3035,60.0,9.083333333333334
2026-01-20T23:09:06+00:00,SAT-54788,32.81429642278939,38.102576014791694,835.7096000239178,2.0463033673021993,-71670.19977758445,10.5,10499928329.800222,47.655,-122.3035,60.0,9.1
2026-01-20T23:09:07+00:00,SAT-54788,33.399155598351584,37.96969711349323,837.7504175342818,2.0989800038368207,-73515.15841097849,10.5,10499926484.841589,47.655,-122.3035,60.0,9.116666666666667
2026-01-20T23:09:08+00:00,SAT-54788,33.97904125935684,37.8342640191454,839.8437704623879,2.1512616487875467,-75346.28276829179,10.5,10499924653.717232,47.655,-122.3035,60.0,9.133333333333333
2026-01-20T23:09:09+00:00,SAT-54788,34.55390293251412,37.69635686042293,841.989264875569,2.2031425066031645,-77163.36986480569,10.5,10499922836.630135,47.655,-122.3035,60.0,9.15
2026-01-20T23:09:10+00:00,SAT-54788,35.123694993259576,37.5560557225013,844.1865010611456,2.25461713418719,-78966.22906025707,10.5,10499921033.770939,47.655,-122.3035,60.0,9.166666666666666
2026-01-20T23:09:11+00:00,SAT-54788,35.688376569040734,37.41344053999768,846.4350738779332,2.3056803565180135,-80754.6791034988,10.5,10499919245.320896,47.655,-122.3035,60.0,9.183333333333334
2026-01-20T23:09:12+00:00,SAT-54788,36.247911415572226,37.26859099941226,848.7345730235992,2.3563273634650175,-82528.55152340986,10.5,10499917471.448477,47.655,-122.3035,60.0,9.2
2026-01-20T23:09:13+00:00,SAT-54788,36.80226781194038,37.12158643963036,851.084583398576,2.406553627436269,-84287.68774456902,10.5,10499915712.312256,47.655,-122.3035,60.0,9.216666666666667
2026-01-20T23:09:14+00:00,SAT-54788,37.35141843123683,36.97250576191524,853.4846853878415,2.4563549335947203,-86031.94014555418,10.5,10499913968.059855,47.655,-122.3035,60.0,9.233333333333333
2026-01-20T23:09:15+00:00,SAT-54788,37.89534021525697,36.8214273422934,855.934455172836,2.505727383536707,-87761.17218777873,10.5,10499912238.827812,47.655,-122.3035,60.0,9.25
2026-01-20T23:09:16+00:00,SAT-54788,38.434014246920874,36.66842894806249,858.433465047048,2.554667372495879,-89475.25761707696,10.5,10499910524.742382,47.655,-122.3035,60.0,9.266666666666667
2026-01-20T23:09:17+00:00,SAT-54788,38.967425615508,36.51358766005133,860.9812837088623,2.6031715931059254,-91174.08059549055,10.5,10499908825.919405,47.655,-122.3035,60.0,9.283333333333333
2026-01-20T23:09:18+00:00,SAT-54788,39.49556328140616,36.35697979895911,863.5774765581647,2.651237042220893,-92857.5359401449,10.5,10499907142.46406,47.655,-122.3035,60.0,9.3
2026-01-20T23:09:19+00:00,SAT-54788,40.01841994124393,36.19868085558875,866.2216059997461,2.6988609825204475,-94525.52777850302,10.5,10499905474.472221,47.655,-122.3035,60.0,9.316666666666666
2026-01-20T23:09:20+00:00,SAT-54788,40.53599188514252,36.038765427619154,868.9132317084152,2.7460409818585356,-96177.97092652219,10.5,10499903822.029074,47.655,-122.3035,60.0,9.333333333333334
2026-01-20T23:09:21+00:00,SAT-54788,41.0482788620342,35.8773071582099,871.6519109333551,2.792774874806524,-97814.78954173191,10.5,10499902185.210459,47.655,-122.3035,60.0,9.35
2026-01-20T23:09:22+00:00,SAT-54788,41.55528393814416,35.71437868100037,874.4371987641252,2.839060772290189,-99435.91746076208,10.5,10499900564.082539,47.655,-122.3035,60.0,9.366666666666667
2026-01-20T23:09:23+00:00,SAT-54788,42.05701335865885,35.55005156856335,877.2686484062754,2.884897036420259,-101041.29731780215,10.5,10499898958.702682,47.655,-122.3035,60.0,9.383333333333333
2026-01-20T23:09:24+00:00,SAT-54788,42.55347640662561,35.38439628622751,880.1458114318566,2.9302823243681693,-102630.88208131566,10.5,10499897369.117918,47.655,-122.3035,60.0,9.4
2026-01-20T23:09:25+00:00,SAT-54788,43.04468527131972,35.21748214719868,883.0682380736921,2.9752155065557693,-104204.63218869762,10.5,10499895795.367811,47.655,-122.3035,60.0,9.416666666666666
2026-01-20T23:09:26+00:00,SAT-54788,43.530654905144104,35.0493772760913,886.0354774380546,3.0196957264346724,-105762.51764000033,10.5,10499894237.48236,47.655,-122.3035,60.0,9.433333333333334
2026-01-20T23:09:27+00:00,SAT-54788,44.01140289332598,34.88014857259306,889.0470777769646,3.063722349778496,-107304.51622193313,10.5,10499892695.483778,47.655,-122.3035,60.0,9.45
2026-01-20T23:09:28+00:00,SAT-54788,44.48694931834343,34.70986168147332,892.1025867099171,3.1072950052342327,-108830.61492814287,10.5,10499891169.385073,47.655,-122.3035,60.0,9.466666666666667
2026-01-20T23:09:29+00:00,SAT-54788,44.9573166339178,34.53858096364126,895.2015514860489,3.150413512401272,-110340.80744023705,10.5,10499889659.19256,47.655,-122.3035,60.0,9.483333333333333
2026-01-20T23:09:30+00:00,SAT-54788,45.42252953141178,34.36636947439209,898.3435191745804,3.1930779397418982,-111835.09615605451,10.5,10499888164.903845,47.655,-122.3035,60.0,9.5
2026-01-20T23:09:31+00:00,SAT-54788,45.882614818816386,34.19328894147846,901.5280369130106,3.2352885571789987,-113313.4905294365,10.5,10499886686.50947,47.655,-122.3035,60.0,9.516666666666667
2026-01-20T23:09:32+00:00,SAT-54788,46.337601296310645,34.01939974871945,904.7546521080378,3.2770458403215335,-114776.00721822062,10.5,10499885223.992783,47.655,-122.3035,60.0,9.533333333333333
2026-01-20T23:09:33+00:00,SAT-54788,46.78751963667192,33.844760922114986,908.0229126406938,3.318350473287942,-116222.67018312846,10.5,10499883777.329817,47.655,-122.3035,60.0,9.55
2026-01-20T23:09:34+00:00,SAT-54788,47.232402270007,33.66943011844488,911.3323670742951,3.359203328396545,-117653.50997643752,10.5,10499882346.490023,47.655,-122.3035,60.0,9.566666666666666
2026-01-20T23:09:35+00:00,SAT-54788,47.67228326990477,33.493463617440234,914.6825648421384,3.3996054564934868,-119068.5634032248,10.5,10499880931.436596,47.655,-122.3035,60.0,9.583333333333334
2026-01-20T23:09:36+00:00,SAT-54788,48.107198242638404,33.31691631678558,918.0730564255485,3.4395580968097774,-120467.87386660228,10.5,10499879532.126133,47.655,-122.3035,60.0,9.6
2026-01-20T23:09:37+00:00,SAT-54788,48.53718422194379,33.1398417288118,921.5033935417599,3.479062657982471,-121851.4907029981,10.5,10499878148.509296,47.655,-122.3035,60.0,9.616666666666667
2026-01-20T23:09:38+00:00,SAT-54788,48.9622795656174,32.962291980240614,924.9731293128667,3.518120713620058,-123219.46902683792,10.5,10499876780.530973,47.655,-122.3035,60.0,9.633333333333333
2026-01-20T23:09:39+00:00,SAT-54788,49.38252385595691,32.784317814086776,928.4818184303542,3.556733992499929,-124571.86938721871,10.5,10499875428.130613,47.655,-122.3035,60.0,9.65
2026-01-20T23:09:40+00:00,SAT-54788,49.79795780337432,32.60596859384947,932.0290173098493,3.5949043875266327,-125908.75808166475,10.5,10499874091.241919,47.655,-122.3035,60.0,9.666666666666666
2026-01-20T23:09:41+00:00,SAT-54788,50.20862315529216,32.427292308925104,935.6142842548102,3.6326339182138248,-127230.20584208681,10.5,10499872769.794157,47.655,-122.3035,60.0,9.683333333333334
2026-01-20T23:09:42+00:00,SAT-54788,50.614562605020424,32.2483355834395,939.2371795827926,3.6699247544521834,-128536.28866723499,10.5,10499871463.711332,47.655,-122.3035,60.0,9.7
2026-01-20T23:09:43+00:00,SAT-54788,51.01581970763528,32.06914368530155,942.8972657754277,3.706779192172535,-129827.0869703187,10.5,10499870172.91303,47.655,-122.3035,60.0,9.716666666666667
2026-01-20T23:09:44+00:00,SAT-54788,51.41243879725595,31.889760537769607,946.5941076041219,3.7431996652889055,-131102.68599730253,10.5,10499868897.314003,47.655,-122.3035,60.0,9.733333333333333
2026-01-20T23:09:45+00:00,SAT-54788,51.80446490973749,31.71022873161707,950.3272722676693,3.779188711569008,-132363.17463154654,10.5,10499867636.825369,47.655,-122.3035,60.0,9.75
2026-01-20T23:09:46+00:00,SAT-54788,52.19194370575577,31.530589540036754,954.0963294958308,3.814748980643541,-133608.64567432573,10.5,10499866391.354326,47.655,-122.3035,60.0,9.766666666666667
2026-01-20T23:09:47+00:00,SAT-54788,52.57492139887705,31.350882934093352,957.9008516608924,3.8498832396823635,-134839.19604363368,10.5,10499865160.803957,47.655,-122.3035,60.0,9.783333333333333
2026-01-20T23:09:48+00:00,SAT-54788,52.953444687940305,31.17114759879555,961.740413894893,3.8845943701670507,-136054.9266611438,10.5,10499863945.07334,47.655,-122.3035,60.0,9.8
2026-01-20T23:09:49+00:00,SAT-54788,53.32756069281926,30.991420950111227,965.6145942036279,3.918885309276248,-137255.94039927653,10.5,10499862744.0596,47.655,-122.3035,60.0,9.816666666666666
2026-01-20T23:09:50+00:00,SAT-54788,53.69731688829351,30.811739155378273,969.522973522196,3.9527591229842,-138442.3446414189,10.5,10499861557.65536,47.655,-122.3035,60.0,9.833333333333334
2026-01-20T23:09:51+00:00,SAT-54788,54.062761048554,30.63213715090839,973.4651358434525,3.9862189323025534,-139614.2486986007,10.5,10499860385.7513,47.655,-122.3035,60.0,9.85
2026-01-20T23:09:52+00:00,SAT-54788,54.423941188149065,30.45264866350209,977.4406682728956,4.0192679665462405,-140771.76567509086,10.5,10499859228.234325,47.655,-122.3035,60.0,9.866666666666667
2026-01-20T23:09:53+00:00,SAT-54788,54.78090551130766,30.27330622996185,981.4491611366823,4.051909491112146,-141915.0099389009,10.5,10499858084.99006,47.655,-122.3035,60.0,9.883333333333333
2026-01-20T23:09:54+00:00,SAT-54788,55.13370235802644,30.09414122021312,985.4902080176123,4.084146870565951,-143044.09933135306,10.5,10499856955.90067,47.655,-122.3035,60.0,9.9
