DopplerPredictor/satellites_20260205_234138/SAT-54178.csv

timestamp,satellite,azimuth_deg,elevation_deg,distance_km,relative_velocity_kms,doppler_shift_hz,tx_freq_ghz,rx_freq_hz,ue_lat,ue_lon,ue_alt_m,time_minutes
2026-01-20T23:04:54+00:00,SAT-54178,295.9062153316791,30.074059379399472,985.3271066685902,-5.81593633605652,203698.6918750086,10.5,10500203698.691875,47.655,-122.3035,60.0,4.9
2026-01-20T23:04:55+00:00,SAT-54178,295.87762786528083,30.330750725238723,979.5267620552514,-5.800469605703137,203156.9815538286,10.5,10500203156.981554,47.655,-122.3035,60.0,4.916666666666667
2026-01-20T23:04:56+00:00,SAT-54178,295.84849125168756,30.59012840564474,973.7418427080963,-5.784718880185536,202605.32452069933,10.5,10500202605.32452,47.655,-122.3035,60.0,4.933333333333334
2026-01-20T23:04:57+00:00,SAT-54178,295.81879113576736,30.852232933874117,967.9726318609377,-5.768678156885853,202043.5105385522,10.5,10500202043.510538,47.655,-122.3035,60.0,4.95
2026-01-20T23:04:58+00:00,SAT-54178,295.788512657534,31.11710542457198,962.2194187341125,-5.752341280211574,201471.3240124991,10.5,10500201471.324013,47.655,-122.3035,60.0,4.966666666666667
2026-01-20T23:04:59+00:00,SAT-54178,295.7576404298502,31.384787595508957,956.48249868705,-5.735702034668087,200888.5472496273,10.5,10500200888.547249,47.655,-122.3035,60.0,4.983333333333333
2026-01-20T23:05:00+00:00,SAT-54178,295.72615851459625,31.655321773261534,950.7621732780103,-5.718753997431517,200294.95529547625,10.5,10500200294.955296,47.655,-122.3035,60.0,5.0
2026-01-20T23:05:01+00:00,SAT-54178,295.6940503980997,31.928750891649248,945.0587504708577,-5.701490640829584,199690.31952335048,10.5,10500199690.319523,47.655,-122.3035,60.0,5.016666666666667
2026-01-20T23:05:02+00:00,SAT-54178,295.6612989648188,32.20511849442989,939.3725447396304,-5.683905260406009,199074.40511483146,10.5,10500199074.405115,47.655,-122.3035,60.0,5.033333333333333
2026-01-20T23:05:03+00:00,SAT-54178,295.62788646985643,32.484468734040256,933.7038772448483,-5.66599108168886,198446.97479925607,10.5,10500198446.9748,47.655,-122.3035,60.0,5.05
2026-01-20T23:05:04+00:00,SAT-54178,295.59379450950195,32.76684637498203,928.0530759033429,-5.647741084568851,197807.78270270207,10.5,10500197807.782703,47.655,-122.3035,60.0,5.066666666666666
2026-01-20T23:05:05+00:00,SAT-54178,295.5590039908419,33.05229678794981,922.4204756332334,-5.629148179616154,197156.58052334862,10.5,10500197156.580523,47.655,-122.3035,60.0,5.083333333333333
2026-01-20T23:05:06+00:00,SAT-54178,295.5234950989158,33.34086595195109,916.8064184230643,-5.610205067129712,196493.1125947871,10.5,10500196493.112595,47.655,-122.3035,60.0,5.1
2026-01-20T23:05:07+00:00,SAT-54178,295.4872472625691,33.632600448644695,911.2112535415115,-5.590904373041689,195817.12064596947,10.5,10500195817.120646,47.655,-122.3035,60.0,5.116666666666666
2026-01-20T23:05:08+00:00,SAT-54178,295.4502391177434,33.92754746281947,905.6353376115488,-5.571238470297274,195128.3375451739,10.5,10500195128.337545,47.655,-122.3035,60.0,5.133333333333334
2026-01-20T23:05:09+00:00,SAT-54178,295.41244846943044,34.2257547727256,900.0790348627595,-5.551199653506059,194426.4934170346,10.5,10500194426.493418,47.655,-122.3035,60.0,5.15
2026-01-20T23:05:10+00:00,SAT-54178,295.3738522505798,34.52727074855137,894.5427172094592,-5.530780004842407,193711.3109458053,10.5,10500193711.310946,47.655,-122.3035,60.0,5.166666666666667
2026-01-20T23:05:11+00:00,SAT-54178,295.3344264791886,34.83214434278863,889.0267644625619,-5.509971509061817,192982.50940371913,10.5,10500192982.509403,47.655,-122.3035,60.0,5.183333333333334
2026-01-20T23:05:12+00:00,SAT-54178,295.294146212249,35.140425085713254,883.53156442674,-5.488765902350761,192239.79935707053,10.5,10500192239.799356,47.655,-122.3035,60.0,5.2
2026-01-20T23:05:13+00:00,SAT-54178,295.2529854976806,35.45216307132696,878.0575131483236,-5.467154835119659,191482.88836791358,10.5,10500191482.888369,47.655,-122.3035,60.0,5.216666666666667
2026-01-20T23:05:14+00:00,SAT-54178,295.21091732248954,35.76740895102157,872.6050150008494,-5.445129767511989,190711.47733434936,10.5,10500190711.477335,47.655,-122.3035,60.0,5.233333333333333
2026-01-20T23:05:15+00:00,SAT-54178,295.16791355818725,36.08621392009349,867.1744828748162,-5.422681981102625,189925.26090025104,10.5,10500189925.2609,47.655,-122.3035,60.0,5.25
2026-01-20T23:05:16+00:00,SAT-54178,295.1239449028702,36.40862970332619,861.7663383557749,-5.399802590493121,189123.92786137993,10.5,10500189123.927862,47.655,-122.3035,60.0,5.266666666666667
2026-01-20T23:05:17+00:00,SAT-54178,295.0789808194979,36.73470853961278,856.381011890854,-5.376482566584499,188307.16198049663,10.5,10500188307.16198,47.655,-122.3035,60.0,5.283333333333333
2026-01-20T23:05:18+00:00,SAT-54178,295.0329894701268,37.06450316628569,851.018942932076,-5.352712693030934,187474.64046218537,10.5,10500187474.640463,47.655,-122.3035,60.0,5.3
2026-01-20T23:05:19+00:00,SAT-54178,294.98593764614765,37.398066799011,845.6805801231006,-5.3284835912601896,186626.03482917504,10.5,10500186626.03483,47.655,-122.3035,60.0,5.316666666666666
2026-01-20T23:05:20+00:00,SAT-54178,294.93779069391013,37.73545311119755,840.3663814610178,-5.303785708215855,185761.01049302073,10.5,10500185761.010492,47.655,-122.3035,60.0,5.333333333333333
2026-01-20T23:05:21+00:00,SAT-54178,294.8885124354067,38.07671621053575,835.0768144703636,-5.278609343195801,184879.22769409997,10.5,10500184879.227694,47.655,-122.3035,60.0,5.35
2026-01-20T23:05:22+00:00,SAT-54178,294.83806508366985,38.42191061501876,829.8123563503685,-5.252944603608722,183980.33995201965,10.5,10500183980.339952,47.655,-122.3035,60.0,5.366666666666666
2026-01-20T23:05:23+00:00,SAT-54178,294.78640915264975,38.7710912237275,824.5734941663359,-5.226781432050693,183063.99501395156,10.5,10500183063.995014,47.655,-122.3035,60.0,5.383333333333334
2026-01-20T23:05:24+00:00,SAT-54178,294.73350336093034,39.12431328673838,819.3607250140085,-5.200109627875541,182129.8356101179,10.5,10500182129.83561,47.655,-122.3035,60.0,5.4
2026-01-20T23:05:25+00:00,SAT-54178,294.67930452856143,39.48163237380585,814.1745561624301,-5.17291880471796,181177.4979660715,10.5,10500181177.497967,47.655,-122.3035,60.0,5.416666666666667
2026-01-20T23:05:26+00:00,SAT-54178,294.6237674671425,39.84310433729576,809.0155052391649,-5.145198441891935,180206.61360288563,10.5,10500180206.613604,47.655,-122.3035,60.0,5.433333333333334
2026-01-20T23:05:27+00:00,SAT-54178,294.5668448617654,40.20878527555449,803.8841003642583,-5.11693781522382,179216.806914636,10.5,10500179216.806915,47.655,-122.3035,60.0,5.45
2026-01-20T23:05:28+00:00,SAT-54178,294.5084871451832,40.57873148814811,798.7808803531796,-5.088126089205275,178207.6983959863,10.5,10500178207.698397,47.655,-122.3035,60.0,5.466666666666667
2026-01-20T23:05:29+00:00,SAT-54178,294.4486423621396,40.952999434111554,793.7063948278582,-5.058752254286833,177178.90244594394,10.5,10500177178.902447,47.655,-122.3035,60.0,5.483333333333333
2026-01-20T23:05:30+00:00,SAT-54178,294.38725602446476,41.33164568209263,788.6612043902572,-5.028805156617517,176130.02840946696,10.5,10500176130.02841,47.655,-122.3035,60.0,5.5
2026-01-20T23:05:31+00:00,SAT-54178,294.32427095521484,41.714726858683214,783.6458807662893,-4.998273499349701,175060.68062316586,10.5,10500175060.680624,47.655,-122.3035,60.0,5.516666666666667
2026-01-20T23:05:32+00:00,SAT-54178,294.25962712128734,42.102299592708725,778.6610069484299,-4.967145847287154,173970.45857809775,10.5,10500173970.458578,47.655,-122.3035,60.0,5.533333333333333
2026-01-20T23:05:33+00:00,SAT-54178,294.1932614533923,42.49442045547987,773.707177333693,-4.935410632781158,172858.9571262735,10.5,10500172858.957127,47.655,-122.3035,60.0,5.55
2026-01-20T23:05:34+00:00,SAT-54178,294.1251076522706,42.8911458968353,768.7849978557316,-4.903056162149823,171725.7667054891,10.5,10500171725.766705,47.655,-122.3035,60.0,5.566666666666666
2026-01-20T23:05:35+00:00,SAT-54178,294.05509597992113,43.292532176766855,763.8950861105309,-4.870070624406647,170570.4736450368,10.5,10500170570.473644,47.655,-122.3035,60.0,5.583333333333333
2026-01-20T23:05:36+00:00,SAT-54178,293.9831530345601,43.69863529254018,759.0380714733984,-4.836442097062345,169392.6603689097,10.5,10500169392.660368,47.655,-122.3035,60.0,5.6
2026-01-20T23:05:37+00:00,SAT-54178,293.90920150759496,44.10951090077508,754.2145952101694,-4.802158557236437,168191.9057849767,10.5,10500168191.905785,47.655,-122.3035,60.0,5.616666666666666
2026-01-20T23:05:38+00:00,SAT-54178,293.8331599212001,44.52521423464913,749.425310577327,-4.767207890271829,166967.78558670147,10.5,10500166967.785587,47.655,-122.3035,60.0,5.633333333333334
2026-01-20T23:05:39+00:00,SAT-54178,293.7549423444662,44.94580001568606,744.670882913534,-4.731577901169129,165719.87265362046,10.5,10500165719.872654,47.655,-122.3035,60.0,5.65
2026-01-20T23:05:40+00:00,SAT-54178,293.67445808615236,45.37132236006128,739.9519897197603,-4.695256320838887,164447.73727032286,10.5,10500164447.73727,47.655,-122.3035,60.0,5.666666666666667
2026-01-20T23:05:41+00:00,SAT-54178,293.59161136174805,45.801834678612806,735.2693207331722,-4.658230845440595,163150.9485042691,10.5,10500163150.948503,47.655,-122.3035,60.0,5.683333333333334
2026-01-20T23:05:42+00:00,SAT-54178,293.5063009320813,46.237389573243306,730.6235779617925,-4.620489086645905,161829.0724637976,10.5,10500161829.072464,47.655,-122.3035,60.0,5.7
2026-01-20T23:05:43+00:00,SAT-54178,293.41841971160727,46.67803872112972,726.0154757687604,-4.582018670032621,160481.6757442995,10.5,10500160481.675745,47.655,-122.3035,60.0,5.716666666666667
2026-01-20T23:05:44+00:00,SAT-54178,293.3278543415007,47.12383276005568,721.4457408584633,-4.54280718770555,159108.32376879966,10.5,10500159108.323769,47.655,-122.3035,60.0,5.733333333333333
2026-01-20T23:05:45+00:00,SAT-54178,293.2344847257563,47.57482116097001,716.9151123099206,-4.502842242551757,157708.58233796342,10.5,10500157708.582338,47.655,-122.3035,60.0,5.75
2026-01-20T23:05:46+00:00,SAT-54178,293.13818352550607,48.03105209587178,712.424341566029,-4.462111463544338,156282.01816609927,10.5,10500156282.018166,47.655,-122.3035,60.0,5.766666666666667
2026-01-20T23:05:47+00:00,SAT-54178,293.03881560710624,48.49257229791437,707.974192407547,-4.420602504140644,154828.19882505768,10.5,10500154828.198826,47.655,-122.3035,60.0,5.783333333333333
2026-01-20T23:05:48+00:00,SAT-54178,292.936237439821,48.9594269114352,703.5654409286768,-4.378303124145804,153346.69561143842,10.5,10500153346.695612,47.655,-122.3035,60.0,5.8
2026-01-20T23:05:49+00:00,SAT-54178,292.830296435803,49.43165934017647,699.198875431001,-4.335201112473361,151837.08084134088,10.5,10500151837.080841,47.655,-122.3035,60.0,5.816666666666666
2026-01-20T23:05:50+00:00,SAT-54178,292.7208302292341,49.90931107643404,694.8752963944523,-4.291284424342758,150298.93265560057,10.5,10500150298.932655,47.655,-122.3035,60.0,5.833333333333333
2026-01-20T23:05:51+00:00,SAT-54178,292.6076658833776,50.392421533375376,690.5955163114539,-4.246541109352896,148731.83250062086,10.5,10500148731.8325,47.655,-122.3035,60.0,5.85
2026-01-20T23:05:52+00:00,SAT-54178,292.49061902197496,50.88102785750916,686.3603595927927,-4.2009593961543485,147135.36809395207,10.5,10500147135.368093,47.655,-122.3035,60.0,5.866666666666666
2026-01-20T23:05:53+00:00,SAT-54178,292.3694928725068,51.37516473765668,682.1706623890468,-4.154527703472387,145509.13381036444,10.5,10500145509.13381,47.655,-122.3035,60.0,5.883333333333334
2026-01-20T23:05:54+00:00,SAT-54178,292.24407721302447,51.87486420181712,678.0272724010227,-4.107234650182569,143852.73103473795,10.5,10500143852.731035,47.655,-122.3035,60.0,5.9
2026-01-20T23:05:55+00:00,SAT-54178,292.1141472108229,52.380155400795985,673.9310486801388,-4.059069140851498,142165.77115806137,10.5,10500142165.771158,47.655,-122.3035,60.0,5.916666666666667
2026-01-20T23:05:56+00:00,SAT-54178,291.9794621380573,52.89106438704202,669.8828613435026,-4.010020329239899,140447.8742991558,10.5,10500140447.8743,47.655,-122.3035,60.0,5.933333333333334
2026-01-20T23:05:57+00:00,SAT-54178,291.8397639523153,53.40761387304371,665.8835913253824,-3.9600776860145306,138698.67167623198,10.5,10500138698.671677,47.655,-122.3035,60.0,5.95
2026-01-20T23:05:58+00:00,SAT-54178,291.6947757225694,53.929822980845906,661.9341300611533,-3.9092310624162936,136917.80783681717,10.5,10500136917.807837,47.655,-122.3035,60.0,5.966666666666667
2026-01-20T23:05:59+00:00,SAT-54178,291.54419988033214,54.457706981785805,658.0353791077415,-3.8574706675580654,135104.93986262885,10.5,10500135104.939863,47.655,-122.3035,60.0,5.983333333333333
2026-01-20T23:06:00+00:00,SAT-54178,291.38771627678653,54.99127701387773,654.1882497867123,-3.8047871393146115,133259.73985243958,10.5,10500133259.739853,47.655,-122.3035,60.0,6.0
2026-01-20T23:06:01+00:00,SAT-54178,291.2249800165839,55.530539787611225,650.3936627566574,-3.7511715979978475,131381.89680201162,10.5,10500131381.896803,47.655,-122.3035,60.0,6.016666666666667
2026-01-20T23:06:02+00:00,SAT-54178,291.05561903920034,56.07549727692378,646.652547532052,-3.6966156528422216,129471.1168312424,10.5,10500129471.11683,47.655,-122.3035,60.0,6.033333333333333
2026-01-20T23:06:03+00:00,SAT-54178,290.8792314147849,56.62614638694517,642.9658419956423,-3.641111478342253,127527.12585782814,10.5,10500127527.125858,47.655,-122.3035,60.0,6.05
2026-01-20T23:06:04+00:00,SAT-54178,290.69538231225624,57.18247860652233,639.3344918346999,-3.584651816861982,125549.66968865778,10.5,10500125549.66969,47.655,-122.3035,60.0,6.066666666666666
2026-01-20T23:06:05+00:00,SAT-54178,290.50360059566634,57.74447963253813,635.7594499746771,-3.527230073099431,123538.51732835795,10.5,10500123538.517328,47.655,-122.3035,60.0,6.083333333333333
2026-01-20T23:06:06+00:00,SAT-54178,290.30337499154786,58.312128977295835,632.2416759186457,-3.468840312777178,121493.46093343137,10.5,10500121493.460934,47.655,-122.3035,60.0,6.1
2026-01-20T23:06:07+00:00,SAT-54178,290.0941497675583,58.885399541395586,628.7821350880472,-3.4094773305096404,119414.3181892562,10.5,10500119414.31819,47.655,-122.3035,60.0,6.116666666666666
2026-01-20T23:06:08+00:00,SAT-54178,289.875319846319,59.464257159083864,625.3817980957527,-3.3491367060232404,117300.93427915397,10.5,10500117300.934278,47.655,-122.3035,60.0,6.133333333333334
2026-01-20T23:06:09+00:00,SAT-54178,289.6462252672688,60.04866011050448,622.0416399630575,-3.287814843558168,115153.1832644061,10.5,10500115153.183264,47.655,-122.3035,60.0,6.15
2026-01-20T23:06:10+00:00,SAT-54178,289.40614489591815,60.638558593174004,618.7626392973764,-3.2255089880769128,112970.96865194516,10.5,10500112970.968653,47.655,-122.3035,60.0,6.166666666666667
2026-01-20T23:06:11+00:00,SAT-54178,289.154289261429,61.23389414219844,615.5457774537763,-3.162217344457171,110754.22756899473,10.5,10500110754.22757,47.655,-122.3035,60.0,6.183333333333334
2026-01-20T23:06:12+00:00,SAT-54178,288.88979237317807,61.83459901078308,612.3920375776336,-3.0979390380553893,108502.92938183784,10.5,10500108502.929382,47.655,-122.3035,60.0,6.2
2026-01-20T23:06:13+00:00,SAT-54178,288.6117023572227,62.44059547375527,609.3024036866236,-3.0326742488882186,106217.08039541908,10.5,10500106217.080395,47.655,-122.3035,60.0,6.216666666666667
2026-01-20T23:06:14+00:00,SAT-54178,288.31897069874003,63.05179507582965,606.2778596188875,-2.9664241870205745,103896.72299133035,10.5,10500103896.722992,47.655,-122.3035,60.0,6.233333333333333
2026-01-20T23:06:15+00:00,SAT-54178,288.01043986019755,63.6680977821995,603.3193880057457,-2.899191183257965,101541.9388042398,10.5,10500101541.938805,47.655,-122.3035,60.0,6.25
2026-01-20T23:06:16+00:00,SAT-54178,287.6848289771206,64.28939103818271,600.427969153962,-2.83097871812454,99152.84973682582,10.5,10500099152.849737,47.655,-122.3035,60.0,6.266666666666667
2026-01-20T23:06:17+00:00,SAT-54178,287.3407172872555,64.9155487073937,597.6045798991056,-2.761791471003377,96729.61968087756,10.5,10500096729.61968,47.655,-122.3035,60.0,6.283333333333333
2026-01-20T23:06:18+00:00,SAT-54178,286.97652487031763,65.54642986945849,594.8501924099087,-2.6916353511014166,94272.45560181796,10.5,10500094272.455603,47.655,-122.3035,60.0,6.3
2026-01-20T23:06:19+00:00,SAT-54178,286.590490190024,66.1818774449379,592.1657729617378,-2.6205175623928376,91781.60981329555,10.5,10500091781.609814,47.655,-122.3035,60.0,6.316666666666666
2026-01-20T23:06:20+00:00,SAT-54178,286.1806438135523,66.82171662031695,589.5522806452984,-2.5484466171890294,89257.38045246224,10.5,10500089257.380453,47.655,-122.3035,60.0,6.333333333333333
2026-01-20T23:06:21+00:00,SAT-54178,285.74477755656847,67.46575301786979,587.0106660618044,-2.475432383471134,86700.11313775914,10.5,10500086700.113138,47.655,-122.3035,60.0,6.35
2026-01-20T23:06:22+00:00,SAT-54178,285.28040812295814,68.11377056378672,584.5418699709436,-2.4014861247342214,84110.20236442814,10.5,10500084110.202364,47.655,-122.3035,60.0,6.366666666666666
2026-01-20T23:06:23+00:00,SAT-54178,284.78473409879507,68.76552898538067,582.1468218991047,-2.3266205098078756,81488.09184847037,10.5,10500081488.091848,47.655,-122.3035,60.0,6.383333333333334
2026-01-20T23:06:24+00:00,SAT-54178,284.25458490193,69.42076084390526,579.8264387378101,-2.25084966113923,78834.27621772232,10.5,10500078834.276218,47.655,-122.3035,60.0,6.4
2026-01-20T23:06:25+00:00,SAT-54178,283.68635994292754,70.07916800513664,577.581623293995,-2.1741891547031416,76149.30100870978,10.5,10500076149.301008,47.655,-122.3035,60.0,6.416666666666667
2026-01-20T23:06:26+00:00,SAT-54178,283.0759558559276,70.74041739737899,575.4132628403776,-2.0966560786612947,73433.76472113782,10.5,10500073433.76472,47.655,-122.3035,60.0,6.433333333333334
2026-01-20T23:06:27+00:00,SAT-54178,282.41867911192566,71.40413589917826,573.3222276073244,-2.0182689823302074,70688.31703053444,10.5,10500070688.31703,47.655,-122.3035,60.0,6.45
2026-01-20T23:06:28+00:00,SAT-54178,281.709140721683,72.06990409937183,571.3093693256149,-1.9390479478119458,67913.66129706115,10.5,10500067913.661297,47.655,-122.3035,60.0,6.466666666666667
2026-01-20T23:06:29+00:00,SAT-54178,280.9411288651477,72.73724867777433,569.3755196977622,-1.8590145657705897,65110.553717102484,10.5,10500065110.553717,47.655,-122.3035,60.0,6.483333333333333
2026-01-20T23:06:30+00:00,SAT-54178,280.1074543456739,73.40563300395422,567.5214888934986,-1.7781919206021934,62279.802803855164,10.5,10500062279.802803,47.655,-122.3035,60.0,6.5
2026-01-20T23:06:31+00:00,SAT-54178,279.19976253033036,74.07444546963923,565.748064060045,-1.6966046153889454,59422.27026132834,10.5,10500059422.270262,47.655,-122.3035,60.0,6.516666666666667
2026-01-20T23:06:32+00:00,SAT-54178,278.2083039804685,74.74298493614971,564.0560078074983,-1.6142787333691206,56538.86963485841,10.5,10500056538.869635,47.655,-122.3035,60.0,6.533333333333333
2026-01-20T23:06:33+00:00,SAT-54178,277.1216543734297,75.41044244639146,562.4460567326429,-1.5312418279428792,53630.56596106974,10.5,10500053630.565962,47.655,-122.3035,60.0,6.55
2026-01-20T23:06:34+00:00,SAT-54178,275.9263725432912,76.07587812672959,560.9189199527295,-1.4475229029246843,50698.375076230855,10.5,10500050698.375076,47.655,-122.3035,60.0,6.566666666666666
2026-01-20T23:06:35+00:00,SAT-54178,274.60658391836205,76.73819185658252,559.4752776589493,-1.3631523610653438,47743.361813278534,10.5,10500047743.361813,47.655,-122.3035,60.0,6.583333333333333
2026-01-20T23:06:36+00:00,SAT-54178,273.1434758805997,77.39608584068121,558.1157797212489,-1.2781619972994829,44766.63976531581,10.5,10500044766.639765,47.655,-122.3035,60.0,6.6
2026-01-20T23:06:37+00:00,SAT-54178,271.5146927324639,78.04801671143522,556.8410442998777,-1.1925849229676906,41769.36863155093,10.5,10500041769.368631,47.655,-122.3035,60.0,6.616666666666666
2026-01-20T23:06:38+00:00,SAT-54178,269.6936236529962,78.69213408708504,555.651656532512,-1.1064555407156722,38752.75333815956,10.5,10500038752.753338,47.655,-122.3035,60.0,6.633333333333334
2026-01-20T23:06:39+00:00,SAT-54178,267.6485912857726,79.32620185585495,554.54816724641,-1.0198094649783742,35718.04125330241,10.5,10500035718.041254,47.655,-122.3035,60.0,6.65
2026-01-20T23:06:40+00:00,SAT-54178,265.34197979295317,79.94749778135625,553.5310917498736,-0.9326834838625504,32666.520852091548,10.5,10500032666.520853,47.655,-122.3035,60.0,6.666666666666667
2026-01-20T23:06:41+00:00,SAT-54178,262.7294024429849,80.55268690251921,552.6009086617208,-0.8451154708360158,29599.518623574466,10.5,10500029599.518623,47.655,-122.3035,60.0,6.683333333333334
2026-01-20T23:06:42+00:00,SAT-54178,259.75912235469593,81.13766521673979,551.758058828836,-0.7571443176881868,26518.39672272863,10.5,10500026518.396723,47.655,-122.3035,60.0,6.7
2026-01-20T23:06:43+00:00,SAT-54178,256.37213598950683,81.69737403637906,551.0029443105777,-0.6688098584597468,23424.55030615661,10.5,10500023424.550306,47.655,-122.3035,60.0,6.716666666666667
2026-01-20T23:06:44+00:00,SAT-54178,252.50363952659302,82.22559484130575,550.3359274390529,-0.58015277617066,20319.404265306533,10.5,10500020319.404264,47.655,-122.3035,60.0,6.733333333333333
2026-01-20T23:06:45+00:00,SAT-54178,248.087023270703,82.71475380136783,549.7573299724138,-0.49121452645957886,17204.410552001205,10.5,10500017204.410551,47.655,-122.3035,60.0,6.75
2026-01-20T23:06:46+00:00,SAT-54178,243.06195812064163,83.1557993955759,549.2674323243123,-0.4020372315447436,14081.044464500197,10.5,10500014081.044464,47.655,-122.3035,60.0,6.766666666666667
2026-01-20T23:06:47+00:00,SAT-54178,237.38814219484442,83.53826659049555,548.8664728991041,-0.3126635913183017,10950.801533646878,10.5,10500010950.801533,47.655,-122.3035,60.0,6.783333333333333
2026-01-20T23:06:48+00:00,SAT-54178,231.0650019544757,83.85069212807842,548.5546475157266,-0.22313677928068743,7815.193878050187,10.5,10500007815.193878,47.655,-122.3035,60.0,6.8
2026-01-20T23:06:49+00:00,SAT-54178,224.15404246156814,84.08154917634162,548.3321089353581,-0.13350034080842904,4675.746640992899,10.5,10500004675.746641,47.655,-122.3035,60.0,6.816666666666666
2026-01-20T23:06:50+00:00,SAT-54178,216.79485026940367,84.22074413759607,548.1989664905403,-0.04379808908871787,1533.9943456200544,10.5,10500001533.994345,47.655,-122.3035,60.0,6.833333333333333
2026-01-20T23:06:51+00:00,SAT-54178,209.20190544855402,84.26141668794595,548.1552858180844,0.045926002542375464,-1608.5228758321277,10.5,10499998391.477123,47.655,-122.3035,60.0,6.85
2026-01-20T23:06:52+00:00,SAT-54178,201.63434498874128,84.20143426496584,548.2010886993517,0.13562790706317568,-4750.263010830462,10.5,10499995249.73699,47.655,-122.3035,60.0,6.866666666666666
2026-01-20T23:06:53+00:00,SAT-54178,194.34626498506793,84.04390179811091,548.3363530067126,0.22526365346671978,-7889.686008713927,10.5,10499992110.313992,47.655,-122.3035,60.0,6.883333333333334
2026-01-20T23:06:54+00:00,SAT-54178,187.53933369767148,83.79642532249876,548.5610127594108,0.3147894302661927,-11025.257405891856,10.5,10499988974.742594,47.655,-122.3035,60.0,6.9
2026-01-20T23:06:55+00:00,SAT-54178,181.33770148421806,83.46950260897806,548.8749582826554,0.4041616976242808,-14155.452253088195,10.5,10499985844.547747,47.655,-122.3035,60.0,6.916666666666667
2026-01-20T23:06:56+00:00,SAT-54178,175.78940972777275,83.07474332070034,549.2780364785426,0.49333728533139953,-17278.75854695349,10.5,10499982721.241453,47.655,-122.3035,60.0,6.933333333333334
2026-01-20T23:06:57+00:00,SAT-54178,170.8845605287473,82.62347095369036,549.7700511946925,0.5822735019413152,-20393.681052455995,10.5,10499979606.318947,47.655,-122.3035,60.0,6.95
2026-01-20T23:06:58+00:00,SAT-54178,166.57766937771046,82.1258968356362,550.350763701729,0.6709282328825259,-23498.744739157253,10.5,10499976501.25526,47.655,-122.3035,60.0,6.966666666666667
2026-01-20T23:06:59+00:00,SAT-54178,162.8063356558716,81.59078583099158,551.0198932686072,0.7592600349228494,-26592.498089761546,10.5,10499973407.501911,47.655,-122.3035,60.0,6.983333333333333
2026-01-20T23:07:00+00:00,SAT-54178,159.5038192774162,81.0254389941925,551.7771178321543,0.8472282298388362,-29673.516380814955,10.5,10499970326.48362,47.655,-122.3035,60.0,7.0
2026-01-20T23:07:01+00:00,SAT-54178,156.6062131411382,80.43583681555371,552.6220747600265,0.9347930020875415,-32740.40510358398,10.5,10499967259.594896,47.655,-122.3035,60.0,7.016666666666667
2026-01-20T23:07:02+00:00,SAT-54178,154.0558443109462,79.82684002730767,553.5543617110768,1.0219154642483963,-35791.80225610666,10.5,10499964208.197744,47.655,-122.3035,60.0,7.033333333333333
2026-01-20T23:07:03+00:00,SAT-54178,151.80240195687495,79.20239242790397,554.5735375609898,1.1085577635031265,-38826.38207256978,10.5,10499961173.617928,47.655,-122.3035,60.0,7.05
2026-01-20T23:07:04+00:00,SAT-54178,149.8028498080468,78.56570120913315,555.67912343411,1.1946831263034428,-41842.85658776028,10.5,10499958157.143412,47.655,-122.3035,60.0,7.066666666666666
2026-01-20T23:07:05+00:00,SAT-54178,148.0207743348909,77.91938740992381,556.8706037798182,1.2802559485301783,-44839.97879481969,10.5,10499955160.021206,47.655,-122.3035,60.0,7.083333333333333
2026-01-20T23:07:06+00:00,SAT-54178,146.42553269295126,77.26560714684518,558.1474275388257,1.3652418488761888,-47816.544514939014,10.5,10499952183.455484,47.655,-122.3035,60.0,7.1
2026-01-20T23:07:07+00:00,SAT-54178,144.99138704157858,76.60614748102647,559.5090093627083,1.4496077257249083,-50771.3943894864,10.5,10499949228.60561,47.655,-122.3035,60.0,7.116666666666666
2026-01-20T23:07:08+00:00,SAT-54178,143.69671040259334,75.9425014957447,560.9547308901663,1.5333218138425824,-53703.41586560898,10.5,10499946296.584135,47.655,-122.3035,60.0,7.133333333333334
2026-01-20T23:07:09+00:00,SAT-54178,142.52329506679763,75.27592686096845,562.4839420798244,1.6163537158416468,-56611.544298213434,10.5,10499943388.455702,47.655,-122.3035,60.0,7.15
2026-01-20T23:07:10+00:00,SAT-54178,141.4557675353053,74.60749151314278,564.0959625744107,1.6986744539340808,-59494.76476258735,10.5,10499940505.235237,47.655,-122.3035,60.0,7.166666666666667
2026-01-20T23:07:11+00:00,SAT-54178,140.48110172179904,73.9381093516506,565.7900831165508,1.7802564861017511,-62352.112620753076,10.5,10499937647.887379,47.655,-122.3035,60.0,7.183333333333334
2026-01-20T23:07:12+00:00,SAT-54178,139.58821769180412,73.26856824725982,567.5655669806888,1.8610737550278136,-65182.67523525239,10.5,10499934817.324764,47.655,-122.3035,60.0,7.2
2026-01-20T23:07:13+00:00,SAT-54178,138.76765245854827,72.5995521092638,569.4216514538076,1.9411016773605694,-67985.59159312132,10.5,10499932014.408407,47.655,-122.3035,60.0,7.216666666666667
2026-01-20T23:07:14+00:00,SAT-54178,138.0112904101412,71.93165838256756,571.3575493054431,2.0203171805197564,-70760.05359500219,10.5,10499929239.946405,47.655,-122.3035,60.0,7.233333333333333
2026-01-20T23:07:15+00:00,SAT-54178,137.31214250813485,71.26541198614784,573.3724502944056,2.0986986890597445,-73505.30557752495,10.5,10499926494.694422,47.655,-122.3035,60.0,7.25
2026-01-20T23:07:16+00:00,SAT-54178,136.6641651847341,70.60127649771592,575.4655226619003,2.1762261649175527,-76220.64572296312,10.5,10499923779.354277,47.655,-122.3035,60.0,7.266666666666667
2026-01-20T23:07:17+00:00,SAT-54178,136.06211143117517,69.93966316846178,577.6359146647893,2.252881040790513,-78905.42372583765,10.5,10499921094.576275,47.655,-122.3035,60.0,7.283333333333333
2026-01-20T23:07:18+00:00,SAT-54178,135.50140802341903,69.28093826374328,579.8827560424068,2.328646272579465,-81559.04262969947,10.5,10499918440.95737,47.655,-122.3035,60.0,7.3
2026-01-20T23:07:19+00:00,SAT-54178,134.97805392382966,68.62542904759704,582.2051595356827,2.4035062994175305,-84180.95742716806,10.5,10499915819.042572,47.655,-122.3035,60.0,7.316666666666666
2026-01-20T23:07:20+00:00,SAT-54178,134.48853592881053,67.97342871575114,584.6022223663953,2.47744700387256,-86770.67366605293,10.5,10499913229.326334,47.655,-122.3035,60.0,7.333333333333333
2026-01-20T23:07:21+00:00,SAT-54178,134.02975837054694,67.32520048904136,587.0730276767382,2.550455751134693,-89327.74882186756,10.5,10499910672.251179,47.655,-122.3035,60.0,7.35
2026-01-20T23:07:22+00:00,SAT-54178,133.5989842934506,66.68098101333008,589.6166460079669,2.6225212795947375,-91851.78846542144,10.5,10499908148.211535,47.655,-122.3035,60.0,7.366666666666666
2026-01-20T23:07:23+00:00,SAT-54178,133.1937860709424,66.04098323651628,592.232136669919,2.6936337439000346,-94342.44777081872,10.5,10499905657.552229,47.655,-122.3035,60.0,7.383333333333334
2026-01-20T23:07:24+00:00,SAT-54178,132.81200376442348,65.40539882560707,594.9185491534731,2.763784647357678,-96799.4291479328,10.5,10499903200.570852,47.655,-122.3035,60.0,7.4
2026-01-20T23:07:25+00:00,SAT-54178,132.45170989645172,64.77440023469035,597.6749244755935,2.832966808506482,-99222.48107161543,10.5,10499900777.518929,47.655,-122.3035,60.0,7.416666666666667
2026-01-20T23:07:26+00:00,SAT-54178,132.1111795360654,64.14814247953156,600.5002964910357,2.90117432347251,-101611.39676322797,10.5,10499898388.603237,47.655,-122.3035,60.0,7.433333333333334
2026-01-20T23:07:27+00:00,SAT-54178,131.7888648035452,63.526764671795625,603.3936931665093,2.9684025235299267,-103966.01270424298,10.5,10499896033.987295,47.655,-122.3035,60.0,7.45
2026-01-20T23:07:28+00:00,SAT-54178,131.48337306741072,62.910391355650255,606.354137812513,3.0346479466583536,-106286.2076400625,10.5,10499893713.79236,47.655,-122.3035,60.0,7.466666666666667
2026-01-20T23:07:29+00:00,SAT-54178,131.19344823308506,62.29913367751044,609.380650286808,3.0999082823892063,-108571.90064830339,10.5,10499891428.099352,47.655,-122.3035,60.0,7.483333333333333
2026-01-20T23:07:30+00:00,SAT-54178,130.9179546357811,61.69309042180637,612.4722481428794,3.16418231400599,-110823.04911440732,10.5,10499889176.950886,47.655,-122.3035,60.0,7.5
2026-01-20T23:07:31+00:00,SAT-54178,130.65586313001572,61.0923489348485,615.6279477207587,3.227469891483752,-113039.64778386585,10.5,10499886960.352217,47.655,-122.3035,60.0,7.516666666666667
2026-01-20T23:07:32+00:00,SAT-54178,130.40623903700433,60.496985948713665,618.8467652108541,3.2897718863444334,-115221.72718106388,10.5,10499884778.27282,47.655,-122.3035,60.0,7.533333333333333
2026-01-20T23:07:33+00:00,SAT-54178,130.16823167170847,59.90706832376372,622.1277176727598,3.351090114515712,-117369.35090747006,10.5,10499882630.649092,47.655,-122.3035,60.0,7.55
2026-01-20T23:07:34+00:00,SAT-54178,129.94106521933222,59.32265372743008,625.4698239771291,3.411427334730619,-119482.61558558454,10.5,10499880517.384415,47.655,-122.3035,60.0,7.566666666666666
2026-01-20T23:07:35+00:00,SAT-54178,129.72403075876457,58.74379124552959,628.8721057459522,3.470787139293068,-121561.64703308584,10.5,10499878438.352966,47.655,-122.3035,60.0,7.583333333333333
2026-01-20T23:07:36+00:00,SAT-54178,129.51647927833602,58.17052195339591,632.3335881838934,3.529173982419112,-123606.60125546144,10.5,10499876393.398745,47.655,-122.3035,60.0,7.6
2026-01-20T23:07:37+00:00,SAT-54178,129.31781553486363,57.60287942988912,635.8533009378916,3.586593062495004,-125617.66032218709,10.5,10499874382.339678,47.655,-122.3035,60.0,7.616666666666666
2026-01-20T23:07:38+00:00,SAT-54178,129.1274926501435,57.040890244834934,639.4302788393359,3.643050307287108,-127595.03184871527,10.5,10499872404.968151,47.655,-122.3035,60.0,7.633333333333334
2026-01-20T23:07:39+00:00,SAT-54178,128.94500733831023,56.484574407084345,643.0635626314901,3.6985523334131547,-129538.94757698716,10.5,10499870461.052423,47.655,-122.3035,60.0,7.65
2026-01-20T23:07:40+00:00,SAT-54178,128.769895682451,55.933945781890685,646.7521996564976,3.7531064098140723,-131449.66209606166,10.5,10499868550.337904,47.655,-122.3035,60.0,7.666666666666667
2026-01-20T23:07:41+00:00,SAT-54178,128.60172938814645,55.389012480551344,650.4952445059555,3.8067203475989992,-133327.4489840218,10.5,10499866672.551016,47.655,-122.3035,60.0,7.683333333333334
2026-01-20T23:07:42+00:00,SAT-54178,128.44011245700653,54.84977723566303,654.2917595616301,3.8594025477333314,-135172.6024782117,10.5,10499864827.397522,47.655,-122.3035,60.0,7.7
2026-01-20T23:07:43+00:00,SAT-54178,128.2846782186167,54.316237741296305,658.1408155837305,3.9111619097505015,-136985.43427793725,10.5,10499863014.565722,47.655,-122.3035,60.0,7.716666666666667
2026-01-20T23:07:44+00:00,SAT-54178,128.13508668419183,53.78838698089447,662.0414922081413,3.962007785710194,-138766.27193188775,10.5,10499861233.728067,47.655,-122.3035,60.0,7.733333333333333
2026-01-20T23:07:45+00:00,SAT-54178,127.99102217954602,53.26621353766067,665.9928783977351,4.011949948286209,-140515.45772043805,10.5,10499859484.54228,47.655,-122.3035,60.0,7.75
2026-01-20T23:07:46+00:00,SAT-54178,127.85219122389718,52.74970188709919,669.9940728618591,4.0609985852226735,-142233.34846148154,10.5,10499857766.651539,47.655,-122.3035,60.0,7.766666666666667
2026-01-20T23:07:47+00:00,SAT-54178,127.7183206240704,52.23883267002457,674.0441844702925,4.109164213740556,-143920.3125125844,10.5,10499856079.687487,47.655,-122.3035,60.0,7.783333333333333
2026-01-20T23:07:48+00:00,SAT-54178,127.58915576258686,51.73358295761415,678.1423325818406,4.156457667162978,-145576.72930254726,10.5,10499854423.270697,47.655,-122.3035,60.0,7.8
2026-01-20T23:07:49+00:00,SAT-54178,127.46445905409027,51.23392650004802,682.2876473595893,4.202890047837793,-147202.98768255484,10.5,10499852797.012318,47.655,-122.3035,60.0,7.816666666666666
2026-01-20T23:07:50+00:00,SAT-54178,127.34400855311425,50.73983396405748,686.4792700392077,4.248472758974646,-148799.48704124434,10.5,10499851200.512959,47.655,-122.3035,60.0,7.833333333333333
2026-01-20T23:07:51+00:00,SAT-54178,127.22759669299397,50.251273151057966,690.7163532290047,4.293217345319839,-150366.63172446555,10.5,10499849633.368275,47.655,-122.3035,60.0,7.85
2026-01-20T23:07:52+00:00,SAT-54178,127.11502914858254,49.7682092190542,694.9980610510855,4.337135606260266,-151904.8349966589,10.5,10499848095.165003,47.655,-122.3035,60.0,7.866666666666666
2026-01-20T23:07:53+00:00,SAT-54178,127.00612380011952,49.29060487716917,699.3235693953102,4.380239476816646,-153414.514872735,10.5,10499846585.485126,47.655,-122.3035,60.0,7.883333333333334
2026-01-20T23:07:54+00:00,SAT-54178,126.90070979521435,48.81842058062491,703.6920660545626,4.422541004079776,-154896.0932927727,10.5,10499845103.906708,47.655,-122.3035,60.0,7.9
2026-01-20T23:07:55+00:00,SAT-54178,126.79862669542095,48.35161471532846,708.1027508365212,4.464052389510048,-156349.9976035271,10.5,10499843650.002396,47.655,-122.3035,60.0,7.916666666666667
2026-01-20T23:07:56+00:00,SAT-54178,126.69972369712315,47.890143765985805,712.5548357176142,4.504785894883631,-157776.6572642669,10.5,10499842223.342735,47.655,-122.3035,60.0,7.933333333333334
2026-01-20T23:07:57+00:00,SAT-54178,126.60385892279707,47.43396248297489,717.047544903174,4.5447538414215085,-159176.5038162696,10.5,10499840823.496183,47.655,-122.3035,60.0,7.95
2026-01-20T23:07:58+00:00,SAT-54178,126.51089877315943,46.983024038284896,721.5801148867226,4.583968600845828,-160549.97056957713,10.5,10499839450.02943,47.655,-122.3035,60.0,7.966666666666667
2026-01-20T23:07:59+00:00,SAT-54178,126.42071733439447,46.5372801721139,726.1517945003374,4.622442584260557,-161897.49221354944,10.5,10499838102.507786,47.655,-122.3035,60.0,7.983333333333333
2026-01-20T23:08:00+00:00,SAT-54178,126.33319583517216,46.09668133096633,730.7618449539267,4.660188164328431,-163219.50209117177,10.5,10499836780.49791,47.655,-122.3035,60.0,8.0
2026-01-20T23:08:01+00:00,SAT-54178,126.24822215022579,45.661176803955016,735.4095397968924,4.697217752884239,-164516.43491740045,10.5,10499835483.565083,47.655,-122.3035,60.0,8.016666666666667
2026-01-20T23:08:02+00:00,SAT-54178,126.16569034256202,45.230714842867116,740.0941649571973,4.733543714551439,-165788.7237536513,10.5,10499834211.276247,47.655,-122.3035,60.0,8.033333333333333
2026-01-20T23:08:03+00:00,SAT-54178,126.08550024431155,44.805242782192984,744.8150186942792,4.769178338549056,-167036.79902035787,10.5,10499832963.20098,47.655,-122.3035,60.0,8.05
2026-01-20T23:08:04+00:00,SAT-54178,126.00755707133033,44.38470715353556,749.571411523849,4.804133893373951,-168261.09041217604,10.5,10499831738.909588,47.655,-122.3035,60.0,8.066666666666666
2026-01-20T23:08:05+00:00,SAT-54178,125.93177106687959,43.969053787533454,754.3626661972253,4.838422599472213,-169462.02594082014,10.5,10499830537.97406,47.655,-122.3035,60.0,8.083333333333334
2026-01-20T23:08:06+00:00,SAT-54178,125.85805717340482,43.558227911352894,759.1881176534106,4.8720565395563975,-170640.02879399378,10.5,10499829359.971207,47.655,-122.3035,60.0,8.1
2026-01-20T23:08:07+00:00,SAT-54178,125.78633473096117,43.152174247025755,764.0471128817284,4.905047732154336,-171795.5199113799,10.5,10499828204.48009,47.655,-122.3035,60.0,8.116666666666667
2026-01-20T23:08:08+00:00,SAT-54178,125.71652719716396,42.750837096908796,768.9390108578095,4.937408120935753,-172928.91761081398,10.5,10499827071.08239,47.655,-122.3035,60.0,8.133333333333333
2026-01-20T23:08:09+00:00,SAT-54178,125.64856188802443,42.35416042418422,773.8631824689353,4.969149488097015,-174040.63455465133,10.5,10499825959.365446,47.655,-122.3035,60.0,8.15
2026-01-20T23:08:10+00:00,SAT-54178,125.58236973952576,41.962087934608206,778.8190103529972,5.000283527632561,-175131.08031604282,10.5,10499824868.919683,47.655,-122.3035,60.0,8.166666666666666
2026-01-20T23:08:11+00:00,SAT-54178,125.51788508510863,41.57456314675171,783.8058888105314,5.03082181519354,-176200.66032325657,10.5,10499823799.339676,47.655,-122.3035,60.0,8.183333333333334
2026-01-20T23:08:12+00:00,SAT-54178,125.45504544991697,41.19152945961173,788.8232236866917,5.060775774264509,-177249.77467504318,10.5,10499822750.225325,47.655,-122.3035,60.0,8.2
2026-01-20T23:08:13+00:00,SAT-54178,125.39379135992114,40.81293021791123,793.8704322194925,5.090156679448955,-178278.8182557082,10.5,10499821721.181744,47.655,-122.3035,60.0,8.216666666666667
2026-01-20T23:08:14+00:00,SAT-54178,125.33406616467613,40.43870877237894,798.9469428913255,5.118975729108122,-179288.1832792314,10.5,10499820711.816721,47.655,-122.3035,60.0,8.233333333333333
2026-01-20T23:08:15+00:00,SAT-54178,125.27581587103519,40.06880853039612,804.0521953529224,5.147243862157694,-180278.25287271166,10.5,10499819721.747128,47.655,-122.3035,60.0,8.25
2026-01-20T23:08:16+00:00,SAT-54178,125.21898899131062,39.70317301591538,809.1856401646057,5.174971968012119,-181249.4084295051,10.5,10499818750.59157,47.655,-122.3035,60.0,8.266666666666667
2026-01-20T23:08:17+00:00,SAT-54178,125.16353639838195,39.34174591014273,814.3467387469174,5.202170743920709,-182202.0246125319,10.5,10499817797.975388,47.655,-122.3035,60.0,8.283333333333333
2026-01-20T23:08:18+00:00,SAT-54178,125.10941119292221,38.984471099002214,819.5349631889732,5.228850711538774,-183136.4699346677,10.5,10499816863.530066,47.655,-122.3035,60.0,8.3
2026-01-20T23:08:19+00:00,SAT-54178,125.05656857897853,38.6312927157641,824.7497960733359,5.255022216770468,-184053.10675323897,10.5,10499815946.893248,47.655,-122.3035,60.0,8.316666666666666
2026-01-20T23:08:20+00:00,SAT-54178,125.00496574787097,38.282155180319535,829.9907303007363,5.280695523509535,-184952.29455322094,10.5,10499815047.705446,47.655,-122.3035,60.0,8.333333333333334
2026-01-20T23:08:21+00:00,SAT-54178,124.95456176841529,37.9370032292151,835.2572690082835,5.305880635974446,-185834.3837246622,10.5,10499814165.616276,47.655,-122.3035,60.0,8.35
2026-01-20T23:08:22+00:00,SAT-54178,124.90531748652197,37.59578195465735,840.5489253104843,5.330587455928602,-186699.72106920154,10.5,10499813300.27893,47.655,-122.3035,60.0,8.366666666666667
2026-01-20T23:08:23+00:00,SAT-54178,124.8571954291769,37.258436830332435,845.8652221970646,5.354825675754702,-187548.64605507976,10.5,10499812451.353945,47.655,-122.3035,60.0,8.383333333333333
2026-01-20T23:08:24+00:00,SAT-54178,124.81015971596892,36.92491374168671,851.2056923241485,5.378604857784166,-188381.49359559186,10.5,10499811618.506405,47.655,-122.3035,60.0,8.4
2026-01-20T23:08:25+00:00,SAT-54178,124.76417597503445,36.595159008728835,856.5698778845565,5.401934363319927,-189198.59156316478,10.5,10499810801.408438,47.655,-122.3035,60.0,8.416666666666666
2026-01-20T23:08:26+00:00,SAT-54178,124.71921126518889,36.26911941106926,861.9573304073151,5.424823404635948,-190000.26261060062,10.5,10499809999.737389,47.655,-122.3035,60.0,8.433333333333334
2026-01-20T23:08:27+00:00,SAT-54178,124.67523400215086,35.946742207595335,867.3676106090289,5.447281015981131,-190786.82315551073,10.5,10499809213.176844,47.655,-122.3035,60.0,8.45
2026-01-20T23:08:28+00:00,SAT-54178,124.632213889702,35.627975155978824,872.800288216331,5.469316084170579,-191558.58445175123,10.5,10499808441.415548,47.655,-122.3035,60.0,8.466666666666667
2026-01-20T23:08:29+00:00,SAT-54178,124.59012185452256,35.312766528534034,878.2549418188456,5.490937305279441,-192315.85107265814,10.5,10499807684.148928,47.655,-122.3035,60.0,8.483333333333333
2026-01-20T23:08:30+00:00,SAT-54178,124.54892998553578,35.00106512890278,883.7311586789591,5.512153204879067,-193058.9216198034,10.5,10499806941.07838,47.655,-122.3035,60.0,8.5
2026-01-20T23:08:31+00:00,SAT-54178,124.50861147654457,34.69282030588615,889.2285345617729,5.532972186516607,-193788.09042095504,10.5,10499806211.909578,47.655,-122.3035,60.0,8.516666666666667
2026-01-20T23:08:32+00:00,SAT-54178,124.46914057179087,34.38798196310859,894.7466736134074,5.553402439180134,-194503.64428911486,10.5,10499805496.355711,47.655,-122.3035,60.0,8.533333333333333
2026-01-20T23:08:33+00:00,SAT-54178,124.43049251552934,34.08650057248156,900.2851881470177,5.573452036263388,-195205.865988682,10.5,10499804794.134012,47.655,-122.3035,60.0,8.55
2026-01-20T23:08:34+00:00,SAT-54178,124.39264350370414,33.78832718086794,905.8436985275086,5.593128830012216,-195895.03053852098,10.5,10499804104.969461,47.655,-122.3035,60.0,8.566666666666666
2026-01-20T23:08:35+00:00,SAT-54178,124.35557063919967,33.49341342128526,911.4218329509791,5.612440599533793,-196571.41039587068,10.5,10499803428.589603,47.655,-122.3035,60.0,8.583333333333334
2026-01-20T23:08:36+00:00,SAT-54178,124.31925188841316,33.20171151507002,917.0192273717824,5.631394890855166,-197235.26985451797,10.5,10499802764.730146,47.655,-122.3035,60.0,8.6
2026-01-20T23:08:37+00:00,SAT-54178,124.2836660416505,32.91317428153326,922.6355252700679,5.649999113680925,-197886.86843366057,10.5,10499802113.131567,47.655,-122.3035,60.0,8.616666666666667
2026-01-20T23:08:38+00:00,SAT-54178,124.24879267489317,32.627755141455346,928.2703775158247,5.668260559436019,-198526.46150984292,10.5,10499801473.53849,47.655,-122.3035,60.0,8.633333333333333
2026-01-20T23:08:39+00:00,SAT-54178,124.21461211347788,32.34540811889219,933.9234422509207,5.686186339160925,-199154.29814178217,10.5,10499800845.701859,47.655,-122.3035,60.0,8.65
2026-01-20T23:08:40+00:00,SAT-54178,124.18110539838578,32.06608784533409,939.5943847092004,5.703783405929216,-199770.62185552638,10.5,10499800229.378145,47.655,-122.3035,60.0,8.666666666666666
2026-01-20T23:08:41+00:00,SAT-54178,124.14825425407737,31.789749561905072,945.2828770589404,5.721058599442962,-200375.67220637386,10.5,10499799624.327793,47.655,-122.3035,60.0,8.683333333333334
2026-01-20T23:08:42+00:00,SAT-54178,124.11604105782361,31.516349118722076,950.9885982897844,5.73801857774857,-200969.68238727338,10.5,10499799030.317614,47.655,-122.3035,60.0,8.7
2026-01-20T23:08:43+00:00,SAT-54178,124.08444881103702,31.24584297693955,956.7112340315725,5.754669899355829,-201552.8821049801,10.5,10499798447.117895,47.655,-122.3035,60.0,8.716666666666667
2026-01-20T23:08:44+00:00,SAT-54178,124.05346111170888,30.978188206275195,962.4504764550725,5.771018930005242,-202125.49431465365,10.5,10499797874.505686,47.655,-122.3035,60.0,8.733333333333333
2026-01-20T23:08:45+00:00,SAT-54178,124.02306212883651,30.713342486413875,968.2060240797272,5.787071936864916,-202687.73851903112,10.5,10499797312.26148,47.655,-122.3035,60.0,8.75
2026-01-20T23:08:46+00:00,SAT-54178,123.99323657757148,30.45126410348967,973.9775816753452,5.802835072901272,-203239.8302210236,10.5,10499796760.169779,47.655,-122.3035,60.0,8.766666666666667
2026-01-20T23:08:47+00:00,SAT-54178,123.96396969571308,30.191911946967654,979.7648601482072,5.818314277938188,-203781.9774583888,10.5,10499796218.022541,47.655,-122.3035,60.0,8.783333333333333
