DopplerPredictor/satellites_20260205_234138/SAT-63364.csv

timestamp,satellite,azimuth_deg,elevation_deg,distance_km,relative_velocity_kms,doppler_shift_hz,tx_freq_ghz,rx_freq_hz,ue_lat,ue_lon,ue_alt_m,time_minutes
2026-01-20T23:06:40+00:00,SAT-63364,301.22821851336323,30.164699767923892,870.3643445809212,-4.143210298487138,145112.75041520543,10.5,10500145112.750416,47.655,-122.3035,60.0,6.666666666666667
2026-01-20T23:06:41+00:00,SAT-63364,301.6273836587228,30.367091506618657,866.2322416574812,-4.105717001520952,143799.57655896063,10.5,10500143799.57656,47.655,-122.3035,60.0,6.683333333333334
2026-01-20T23:06:42+00:00,SAT-63364,302.03198569498704,30.569783968039157,862.1375315166523,-4.067682504398809,142467.44758397993,10.5,10500142467.447584,47.655,-122.3035,60.0,6.7
2026-01-20T23:06:43+00:00,SAT-63364,302.4420981126494,30.772731783346728,858.0807539077075,-4.029101595634845,141116.18096198363,10.5,10500141116.180962,47.655,-122.3035,60.0,6.716666666666667
2026-01-20T23:06:44+00:00,SAT-63364,302.85779423532824,30.975887587610618,854.0624537774345,-3.989969216627,139745.59951932981,10.5,10500139745.59952,47.655,-122.3035,60.0,6.733333333333333
2026-01-20T23:06:45+00:00,SAT-63364,303.2791471259625,31.17920197736405,850.0831811176616,-3.950280400437134,138355.52929283466,10.5,10500138355.529293,47.655,-122.3035,60.0,6.75
2026-01-20T23:06:46+00:00,SAT-63364,303.7062294794291,31.382623465749116,846.1434908738393,-3.9100303697112473,136945.80295935294,10.5,10500136945.80296,47.655,-122.3035,60.0,6.766666666666667
2026-01-20T23:06:47+00:00,SAT-63364,304.1391135176255,31.586098443500607,842.243942755965,-3.869214471492422,135516.2575526514,10.5,10500135516.257553,47.655,-122.3035,60.0,6.783333333333333
2026-01-20T23:06:48+00:00,SAT-63364,304.57787086982074,31.789571137689293,838.3851011145192,-3.8278282078808274,134066.73553725187,10.5,10500134066.735537,47.655,-122.3035,60.0,6.8
2026-01-20T23:06:49+00:00,SAT-63364,305.022572447884,31.99298357327289,834.5675347858233,-3.785867301965709,132597.0871176484,10.5,10500132597.087118,47.655,-122.3035,60.0,6.816666666666666
2026-01-20T23:06:50+00:00,SAT-63364,305.47328832040404,32.196275539666196,830.7918168716443,-3.74332761308495,131107.16727033866,10.5,10500131107.16727,47.655,-122.3035,60.0,6.833333333333333
2026-01-20T23:06:51+00:00,SAT-63364,305.93008756859706,32.39938455457437,827.0585246033111,-3.7002052552609856,129596.83989195069,10.5,10500129596.839891,47.655,-122.3035,60.0,6.85
2026-01-20T23:06:52+00:00,SAT-63364,306.3930381467449,32.60224583617131,823.3682390877111,-3.656496511118288,128065.974784269,10.5,10500128065.974785,47.655,-122.3035,60.0,6.866666666666666
2026-01-20T23:06:53+00:00,SAT-63364,306.8622067234754,32.804792272930825,819.7215451391424,-3.6121979139041898,126514.45052695085,10.5,10500126514.450527,47.655,-122.3035,60.0,6.883333333333334
2026-01-20T23:06:54+00:00,SAT-63364,307.33765852325735,33.006954400461055,816.119031029362,-3.56730623746298,124942.15412637661,10.5,10500124942.154127,47.655,-122.3035,60.0,6.9
2026-01-20T23:06:55+00:00,SAT-63364,307.81945715731075,33.208660380698646,812.5612882476335,-3.521818521629611,123348.98190504484,10.5,10500123348.981905,47.655,-122.3035,60.0,6.916666666666667
2026-01-20T23:06:56+00:00,SAT-63364,308.3076644481404,33.40983598571255,809.0489112354493,-3.475732022033217,121734.8377434791,10.5,10500121734.837744,47.655,-122.3035,60.0,6.933333333333334
2026-01-20T23:06:57+00:00,SAT-63364,308.8023402373223,33.61040458211872,805.5824971713162,-3.4290443494476652,120099.63796087386,10.5,10500120099.63796,47.655,-122.3035,60.0,6.95
2026-01-20T23:06:58+00:00,SAT-63364,309.30354220208096,33.810287127280546,802.1626456165613,-3.381753346251976,118443.30698821566,10.5,10500118443.306988,47.655,-122.3035,60.0,6.966666666666667
2026-01-20T23:06:59+00:00,SAT-63364,309.81132564518396,34.00940216261556,798.7899582843487,-3.3338572182312736,116765.78198451002,10.5,10500116765.781984,47.655,-122.3035,60.0,6.983333333333333
2026-01-20T23:07:00+00:00,SAT-63364,310.32574329319084,34.20766581905394,795.4650386772471,-3.2853544453386,115067.00971128268,10.5,10500115067.009712,47.655,-122.3035,60.0,7.0
2026-01-20T23:07:01+00:00,SAT-63364,310.84684507197267,34.40499182217287,792.1884918137976,-3.236243871733167,113346.94968610002,10.5,10500113346.949686,47.655,-122.3035,60.0,7.016666666666667
2026-01-20T23:07:02+00:00,SAT-63364,311.3746778855015,34.601291507868325,788.9609238652828,-3.1865247077649523,111605.57425207808,10.5,10500111605.574251,47.655,-122.3035,60.0,7.033333333333333
2026-01-20T23:07:03+00:00,SAT-63364,311.90928538572604,34.79647384385509,785.7829417905189,-3.1361964965789415,109842.86740822175,10.5,10500109842.867409,47.655,-122.3035,60.0,7.05
2026-01-20T23:07:04+00:00,SAT-63364,312.45070772757725,34.99044545511781,782.6551530039521,-3.085259179624534,108058.82710384132,10.5,10500108058.827105,47.655,-122.3035,60.0,7.066666666666666
2026-01-20T23:07:05+00:00,SAT-63364,312.9989813251222,35.1831106597111,779.5781649784224,-3.033713108614713,106253.46565741318,10.5,10500106253.465658,47.655,-122.3035,60.0,7.083333333333333
2026-01-20T23:07:06+00:00,SAT-63364,313.5541386014534,35.374371512112866,776.5525848359996,-2.9815590121999134,104426.80858935781,10.5,10500104426.80859,47.655,-122.3035,60.0,7.1
2026-01-20T23:07:07+00:00,SAT-63364,314.11620772433645,35.56412785160558,773.5790189720562,-2.9287980630028505,102578.89696988284,10.5,10500102578.89697,47.655,-122.3035,60.0,7.116666666666666
2026-01-20T23:07:08+00:00,SAT-63364,314.68521234572506,35.752277362338944,770.6580726124861,-2.875431864423096,100709.78695682366,10.5,10500100709.786957,47.655,-122.3035,60.0,7.133333333333334
2026-01-20T23:07:09+00:00,SAT-63364,315.2611713320127,35.9387156404337,767.7903493840819,-2.8214624714274623,98819.55052381055,10.5,10500098819.550524,47.655,-122.3035,60.0,7.15
2026-01-20T23:07:10+00:00,SAT-63364,315.84409849175773,36.123336270591345,764.9764508641783,-2.7668923941314274,96908.27558570533,10.5,10500096908.275585,47.655,-122.3035,60.0,7.166666666666667
2026-01-20T23:07:11+00:00,SAT-63364,316.43400229842103,36.30603091144656,762.2169761267245,-2.7117246266911743,94976.06701052275,10.5,10500094976.06701,47.655,-122.3035,60.0,7.183333333333334
2026-01-20T23:07:12+00:00,SAT-63364,317.03088561432526,36.48668939161084,759.5125212595393,-2.655962636001035,93023.04622356735,10.5,10500093023.046223,47.655,-122.3035,60.0,7.2
2026-01-20T23:07:13+00:00,SAT-63364,317.6347454086072,36.6651998140615,756.8636788928426,-2.5996104104778923,91049.35291606926,10.5,10500091049.352917,47.655,-122.3035,60.0,7.216666666666667
2026-01-20T23:07:14+00:00,SAT-63364,318.24557248325596,36.84144867312197,754.271037679129,-2.542672423566422,89055.14376698372,10.5,10500089055.143766,47.655,-122.3035,60.0,7.233333333333333
2026-01-20T23:07:15+00:00,SAT-63364,318.8633511901925,37.01532097855561,751.7351818094413,-2.4851536801986387,87040.59407020074,10.5,10500087040.59407,47.655,-122.3035,60.0,7.25
2026-01-20T23:07:16+00:00,SAT-63364,319.48805915866785,37.1867003925092,749.256690483308,-2.427059713698459,85005.8976261298,10.5,10500085005.897627,47.655,-122.3035,60.0,7.266666666666667
2026-01-20T23:07:17+00:00,SAT-63364,320.1196670240869,37.355469376135325,746.8361373817678,-2.3683965922709036,82951.26696897921,10.5,10500082951.26697,47.655,-122.3035,60.0,7.283333333333333
2026-01-20T23:07:18+00:00,SAT-63364,320.75813816176185,37.52150934661667,744.474090133922,-2.309170918028094,80876.93333264237,10.5,10500080876.933332,47.655,-122.3035,60.0,7.3
2026-01-20T23:07:19+00:00,SAT-63364,321.4034284251044,37.68470084409195,742.1711097844594,-2.249389877773368,78783.1484293723,10.5,10500078783.14843,47.655,-122.3035,60.0,7.316666666666666
2026-01-20T23:07:20+00:00,SAT-63364,322.05548590450246,37.84492371214552,739.9277502105326,-2.1890611807679887,76670.18227010862,10.5,10500076670.18227,47.655,-122.3035,60.0,7.333333333333333
2026-01-20T23:07:21+00:00,SAT-63364,322.7142506783764,38.00205728380964,737.7445576006996,-2.128193125106809,74538.32548923395,10.5,10500074538.325489,47.655,-122.3035,60.0,7.35
2026-01-20T23:07:22+00:00,SAT-63364,323.3796545933627,38.1559805820193,735.6220698676707,-2.0667945620314567,72387.88809467081,10.5,10500072387.888094,47.655,-122.3035,60.0,7.366666666666666
2026-01-20T23:07:23+00:00,SAT-63364,324.05162104748257,38.306572527083034,733.5608160966423,-2.0048749182438548,70219.20024939545,10.5,10500070219.200249,47.655,-122.3035,60.0,7.383333333333334
2026-01-20T23:07:24+00:00,SAT-63364,324.73006479525066,38.453712155021215,731.5613159713816,-1.942444198853384,68032.61237465998,10.5,10500068032.612375,47.655,-122.3035,60.0,7.4
2026-01-20T23:07:25+00:00,SAT-63364,325.41489177137566,38.597278845047995,729.6240791973678,-1.8795129717918178,65828.49460413739,10.5,10500065828.494604,47.655,-122.3035,60.0,7.416666666666667
2026-01-20T23:07:26+00:00,SAT-63364,326.105998929634,38.737152554399614,727.7496049404807,-1.8160923786215042,63607.237162469886,10.5,10500063607.237162,47.655,-122.3035,60.0,7.433333333333334
2026-01-20T23:07:27+00:00,SAT-63364,326.80327410699624,38.873214061922575,725.9383812549054,-1.752194139422789,61369.250536447056,10.5,10500061369.250536,47.655,-122.3035,60.0,7.45
2026-01-20T23:07:28+00:00,SAT-63364,327.506595915009,39.00534521943326,724.1908845061677,-1.6878305290643445,59114.96464389247,10.5,10500059114.964643,47.655,-122.3035,60.0,7.466666666666667
2026-01-20T23:07:29+00:00,SAT-63364,328.2158336492549,39.13342920802288,722.5075788178311,-1.6230143982655756,56844.82957135815,10.5,10500056844.82957,47.655,-122.3035,60.0,7.483333333333333
2026-01-20T23:07:30+00:00,SAT-63364,328.93084723692726,39.25735080192899,720.8889154971914,-1.5577591334825807,54559.31416916131,10.5,10500054559.314169,47.655,-122.3035,60.0,7.5
2026-01-20T23:07:31+00:00,SAT-63364,329.65148719989116,39.3769966345163,719.3353325009747,-1.4920786834726694,52258.90698178614,10.5,10500052258.906982,47.655,-122.3035,60.0,7.516666666666667
2026-01-20T23:07:32+00:00,SAT-63364,330.3775946630978,39.49225547053143,717.8472538745456,-1.4259875444247438,49944.115727086806,10.5,10500049944.115726,47.655,-122.3035,60.0,7.533333333333333
2026-01-20T23:07:33+00:00,SAT-63364,331.1090013944176,39.60301848052453,716.4250892059409,-1.3595007125356597,47615.46563531103,10.5,10500047615.465635,47.655,-122.3035,60.0,7.55
2026-01-20T23:07:34+00:00,SAT-63364,331.84552986092325,39.709179513848724,715.0692331272047,-1.292633724196052,45273.50085657774,10.5,10500045273.500856,47.655,-122.3035,60.0,7.566666666666666
2026-01-20T23:07:35+00:00,SAT-63364,332.5869933448126,39.810635375898435,713.7800647756397,-1.225402608817757,42918.78280869377,10.5,10500042918.782808,47.655,-122.3035,60.0,7.583333333333333
2026-01-20T23:07:36+00:00,SAT-63364,333.33319608002716,39.907286101685436,712.5579473021105,-1.157823884582557,40551.890028256974,10.5,10500040551.890028,47.655,-122.3035,60.0,7.6
2026-01-20T23:07:37+00:00,SAT-63364,334.08393343093803,39.99903522784845,711.4032273835828,-1.0899145407995807,38173.41755273776,10.5,10500038173.417553,47.655,-122.3035,60.0,7.616666666666666
2026-01-20T23:07:38+00:00,SAT-63364,334.83899210802633,40.08579006081318,710.3162347532589,-1.02169202105223,35783.97633021314,10.5,10500035783.97633,47.655,-122.3035,60.0,7.633333333333334
2026-01-20T23:07:39+00:00,SAT-63364,335.5981504221348,40.16746193988331,709.2972817475215,-0.9531742003633584,33384.19241959471,10.5,10500033384.19242,47.655,-122.3035,60.0,7.65
2026-01-20T23:07:40+00:00,SAT-63364,336.3611785744224,40.24396649347559,708.3466628756513,-0.8843793670964191,30974.706356730298,10.5,10500030974.706356,47.655,-122.3035,60.0,7.666666666666667
2026-01-20T23:07:41+00:00,SAT-63364,337.1278389848032,40.31522388757552,707.4646544075936,-0.8153262047262589,28556.172515940078,10.5,10500028556.172516,47.655,-122.3035,60.0,7.683333333333334
2026-01-20T23:07:42+00:00,SAT-63364,337.8978866609781,40.381159065091154,706.6515139799072,-0.7460337626581551,26129.258087975748,10.5,10500026129.258087,47.655,-122.3035,60.0,7.7
2026-01-20T23:07:43+00:00,SAT-63364,338.671069598678,40.44170197393485,705.907480230814,-0.6765214317327662,23694.64222210035,10.5,10500023694.642221,47.655,-122.3035,60.0,7.716666666666667
2026-01-20T23:07:44+00:00,SAT-63364,339.44712921630344,40.49678778293432,705.2327724596797,-0.6068089263599198,21253.015400337918,10.5,10500021253.0154,47.655,-122.3035,60.0,7.733333333333333
2026-01-20T23:07:45+00:00,SAT-63364,340.2258008298965,40.546357084893046,704.6275903043118,-0.5369162473805804,18805.0781367425,10.5,10500018805.078136,47.655,-122.3035,60.0,7.75
2026-01-20T23:07:46+00:00,SAT-63364,341.0068141494117,40.590356084055,704.0921134552959,-0.4668636650158221,16351.540380199063,10.5,10500016351.54038,47.655,-122.3035,60.0,7.766666666666667
2026-01-20T23:07:47+00:00,SAT-63364,341.78989381579635,40.628736768501135,703.626501387339,-0.3966716799716258,13893.12015214896,10.5,10500013893.120152,47.655,-122.3035,60.0,7.783333333333333
2026-01-20T23:07:48+00:00,SAT-63364,342.57475995227566,40.66145706466306,703.2308931294003,-0.32636100363419057,11430.542852945957,10.5,10500011430.542852,47.655,-122.3035,60.0,7.8
2026-01-20T23:07:49+00:00,SAT-63364,343.36112875156937,40.68848097456878,702.905407054579,-0.2559525220947077,8964.540001851652,10.5,10500008964.54,47.655,-122.3035,60.0,7.816666666666666
2026-01-20T23:07:50+00:00,SAT-63364,344.14871307741237,40.709778693658016,702.6501407058747,-0.1854672690487958,6495.848287859049,10.5,10500006495.848288,47.655,-122.3035,60.0,7.833333333333333
2026-01-20T23:07:51+00:00,SAT-63364,344.9372230895188,40.725326709149584,702.4651706489794,-0.1149263913728699,4025.2083640314063,10.5,10500004025.208364,47.655,-122.3035,60.0,7.85
2026-01-20T23:07:52+00:00,SAT-63364,345.7263668771408,40.73510787774841,702.3505523594022,-0.04435112020897794,1553.3638347708813,10.5,10500001553.363834,47.655,-122.3035,60.0,7.866666666666666
2026-01-20T23:07:53+00:00,SAT-63364,346.5158511070415,40.73911148264459,702.3063201384259,0.026237260810242826,-918.9398570778911,10.5,10499999081.060143,47.655,-122.3035,60.0,7.883333333333334
2026-01-20T23:07:54+00:00,SAT-63364,347.30538168668636,40.73733326921776,702.3324870607605,0.09681744924776957,-3390.956610061153,10.5,10499996609.04339,47.655,-122.3035,60.0,7.9
2026-01-20T23:07:55+00:00,SAT-63364,348.0946644157322,40.72977545904607,702.429044955788,0.16736815440518557,-5861.940733860784,10.5,10499994138.059267,47.655,-122.3035,60.0,7.916666666666667
2026-01-20T23:07:56+00:00,SAT-63364,348.8834056554005,40.716446742400244,702.5959644192678,0.23786812960492698,-8331.148079955145,10.5,10499991668.85192,47.655,-122.3035,60.0,7.933333333333334
2026-01-20T23:07:57+00:00,SAT-63364,349.67131298143215,40.69736224911877,702.833194857243,0.3082962040325382,-10797.83715686954,10.5,10499989202.162844,47.655,-122.3035,60.0,7.95
2026-01-20T23:07:58+00:00,SAT-63364,350.45809583752487,40.672543498096616,703.1406645616972,0.37863131594857974,-13261.270293397733,10.5,10499986738.729706,47.655,-122.3035,60.0,7.966666666666667
2026-01-20T23:07:59+00:00,SAT-63364,351.2434661796792,40.64201832559167,703.5182808193389,0.44885253896956184,-15720.714559071394,10.5,10499984279.28544,47.655,-122.3035,60.0,7.983333333333333
2026-01-20T23:08:00+00:00,SAT-63364,352.02713909462125,40.605820793364934,703.9659300465931,0.5189391187915235,-18175.443050375197,10.5,10499981824.55695,47.655,-122.3035,60.0,8.0
2026-01-20T23:08:01+00:00,SAT-63364,352.8088334176788,40.56399107639592,704.4834779612207,0.5888705008974126,-20624.73586117644,10.5,10499979375.26414,47.655,-122.3035,60.0,8.016666666666667
2026-01-20T23:08:02+00:00,SAT-63364,353.58827232071417,40.51657533160509,705.0707697815693,0.658626357457411,-23067.881024888276,10.5,10499976932.118975,47.655,-122.3035,60.0,8.033333333333333
2026-01-20T23:08:03+00:00,SAT-63364,354.3651838747633,40.46362554845205,705.7276304526528,0.7281866197068557,-25504.175648481407,10.5,10499974495.824352,47.655,-122.3035,60.0,8.05
2026-01-20T23:08:04+00:00,SAT-63364,355.13930159247826,40.40519938189388,706.4538649045219,0.797531503861252,-27932.926820137505,10.5,10499972067.07318,47.655,-122.3035,60.0,8.066666666666666
2026-01-20T23:08:05+00:00,SAT-63364,355.910364938443,40.34135996922457,707.2492583364806,0.8666415382440303,-30353.45255937799,10.5,10499969646.547441,47.655,-122.3035,60.0,8.083333333333334
2026-01-20T23:08:06+00:00,SAT-63364,356.67811980935994,40.272175731794164,708.113576528357,0.9354975905158157,-32765.08277074824,10.5,10499967234.917229,47.655,-122.3035,60.0,8.1
2026-01-20T23:08:07+00:00,SAT-63364,357.44231898291963,40.19772016274535,709.0465661789315,1.0040808856558807,-35167.15987360412,10.5,10499964832.840126,47.655,-122.3035,60.0,8.116666666666667
2026-01-20T23:08:08+00:00,SAT-63364,358.20272252603627,40.118071602729955,710.0479552622959,1.0723730420894544,-37559.040067443166,10.5,10499962440.959932,47.655,-122.3035,60.0,8.133333333333333
2026-01-20T23:08:09+00:00,SAT-63364,358.95909817878055,40.03331300340862,711.1174534202471,1.1403560793046672,-39940.093598682215,10.5,10499960059.9064,47.655,-122.3035,60.0,8.15
2026-01-20T23:08:10+00:00,SAT-63364,359.7112216890172,39.94353168229423,712.2547523622721,1.2080124518816744,-42309.70595250125,10.5,10499957690.294048,47.655,-122.3035,60.0,8.166666666666666
2026-01-20T23:08:11+00:00,SAT-63364,0.4588771202170486,39.84881906814878,713.4595262994761,1.275325061808983,-44667.27828421328,10.5,10499955332.721716,47.655,-122.3035,60.0,8.183333333333334
2026-01-20T23:08:12+00:00,SAT-63364,1.201857115243074,39.74927043996489,714.7314323907891,1.3422772692683818,-47012.22779699818,10.5,10499952987.772203,47.655,-122.3035,60.0,8.2
2026-01-20T23:08:13+00:00,SAT-63364,1.939963119042386,39.64498466094507,716.070111199933,1.408852936268278,-49343.98927012673,10.5,10499950656.01073,47.655,-122.3035,60.0,8.216666666666667
2026-01-20T23:08:14+00:00,SAT-63364,2.6730055788684717,39.536063906218374,717.4751871959005,1.4750364068661965,-51662.01436626889,10.5,10499948337.985634,47.655,-122.3035,60.0,8.233333333333333
2026-01-20T23:08:15+00:00,SAT-63364,3.400804086897389,39.422613390489886,718.9462692337149,1.5408125414808582,-53965.7728332479,10.5,10499946034.227167,47.655,-122.3035,60.0,8.25
2026-01-20T23:08:16+00:00,SAT-63364,4.12318749849477,39.30474109263373,720.4829510694042,1.6061667375997195,-56254.753229305905,10.5,10499943745.24677,47.655,-122.3035,60.0,8.266666666666667
2026-01-20T23:08:17+00:00,SAT-63364,4.839994018282707,39.18255747948913,722.0848118956314,1.6710849153508687,-58528.46241777077,10.5,10499941471.537582,47.655,-122.3035,60.0,8.283333333333333
2026-01-20T23:08:18+00:00,SAT-63364,5.5510712388843215,39.056175232673425,723.751416862934,1.7355535395860628,-60786.4263404974,10.5,10499939213.57366,47.655,-122.3035,60.0,8.3
2026-01-20T23:08:19+00:00,SAT-63364,6.256276153776796,38.92570897665452,725.4823176229867,1.7995596399892078,-63028.19072215179,10.5,10499936971.809278,47.655,-122.3035,60.0,8.316666666666666
2026-01-20T23:08:20+00:00,SAT-63364,6.955475142969642,38.79127500927167,727.2770528919203,1.8630908092606129,-65253.32100661596,10.5,10499934746.678993,47.655,-122.3035,60.0,8.333333333333334
2026-01-20T23:08:21+00:00,SAT-63364,7.648543924304881,38.652991037291926,729.1351490118278,1.9261351858401883,-67461.40175188122,10.5,10499932538.598248,47.655,-122.3035,60.0,8.35
2026-01-20T23:08:22+00:00,SAT-63364,8.335367468216349,38.510975918970416,731.0561204950415,1.9886814922040925,-69652.03797135875,10.5,10499930347.962029,47.655,-122.3035,60.0,8.366666666666667
2026-01-20T23:08:23+00:00,SAT-63364,9.015839899722128,38.36534941024741,733.0394706066027,2.050719024610128,-71824.85477471999,10.5,10499928175.145226,47.655,-122.3035,60.0,8.383333333333333
2026-01-20T23:08:24+00:00,SAT-63364,9.689864370057105,38.21623191892155,735.0846919365072,2.1122376405528422,-73979.49692852126,10.5,10499926020.50307,47.655,-122.3035,60.0,8.4
2026-01-20T23:08:25+00:00,SAT-63364,10.35735290135407,38.063744267534986,737.1912669594344,2.1732277854948703,-76115.62979244841,10.5,10499923884.370207,47.655,-122.3035,60.0,8.416666666666666
2026-01-20T23:08:26+00:00,SAT-63364,11.01822621956164,37.90800746264738,739.3586686211416,2.2336804585369507,-78232.9381169355,10.5,10499921767.061884,47.655,-122.3035,60.0,8.433333333333334
2026-01-20T23:08:27+00:00,SAT-63364,11.672413557902672,37.7491424753871,741.5863608906171,2.2935872375077118,-80331.12692191535,10.5,10499919668.873077,47.655,-122.3035,60.0,8.45
2026-01-20T23:08:28+00:00,SAT-63364,12.319852452482856,37.587270029352986,743.8737993372562,2.352940271458156,-82409.92123394458,10.5,10499917590.078766,47.655,-122.3035,60.0,8.466666666666667
2026-01-20T23:08:29+00:00,SAT-63364,12.96048852145924,37.42251039854299,746.220431700552,2.411732247772601,-84469.06493428966,10.5,10499915530.935066,47.655,-122.3035,60.0,8.483333333333333
2026-01-20T23:08:30+00:00,SAT-63364,13.594275223339434,37.2549832172975,748.6256984269876,2.469956435434952,-86508.32227429481,10.5,10499913491.677725,47.655,-122.3035,60.0,8.5
2026-01-20T23:08:31+00:00,SAT-63364,14.221173617998152,37.08480729706082,751.0890332500732,2.5276066309904577,-88527.47598273405,10.5,10499911472.524017,47.655,-122.3035,60.0,8.516666666666667
2026-01-20T23:08:32+00:00,SAT-63364,14.841152105165909,36.91210045689143,753.6098637164954,2.5846771722046213,-90526.32774420406,10.5,10499909473.672256,47.655,-122.3035,60.0,8.533333333333333
2026-01-20T23:08:33+00:00,SAT-63364,15.454186161508265,36.73697936298768,756.1876117258871,2.6411629378757997,-92504.6981925606,10.5,10499907495.301807,47.655,-122.3035,60.0,8.55
2026-01-20T23:08:34+00:00,SAT-63364,16.060258073379014,36.55955937821435,758.8216940704068,2.69705932124641,-94462.42597966657,10.5,10499905537.57402,47.655,-122.3035,60.0,8.566666666666666
2026-01-20T23:08:35+00:00,SAT-63364,16.659356660960814,36.37995442334499,761.5115229478071,2.7523622299331794,-96399.36777294906,10.5,10499903600.632227,47.655,-122.3035,60.0,8.583333333333334
2026-01-20T23:08:36+00:00,SAT-63364,17.25147700174344,36.19827684807913,764.2565064744277,2.8070680688395253,-98315.39765691845,10.5,10499901684.602343,47.655,-122.3035,60.0,8.6
2026-01-20T23:08:37+00:00,SAT-63364,17.83662015098991,36.01463731280563,767.05604918115,2.861173731784418,-100210.40683997591,10.5,10499899789.59316,47.655,-122.3035,60.0,8.616666666666667
2026-01-20T23:08:38+00:00,SAT-63364,18.414792862485662,35.82914468032525,769.9095525010014,2.9146765950277778,-102084.30342764549,10.5,10499897915.696573,47.655,-122.3035,60.0,8.633333333333333
2026-01-20T23:08:39+00:00,SAT-63364,18.98600731117025,35.641905917168934,772.8164152503034,2.9675744925969223,-103937.0115584018,10.5,10499896062.988441,47.655,-122.3035,60.0,8.65
2026-01-20T23:08:40+00:00,SAT-63364,19.55028081501049,35.45302600541942,775.7760340852108,3.0198657337976567,-105768.47201698247,10.5,10499894231.527983,47.655,-122.3035,60.0,8.666666666666666
2026-01-20T23:08:41+00:00,SAT-63364,20.10763556558611,35.262607862027174,778.7878039757177,3.071549026736727,-107578.63955582111,10.5,10499892421.360445,47.655,-122.3035,60.0,8.683333333333334
2026-01-20T23:08:42+00:00,SAT-63364,20.658098350135294,35.0707522712742,781.8511186033875,3.122623538569751,-109367.48500518444,10.5,10499890632.514996,47.655,-122.3035,60.0,8.7
2026-01-20T23:08:43+00:00,SAT-63364,21.2017002923351,34.87755782135266,784.9653708191721,3.173088846097426,-111134.99354284279,10.5,10499888865.006456,47.655,-122.3035,60.0,8.716666666666667
2026-01-20T23:08:44+00:00,SAT-63364,21.738476590958534,34.6831208517014,788.1299530519593,3.2229449036574755,-112881.16356951011,10.5,10499887118.83643,47.655,-122.3035,60.0,8.733333333333333
2026-01-20T23:08:45+00:00,SAT-63364,22.268466261517258,34.48753540953144,791.3442576850964,3.2721920623370107,-114606.00738174212,10.5,10499885393.992619,47.655,-122.3035,60.0,8.75
2026-01-20T23:08:46+00:00,SAT-63364,22.79171189001118,34.29089321202539,794.6076774520768,3.320831066045512,-116309.55103439552,10.5,10499883690.448965,47.655,-122.3035,60.0,8.766666666666667
2026-01-20T23:08:47+00:00,SAT-63364,23.308259394676334,34.09328361533319,797.9196058283093,3.368862958725846,-117991.83109076541,10.5,10499882008.16891,47.655,-122.3035,60.0,8.783333333333333
2026-01-20T23:08:48+00:00,SAT-63364,23.818157782312444,33.89479359523129,801.2794373303458,3.4162891816858445,-119652.89803154877,10.5,10499880347.101969,47.655,-122.3035,60.0,8.8
2026-01-20T23:08:49+00:00,SAT-63364,24.32145892992706,33.695507727705625,804.6865679121832,3.463111478284358,-121292.81291654694,10.5,10499878707.187084,47.655,-122.3035,60.0,8.816666666666666
2026-01-20T23:08:50+00:00,SAT-63364,24.81821736094777,33.49550818060168,808.1403952665037,3.5093318991600713,-122911.64756780089,10.5,10499877088.352432,47.655,-122.3035,60.0,8.833333333333334
2026-01-20T23:08:51+00:00,SAT-63364,25.308490032661396,33.29487470991297,811.6403191311298,3.5549528171563987,-124509.48509232406,10.5,10499875490.514908,47.655,-122.3035,60.0,8.85
2026-01-20T23:08:52+00:00,SAT-63364,25.792336135652555,33.0936846598712,815.1857416103669,3.5999768576323503,-126086.41744129427,10.5,10499873913.58256,47.655,-122.3035,60.0,8.866666666666667
2026-01-20T23:08:53+00:00,SAT-63364,26.269816893419424,32.89201297130989,818.7760674268405,3.6444069434065707,-127642.54698418395,10.5,10499872357.453016,47.655,-122.3035,60.0,8.883333333333333
2026-01-20T23:08:54+00:00,SAT-63364,26.74099537834246,32.68993219139108,822.41070421816,3.6882462528020152,-129177.98503930728,10.5,10499870822.014961,47.655,-122.3035,60.0,8.9
2026-01-20T23:08:55+00:00,SAT-63364,27.205936331670504,32.487512489341704,826.0890627917364,3.7314982013143387,-130692.85123176966,10.5,10499869307.148767,47.655,-122.3035,60.0,8.916666666666666
2026-01-20T23:08:56+00:00,SAT-63364,27.664705990927846,32.284821676468255,829.8105573613195,3.774166406841529,-132187.2722756623,10.5,10499867812.727724,47.655,-122.3035,60.0,8.933333333333334
2026-01-20T23:08:57+00:00,SAT-63364,28.117371922919908,32.08192523099058,833.5746057488594,3.816254774234147,-133661.3849353693,10.5,10499866338.615065,47.655,-122.3035,60.0,8.95
2026-01-20T23:08:58+00:00,SAT-63364,28.564002876473975,31.87888632099121,837.3806296706871,3.8577673503900476,-135115.330950372,10.5,10499864884.66905,47.655,-122.3035,60.0,8.966666666666667
2026-01-20T23:08:59+00:00,SAT-63364,29.00466862664306,31.675765837576325,841.2280548791825,3.8987083961615134,-136549.25955374065,10.5,10499863450.740446,47.655,-122.3035,60.0,8.983333333333333
2026-01-20T23:09:00+00:00,SAT-63364,29.439439836970045,31.47262242622041,845.1163113761556,3.9390823499660765,-137963.32619763172,10.5,10499862036.673801,47.655,-122.3035,60.0,9.0
2026-01-20T23:09:01+00:00,SAT-63364,29.86838792622174,31.269512521905277,849.0448335899349,3.9788938445568895,-139357.69314065715,10.5,10499860642.30686,47.655,-122.3035,60.0,9.016666666666667
2026-01-20T23:09:02+00:00,SAT-63364,30.29158494538457,31.066490385007167,853.0130605691817,4.01814761333774,-140732.52616663981,10.5,10499859267.473833,47.655,-122.3035,60.0,9.033333333333333
2026-01-20T23:09:03+00:00,SAT-63364,30.709103452856294,30.863608143345523,857.0204360832724,4.056848591868262,-142087.9981397556,10.5,10499857912.00186,47.655,-122.3035,60.0,9.05
2026-01-20T23:09:04+00:00,SAT-63364,31.12101640871644,30.660915830161112,861.066408823911,4.095001830810725,-143424.28595556132,10.5,10499856575.714045,47.655,-122.3035,60.0,9.066666666666666
2026-01-20T23:09:05+00:00,SAT-63364,31.52739706725993,30.45846142749821,865.1504325199235,4.132612469589245,-144741.5696184294,10.5,10499855258.430382,47.655,-122.3035,60.0,9.083333333333334
2026-01-20T23:09:06+00:00,SAT-63364,31.92831887466726,30.25629091155815,869.2719660257823,4.169685835162181,-146040.03570097446,10.5,10499853959.964298,47.655,-122.3035,60.0,9.1
2026-01-20T23:09:07+00:00,SAT-63364,32.32385538369902,30.054448293753513,873.430473508637,4.206227284202987,-147319.87181655972,10.5,10499852680.128183,47.655,-122.3035,60.0,9.116666666666667
