DopplerPredictor/satellites_20260205_234138/SAT-64108.csv

timestamp,satellite,azimuth_deg,elevation_deg,distance_km,relative_velocity_kms,doppler_shift_hz,tx_freq_ghz,rx_freq_hz,ue_lat,ue_lon,ue_alt_m,time_minutes
2026-01-20T23:14:54+00:00,SAT-64108,334.422543101518,30.021309508443725,862.4096587412887,-3.1985064264064955,112025.22472152453,10.5,10500112025.224722,47.655,-122.3035,60.0,14.9
2026-01-20T23:14:55+00:00,SAT-64108,334.8977706342105,30.17734925845385,859.2197270692174,-3.1526627101554343,110419.58385968489,10.5,10500110419.58386,47.655,-122.3035,60.0,14.916666666666666
2026-01-20T23:14:56+00:00,SAT-64108,335.37799260785306,30.332411508006395,856.0755162127205,-3.1063082788554772,108796.0555965104,10.5,10500108796.055597,47.655,-122.3035,60.0,14.933333333333334
2026-01-20T23:14:57+00:00,SAT-64108,335.86322274508825,30.486434012272305,852.9775355176901,-3.0594432669463814,107154.64464065005,10.5,10500107154.64464,47.655,-122.3035,60.0,14.95
2026-01-20T23:14:58+00:00,SAT-64108,336.35347224856395,30.63935330878844,849.9262941959391,-3.0120680801669235,105495.36520279206,10.5,10500105495.365202,47.655,-122.3035,60.0,14.966666666666667
2026-01-20T23:14:59+00:00,SAT-64108,336.848749678209,30.791104747943912,846.9223010546297,-2.9641834318217177,103818.24226588129,10.5,10500103818.242266,47.655,-122.3035,60.0,14.983333333333333
