DopplerPredictor/satellites_20260205_234138/SAT-60019.csv

timestamp,satellite,azimuth_deg,elevation_deg,distance_km,relative_velocity_kms,doppler_shift_hz,tx_freq_ghz,rx_freq_hz,ue_lat,ue_lon,ue_alt_m,time_minutes
2026-01-20T23:07:49+00:00,SAT-60019,215.05746720093998,30.00641231325291,876.1661325862627,-5.522660829291995,193426.94307395135,10.5,10500193426.943073,47.655,-122.3035,60.0,7.816666666666666
2026-01-20T23:07:50+00:00,SAT-60019,214.85967445335336,30.274107872173836,870.6582772485268,-5.499989098439854,192632.88315818293,10.5,10500192632.883158,47.655,-122.3035,60.0,7.833333333333333
2026-01-20T23:07:51+00:00,SAT-60019,214.65821557540477,30.54447243026513,865.1730328618615,-5.476877124470252,191823.40406621454,10.5,10500191823.404066,47.655,-122.3035,60.0,7.85
2026-01-20T23:07:52+00:00,SAT-60019,214.4529939772245,30.817532538526557,859.7108384891529,-5.453315567519257,190998.1786765036,10.5,10500190998.178677,47.655,-122.3035,60.0,7.866666666666666
2026-01-20T23:07:53+00:00,SAT-60019,214.24390985748477,31.09331432307349,854.2721425081124,-5.429294905509504,190156.8734856225,10.5,10500190156.873486,47.655,-122.3035,60.0,7.883333333333334
2026-01-20T23:07:54+00:00,SAT-60019,214.03086007981315,31.371843425800297,848.857402793002,-5.404805434360091,189299.14861560977,10.5,10500189299.148615,47.655,-122.3035,60.0,7.9
2026-01-20T23:07:55+00:00,SAT-60019,213.8137380440525,31.653144941093842,843.4670868961488,-5.3798372897129685,188424.65857492044,10.5,10500188424.658575,47.655,-122.3035,60.0,7.916666666666667
2026-01-20T23:07:56+00:00,SAT-60019,213.5924335513596,31.937243349511377,838.1016722077918,-5.354380406958679,187533.05085835792,10.5,10500187533.050858,47.655,-122.3035,60.0,7.933333333333334
2026-01-20T23:07:57+00:00,SAT-60019,213.36683266549085,32.22416244496236,832.7616461557996,-5.328424544044855,186623.96674592455,10.5,10500186623.966745,47.655,-122.3035,60.0,7.95
2026-01-20T23:07:58+00:00,SAT-60019,213.13681756755923,32.513925258353396,827.4475063826347,-5.301959304614464,185697.04211322046,10.5,10500185697.042112,47.655,-122.3035,60.0,7.966666666666667
2026-01-20T23:07:59+00:00,SAT-60019,212.90226640383275,32.80655397756577,822.159760899246,-5.274974098789659,184751.9060579283,10.5,10500184751.906057,47.655,-122.3035,60.0,7.983333333333333
2026-01-20T23:08:00+00:00,SAT-60019,212.6630531293002,33.10206986008672,816.8989282780684,-5.247458167342967,183788.18174639053,10.5,10500183788.181746,47.655,-122.3035,60.0,8.0
2026-01-20T23:08:01+00:00,SAT-60019,212.41904734394276,33.40049314139996,811.6655378219228,-5.219400574347286,182805.4861561811,10.5,10500182805.486156,47.655,-122.3035,60.0,8.016666666666667
2026-01-20T23:08:02+00:00,SAT-60019,212.1701141230575,33.701842937114975,806.4601297402381,-5.190790231933433,181803.43094321957,10.5,10500181803.430943,47.655,-122.3035,60.0,8.033333333333333
2026-01-20T23:08:03+00:00,SAT-60019,211.91611383970866,34.00613714035248,801.2832553005877,-5.161615855186528,180781.62086205167,10.5,10500180781.620863,47.655,-122.3035,60.0,8.05
2026-01-20T23:08:04+00:00,SAT-60019,211.6569019828479,34.31339230998893,796.1354770252059,-5.131866034686991,179739.65630654193,10.5,10500179739.656307,47.655,-122.3035,60.0,8.066666666666666
2026-01-20T23:08:05+00:00,SAT-60019,211.39232896486754,34.62362355627574,791.0173688151605,-5.101529154277163,178677.13042971285,10.5,10500178677.13043,47.655,-122.3035,60.0,8.083333333333334
2026-01-20T23:08:06+00:00,SAT-60019,211.12223992659676,34.9368444143237,785.9295161565348,-5.070593482865607,177593.6323591198,10.5,10500177593.632359,47.655,-122.3035,60.0,8.1
2026-01-20T23:08:07+00:00,SAT-60019,210.84647453011243,35.25306671543834,780.872516235055,-5.039047130446158,176488.7456564523,10.5,10500176488.745657,47.655,-122.3035,60.0,8.116666666666667
2026-01-20T23:08:08+00:00,SAT-60019,210.56486674698826,35.572300447822286,775.846978094577,-5.0068780600631895,175362.04873660795,10.5,10500175362.048737,47.655,-122.3035,60.0,8.133333333333333
2026-01-20T23:08:09+00:00,SAT-60019,210.2772446384662,35.89455360953187,770.8535227836438,-4.974074085390462,174213.11478289374,10.5,10500174213.114782,47.655,-122.3035,60.0,8.15
2026-01-20T23:08:10+00:00,SAT-60019,209.98343012876092,36.21983205233915,765.892783504454,-4.940622925058024,173041.51364978388,10.5,10500173041.513649,47.655,-122.3035,60.0,8.166666666666666
2026-01-20T23:08:11+00:00,SAT-60019,209.68323876757205,36.54813931979723,760.9654057076522,-4.906512126116492,171846.8091823149,10.5,10500171846.809183,47.655,-122.3035,60.0,8.183333333333334
2026-01-20T23:08:12+00:00,SAT-60019,209.37647949055423,36.879476470492435,756.072047263447,-4.871729183114324,170628.563386676,10.5,10500170628.563387,47.655,-122.3035,60.0,8.2
2026-01-20T23:08:13+00:00,SAT-60019,209.06295436467133,37.213841898901684,751.2133785139741,-4.836261442714512,169386.33308948143,10.5,10500169386.33309,47.655,-122.3035,60.0,8.216666666666667
2026-01-20T23:08:14+00:00,SAT-60019,208.74245833325207,37.55123113913977,746.3900824207834,-4.800096182709273,168119.67270519983,10.5,10500168119.672705,47.655,-122.3035,60.0,8.233333333333333
2026-01-20T23:08:15+00:00,SAT-60019,208.41477894880973,37.891636662756355,741.6028546335266,-4.763220589600206,166828.1334509161,10.5,10500166828.133451,47.655,-122.3035,60.0,8.25
2026-01-20T23:08:16+00:00,SAT-60019,208.07969610141365,38.23504766323042,736.8524035810029,-4.725621813518027,165511.26526985306,10.5,10500165511.26527,47.655,-122.3035,60.0,8.266666666666667
2026-01-20T23:08:17+00:00,SAT-60019,207.73698173671386,38.58144983211067,732.1394505074311,-4.687286924610338,164168.6153038865,10.5,10500164168.615303,47.655,-122.3035,60.0,8.283333333333333
2026-01-20T23:08:18+00:00,SAT-60019,207.38639957220235,38.930825119215626,727.4647295522201,-4.648202950621805,162799.729209762,10.5,10500162799.72921,47.655,-122.3035,60.0,8.3
2026-01-20T23:08:19+00:00,SAT-60019,207.02770480582927,39.28315148210223,722.8289877922567,-4.608356927606485,161404.15293525526,10.5,10500161404.152935,47.655,-122.3035,60.0,8.316666666666666
2026-01-20T23:08:20+00:00,SAT-60019,206.66064381676264,39.638402625485405,718.2329852336201,-4.567735882466161,159981.43210759058,10.5,10500159981.432108,47.655,-122.3035,60.0,8.333333333333334
2026-01-20T23:08:21+00:00,SAT-60019,206.28495386441375,39.99654772501332,713.6774948207072,-4.526326860036294,158531.1129821054,10.5,10500158531.112982,47.655,-122.3035,60.0,8.35
2026-01-20T23:08:22+00:00,SAT-60019,205.90036278346307,40.35755113816751,709.1633024183496,-4.48411692145324,157052.74238506367,10.5,10500157052.742386,47.655,-122.3035,60.0,8.366666666666667
2026-01-20T23:08:23+00:00,SAT-60019,205.5065886787441,40.72137209950579,704.6912067955548,-4.44109321092861,155545.87005237606,10.5,10500155545.870052,47.655,-122.3035,60.0,8.383333333333333
2026-01-20T23:08:24+00:00,SAT-60019,205.10333961560184,41.08796440525419,700.2620195426538,-4.39724298244364,154010.0495645498,10.5,10500154010.049564,47.655,-122.3035,60.0,8.4
2026-01-20T23:08:25+00:00,SAT-60019,204.69031331017302,41.457276083845215,695.8765649618265,-4.352553539035734,152444.83622024674,10.5,10500152444.83622,47.655,-122.3035,60.0,8.416666666666666
2026-01-20T23:08:26+00:00,SAT-60019,204.26719683125665,41.82924904449446,691.5356800181764,-4.3070123420355975,150849.79086222968,10.5,10500150849.790863,47.655,-122.3035,60.0,8.433333333333334
2026-01-20T23:08:27+00:00,SAT-60019,203.8336662994972,42.20381871746153,687.2402141818621,-4.260607054677207,149224.48140476792,10.5,10500149224.481405,47.655,-122.3035,60.0,8.45
2026-01-20T23:08:28+00:00,SAT-60019,203.38938659247623,42.580913680661915,682.991029226735,-4.213325478870553,147568.48061915158,10.5,10500147568.48062,47.655,-122.3035,60.0,8.466666666666667
2026-01-20T23:08:29+00:00,SAT-60019,202.93401107051488,42.9604552628485,678.7889990920344,-4.165155654533208,145881.3696127028,10.5,10500145881.369614,47.655,-122.3035,60.0,8.483333333333333
2026-01-20T23:08:30+00:00,SAT-60019,202.4671813103975,43.342357137189545,674.6350096450196,-4.116085902141397,144162.73931909478,10.5,10500144162.739319,47.655,-122.3035,60.0,8.5
2026-01-20T23:08:31+00:00,SAT-60019,201.98852685616458,43.72652490053585,670.5299584011619,-4.06610480434541,142412.18985444526,10.5,10500142412.189854,47.655,-122.3035,60.0,8.516666666666667
2026-01-20T23:08:32+00:00,SAT-60019,201.49766499965222,44.11285563267084,666.4747542626743,-4.015201294209127,140629.33360783823,10.5,10500140629.333609,47.655,-122.3035,60.0,8.533333333333333
2026-01-20T23:08:33+00:00,SAT-60019,200.99420058340615,44.50123744545765,662.4703171690375,-3.963364640711398,138813.7947335209,10.5,10500138813.794733,47.655,-122.3035,60.0,8.55
2026-01-20T23:08:34+00:00,SAT-60019,200.47772584543858,44.89154901256201,658.5175777619836,-3.910584520060716,136965.211648645,10.5,10500136965.211649,47.655,-122.3035,60.0,8.566666666666666
2026-01-20T23:08:35+00:00,SAT-60019,199.94782030156006,45.28365908823502,654.6174769793605,-3.8568510902368183,135083.23964402932,10.5,10500135083.239643,47.655,-122.3035,60.0,8.583333333333334
2026-01-20T23:08:36+00:00,SAT-60019,199.40405067236344,45.67742601650819,650.7709655746512,-3.802154939044918,133167.54906479883,10.5,10500133167.549065,47.655,-122.3035,60.0,8.6
2026-01-20T23:08:37+00:00,SAT-60019,198.84597088182633,46.07269721883126,646.9790036883005,-3.7464872280413757,131217.8303512707,10.5,10500131217.83035,47.655,-122.3035,60.0,8.616666666666667
2026-01-20T23:08:38+00:00,SAT-60019,198.27312210958564,46.46930868094843,643.2425602755023,-3.6898396483918945,129233.79249292152,10.5,10500129233.792494,47.655,-122.3035,60.0,8.633333333333333
2026-01-20T23:08:39+00:00,SAT-60019,197.68503293567304,46.86708442127325,639.5626125780097,-3.632204563626003,127215.16802825317,10.5,10500127215.168028,47.655,-122.3035,60.0,8.65
2026-01-20T23:08:40+00:00,SAT-60019,197.0812195610181,47.26583596198246,635.9401454535748,-3.573574961001313,125161.71134136333,10.5,10500125161.711342,47.655,-122.3035,60.0,8.666666666666666
2026-01-20T23:08:41+00:00,SAT-60019,196.46118614799028,47.66536178466495,632.3761507538904,-3.513944567210426,123073.20271449082,10.5,10500123073.202715,47.655,-122.3035,60.0,8.683333333333334
2026-01-20T23:08:42+00:00,SAT-60019,195.82442526937615,48.065446790567854,628.8716265871406,-3.453307844998601,120949.44820955207,10.5,10500120949.44821,47.655,-122.3035,60.0,8.7
2026-01-20T23:08:43+00:00,SAT-60019,195.17041850208253,48.46586175543435,625.4275765839179,-3.391660123457961,118790.28423159529,10.5,10500118790.284231,47.655,-122.3035,60.0,8.716666666666667
2026-01-20T23:08:44+00:00,SAT-60019,194.49863715914674,48.86636279759352,622.0450090332018,-3.328997534490368,116595.57530346166,10.5,10500116595.575304,47.655,-122.3035,60.0,8.733333333333333
2026-01-20T23:08:45+00:00,SAT-60019,193.80854321646044,49.26669084106312,618.7249360816999,-3.265317177753324,114365.21984288844,10.5,10500114365.219843,47.655,-122.3035,60.0,8.75
2026-01-20T23:08:46+00:00,SAT-60019,193.09959041013494,49.66657110487895,615.4683727686862,-3.2006170930318745,112099.14919485628,10.5,10500112099.149195,47.655,-122.3035,60.0,8.766666666666667
2026-01-20T23:08:47+00:00,SAT-60019,192.3712255654353,50.065712601591805,612.2763360883955,-3.134896358269373,109797.33106504106,10.5,10500109797.331064,47.655,-122.3035,60.0,8.783333333333333
2026-01-20T23:08:48+00:00,SAT-60019,191.6228901548102,50.46380766600526,609.1498439546472,-3.068155095997353,107459.76974501544,10.5,10500107459.769745,47.655,-122.3035,60.0,8.8
2026-01-20T23:08:49+00:00,SAT-60019,190.8540221303644,50.860531509956026,606.0899141590567,-3.000394578557726,105086.50979757511,10.5,10500105086.509798,47.655,-122.3035,60.0,8.816666666666666
2026-01-20T23:08:50+00:00,SAT-60019,190.06405803289542,51.255541823471496,603.0975632243096,-2.9316172242029594,102677.63592015071,10.5,10500102677.63592,47.655,-122.3035,60.0,8.833333333333334
2026-01-20T23:08:51+00:00,SAT-60019,189.25243543068024,51.648478417314564,600.1738052613217,-2.8618267027967668,100233.276646893,10.5,10500100233.276648,47.655,-122.3035,60.0,8.85
2026-01-20T23:08:52+00:00,SAT-60019,188.4185956858487,52.03896293100546,597.3196507209831,-2.791027905937012,97753.60330225062,10.5,10500097753.603302,47.655,-122.3035,60.0,8.866666666666667
2026-01-20T23:08:53+00:00,SAT-60019,187.5619871128551,52.426598599215865,594.5361051757001,-2.719227087867264,95238.83493628875,10.5,10500095238.834936,47.655,-122.3035,60.0,8.883333333333333
2026-01-20T23:08:54+00:00,SAT-60019,186.68206850355793,52.81097011158569,591.8241679604021,-2.64643182628441,92689.23695200599,10.5,10500092689.236952,47.655,-122.3035,60.0,8.9
2026-01-20T23:08:55+00:00,SAT-60019,185.7783130962287,53.191643554566994,589.1848308526363,-2.572651099644855,90105.12381292453,10.5,10500090105.123814,47.655,-122.3035,60.0,8.916666666666666
2026-01-20T23:08:56+00:00,SAT-60019,184.85021297466497,53.56816646522227,586.6190766755637,-2.4978953437129947,87486.86102365672,10.5,10500087486.861023,47.655,-122.3035,60.0,8.933333333333334
2026-01-20T23:08:57+00:00,SAT-60019,183.8972839159864,53.94006800964472,584.1278778445578,-2.4221764378005273,84834.86464794766,10.5,10500084834.864649,47.655,-122.3035,60.0,8.95
2026-01-20T23:08:58+00:00,SAT-60019,182.91907072595023,54.306859291688866,581.7121949275266,-2.3455077793139054,82149.60391964231,10.5,10500082149.60392,47.655,-122.3035,60.0,8.966666666666667
2026-01-20T23:08:59+00:00,SAT-60019,181.91515303126278,54.66803382172491,579.3729751308889,-2.2679042961686275,79431.60167748647,10.5,10500079431.601677,47.655,-122.3035,60.0,8.983333333333333
2026-01-20T23:09:00+00:00,SAT-60019,180.885151546773,55.02306815379621,577.1111507731678,-2.1893824738308427,76681.43531223807,10.5,10500076681.435312,47.655,-122.3035,60.0,9.0
2026-01-20T23:09:01+00:00,SAT-60019,179.82873479472758,55.371422711035926,574.9276377316143,-2.109960351569869,73899.7366354147,10.5,10500073899.736635,47.655,-122.3035,60.0,9.016666666666667
2026-01-20T23:09:02+00:00,SAT-60019,178.74562626384417,55.71254281210007,572.8233338925724,-2.029657591134563,71087.19428463043,10.5,10500071087.194284,47.655,-122.3035,60.0,9.033333333333333
2026-01-20T23:09:03+00:00,SAT-60019,177.63561192387735,56.045859927515345,570.7991175333472,-1.9484954060664963,68244.5512478443,10.5,10500068244.551249,47.655,-122.3035,60.0,9.05
2026-01-20T23:09:04+00:00,SAT-60019,176.4985481095201,56.3707931598106,568.8558457745719,-1.8664966510636667,65372.60799325546,10.5,10500065372.607994,47.655,-122.3035,60.0,9.066666666666666
2026-01-20T23:09:05+00:00,SAT-60019,175.33436960404177,56.68675098815534,566.9943529434534,-1.7836857525334744,62472.22003697465,10.5,10500062472.220037,47.655,-122.3035,60.0,9.083333333333334
2026-01-20T23:09:06+00:00,SAT-60019,174.14309791160778,56.99313326411792,565.2154490062737,-1.700088730013802,59544.298693281075,10.5,10500059544.298693,47.655,-122.3035,60.0,9.1
2026-01-20T23:09:07+00:00,SAT-60019,172.92484954274428,57.28933348295506,563.5199179795329,-1.6157331774050325,56589.81041728822,10.5,10500056589.810417,47.655,-122.3035,60.0,9.116666666666667
2026-01-20T23:09:08+00:00,SAT-60019,171.67984419179135,57.574741329648525,561.9085163598053,-1.5306482382496671,53609.77593913155,10.5,10500053609.77594,47.655,-122.3035,60.0,9.133333333333333
2026-01-20T23:09:09+00:00,SAT-60019,170.40841264154727,57.848745499759424,560.3819715782528,-1.4448645891111254,50605.26968182373,10.5,10500050605.269682,47.655,-122.3035,60.0,9.15
2026-01-20T23:09:10+00:00,SAT-60019,169.1110041997916,58.11073679223789,558.9409804717138,-1.3584143762130323,47577.41754209453,10.5,10500047577.417542,47.655,-122.3035,60.0,9.166666666666666
2026-01-20T23:09:11+00:00,SAT-60019,167.78819350140418,58.3601114551336,557.5862078169823,-1.2713311923839572,44527.39608289796,10.5,10500044527.396084,47.655,-122.3035,60.0,9.183333333333334
2026-01-20T23:09:12+00:00,SAT-60019,166.44068642245898,58.59627477359527,556.3182848880815,-1.1836500465060358,41456.431463373825,10.5,10500041456.431463,47.655,-122.3035,60.0,9.2
2026-01-20T23:09:13+00:00,SAT-60019,165.06932487093195,58.8186448736606,555.1378080440064,-1.0954072690017205,38365.79612859396,10.5,10500038365.79613,47.655,-122.3035,60.0,9.216666666666667
2026-01-20T23:09:14+00:00,SAT-60019,163.67509029418255,59.02665669641943,554.0453374107267,-1.0066404770585908,35256.80759158793,10.5,10500035256.807592,47.655,-122.3035,60.0,9.233333333333333
2026-01-20T23:09:15+00:00,SAT-60019,162.25910561058924,59.219766111727154,553.0413955978707,-0.9173884928006307,32130.825567355078,10.5,10500032130.825567,47.655,-122.3035,60.0,9.25
2026-01-20T23:09:16+00:00,SAT-60019,160.82263540679068,59.39745411287593,552.1264664970196,-0.8276912791590287,28989.24972678866,10.5,10500028989.249727,47.655,-122.3035,60.0,9.266666666666667
2026-01-20T23:09:17+00:00,SAT-60019,159.3670841878146,59.5592310380757,551.3009941439587,-0.7375898510052483,25833.51658418007,10.5,10500025833.516584,47.655,-122.3035,60.0,9.283333333333333
2026-01-20T23:09:18+00:00,SAT-60019,157.89399256344515,59.704640749906055,550.5653816695566,-0.6471261814771685,22665.09621636402,10.5,10500022665.096216,47.655,-122.3035,60.0,9.3
2026-01-20T23:09:19+00:00,SAT-60019,156.4050312850312,59.83326470228504,549.9199903440688,-0.556343131019978,19485.489777430525,10.5,10500019485.489777,47.655,-122.3035,60.0,9.316666666666666
2026-01-20T23:09:20+00:00,SAT-60019,154.90199302060003,59.94472582649019,549.3651386922076,-0.4652843290430731,16296.225353848853,10.5,10500016296.225353,47.655,-122.3035,60.0,9.333333333333334
2026-01-20T23:09:21+00:00,SAT-60019,153.38678199014242,60.03869215245921,548.9011017262413,-0.37399408565943604,13098.854873207247,10.5,10500013098.854874,47.655,-122.3035,60.0,9.35
2026-01-20T23:09:22+00:00,SAT-60019,151.8614014624934,60.11488009776326,548.5281102671142,-0.28251727924753856,9894.95016615513,10.5,10500009894.950167,47.655,-122.3035,60.0,9.366666666666667
2026-01-20T23:09:23+00:00,SAT-60019,150.32793933624333,60.17305734943471,548.2463503777052,-0.1908992530321126,6686.099344224272,10.5,10500006686.099344,47.655,-122.3035,60.0,9.383333333333333
2026-01-20T23:09:24+00:00,SAT-60019,148.78855198580106,60.213045276575954,548.0559628992263,-0.09918570236894707,3473.902852065559,10.5,10500003473.902853,47.655,-122.3035,60.0,9.4
2026-01-20T23:09:25+00:00,SAT-60019,147.24544667607262,60.23472081663607,547.9570431000378,-0.007422559684757861,259.96943755655633,10.5,10500000259.969437,47.655,-122.3035,60.0,9.416666666666666
2026-01-20T23:09:26+00:00,SAT-60019,145.700862919131,60.23801779054009,547.9496404392114,0.08434411719470411,-2954.0877594205294,10.5,10499997045.912241,47.655,-122.3035,60.0,9.433333333333334
2026-01-20T23:09:27+00:00,SAT-60019,144.1570531245112,60.22292761590104,548.0337584414673,0.17606826195305084,-6166.655301605465,10.5,10499993833.344698,47.655,-122.3035,60.0,9.45
2026-01-20T23:09:28+00:00,SAT-60019,142.61626295807218,60.18949939999502,548.2093546887074,0.26770391437639646,-9376.123467896457,10.5,10499990623.876532,47.655,-122.3035,60.0,9.466666666666667
2026-01-20T23:09:29+00:00,SAT-60019,141.08071186321868,60.13783941062584,548.4763409258326,0.3592053341378554,-12580.89023856458,10.5,10499987419.109762,47.655,-122.3035,60.0,9.483333333333333
2026-01-20T23:09:30+00:00,SAT-60019,139.55257414786655,60.068109937824225,548.83458328004,0.45052711783534577,-15779.365394412727,10.5,10499984220.634605,47.655,-122.3035,60.0,9.5
2026-01-20T23:09:31+00:00,SAT-60019,138.03396101798333,59.980527573040696,549.2839025968451,0.5416243045272993,-18969.97421308258,10.5,10499981030.025787,47.655,-122.3035,60.0,9.516666666666667
2026-01-20T23:09:32+00:00,SAT-60019,136.52690396093186,59.87536094867206,549.8240748813563,0.6324524912245238,-22151.16151406818,10.5,10499977848.838486,47.655,-122.3035,60.0,9.533333333333333
2026-01-20T23:09:33+00:00,SAT-60019,135.03333973539162,59.752927988141806,550.4548318547302,0.7229679319265452,-25321.395127387506,10.5,10499974678.604872,47.655,-122.3035,60.0,9.55
2026-01-20T23:09:34+00:00,SAT-60019,133.55509726084193,59.61359273131632,551.1758616094008,0.8131276446482426,-28479.169642108034,10.5,10499971520.830359,47.655,-122.3035,60.0,9.566666666666666
2026-01-20T23:09:35+00:00,SAT-60019,132.0938865530005,59.45776180212981,551.9868093710453,0.9028895069050056,-31623.009750640755,10.5,10499968376.99025,47.655,-122.3035,60.0,9.583333333333334
2026-01-20T23:09:36+00:00,SAT-60019,130.65128983607445,59.28588059347584,552.8872783557811,0.9922123477127093,-34751.47347096853,10.5,10499965248.52653,47.655,-122.3035,60.0,9.6
2026-01-20T23:09:37+00:00,SAT-60019,129.2287548675375,59.098429244475724,553.8768307191149,1.0810560404056047,-37863.1553975212,10.5,10499962136.844603,47.655,-122.3035,60.0,9.616666666666667
2026-01-20T23:09:38+00:00,SAT-60019,127.82759044645975,58.89591848370354,554.9549885974618,1.1693815761886803,-40956.68927729044,10.5,10499959043.310722,47.655,-122.3035,60.0,9.633333333333333
2026-01-20T23:09:39+00:00,SAT-60019,126.4489640419793,58.67888541280177,556.1212352230194,1.257151141458471,-44030.75071793149,10.5,10499955969.249283,47.655,-122.3035,60.0,9.65
2026-01-20T23:09:40+00:00,SAT-60019,125.09390139714974,58.44788929564673,557.3750161157545,1.3443282067931024,-47084.06030457102,10.5,10499952915.939695,47.655,-122.3035,60.0,9.666666666666666
2026-01-20T23:09:41+00:00,SAT-60019,123.7632879250796,58.20350741066642,558.7157403641426,1.4308775505366091,-50115.38442582967,10.5,10499949884.615574,47.655,-122.3035,60.0,9.683333333333334
2026-01-20T23:09:42+00:00,SAT-60019,122.45787175739711,57.946331030634205,560.1427819294272,1.5167653599555073,-53123.53881675311,10.5,10499946876.461184,47.655,-122.3035,60.0,9.7
2026-01-20T23:09:43+00:00,SAT-60019,121.17826814464516,57.67696156001939,561.6554810507664,1.6019592517009915,-56107.38927548474,10.5,10499943892.610725,47.655,-122.3035,60.0,9.716666666666667
2026-01-20T23:09:44+00:00,SAT-60019,119.92496505662493,57.39600688076041,563.2531456707839,1.6864283213178002,-59065.8533972756,10.5,10499940934.146603,47.655,-122.3035,60.0,9.733333333333333
2026-01-20T23:09:45+00:00,SAT-60019,118.69832971951567,57.104077928915665,564.9350529104993,1.7701431865430777,-61997.902090993615,10.5,10499938002.09791,47.655,-122.3035,60.0,9.75
2026-01-20T23:09:46+00:00,SAT-60019,117.49861587430817,56.801785523461774,566.700450587439,1.853076006779196,-64902.56026114426,10.5,10499935097.43974,47.655,-122.3035,60.0,9.766666666666667
2026-01-20T23:09:47+00:00,SAT-60019,116.32597156092955,56.48973746411165,568.5485587531684,1.9352005266019423,-67778.90833171125,10.5,10499932221.09167,47.655,-122.3035,60.0,9.783333333333333
2026-01-20T23:09:48+00:00,SAT-60019,115.1804472198401,56.16853590027287,570.4785712742163,2.0164920476611723,-70626.08126199862,10.5,10499929373.918737,47.655,-122.3035,60.0,9.8
2026-01-20T23:09:49+00:00,SAT-60019,114.06200397877132,55.838774983590916,572.4896573849736,2.0969274985577915,-73443.27099401817,10.5,10499926556.729006,47.655,-122.3035,60.0,9.816666666666666
2026-01-20T23:09:50+00:00,SAT-60019,112.97052191655362,55.50103878322748,574.5809633102839,2.1764853834480586,-76229.72465239475,10.5,10499923770.275347,47.655,-122.3035,60.0,9.833333333333334
2026-01-20T23:09:51+00:00,SAT-60019,111.90580824193982,55.155899475496724,576.7516138367737,2.255145821444661,-78984.74592435858,10.5,10499921015.254076,47.655,-122.3035,60.0,9.85
2026-01-20T23:09:52+00:00,SAT-60019,110.86760523163416,54.80391578118263,579.0007139234814,2.3328905062984933,-81707.69364763066,10.5,10499918292.306353,47.655,-122.3035,60.0,9.866666666666667
2026-01-20T23:09:53+00:00,SAT-60019,109.8555978797195,54.445631649240305,581.3273502722712,2.4097027140620413,-84397.9820788268,10.5,10499915602.017921,47.655,-122.3035,60.0,9.883333333333333
2026-01-20T23:09:54+00:00,SAT-60019,108.86942116943725,54.081575163287816,583.7305929058958,2.4855672824113184,-87055.08016922441,10.5,10499912944.91983,47.655,-122.3035,60.0,9.9
2026-01-20T23:09:55+00:00,SAT-60019,107.90866693091064,53.71225765839854,586.2094967254313,2.5604705826151295,-89678.51058300759,10.5,10499910321.489416,47.655,-122.3035,60.0,9.916666666666666
2026-01-20T23:09:56+00:00,SAT-60019,106.9728902540159,53.33817303163977,588.7631030397592,2.6344004747950875,-92267.84813028357,10.5,10499907732.151869,47.655,-122.3035,60.0,9.933333333333334
2026-01-20T23:09:57+00:00,SAT-60019,106.06161544072518,52.95979723092281,591.3904410504288,2.7073463321485116,-94822.72061547116,10.5,10499905177.279385,47.655,-122.3035,60.0,9.95
2026-01-20T23:09:58+00:00,SAT-60019,105.17434146585978,52.577587894664276,594.0905293606745,2.779298942492155,-97342.80538894552,10.5,10499902657.19461,47.655,-122.3035,60.0,9.966666666666667
2026-01-20T23:09:59+00:00,SAT-60019,104.31054698889263,52.19198414308141,596.8623773862452,2.850250494557422,-99827.82886703884,10.5,10499900172.171133,47.655,-122.3035,60.0,9.983333333333333
2026-01-20T23:10:00+00:00,SAT-60019,103.46969489531308,51.803406492264266,599.7049867525612,2.9201945565583634,-102277.56578140071,10.5,10499897722.43422,47.655,-122.3035,60.0,10.0
2026-01-20T23:10:01+00:00,SAT-60019,102.65123638680616,51.412256877049366,602.6173526705003,2.989126010068085,-104691.83686307044,10.5,10499895308.163137,47.655,-122.3035,60.0,10.016666666666667
2026-01-20T23:10:02+00:00,SAT-60019,101.85461465273886,51.01891877439883,605.5984652462347,3.0570410187801387,-107070.50774836855,10.5,10499892929.492252,47.655,-122.3035,60.0,10.033333333333333
2026-01-20T23:10:03+00:00,SAT-60019,101.07926813465795,50.6237574090431,608.6473107599152,3.1239369507050223,-109413.48625388947,10.5,10499890586.513746,47.655,-122.3035,60.0,10.05
2026-01-20T23:10:04+00:00,SAT-60019,100.3246334206381,50.22712003515933,611.7628728667587,3.1898123809850882,-111720.72247509117,10.5,10499888279.277525,47.655,-122.3035,60.0,10.066666666666666
2026-01-20T23:10:05+00:00,SAT-60019,99.5901477753071,49.82933627239143,614.9441338009443,3.254666993222021,-113992.20533036633,10.5,10499886007.79467,47.655,-122.3035,60.0,10.083333333333334
2026-01-20T23:10:06+00:00,SAT-60019,98.87525135730799,49.43071849916096,618.1900754811015,3.318501557033091,-116227.96177496719,10.5,10499883772.038225,47.655,-122.3035,60.0,10.1
2026-01-20T23:10:07+00:00,SAT-60019,98.17938913174568,49.03156228424791,621.4996805934136,3.381317879024844,-118428.05508389694,10.5,10499881571.944916,47.655,-122.3035,60.0,10.116666666666667
2026-01-20T23:10:08+00:00,SAT-60019,97.50201251092942,48.6321468519963,624.8719336258265,3.443118720905175,-120592.5819838481,10.5,10499879407.418016,47.655,-122.3035,60.0,10.133333333333333
2026-01-20T23:10:09+00:00,SAT-60019,96.84258075404962,48.23273557765922,628.3058218205913,3.503907787485657,-122721.67223299327,10.5,10499877278.327766,47.655,-122.3035,60.0,10.15
2026-01-20T23:10:10+00:00,SAT-60019,96.20056213656444,47.833576498115235,631.8003361148382,3.5636896601682797,-124815.48629140943,10.5,10499875184.513708,47.655,-122.3035,60.0,10.166666666666666
2026-01-20T23:10:11+00:00,SAT-60019,95.57543492261757,47.43490283892528,635.3544720148167,3.6224697218265023,-126874.21269009468,10.5,10499873125.78731,47.655,-122.3035,60.0,10.183333333333334
2026-01-20T23:10:12+00:00,SAT-60019,94.96668816257056,47.03693355351955,638.9672303952198,3.6802541297015092,-128898.06708168036,10.5,10499871101.932919,47.655,-122.3035,60.0,10.2
2026-01-20T23:10:13+00:00,SAT-60019,94.37382232691368,46.639873864775176,642.6376182714745,3.7370498002520534,-130887.29170980866,10.5,10499869112.70829,47.655,-122.3035,60.0,10.216666666666667
2026-01-20T23:10:14+00:00,SAT-60019,93.79634979454515,46.2439158043811,646.3646495569249,3.7928642852598817,-132842.1510698203,10.5,10499867157.84893,47.655,-122.3035,60.0,10.233333333333333
2026-01-20T23:10:15+00:00,SAT-60019,93.2337952282,45.84923875853972,650.1473456964515,3.8477057706533286,-134762.93186755202,10.5,10499865237.068132,47.655,-122.3035,60.0,10.25
2026-01-20T23:10:16+00:00,SAT-60019,92.6856958335924,45.45601000390169,653.984736298917,3.901583041956125,-136649.9418092076,10.5,10499863350.058191,47.655,-122.3035,60.0,10.266666666666667
2026-01-20T23:10:17+00:00,SAT-60019,92.15160152183999,45.06438523547361,657.8758597351558,3.9545053906720455,-138503.50632255225,10.5,10499861496.493677,47.655,-122.3035,60.0,10.283333333333333
2026-01-20T23:10:18+00:00,SAT-60019,91.63107499594128,44.67450909055685,661.8197636425973,4.006482637169535,-140323.96935842902,10.5,10499859676.030642,47.655,-122.3035,60.0,10.3
2026-01-20T23:10:19+00:00,SAT-60019,91.12369175701248,44.286515655458665,665.8155054527112,4.057525021266953,-142111.68955859123,10.5,10499857888.310442,47.655,-122.3035,60.0,10.316666666666666
2026-01-20T23:10:20+00:00,SAT-60019,90.62904005799345,43.90052896704613,669.8621528093347,4.107643190441103,-143867.03984271537,10.5,10499856132.960157,47.655,-122.3035,60.0,10.333333333333334
2026-01-20T23:10:21+00:00,SAT-60019,90.14672080103655,43.516663498369745,673.9587839752368,4.156848201756954,-145590.407475988,10.5,10499854409.592524,47.655,-122.3035,60.0,10.35
2026-01-20T23:10:22+00:00,SAT-60019,89.67634738651276,43.13502462676157,678.10448824061,4.205151379209457,-147282.18907261267,10.5,10499852717.810926,47.655,-122.3035,60.0,10.366666666666667
2026-01-20T23:10:23+00:00,SAT-60019,89.21754553648213,42.755709097289056,682.2983661892824,4.25256440376039,-148942.79374928135,10.5,10499851057.206251,47.655,-122.3035,60.0,10.383333333333333
2026-01-20T23:10:24+00:00,SAT-60019,88.76995307371115,42.3788054596221,686.5395300547304,4.299099185155683,-150572.63863567467,10.5,10499849427.361364,47.655,-122.3035,60.0,10.4
2026-01-20T23:10:25+00:00,SAT-60019,88.33321968577016,42.00439449836164,690.8271039482464,4.344767869210366,-152172.14912961167,10.5,10499847827.85087,47.655,-122.3035,60.0,10.416666666666666
2026-01-20T23:10:26+00:00,SAT-60019,87.90700666463046,41.63254964428139,695.1602240943774,4.3895827944889305,-153741.75737981297,10.5,10499846258.24262,47.655,-122.3035,60.0,10.433333333333334
2026-01-20T23:10:27+00:00,SAT-60019,87.49098663149906,41.26333737118031,699.5380390231564,4.433556490391374,-155281.90221886575,10.5,10499844718.09778,47.655,-122.3035,60.0,10.45
2026-01-20T23:10:28+00:00,SAT-60019,87.08484324714539,40.896817574990095,703.959709760428,4.476701575607715,-156793.02560667152,10.5,10499843206.974394,47.655,-122.3035,60.0,10.466666666666667
2026-01-20T23:10:29+00:00,SAT-60019,86.68827091974256,40.533043943672915,708.4244099168964,4.5190308237112475,-158275.57492779923,10.5,10499841724.425072,47.655,-122.3035,60.0,10.483333333333333
2026-01-20T23:10:30+00:00,SAT-60019,86.30097449850477,40.17206430424689,712.9313258425954,4.560557095847381,-159730.0006339636,10.5,10499840269.999367,47.655,-122.3035,60.0,10.5
2026-01-20T23:10:31+00:00,SAT-60019,85.92266896759195,39.81392095854111,717.4796567142257,4.60129331040422,-161156.7551817608,10.5,10499838843.244818,47.655,-122.3035,60.0,10.516666666666667
2026-01-20T23:10:32+00:00,SAT-60019,85.55307913905682,39.458651004821796,722.0686145922432,4.641252387179923,-162556.2910771731,10.5,10499837443.708923,47.655,-122.3035,60.0,10.533333333333333
2026-01-20T23:10:33+00:00,SAT-60019,85.19193934828442,39.10628664759118,726.6974244222658,4.680447343101838,-163929.06422805772,10.5,10499836070.935772,47.655,-122.3035,60.0,10.55
2026-01-20T23:10:34+00:00,SAT-60019,84.83899314251424,38.75685548449904,731.3653241319427,4.718891136423586,-165275.52848726988,10.5,10499834724.471512,47.655,-122.3035,60.0,10.566666666666666
2026-01-20T23:10:35+00:00,SAT-60019,84.49399298263727,38.410380790176234,736.0715645724364,4.756596734588048,-166596.13802951144,10.5,10499833403.86197,47.655,-122.3035,60.0,10.583333333333334
2026-01-20T23:10:36+00:00,SAT-60019,84.15669994277425,38.06688178028758,740.8154095275894,4.793577070302035,-167891.3458128802,10.5,10499832108.654186,47.655,-122.3035,60.0,10.6
2026-01-20T23:10:37+00:00,SAT-60019,83.82688341666261,37.72637386490927,745.5961356792795,4.829845012425731,-169161.60255929513,10.5,10499830838.39744,47.655,-122.3035,60.0,10.616666666666667
2026-01-20T23:10:38+00:00,SAT-60019,83.5043208307746,37.38886889048799,750.4130325437454,4.865413386486597,-170407.35747297975,10.5,10499829592.642527,47.655,-122.3035,60.0,10.633333333333333
2026-01-20T23:10:39+00:00,SAT-60019,83.18879736128316,37.05437536739588,755.26540242837,4.900294942536627,-171629.0571146876,10.5,10499828370.942884,47.655,-122.3035,60.0,10.65
2026-01-20T23:10:40+00:00,SAT-60019,82.88010565917664,36.72289868739521,760.1525603564063,4.934502320469403,-172827.1441869586,10.5,10499827172.855814,47.655,-122.3035,60.0,10.666666666666666
2026-01-20T23:10:41+00:00,SAT-60019,82.5780455836663,36.39444133154403,765.0738339571159,4.968048077601819,-174002.05850014777,10.5,10499825997.9415,47.655,-122.3035,60.0,10.683333333333334
2026-01-20T23:10:42+00:00,SAT-60019,82.28242394063435,36.06900306481105,770.0285633834125,5.000944660781063,-175154.2359954938,10.5,10499824845.764004,47.655,-122.3035,60.0,10.7
2026-01-20T23:10:43+00:00,SAT-60019,81.99305422965676,35.74658112173405,775.0161012016879,5.033204385180054,-176284.10800244534,10.5,10499823715.891998,47.655,-122.3035,60.0,10.716666666666667
2026-01-20T23:10:44+00:00,SAT-60019,81.70975639935178,35.42717038304748,780.0358122604938,5.064839441615405,-177392.10149496738,10.5,10499822607.898504,47.655,-122.3035,60.0,10.733333333333333
2026-01-20T23:10:45+00:00,SAT-60019,81.43235660942557,35.11076354189039,785.0870735665139,5.095861912338342,-178478.63964460572,10.5,10499821521.360355,47.655,-122.3035,60.0,10.75
2026-01-20T23:10:46+00:00,SAT-60019,81.16068699935978,34.79735125964959,790.1692741762942,5.126283697558684,-179544.13924704594,10.5,10499820455.860752,47.655,-122.3035,60.0,10.766666666666667
2026-01-20T23:10:47+00:00,SAT-60019,80.89458546812446,34.48692231738625,795.2818150146868,5.15611656696919,-180589.01252671436,10.5,10499819410.987473,47.655,-122.3035,60.0,10.783333333333333
2026-01-20T23:10:48+00:00,SAT-60019,80.63389545850936,34.17946375545449,800.4241087446841,5.185372149533261,-181613.6667790997,10.5,10499818386.333221,47.655,-122.3035,60.0,10.8
2026-01-20T23:10:49+00:00,SAT-60019,80.37846574925811,33.87496100567971,805.595579627066,5.214061889327254,-182618.50282416432,10.5,10499817381.497175,47.655,-122.3035,60.0,10.816666666666666
2026-01-20T23:10:50+00:00,SAT-60019,80.12815025644291,33.573398018428385,810.7956633360084,5.242197080734436,-183603.9162389855,10.5,10499816396.083761,47.655,-122.3035,60.0,10.833333333333334
2026-01-20T23:10:51+00:00,SAT-60019,79.88280784013746,33.27475738021276,816.0238068097923,5.269788874807779,-184570.2975806072,10.5,10499815429.70242,47.655,-122.3035,60.0,10.85
2026-01-20T23:10:52+00:00,SAT-60019,79.64230211783857,32.9790204240543,821.2794681078578,5.296848185535683,-185518.02910306925,10.5,10499814481.970898,47.655,-122.3035,60.0,10.866666666666667
2026-01-20T23:10:53+00:00,SAT-60019,79.40650128866885,32.68616733850648,826.562116174373,5.323385841208871,-186447.4900589165,10.5,10499813552.509941,47.655,-122.3035,60.0,10.883333333333333
2026-01-20T23:10:54+00:00,SAT-60019,79.17527795764191,32.396177261903404,831.8712307527688,5.349412446597682,-187359.05187206433,10.5,10499812640.948128,47.655,-122.3035,60.0,10.9
2026-01-20T23:10:55+00:00,SAT-60019,78.94850897232055,32.109028378451455,837.2063021628161,5.374938430967017,-188253.07981948525,10.5,10499811746.920181,47.655,-122.3035,60.0,10.916666666666666
2026-01-20T23:10:56+00:00,SAT-60019,78.72607526359452,31.82469800594664,842.566831125591,5.399974065134604,-189129.93362866165,10.5,10499810870.066372,47.655,-122.3035,60.0,10.933333333333334
2026-01-20T23:10:57+00:00,SAT-60019,78.50786169188692,31.543162677305215,847.9523286054534,5.424529410578131,-189989.96569510223,10.5,10499810010.034306,47.655,-122.3035,60.0,10.95
2026-01-20T23:10:58+00:00,SAT-60019,78.29375690126187,31.2643982197564,853.362315601267,5.448614420036458,-190833.52460582182,10.5,10499809166.475393,47.655,-122.3035,60.0,10.966666666666667
2026-01-20T23:10:59+00:00,SAT-60019,78.08365317541852,30.988379824088778,858.796323037952,5.472238775767021,-191660.94947443184,10.5,10499808339.050526,47.655,-122.3035,60.0,10.983333333333333
2026-01-20T23:11:00+00:00,SAT-60019,77.87744630529312,30.71508211773584,864.2538914967301,5.495412051539362,-192472.57561483854,10.5,10499807527.424385,47.655,-122.3035,60.0,11.0
2026-01-20T23:11:01+00:00,SAT-60019,77.67503545594134,30.444479225311785,869.7345711069263,5.518143611649701,-193268.73100430652,10.5,10499806731.268995,47.655,-122.3035,60.0,11.016666666666667
2026-01-20T23:11:02+00:00,SAT-60019,77.47632304235779,30.176544830313247,875.2379213370567,5.540442665714901,-194049.738202575,10.5,10499805950.261797,47.655,-122.3035,60.0,11.033333333333333
