DopplerPredictor/satellites_20260205_234138/SAT-58377.csv

timestamp,satellite,azimuth_deg,elevation_deg,distance_km,relative_velocity_kms,doppler_shift_hz,tx_freq_ghz,rx_freq_hz,ue_lat,ue_lon,ue_alt_m,time_minutes
2026-01-20T23:06:45+00:00,SAT-58377,303.2977351295386,30.26678940841325,873.1563771238013,-5.850667897435707,204915.13806886668,10.5,10500204915.13807,47.655,-122.3035,60.0,6.75
2026-01-20T23:06:46+00:00,SAT-58377,303.3689264359176,30.552539339068794,867.3213940596063,-5.8325611900639736,204280.96458541235,10.5,10500204280.964586,47.655,-122.3035,60.0,6.766666666666667
2026-01-20T23:06:47+00:00,SAT-58377,303.4414452965458,30.841701025113633,861.5044691611996,-5.814078238153863,203633.61342671124,10.5,10500203633.613426,47.655,-122.3035,60.0,6.783333333333333
2026-01-20T23:06:48+00:00,SAT-58377,303.51533100145656,31.134331566910195,855.7059776644593,-5.795210007230571,202972.76816723985,10.5,10500202972.768167,47.655,-122.3035,60.0,6.8
2026-01-20T23:06:49+00:00,SAT-58377,303.59062439667895,31.430488948871094,849.926303815519,-5.775947287995632,202298.10625841073,10.5,10500202298.106258,47.655,-122.3035,60.0,6.816666666666666
2026-01-20T23:06:50+00:00,SAT-58377,303.6673679623532,31.730232040374336,844.1658410451219,-5.756280597468139,201609.29556611952,10.5,10500201609.295567,47.655,-122.3035,60.0,6.833333333333333
2026-01-20T23:06:51+00:00,SAT-58377,303.74560589410834,32.033620590389965,838.4249922415688,-5.736200215288149,200905.99564224386,10.5,10500200905.995642,47.655,-122.3035,60.0,6.85
2026-01-20T23:06:52+00:00,SAT-58377,303.8253841899787,32.34071522244501,832.7041699874624,-5.7156962511916225,200187.86008790135,10.5,10500200187.860088,47.655,-122.3035,60.0,6.866666666666666
2026-01-20T23:06:53+00:00,SAT-58377,303.9067507437325,32.651577431713044,827.003796729154,-5.6947584712032056,199454.53046598544,10.5,10500199454.530466,47.655,-122.3035,60.0,6.883333333333334
2026-01-20T23:06:54+00:00,SAT-58377,303.989755441294,32.966269571079,821.3243051195356,-5.673376487993626,198705.64296828667,10.5,10500198705.64297,47.655,-122.3035,60.0,6.9
2026-01-20T23:06:55+00:00,SAT-58377,304.0744502662928,33.2848548455771,815.6661381709803,-5.651539615729207,197940.8233317086,10.5,10500197940.823332,47.655,-122.3035,60.0,6.916666666666667
2026-01-20T23:06:56+00:00,SAT-58377,304.16088940994973,33.60739729694129,810.0297495530482,-5.62923689597862,197159.68774563205,10.5,10500197159.687746,47.655,-122.3035,60.0,6.933333333333334
2026-01-20T23:06:57+00:00,SAT-58377,304.24912938839276,33.93396178717901,804.4156038643528,-5.606457185330363,196361.8459206496,10.5,10500196361.84592,47.655,-122.3035,60.0,6.95
2026-01-20T23:06:58+00:00,SAT-58377,304.33922916915174,34.264613984818524,798.8241768170454,-5.5831890074348545,195546.89590645398,10.5,10500195546.895906,47.655,-122.3035,60.0,6.966666666666667
2026-01-20T23:06:59+00:00,SAT-58377,304.43125030325433,34.599420339985784,793.2559555688593,-5.559420670050249,194714.42819127764,10.5,10500194714.428192,47.655,-122.3035,60.0,6.983333333333333
2026-01-20T23:07:00+00:00,SAT-58377,304.52525706818324,34.938448063382744,787.7114389384253,-5.535140181248685,193864.02276708104,10.5,10500193864.022768,47.655,-122.3035,60.0,7.0
2026-01-20T23:07:01+00:00,SAT-58377,304.6213166188035,35.28176509718753,782.1911377041533,-5.510335297832729,192995.25082530145,10.5,10500192995.250826,47.655,-122.3035,60.0,7.016666666666667
2026-01-20T23:07:02+00:00,SAT-58377,304.7194991493125,35.629440085447584,776.6955748548278,-5.484993500456367,192107.67388548466,10.5,10500192107.673885,47.655,-122.3035,60.0,7.033333333333333
2026-01-20T23:07:03+00:00,SAT-58377,304.8198780657619,35.98154233929913,771.2252858650171,-5.459101995687364,191200.8438675176,10.5,10500191200.843868,47.655,-122.3035,60.0,7.05
2026-01-20T23:07:04+00:00,SAT-58377,304.9225301704276,36.33814179832302,765.7808189684241,-5.432647715070099,190274.30305880492,10.5,10500190274.303059,47.655,-122.3035,60.0,7.066666666666666
2026-01-20T23:07:05+00:00,SAT-58377,305.02753585895533,36.69930898752513,760.3627354321726,-5.40561731767442,189327.5842035406,10.5,10500189327.584204,47.655,-122.3035,60.0,7.083333333333333
2026-01-20T23:07:06+00:00,SAT-58377,305.134979331335,37.06511496984495,754.9716098285518,-5.377997162839182,188360.20954807146,10.5,10500188360.209549,47.655,-122.3035,60.0,7.1
2026-01-20T23:07:07+00:00,SAT-58377,305.2449488172086,37.43563129176826,749.6080303339425,-5.349773373444716,187371.69305696647,10.5,10500187371.693056,47.655,-122.3035,60.0,7.116666666666666
2026-01-20T23:07:08+00:00,SAT-58377,305.35753681868687,37.81092992782909,744.2725989646432,-5.3209317725709875,186361.53819451778,10.5,10500186361.538195,47.655,-122.3035,60.0,7.133333333333334
2026-01-20T23:07:09+00:00,SAT-58377,305.47284036927385,38.19108321499749,738.9659318758659,-5.291457893778247,185329.23828481234,10.5,10500185329.238285,47.655,-122.3035,60.0,7.15
2026-01-20T23:07:10+00:00,SAT-58377,305.590961311867,38.57616378134531,733.6886596504796,-5.261336997501564,184274.27708593797,10.5,10500184274.277086,47.655,-122.3035,60.0,7.166666666666667
2026-01-20T23:07:11+00:00,SAT-58377,305.7120065976705,38.96624446902543,728.4414275714038,-5.230554125780252,183196.13070683932,10.5,10500183196.130707,47.655,-122.3035,60.0,7.183333333333334
2026-01-20T23:07:12+00:00,SAT-58377,305.8360886087828,39.36139825411163,723.2248958394183,-5.199093977219414,182094.26322794234,10.5,10500182094.263227,47.655,-122.3035,60.0,7.2
2026-01-20T23:07:13+00:00,SAT-58377,305.96332550188043,39.76169814930272,718.0397399156767,-5.16694104035126,180968.13137203144,10.5,10500180968.131372,47.655,-122.3035,60.0,7.216666666666667
2026-01-20T23:07:14+00:00,SAT-58377,306.09384158159645,40.16721710807061,712.886650731217,-5.134079526969879,179817.18216935176,10.5,10500179817.182169,47.655,-122.3035,60.0,7.233333333333333
2026-01-20T23:07:15+00:00,SAT-58377,306.2277677008294,40.57802791479803,707.7663349629557,-5.100493384626978,178640.85339526212,10.5,10500178640.853395,47.655,-122.3035,60.0,7.25
2026-01-20T23:07:16+00:00,SAT-58377,306.36524169264925,40.99420306600761,702.679515297225,-5.066166338294334,177438.57502943085,10.5,10500177438.57503,47.655,-122.3035,60.0,7.266666666666667
2026-01-20T23:07:17+00:00,SAT-58377,306.50640883741715,41.41581464446676,697.6269306517527,-5.031081876704364,176209.76877742476,10.5,10500176209.768778,47.655,-122.3035,60.0,7.283333333333333
2026-01-20T23:07:18+00:00,SAT-58377,306.65142236676047,41.84293418106256,692.6093364112703,-4.995223241987412,174953.84770776262,10.5,10500174953.847708,47.655,-122.3035,60.0,7.3
2026-01-20T23:07:19+00:00,SAT-58377,306.8004440078999,42.275632503671936,687.6275046734538,-4.958573483322212,173670.2181309819,10.5,10500173670.21813,47.655,-122.3035,60.0,7.316666666666666
2026-01-20T23:07:20+00:00,SAT-58377,306.9536445740791,42.713979577619725,682.6822244413572,-4.921115432209604,172358.27873361923,10.5,10500172358.278734,47.655,-122.3035,60.0,7.333333333333333
2026-01-20T23:07:21+00:00,SAT-58377,307.11120460302016,43.1580443301816,677.7743018405075,-4.882831745437429,171017.42208302318,10.5,10500171017.422083,47.655,-122.3035,60.0,7.35
2026-01-20T23:07:22+00:00,SAT-58377,307.2733150501365,43.60789446396304,672.9045602931488,-4.843704902398021,169647.03453340117,10.5,10500169647.034533,47.655,-122.3035,60.0,7.366666666666666
2026-01-20T23:07:23+00:00,SAT-58377,307.44017804050765,44.063596254136115,668.0738406951629,-4.803717241218059,168246.4974912398,10.5,10500168246.497492,47.655,-122.3035,60.0,7.383333333333334
2026-01-20T23:07:24+00:00,SAT-58377,307.61200768644966,44.52521433191627,663.2830015569555,-4.762850960762221,166815.18748548144,10.5,10500166815.187485,47.655,-122.3035,60.0,7.4
2026-01-20T23:07:25+00:00,SAT-58377,307.7890309763516,44.99281144993971,658.5329191423457,-4.721088140300147,165352.4768563442,10.5,10500165352.476856,47.655,-122.3035,60.0,7.416666666666667
2026-01-20T23:07:26+00:00,SAT-58377,307.9714887421553,45.46644822977707,653.8244875878395,-4.6784107825227945,163857.73526193693,10.5,10500163857.735262,47.655,-122.3035,60.0,7.433333333333334
2026-01-20T23:07:27+00:00,SAT-58377,308.15963671498724,45.946182892565304,649.1586189790039,-4.63480083296025,162330.3303583529,10.5,10500162330.330359,47.655,-122.3035,60.0,7.45
2026-01-20T23:07:28+00:00,SAT-58377,308.35374667664377,46.43207096904597,644.5362434074742,-4.590240218708701,160769.62915605222,10.5,10500160769.629156,47.655,-122.3035,60.0,7.466666666666667
2026-01-20T23:07:29+00:00,SAT-58377,308.5541077183343,46.924164989379584,639.9583089893388,-4.5447108189089755,159174.99698589562,10.5,10500159174.996986,47.655,-122.3035,60.0,7.483333333333333
2026-01-20T23:07:30+00:00,SAT-58377,308.76102761427063,47.42251414361263,635.4257819129652,-4.498194590660904,157545.8019091978,10.5,10500157545.801908,47.655,-122.3035,60.0,7.5
2026-01-20T23:07:31+00:00,SAT-58377,308.974834330468,47.92716392744638,630.939646361251,-4.450673563464805,155881.41452304466,10.5,10500155881.414522,47.655,-122.3035,60.0,7.516666666666667
2026-01-20T23:07:32+00:00,SAT-58377,309.19587767682344,48.438155757633524,626.5009044394169,-4.402129853664312,154181.2084661425,10.5,10500154181.208466,47.655,-122.3035,60.0,7.533333333333333
2026-01-20T23:07:33+00:00,SAT-58377,309.42453111937294,48.95552655639783,622.1105760883962,-4.352545716981571,152444.5622588227,10.5,10500152444.56226,47.655,-122.3035,60.0,7.55
2026-01-20T23:07:34+00:00,SAT-58377,309.66119377228097,49.47930830657728,617.7696989458307,-4.301903650214174,150670.86286489846,10.5,10500150670.862865,47.655,-122.3035,60.0,7.566666666666666
2026-01-20T23:07:35+00:00,SAT-58377,309.906292593529,50.00952758111525,613.47932810564,-4.250186356084263,148859.50446053172,10.5,10500148859.504461,47.655,-122.3035,60.0,7.583333333333333
2026-01-20T23:07:36+00:00,SAT-58377,310.16028479913024,50.54620502762088,609.2405359126506,-4.197376832219048,147009.89155070743,10.5,10500147009.89155,47.655,-122.3035,60.0,7.6
2026-01-20T23:07:37+00:00,SAT-58377,310.4236605289364,51.08935481926783,605.0544116684806,-4.143458446317776,145121.44160189864,10.5,10500145121.441603,47.655,-122.3035,60.0,7.616666666666666
2026-01-20T23:07:38+00:00,SAT-58377,310.6969457931791,51.63898406729926,600.9220612624601,-4.0884149812740285,143193.5866224403,10.5,10500143193.586622,47.655,-122.3035,60.0,7.633333333333334
2026-01-20T23:07:39+00:00,SAT-58377,310.9807057314136,52.19509218748448,596.8446067575496,-4.032230628976455,141225.77294540472,10.5,10500141225.772945,47.655,-122.3035,60.0,7.65
2026-01-20T23:07:40+00:00,SAT-58377,311.27554821717086,52.75767020847811,592.8231859824418,-3.9748901531520433,139217.46693206156,10.5,10500139217.466932,47.655,-122.3035,60.0,7.666666666666667
2026-01-20T23:07:41+00:00,SAT-58377,311.5821278640584,53.32670003981338,588.8589519612553,-3.916378918082568,137168.15597764959,10.5,10500137168.155977,47.655,-122.3035,60.0,7.683333333333334
2026-01-20T23:07:42+00:00,SAT-58377,311.90115047268466,53.9021536763039,584.953072314592,-3.8566829392697812,135077.3502858858,10.5,10500135077.350286,47.655,-122.3035,60.0,7.7
2026-01-20T23:07:43+00:00,SAT-58377,312.23337797553336,54.483992334756756,581.1067286100601,-3.795788948872395,132944.58516084534,10.5,10500132944.585161,47.655,-122.3035,60.0,7.716666666666667
2026-01-20T23:07:44+00:00,SAT-58377,312.57963394348116,55.072165517321466,577.3211156475406,-3.733684534101057,130769.42585413907,10.5,10500130769.425854,47.655,-122.3035,60.0,7.733333333333333
2026-01-20T23:07:45+00:00,SAT-58377,312.9408097341629,55.66661000449511,573.5974406064271,-3.670358132598695,128551.46740311358,10.5,10500128551.467403,47.655,-122.3035,60.0,7.75
2026-01-20T23:07:46+00:00,SAT-58377,313.31787135063746,56.26724874616133,569.9369221974722,-3.605799180928994,126290.33983154585,10.5,10500126290.339832,47.655,-122.3035,60.0,7.766666666666667
2026-01-20T23:07:47+00:00,SAT-58377,313.71186711956096,56.87398966296444,566.3407896665472,-3.539998149103384,123985.70935892433,10.5,10500123985.709358,47.655,-122.3035,60.0,7.783333333333333
2026-01-20T23:07:48+00:00,SAT-58377,314.1239362845901,57.48672432710266,562.8102817639617,-3.472946643123783,121637.28199192963,10.5,10500121637.281992,47.655,-122.3035,60.0,7.8
2026-01-20T23:07:49+00:00,SAT-58377,314.5553186447725,58.105326518059385,559.3466456115216,-3.40463751839241,119244.80749652583,10.5,10500119244.807497,47.655,-122.3035,60.0,7.816666666666666
2026-01-20T23:07:50+00:00,SAT-58377,315.00736537941754,58.72965063817715,555.9511354564759,-3.335064913302948,116808.08057446513,10.5,10500116808.080574,47.655,-122.3035,60.0,7.833333333333333
2026-01-20T23:07:51+00:00,SAT-58377,315.4815512088765,59.359529953156446,552.6250113919665,-3.2642243783488896,114326.94538520827,10.5,10500114326.945385,47.655,-122.3035,60.0,7.85
2026-01-20T23:07:52+00:00,SAT-58377,315.9794880837808,59.99477465002759,549.3695379487131,-3.192112962279998,111801.29856348815,10.5,10500111801.298563,47.655,-122.3035,60.0,7.866666666666666
2026-01-20T23:07:53+00:00,SAT-58377,316.50294060386335,60.63516967700471,546.1859826007733,-3.1187292766393586,109231.09147967045,10.5,10500109231.09148,47.655,-122.3035,60.0,7.883333333333334
2026-01-20T23:07:54+00:00,SAT-58377,317.05384339418475,61.28047232709961,543.0756142069399,-3.0440736103797033,106616.33425410216,10.5,10500106616.334253,47.655,-122.3035,60.0,7.9
2026-01-20T23:07:55+00:00,SAT-58377,317.63432070855316,61.93040953583651,540.0397013378276,-2.968148018709376,103957.09886887297,10.5,10500103957.09887,47.655,-122.3035,60.0,7.916666666666667
2026-01-20T23:07:56+00:00,SAT-58377,318.24670854905696,62.584674841904175,537.0795105143519,-2.890956374925603,101253.52098323578,10.5,10500101253.520983,47.655,-122.3035,60.0,7.933333333333334
2026-01-20T23:07:57+00:00,SAT-58377,318.8935796175391,63.24292494737148,534.1963043945154,-2.8125045049393775,98505.80464523715,10.5,10500098505.804646,47.655,-122.3035,60.0,7.95
2026-01-20T23:07:58+00:00,SAT-58377,319.57777147107817,63.904775830577485,531.3913398260281,-2.7328002328952943,95714.2238895169,10.5,10500095714.22389,47.655,-122.3035,60.0,7.966666666666667
2026-01-20T23:07:59+00:00,SAT-58377,320.3024182449563,64.56979831586598,528.6658658534308,-2.6518534625928103,92879.12558902503,10.5,10500092879.12559,47.655,-122.3035,60.0,7.983333333333333
2026-01-20T23:08:00+00:00,SAT-58377,321.07098634995697,65.23751301724369,526.0211216440154,-2.5696762690607065,90000.93266234675,10.5,10500090000.932663,47.655,-122.3035,60.0,8.0
2026-01-20T23:08:01+00:00,SAT-58377,321.88731455220835,65.90738455278223,523.4583343224167,-2.4862829558452124,87080.14608017499,10.5,10500087080.14608,47.655,-122.3035,60.0,8.016666666666667
2026-01-20T23:08:02+00:00,SAT-58377,322.75565880912177,66.57881489745087,520.9787167480689,-2.4016900969909902,84117.34633566198,10.5,10500084117.346336,47.655,-122.3035,60.0,8.033333333333333
2026-01-20T23:08:03+00:00,SAT-58377,323.6807421737033,67.2511357248371,518.5834652507949,-2.3159166323417453,81113.19678224968,10.5,10500081113.196783,47.655,-122.3035,60.0,8.05
2026-01-20T23:08:04+00:00,SAT-58377,324.66780998100785,67.92359958513653,516.2737572713479,-2.2289838829115203,78068.4441720377,10.5,10500078068.444172,47.655,-122.3035,60.0,8.066666666666666
2026-01-20T23:08:05+00:00,SAT-58377,325.7226902606645,68.59536970718744,514.0507489866266,-2.1409156046803957,74983.92053993617,10.5,10500074983.92054,47.655,-122.3035,60.0,8.083333333333334
2026-01-20T23:08:06+00:00,SAT-58377,326.85185899749706,69.2655082202724,511.915572881236,-2.0517380079182757,71860.54388046644,10.5,10500071860.54388,47.655,-122.3035,60.0,8.1
2026-01-20T23:08:07+00:00,SAT-58377,328.0625092613506,69.9329625505737,509.86933529977716,-1.9614797944306617,68699.3194522657,10.5,10500068699.319452,47.655,-122.3035,60.0,8.116666666666667
2026-01-20T23:08:08+00:00,SAT-58377,329.3626223801443,70.59654974933532,507.91311396199114,-1.870172149607556,65501.33949960589,10.5,10500065501.3395,47.655,-122.3035,60.0,8.133333333333333
2026-01-20T23:08:09+00:00,SAT-58377,330.761038002783,71.2549384910726,506.04795548583286,-1.7778487507811982,62267.78354511701,10.5,10500062267.783545,47.655,-122.3035,60.0,8.15
2026-01-20T23:08:10+00:00,SAT-58377,332.26751805066834,71.90662852634706,504.27487290220944,-1.6845457433797584,58999.91755458858,10.5,10500058999.917555,47.655,-122.3035,60.0,8.166666666666666
2026-01-20T23:08:11+00:00,SAT-58377,333.89279685889665,72.54992742796232,502.5948431935003,-1.5903017375422117,55699.09381840828,10.5,10500055699.093819,47.655,-122.3035,60.0,8.183333333333334
2026-01-20T23:08:12+00:00,SAT-58377,335.64860615566994,73.1829246272019,501.0088048354548,-1.495157732143234,52366.74829059228,10.5,10500052366.748291,47.655,-122.3035,60.0,8.2
2026-01-20T23:08:13+00:00,SAT-58377,337.5476584750045,73.80346294541445,499.5176554148597,-1.399157111962542,49004.40048964371,10.5,10500049004.40049,47.655,-122.3035,60.0,8.216666666666667
2026-01-20T23:08:14+00:00,SAT-58377,339.60356633163417,74.40910828036613,498.1222492500305,-1.30234552488464,45613.64919756827,10.5,10500045613.649197,47.655,-122.3035,60.0,8.233333333333333
2026-01-20T23:08:15+00:00,SAT-58377,341.8306664325937,74.99711864453207,496.82339513377434,-1.2047708607655827,42196.1717196989,10.5,10500042196.17172,47.655,-122.3035,60.0,8.25
2026-01-20T23:08:16+00:00,SAT-58377,344.2437097190537,75.56441474577751,495.6218540974282,-1.1064831178026204,38753.71920439544,10.5,10500038753.719204,47.655,-122.3035,60.0,8.266666666666667
2026-01-20T23:08:17+00:00,SAT-58377,346.85736943117934,76.10755546722106,494.5183373081696,-1.0075343228276161,35288.113851383045,10.5,10500035288.113852,47.655,-122.3035,60.0,8.283333333333333
2026-01-20T23:08:18+00:00,SAT-58377,349.68551460039095,76.6227233119461,493.51350404582183,-0.907978397620598,31801.244229487183,10.5,10500031801.24423,47.655,-122.3035,60.0,8.3
2026-01-20T23:08:19+00:00,SAT-58377,352.740199357686,77.1057267796021,492.6079598129842,-0.807871042524128,28295.061200316602,10.5,10500028295.061201,47.655,-122.3035,60.0,8.316666666666666
2026-01-20T23:08:20+00:00,SAT-58377,356.0303372896428,77.55202867694098,491.8022545612389,-0.7072695861821565,24771.57265548236,10.5,10500024771.572655,47.655,-122.3035,60.0,8.333333333333334
2026-01-20T23:08:21+00:00,SAT-58377,359.56007319310794,77.95681083075775,491.0968810672141,-0.6062328351114814,21232.83824795404,10.5,10500021232.838247,47.655,-122.3035,60.0,8.35
2026-01-20T23:08:22+00:00,SAT-58377,3.32694012520762,78.31508571843958,490.4922734586733,-0.5048209137036189,17680.963788248464,10.5,10500017680.963789,47.655,-122.3035,60.0,8.366666666666667
2026-01-20T23:08:23+00:00,SAT-58377,7.319997260245373,78.62186280963164,489.98880590017393,-0.40309509152975775,14118.095195918693,10.5,10500014118.095196,47.655,-122.3035,60.0,8.383333333333333
2026-01-20T23:08:24+00:00,SAT-58377,11.518266751114986,78.87237068045253,489.5867914509576,-0.30111760200603904,10546.412148445073,10.5,10500010546.412148,47.655,-122.3035,60.0,8.4
2026-01-20T23:08:25+00:00,SAT-58377,15.889883931081929,79.0623247520112,489.2864811036882,-0.19895145569000394,6968.121542087097,10.5,10500006968.121542,47.655,-122.3035,60.0,8.416666666666666
2026-01-20T23:08:26+00:00,SAT-58377,20.392382308613715,79.18821619063331,489.0880630093956,-0.0966602520568288,3385.4508994909484,10.5,10500003385.4509,47.655,-122.3035,60.0,8.433333333333334
2026-01-20T23:08:27+00:00,SAT-58377,24.974395084714654,79.24758400315707,488.99166189013545,0.005692021853980701,-199.35868255497394,10.5,10499999800.641317,47.655,-122.3035,60.0,8.45
2026-01-20T23:08:28+00:00,SAT-58377,29.578758447849715,79.23922545818017,488.9973386524643,0.10804118791705045,-3784.0594146268677,10.5,10499996215.940586,47.655,-122.3035,60.0,8.466666666666667
2026-01-20T23:08:29+00:00,SAT-58377,34.14662494870204,79.16330483851259,489.10509019686606,0.21032307790522162,-7366.403853978299,10.5,10499992633.596146,47.655,-122.3035,60.0,8.483333333333333
2026-01-20T23:08:30+00:00,SAT-58377,38.62188387661675,79.0213381863481,489.3148494276242,0.31247373529155054,-10944.151972499858,10.5,10499989055.848028,47.655,-122.3035,60.0,8.5
2026-01-20T23:08:31+00:00,SAT-58377,42.95508566777708,78.81605724973724,489.62648546395275,0.4144296108536951,-14515.078007612183,10.5,10499985484.921993,47.655,-122.3035,60.0,8.516666666666667
2026-01-20T23:08:32+00:00,SAT-58377,47.106227680831125,78.55118022563381,490.03980404621086,0.5161277668721078,-18076.977614150426,10.5,10499981923.022387,47.655,-122.3035,60.0,8.533333333333333
2026-01-20T23:08:33+00:00,SAT-58377,51.046101072536906,78.23113168543621,490.5545481457658,0.6175060565471142,-21627.674148309292,10.5,10499978372.325851,47.655,-122.3035,60.0,8.55
2026-01-20T23:08:34+00:00,SAT-58377,54.75626742674601,77.86075581655994,491.17039875379106,0.7185033181341636,-25165.02546708069,10.5,10499974834.974533,47.655,-122.3035,60.0,8.566666666666666
2026-01-20T23:08:35+00:00,SAT-58377,58.22799601812557,77.44505804807734,491.8869758636827,0.8190595570035872,-28686.930304756585,10.5,10499971313.069695,47.655,-122.3035,60.0,8.583333333333334
2026-01-20T23:08:36+00:00,SAT-58377,61.46059307454763,76.98899596003115,492.7038396350443,0.9191161050975363,-32191.333857785477,10.5,10499967808.666142,47.655,-122.3035,60.0,8.6
2026-01-20T23:08:37+00:00,SAT-58377,64.45951968551499,76.49732655624994,493.620491716702,1.0186157951918706,-35676.23388816086,10.5,10499964323.766111,47.655,-122.3035,60.0,8.616666666666667
2026-01-20T23:08:38+00:00,SAT-58377,67.23458742009677,75.97450679109443,494.63637674351594,1.117503100798069,-39139.6856233779,10.5,10499960860.314377,47.655,-122.3035,60.0,8.633333333333333
2026-01-20T23:08:39+00:00,SAT-58377,69.7983986246213,75.42463859594709,495.7508839727161,1.2157242856872053,-42579.8069933956,10.5,10499957420.193007,47.655,-122.3035,60.0,8.65
2026-01-20T23:08:40+00:00,SAT-58377,72.16509793869213,74.85144769754947,496.96334906936335,1.3132275234198052,-45994.782817077925,10.5,10499954005.217182,47.655,-122.3035,60.0,8.666666666666666
2026-01-20T23:08:41+00:00,SAT-58377,74.34943419694598,74.25828603072385,498.2730560110184,1.4099630228679343,-49382.86919850836,10.5,10499950617.130802,47.655,-122.3035,60.0,8.683333333333334
2026-01-20T23:08:42+00:00,SAT-58377,76.36609550326396,73.64814921478681,499.6792391175969,1.5058831284398217,-52742.397037280134,10.5,10499947257.602962,47.655,-122.3035,60.0,8.7
2026-01-20T23:08:43+00:00,SAT-58377,78.2292660398286,73.02370260468098,501.1810851811812,1.6009424030124328,-56071.77493314573,10.5,10499943928.225067,47.655,-122.3035,60.0,8.716666666666667
2026-01-20T23:08:44+00:00,SAT-58377,79.95235260927791,72.38731131062909,502.7777356785412,1.6950977086502976,-59369.49201313171,10.5,10499940630.507986,47.655,-122.3035,60.0,8.733333333333333
2026-01-20T23:08:45+00:00,SAT-58377,81.54783510145815,71.74107112070085,504.468289064158,1.788308284779624,-62634.12066952682,10.5,10499937365.87933,47.655,-122.3035,60.0,8.75
2026-01-20T23:08:46+00:00,SAT-58377,83.02720368081921,71.08683842788133,506.2518031412126,1.8805357717551456,-65864.31738529268,10.5,10499934135.682615,47.655,-122.3035,60.0,8.766666666666667
2026-01-20T23:08:47+00:00,SAT-58377,84.40095406842218,70.42625810864934,508.12729745607766,1.9717442690879412,-69058.82477344837,10.5,10499930941.175226,47.655,-122.3035,60.0,8.783333333333333
2026-01-20T23:08:48+00:00,SAT-58377,85.67861989001547,69.76078882153074,510.09375575088086,2.0619003503978957,-72216.4721007688,10.5,10499927783.527899,47.655,-122.3035,60.0,8.8
2026-01-20T23:08:49+00:00,SAT-58377,86.8688270423552,69.0917255798174,512.1501284309816,2.1509730853558975,-75336.17605629333,10.5,10499924663.823944,47.655,-122.3035,60.0,8.816666666666666
2026-01-20T23:08:50+00:00,SAT-58377,87.97935971350935,68.42021964827059,514.2953350543299,2.238934023405306,-78416.94018118265,10.5,10499921583.059818,47.655,-122.3035,60.0,8.833333333333334
2026-01-20T23:08:51+00:00,SAT-58377,89.017231086723,67.74729594834261,516.5282668045915,2.3257571980347453,-81457.85501837016,10.5,10499918542.144981,47.655,-122.3035,60.0,8.85
2026-01-20T23:08:52+00:00,SAT-58377,89.988754249215,67.07386819500171,518.8477889685328,2.4114191055187617,-84458.09736796979,10.5,10499915541.902632,47.655,-122.3035,60.0,8.866666666666667
2026-01-20T23:08:53+00:00,SAT-58377,90.89961051970923,66.40075202312077,521.2527433922053,2.495898667724589,-87416.92898461169,10.5,10499912583.071016,47.655,-122.3035,60.0,8.883333333333333
2026-01-20T23:08:54+00:00,SAT-58377,91.75491359800183,65.72867635403944,523.7419509000357,2.5791771836482447,-90333.69488003121,10.5,10499909666.30512,47.655,-122.3035,60.0,8.9
2026-01-20T23:08:55+00:00,SAT-58377,92.55926873103105,65.05829323551598,526.3142136655812,2.6612382983177088,-93207.82223392672,10.5,10499906792.177767,47.655,-122.3035,60.0,8.916666666666666
2026-01-20T23:08:56+00:00,SAT-58377,93.31682661356932,64.39018635928504,528.968317551272,2.7420679524846276,-96038.81863195034,10.5,10499903961.181368,47.655,-122.3035,60.0,8.933333333333334
2026-01-20T23:08:57+00:00,SAT-58377,94.0313320508204,63.72487844708027,531.7030343979815,2.8216542867011993,-98826.26870607464,10.5,10499901173.731295,47.655,-122.3035,60.0,8.95
2026-01-20T23:08:58+00:00,SAT-58377,94.70616760473533,63.06283767756353,534.5171242189282,2.899987607657478,-101569.8329555826,10.5,10499898430.167044,47.655,-122.3035,60.0,8.966666666666667
2026-01-20T23:08:59+00:00,SAT-58377,95.3443925795474,62.404483278036054,537.4093373600078,2.9770602903167296,-104269.24431943402,10.5,10499895730.75568,47.655,-122.3035,60.0,8.983333333333333
2026-01-20T23:09:00+00:00,SAT-58377,95.94877772077231,61.750190416416125,540.3784165625206,3.0528667128289997,-106924.30589666302,10.5,10499893075.694103,47.655,-122.3035,60.0,9.0
2026-01-20T23:09:01+00:00,SAT-58377,96.52183604031467,61.10029448749865,543.4230989609879,3.1274031844062775,-109534.88842026144,10.5,10499890465.11158,47.655,-122.3035,60.0,9.016666666666667
2026-01-20T23:09:02+00:00,SAT-58377,97.06585016273627,60.455094882325824,546.5421180090385,3.2006678422597177,-112100.92664748438,10.5,10499887899.073353,47.655,-122.3035,60.0,9.033333333333333
2026-01-20T23:09:03+00:00,SAT-58377,97.5828965622488,59.814858320785476,549.7342053025054,3.272660545780158,-114622.41565360414,10.5,10499885377.584347,47.655,-122.3035,60.0,9.05
2026-01-20T23:09:04+00:00,SAT-58377,98.07486703997301,59.1798218094385,552.9980922969894,3.3433828549819107,-117099.41007692082,10.5,10499882900.589924,47.655,-122.3035,60.0,9.066666666666666
2026-01-20T23:09:05+00:00,SAT-58377,98.54348776905353,58.55019526101992,556.3325120039239,3.4128378811517757,-119532.01888785888,10.5,10499880467.981112,47.655,-122.3035,60.0,9.083333333333334
2026-01-20T23:09:06+00:00,SAT-58377,98.99033617338986,57.926163845947414,559.736200537688,3.4810301932890813,-121920.40211210167,10.5,10499878079.597887,47.655,-122.3035,60.0,9.1
2026-01-20T23:09:07+00:00,SAT-58377,99.41685590384513,57.30789010155366,563.2078985694111,3.5479658095029296,-124264.77052928648,10.5,10499875735.229471,47.655,-122.3035,60.0,9.116666666666667
2026-01-20T23:09:08+00:00,SAT-58377,99.82437014692879,56.69551581667407,566.746352772198,3.6136519957592537,-126565.37862427534,10.5,10499873434.621376,47.655,-122.3035,60.0,9.133333333333333
2026-01-20T23:09:09+00:00,SAT-58377,100.21409344198965,56.08916375350597,570.3503170656405,3.6780972494453175,-128822.5240115141,10.5,10499871177.475988,47.655,-122.3035,60.0,9.15
2026-01-20T23:09:10+00:00,SAT-58377,100.587142205339,55.48893919640732,574.0185538439376,3.741311213055824,-131036.54441195501,10.5,10499868963.455587,47.655,-122.3035,60.0,9.166666666666666
2026-01-20T23:09:11+00:00,SAT-58377,100.94454410590856,54.89493136080944,577.7498351179321,3.8033045476665905,-133207.81322156943,10.5,10499866792.186779,47.655,-122.3035,60.0,9.183333333333334
2026-01-20T23:09:12+00:00,SAT-58377,101.28724642526106,54.30721468523978,581.5429435309626,3.864088902108215,-135336.7384316795,10.5,10499864663.261568,47.655,-122.3035,60.0,9.2
2026-01-20T23:09:13+00:00,SAT-58377,101.61612352913379,53.72585000556312,585.3966733439682,3.923676784170558,-137423.75811799394,10.5,10499862576.241882,47.655,-122.3035,60.0,9.216666666666667
2026-01-20T23:09:14+00:00,SAT-58377,101.93198354618407,53.150885639600354,589.3098312921478,3.9820815117396906,-139469.33872921762,10.5,10499860530.66127,47.655,-122.3035,60.0,9.233333333333333
2026-01-20T23:09:15+00:00,SAT-58377,102.23557435195146,52.5823583803365,593.2812373928817,4.039317152477288,-141473.97297436857,10.5,10499858526.027025,47.655,-122.3035,60.0,9.25
2026-01-20T23:09:16+00:00,SAT-58377,102.52758893646565,52.02029440942077,597.309725693499,4.095398404557212,-143438.1756456686,10.5,10499856561.824354,47.655,-122.3035,60.0,9.266666666666667
2026-01-20T23:09:17+00:00,SAT-58377,102.8086702217127,51.464710147368926,601.3941449000987,4.150340557065024,-145362.48223156686,10.5,10499854637.517769,47.655,-122.3035,60.0,9.283333333333333
2026-01-20T23:09:18+00:00,SAT-58377,103.07941539630872,50.91561303600551,605.5333589668772,4.204159442005517,-147247.4472358405,10.5,10499852752.552765,47.655,-122.3035,60.0,9.3
2026-01-20T23:09:19+00:00,SAT-58377,103.34037982026165,50.37300226121533,609.7262476375929,4.25687132312736,-149093.6402837635,10.5,10499850906.359716,47.655,-122.3035,60.0,9.316666666666666
2026-01-20T23:09:20+00:00,SAT-58377,103.5920805434802,49.836869429731685,613.9717068761511,4.3084928910863685,-150901.64595270396,10.5,10499849098.354048,47.655,-122.3035,60.0,9.333333333333334
2026-01-20T23:09:21+00:00,SAT-58377,103.8349994864756,49.30719919088633,618.2686492923684,4.359041154777571,-152672.0599661133,10.5,10499847327.940033,47.655,-122.3035,60.0,9.35
2026-01-20T23:09:22+00:00,SAT-58377,104.06958631361847,48.78396982111784,622.6160044593578,4.4085334223741715,-154405.4885294306,10.5,10499845594.51147,47.655,-122.3035,60.0,9.366666666666667
2026-01-20T23:09:23+00:00,SAT-58377,104.29626103679557,48.26715376367674,627.0127192120042,4.45698724866352,-156102.54648556554,10.5,10499843897.453514,47.655,-122.3035,60.0,9.383333333333333
2026-01-20T23:09:24+00:00,SAT-58377,104.51541637577316,47.756718131475196,631.4577578929183,4.5044203719637,-157763.85510545052,10.5,10499842236.144894,47.655,-122.3035,60.0,9.4
2026-01-20T23:09:25+00:00,SAT-58377,104.72741990045064,47.25262517734208,635.9501025354746,4.550850665384504,-159390.04038099348,10.5,10499840609.95962,47.655,-122.3035,60.0,9.416666666666666
2026-01-20T23:09:26+00:00,SAT-58377,104.93261597805387,46.75483273264914,640.4887529982427,4.596296130527391,-160981.73280442436,10.5,10499839018.267195,47.655,-122.3035,60.0,9.433333333333334
2026-01-20T23:09:27+00:00,SAT-58377,105.1313275467293,46.26329461234461,645.072727093133,4.6407748239088855,-162539.56479133072,10.5,10499837460.43521,47.655,-122.3035,60.0,9.45
2026-01-20T23:09:28+00:00,SAT-58377,105.32385773041854,45.77796099629498,649.701060640166,4.6843048273024985,-164064.16964190686,10.5,10499835935.830359,47.655,-122.3035,60.0,9.466666666666667
2026-01-20T23:09:29+00:00,SAT-58377,105.51049131261456,45.29877878404303,654.3728074926606,4.726904212442246,-165556.18030472126,10.5,10499834443.819695,47.655,-122.3035,60.0,9.483333333333333
2026-01-20T23:09:30+00:00,SAT-58377,105.69149608232539,44.825691925632725,659.0870395272221,4.7685910475751205,-167016.22960621232,10.5,10499832983.770393,47.655,-122.3035,60.0,9.5
2026-01-20T23:09:31+00:00,SAT-58377,105.8671240665117,44.358641726240364,663.8428466402642,4.80938331607465,-168444.94740019055,10.5,10499831555.052599,47.655,-122.3035,60.0,9.516666666666667
2026-01-20T23:09:32+00:00,SAT-58377,106.03761265642629,43.897567135170085,668.6393366633633,4.84929890726385,-169842.96024641965,10.5,10499830157.039753,47.655,-122.3035,60.0,9.533333333333333
2026-01-20T23:09:33+00:00,SAT-58377,106.20318564086053,43.442405013287434,673.4756352694601,4.888355610717564,-171210.89121106052,10.5,10499828789.10879,47.655,-122.3035,60.0,9.55
2026-01-20T23:09:34+00:00,SAT-58377,106.36405415466866,42.99309038027413,678.3508858733784,4.9265710773397,-172549.35850343123,10.5,10499827450.641497,47.655,-122.3035,60.0,9.566666666666666
2026-01-20T23:09:35+00:00,SAT-58377,106.52041754963705,42.549556646242486,683.2642494935264,4.963962808490371,-173858.97509519366,10.5,10499826141.024904,47.655,-122.3035,60.0,9.583333333333334
2026-01-20T23:09:36+00:00,SAT-58377,106.6724641955142,42.111735826284445,688.2149046027541,5.000548107636534,-175140.34702695426,10.5,10499824859.652973,47.655,-122.3035,60.0,9.6
2026-01-20T23:09:37+00:00,SAT-58377,106.82037221666562,41.679558742435304,693.2020469309898,5.036344146014367,-176394.0757080382,10.5,10499823605.924292,47.655,-122.3035,60.0,9.616666666666667
2026-01-20T23:09:38+00:00,SAT-58377,106.96431017286028,41.252955204211055,698.2248893333642,5.071367841347962,-177620.75366870503,10.5,10499822379.246332,47.655,-122.3035,60.0,9.633333333333333
2026-01-20T23:09:39+00:00,SAT-58377,107.10443768459812,40.83185418508611,703.2826615373783,5.105635912769446,-178820.9664836838,10.5,10499821179.033516,47.655,-122.3035,60.0,9.65
2026-01-20T23:09:40+00:00,SAT-58377,107.24090601215201,40.416183980392226,708.3746099448434,5.139164839661071,-179995.29133064864,10.5,10499820004.70867,47.655,-122.3035,60.0,9.666666666666666
2026-01-20T23:09:41+00:00,SAT-58377,107.37385858998127,40.00587235592795,713.499997392774,5.171970900320061,-181144.29834442548,10.5,10499818855.701656,47.655,-122.3035,60.0,9.683333333333334
2026-01-20T23:09:42+00:00,SAT-58377,107.50343152210031,39.600846681589395,718.6581029528425,5.2040701013607835,-182268.54814435734,10.5,10499817731.451855,47.655,-122.3035,60.0,9.7
2026-01-20T23:09:43+00:00,SAT-58377,107.62975403945052,39.201034059626345,723.8482216604232,5.235478192830988,-183368.59236373912,10.5,10499816631.407637,47.655,-122.3035,60.0,9.716666666666667
2026-01-20T23:09:44+00:00,SAT-58377,107.75294892416936,38.80636144122257,729.0696642587153,5.266210678600329,-184444.97401366732,10.5,10499815555.025986,47.655,-122.3035,60.0,9.733333333333333
2026-01-20T23:09:45+00:00,SAT-58377,107.87313290353406,38.41675573267197,734.3217569532233,5.296282795017668,-185498.22673552888,10.5,10499814501.773264,47.655,-122.3035,60.0,9.75
2026-01-20T23:09:46+00:00,SAT-58377,107.99041701522192,38.03214389424332,739.6038411449547,5.325709513807937,-186528.87490246116,10.5,10499813471.125097,47.655,-122.3035,60.0,9.766666666666667
2026-01-20T23:09:47+00:00,SAT-58377,108.10490694694444,37.652453030482384,744.9152731665039,5.354505517567682,-187537.43276110254,10.5,10499812462.56724,47.655,-122.3035,60.0,9.783333333333333
2026-01-20T23:09:48+00:00,SAT-58377,108.21670335177356,37.277610474474955,750.2554239937007,5.382685236814658,-188524.4057292259,10.5,10499811475.59427,47.655,-122.3035,60.0,9.8
2026-01-20T23:09:49+00:00,SAT-58377,108.32590214237909,36.9075438622479,755.623678994206,5.410262827666323,-189490.28961394486,10.5,10499810509.710386,47.655,-122.3035,60.0,9.816666666666666
2026-01-20T23:09:50+00:00,SAT-58377,108.43259476457631,36.54218120211794,761.0194376538477,5.437252149111607,-190435.56981567518,10.5,10499809564.430183,47.655,-122.3035,60.0,9.833333333333334
2026-01-20T23:09:51+00:00,SAT-58377,108.53686845214483,36.18145093931141,766.4421132802883,5.4636667847232,-191360.72208859105,10.5,10499808639.277912,47.655,-122.3035,60.0,9.85
2026-01-20T23:09:52+00:00,SAT-58377,108.63880646464634,35.82528201325298,771.8911327283478,5.489520062252861,-192266.21322693527,10.5,10499807733.786774,47.655,-122.3035,60.0,9.866666666666667
2026-01-20T23:09:53+00:00,SAT-58377,108.73848830997287,35.47360390826129,777.3659361448674,5.51482502048202,-193152.49990398763,10.5,10499806847.500095,47.655,-122.3035,60.0,9.883333333333333
2026-01-20T23:09:54+00:00,SAT-58377,108.83598995151799,35.126346701478425,782.8659766805152,5.539594408036482,-194020.02863055034,10.5,10499805979.971369,47.655,-122.3035,60.0,9.9
2026-01-20T23:09:55+00:00,SAT-58377,108.93138400196695,34.783441106177484,788.390720200408,5.563840723992423,-194869.2371771422,10.5,10499805130.762823,47.655,-122.3035,60.0,9.916666666666666
2026-01-20T23:09:56+00:00,SAT-58377,109.02473990505868,34.444818508260866,793.9396450352293,5.587576195464914,-195700.55378905364,10.5,10499804299.44621,47.655,-122.3035,60.0,9.933333333333334
2026-01-20T23:09:57+00:00,SAT-58377,109.1161241054654,34.11041100029422,799.5122417099997,5.61081275723187,-196514.39647269124,10.5,10499803485.603527,47.655,-122.3035,60.0,9.95
2026-01-20T23:09:58+00:00,SAT-58377,109.20560020756203,33.78015141307343,805.1080126525217,5.633562095925786,-197311.17454335943,10.5,10499802688.825457,47.655,-122.3035,60.0,9.966666666666667
2026-01-20T23:09:59+00:00,SAT-58377,109.29322912489326,33.45397334115703,810.7264719458998,5.655835630619494,-198091.28794529143,10.5,10499801908.712055,47.655,-122.3035,60.0,9.983333333333333
2026-01-20T23:10:00+00:00,SAT-58377,109.3790692199999,33.131811166494984,816.3671450616989,5.677644519532753,-198855.12748654236,10.5,10499801144.872513,47.655,-122.3035,60.0,10.0
2026-01-20T23:10:01+00:00,SAT-58377,109.4631764357928,32.8136000788046,822.0295685997897,5.698999664645234,-199603.07500055572,10.5,10499800396.925,47.655,-122.3035,60.0,10.016666666666667
2026-01-20T23:10:02+00:00,SAT-58377,109.5456044188782,32.49927609305902,827.7132900327961,5.719911714215387,-200335.5034343845,10.5,10499799664.496565,47.655,-122.3035,60.0,10.033333333333333
2026-01-20T23:10:03+00:00,SAT-58377,109.62640463552803,32.18877606442697,833.4178674530534,5.740391072985363,-201052.77720611074,10.5,10499798947.222794,47.655,-122.3035,60.0,10.05
2026-01-20T23:10:04+00:00,SAT-58377,109.70562648070788,31.882037700451882,839.1428693297463,5.760447879695089,-201755.2514172936,10.5,10499798244.748583,47.655,-122.3035,60.0,10.066666666666666
2026-01-20T23:10:05+00:00,SAT-58377,109.7833173804968,31.57899957239737,844.8878742436176,5.7800920719804,-202443.27412597617,10.5,10499797556.725874,47.655,-122.3035,60.0,10.083333333333334
2026-01-20T23:10:06+00:00,SAT-58377,109.85952288905415,31.279601121302605,850.652470686406,5.799333290708427,-203117.18299610622,10.5,10499796882.817003,47.655,-122.3035,60.0,10.1
2026-01-20T23:10:07+00:00,SAT-58377,109.93428677899642,30.9837826673718,856.4362567648699,5.818181008710549,-203777.3098063086,10.5,10499796222.690193,47.655,-122.3035,60.0,10.116666666666667
2026-01-20T23:10:08+00:00,SAT-58377,110.00765112780638,30.691485411118805,862.238840033205,5.836644429914109,-204423.97691705156,10.5,10499795576.023083,47.655,-122.3035,60.0,10.133333333333333
2026-01-20T23:10:09+00:00,SAT-58377,110.07965639833279,30.402651438357204,868.0598372248595,5.854732550273014,-205057.49940469363,10.5,10499794942.500595,47.655,-122.3035,60.0,10.15
2026-01-20T23:10:10+00:00,SAT-58377,110.15034151519868,30.117223720778778,873.8988740451182,5.872454130386115,-205678.184102464,10.5,10499794321.815897,47.655,-122.3035,60.0,10.166666666666666
