DopplerPredictor/satellites_20260205_234138/SAT-51886.csv

timestamp,satellite,azimuth_deg,elevation_deg,distance_km,relative_velocity_kms,doppler_shift_hz,tx_freq_ghz,rx_freq_hz,ue_lat,ue_lon,ue_alt_m,time_minutes
2026-01-20T23:06:25+00:00,SAT-51886,285.40600684736717,30.178409223292984,981.761324962805,-5.54149995567643,194086.76896935987,10.5,10500194086.768969,47.655,-122.3035,60.0,6.416666666666667
2026-01-20T23:06:26+00:00,SAT-51886,285.25439416533584,30.424353474027154,976.234681003783,-5.522603612778923,193424.93910963793,10.5,10500193424.93911,47.655,-122.3035,60.0,6.433333333333334
2026-01-20T23:06:27+00:00,SAT-51886,285.10022668064687,30.672544842107932,970.7268827291703,-5.503377437270277,192751.55711668343,10.5,10500192751.557117,47.655,-122.3035,60.0,6.45
2026-01-20T23:06:28+00:00,SAT-51886,284.9434427252614,30.923006847772285,965.2382590873435,-5.483815089182065,192066.40093798382,10.5,10500192066.400938,47.655,-122.3035,60.0,6.466666666666667
2026-01-20T23:06:29+00:00,SAT-51886,284.78397871422567,31.175762931512423,959.7691453496489,-5.463910101879073,191369.24408462024,10.5,10500191369.244085,47.655,-122.3035,60.0,6.483333333333333
2026-01-20T23:06:30+00:00,SAT-51886,284.62176907486963,31.430836427759072,954.3198832367334,-5.443655905934568,190659.8564674798,10.5,10500190659.856468,47.655,-122.3035,60.0,6.5
2026-01-20T23:06:31+00:00,SAT-51886,284.456746172198,31.68825053796994,948.8908210210582,-5.423045779348278,189938.00265367888,10.5,10500189938.002653,47.655,-122.3035,60.0,6.516666666666667
2026-01-20T23:06:32+00:00,SAT-51886,284.2888402326804,31.94802829958313,943.4823136790641,-5.402072939936667,189203.44510246153,10.5,10500189203.445103,47.655,-122.3035,60.0,6.533333333333333
2026-01-20T23:06:33+00:00,SAT-51886,284.11797926206793,32.21019255746115,938.0947229511933,-5.3807304609744335,188455.9412106076,10.5,10500188455.94121,47.655,-122.3035,60.0,6.55
2026-01-20T23:06:34+00:00,SAT-51886,283.9440889622248,32.474765929373824,932.7284174860439,-5.359011269682174,187695.24325946462,10.5,10500187695.24326,47.655,-122.3035,60.0,6.566666666666666
2026-01-20T23:06:35+00:00,SAT-51886,283.7670926444802,32.741770769198425,927.3837729860323,-5.3369082289175,186921.10127611598,10.5,10500186921.101276,47.655,-122.3035,60.0,6.583333333333333
2026-01-20T23:06:36+00:00,SAT-51886,283.58691113687263,33.01122913192289,922.061172271583,-5.314414077615492,186133.260947354,10.5,10500186133.260948,47.655,-122.3035,60.0,6.6
2026-01-20T23:06:37+00:00,SAT-51886,283.4034626891344,33.2831627334395,916.7610054047205,-5.2915213605311315,185331.46115896245,10.5,10500185331.461159,47.655,-122.3035,60.0,6.616666666666666
2026-01-20T23:06:38+00:00,SAT-51886,283.2166628761427,33.55759290416127,911.4836698827269,-5.268222629529776,184515.44104576056,10.5,10500184515.441046,47.655,-122.3035,60.0,6.633333333333334
2026-01-20T23:06:39+00:00,SAT-51886,283.0264244905323,33.83454055033798,906.2295706310523,-5.244510219453598,183684.93214149764,10.5,10500183684.932142,47.655,-122.3035,60.0,6.65
2026-01-20T23:06:40+00:00,SAT-51886,282.8326574382896,34.114026101103555,900.9991202197546,-5.2203763953738225,182839.66353624928,10.5,10500182839.663536,47.655,-122.3035,60.0,6.666666666666667
2026-01-20T23:06:41+00:00,SAT-51886,282.6352686249332,34.39606946017402,895.7927389330848,-5.195813298483234,181979.359981344,10.5,10500181979.359982,47.655,-122.3035,60.0,6.683333333333334
2026-01-20T23:06:42+00:00,SAT-51886,282.43416183873836,34.68068995167098,890.6108548930325,-5.1708129530750435,181103.74213379298,10.5,10500181103.742134,47.655,-122.3035,60.0,6.7
2026-01-20T23:06:43+00:00,SAT-51886,282.2292376288668,34.96790626304838,885.4539041759125,-5.145367288840281,180212.52733723857,10.5,10500180212.527338,47.655,-122.3035,60.0,6.716666666666667
2026-01-20T23:06:44+00:00,SAT-51886,282.02039317745215,35.257736385824664,880.322330906713,-5.119468093584288,179305.4279658864,10.5,10500179305.427965,47.655,-122.3035,60.0,6.733333333333333
2026-01-20T23:06:45+00:00,SAT-51886,281.8075221681612,35.55019755007324,875.2165874006009,-5.093107088566238,178382.1540632136,10.5,10500178382.154062,47.655,-122.3035,60.0,6.75
2026-01-20T23:06:46+00:00,SAT-51886,281.59051464643005,35.845306159341774,870.1371342292904,-5.0662758384930315,177442.41018957464,10.5,10500177442.410189,47.655,-122.3035,60.0,6.766666666666667
2026-01-20T23:06:47+00:00,SAT-51886,281.36925687731497,36.14307771643717,865.0844403771741,-5.038965846560464,176485.8987509448,10.5,10500176485.89875,47.655,-122.3035,60.0,6.783333333333333
2026-01-20T23:06:48+00:00,SAT-51886,281.1436311938201,36.44352675044514,860.0589833026709,-5.0111685142402,175512.31859049003,10.5,10500175512.31859,47.655,-122.3035,60.0,6.8
2026-01-20T23:06:49+00:00,SAT-51886,280.9135158404293,36.74666673706553,855.0612490396762,-4.982875102931172,174521.36364543668,10.5,10500174521.363646,47.655,-122.3035,60.0,6.816666666666666
2026-01-20T23:06:50+00:00,SAT-51886,280.67878481207856,37.05251001190045,850.0917323372593,-4.954076841460631,173512.7267122131,10.5,10500173512.726711,47.655,-122.3035,60.0,6.833333333333333
2026-01-20T23:06:51+00:00,SAT-51886,280.4393076818272,37.36106768534149,845.1509366921481,-4.924764817819364,172486.09565455886,10.5,10500172486.095655,47.655,-122.3035,60.0,6.85
2026-01-20T23:06:52+00:00,SAT-51886,280.19494942649294,37.67234954572565,840.2393744891876,-4.89493008220643,171441.1570125874,10.5,10500171441.157013,47.655,-122.3035,60.0,6.866666666666666
2026-01-20T23:06:53+00:00,SAT-51886,279.94557024057514,37.9863639634434,835.3575670390312,-4.8645635369102544,170377.5921459561,10.5,10500170377.592146,47.655,-122.3035,60.0,6.883333333333334
2026-01-20T23:06:54+00:00,SAT-51886,279.691025348164,38.30311778238985,830.5060447256534,-4.83365609955429,169295.0829514198,10.5,10500169295.08295,47.655,-122.3035,60.0,6.9
2026-01-20T23:06:55+00:00,SAT-51886,279.43116479959116,38.622616215903676,825.6853469910577,-4.802198534366395,168193.30595317096,10.5,10500168193.305954,47.655,-122.3035,60.0,6.916666666666667
2026-01-20T23:06:56+00:00,SAT-51886,279.16583326865424,38.944862725564086,820.8960224882586,-4.770181610805155,167071.93785860395,10.5,10500167071.937859,47.655,-122.3035,60.0,6.933333333333334
2026-01-20T23:06:57+00:00,SAT-51886,278.8948698341708,39.26985890377614,816.1386290760665,-4.7375959935571075,165930.651705553,10.5,10500165930.651705,47.655,-122.3035,60.0,6.95
2026-01-20T23:06:58+00:00,SAT-51886,278.61810775921566,39.597604342210715,811.4137339235801,-4.704432344743296,164769.12044199795,10.5,10500164769.120441,47.655,-122.3035,60.0,6.966666666666667
2026-01-20T23:06:59+00:00,SAT-51886,278.33537425680703,39.92809649994757,806.7219135127416,-4.67068122179048,163587.01334908177,10.5,10500163587.01335,47.655,-122.3035,60.0,6.983333333333333
2026-01-20T23:07:00+00:00,SAT-51886,278.0464902531132,40.26133055699544,802.0637537427525,-4.636333233540987,162384.0015087383,10.5,10500162384.001509,47.655,-122.3035,60.0,7.0
2026-01-20T23:07:01+00:00,SAT-51886,277.7512701335431,40.59729927088356,797.4398498787966,-4.601378905375907,161159.75307973567,10.5,10500161159.75308,47.655,-122.3035,60.0,7.016666666666667
2026-01-20T23:07:02+00:00,SAT-51886,277.4495214881187,40.935992815522475,792.8508066352757,-4.565808780182462,159913.93683398084,10.5,10500159913.936834,47.655,-122.3035,60.0,7.033333333333333
2026-01-20T23:07:03+00:00,SAT-51886,277.1410448427679,41.2773986186165,788.2972381583511,-4.529613376000885,158646.22067313414,10.5,10500158646.220673,47.655,-122.3035,60.0,7.05
2026-01-20T23:07:04+00:00,SAT-51886,276.8256333848768,41.62150118701821,783.7797680507248,-4.492783269253154,157356.2745436315,10.5,10500157356.274544,47.655,-122.3035,60.0,7.066666666666666
2026-01-20T23:07:05+00:00,SAT-51886,276.50307267533714,41.96828192897599,779.2990293134125,-4.4553089840016495,156043.76655805434,10.5,10500156043.766558,47.655,-122.3035,60.0,7.083333333333333
2026-01-20T23:07:06+00:00,SAT-51886,276.1731403599397,42.317718958183775,774.8556643979642,-4.417181162368079,154708.36896392115,10.5,10500154708.368963,47.655,-122.3035,60.0,7.1
2026-01-20T23:07:07+00:00,SAT-51886,275.83560586165333,42.669786900750616,770.4503250887213,-4.378390436850122,153349.75367167604,10.5,10500153349.753672,47.655,-122.3035,60.0,7.116666666666666
2026-01-20T23:07:08+00:00,SAT-51886,275.4902300742352,43.02445668176675,766.0836725124146,-4.33892752693616,151967.59563854564,10.5,10500151967.595638,47.655,-122.3035,60.0,7.133333333333334
2026-01-20T23:07:09+00:00,SAT-51886,275.13676504237594,43.38169530841042,761.7563770514063,-4.2987832267888315,150561.57243716496,10.5,10500150561.572437,47.655,-122.3035,60.0,7.15
2026-01-20T23:07:10+00:00,SAT-51886,274.7749536363981,43.74146564075914,757.4691182692161,-4.25794842563697,149131.36496978914,10.5,10500149131.36497,47.655,-122.3035,60.0,7.166666666666667
2026-01-20T23:07:11+00:00,SAT-51886,274.4045292200695,44.103726152471474,753.2225848157115,-4.216414127485376,147676.65815861337,10.5,10500147676.65816,47.655,-122.3035,60.0,7.183333333333334
2026-01-20T23:07:12+00:00,SAT-51886,274.0252153122971,44.468430680928385,749.0174743126366,-4.174171451294227,146197.1409520562,10.5,10500146197.140951,47.655,-122.3035,60.0,7.2
2026-01-20T23:07:13+00:00,SAT-51886,273.63672524568,44.835528164752276,744.8544932389677,-4.1312116859595545,144692.50825040875,10.5,10500144692.508251,47.655,-122.3035,60.0,7.216666666666667
2026-01-20T23:07:14+00:00,SAT-51886,273.23876181844327,45.204962373105225,740.7343567614312,-4.087526272073626,143162.460267006,10.5,10500143162.460266,47.655,-122.3035,60.0,7.233333333333333
2026-01-20T23:07:15+00:00,SAT-51886,272.8310169475722,45.576671620066854,736.6577885832139,-4.043106845600963,141606.70405794567,10.5,10500141606.704058,47.655,-122.3035,60.0,7.25
2026-01-20T23:07:16+00:00,SAT-51886,272.41317131992554,45.95058846916396,732.6255207491175,-3.997945236926575,140024.95348875335,10.5,10500140024.95349,47.655,-122.3035,60.0,7.266666666666667
2026-01-20T23:07:17+00:00,SAT-51886,271.984894047442,46.32663942374517,728.6382934516546,-3.9520335310922046,138416.93134411055,10.5,10500138416.931345,47.655,-122.3035,60.0,7.283333333333333
2026-01-20T23:07:18+00:00,SAT-51886,271.54584232308537,46.70474460861688,724.6968547770788,-3.9053640459144097,136782.3685614576,10.5,10500136782.36856,47.655,-122.3035,60.0,7.3
2026-01-20T23:07:19+00:00,SAT-51886,271.09566108885673,47.08481743508269,720.801960473231,-3.8579293694989367,135121.00554490546,10.5,10500135121.005545,47.655,-122.3035,60.0,7.316666666666666
2026-01-20T23:07:20+00:00,SAT-51886,270.63398271359216,47.46676425463356,716.9543736799774,-3.8097224325659806,133432.5946983723,10.5,10500133432.594698,47.655,-122.3035,60.0,7.333333333333333
2026-01-20T23:07:21+00:00,SAT-51886,270.16042668024403,47.850484004896856,713.1548645875114,-3.7607364474616594,131716.8982895074,10.5,10500131716.898289,47.655,-122.3035,60.0,7.35
2026-01-20T23:07:22+00:00,SAT-51886,269.6745993022929,48.23586783459684,709.404210155484,-3.7109650043528273,129973.69181884051,10.5,10500129973.691818,47.655,-122.3035,60.0,7.366666666666666
2026-01-20T23:07:23+00:00,SAT-51886,269.17609345737367,48.622798723093624,705.7031937361945,-3.6604020583857655,128202.76357002463,10.5,10500128202.76357,47.655,-122.3035,60.0,7.383333333333334
2026-01-20T23:07:24+00:00,SAT-51886,268.6644883561612,49.011151083861115,702.0526047105918,-3.6090419799658853,126403.91637084412,10.5,10500126403.91637,47.655,-122.3035,60.0,7.4
2026-01-20T23:07:25+00:00,SAT-51886,268.13934934663934,49.400790358576366,698.4532380741264,-3.556879582416826,124576.9685619532,10.5,10500124576.968561,47.655,-122.3035,60.0,7.416666666666667
2026-01-20T23:07:26+00:00,SAT-51886,267.60022776348336,49.79157260006953,694.9058939950206,-3.503910122417653,122721.75401218852,10.5,10500122721.754013,47.655,-122.3035,60.0,7.433333333333334
2026-01-20T23:07:27+00:00,SAT-51886,267.04666083638176,50.183344041676854,691.4113773721015,-3.450129373121832,120838.1246795049,10.5,10500120838.12468,47.655,-122.3035,60.0,7.45
2026-01-20T23:07:28+00:00,SAT-51886,266.4781716562741,50.5759406617727,687.9704973197112,-3.3955336073040274,118925.95002070496,10.5,10500118925.95002,47.655,-122.3035,60.0,7.466666666666667
2026-01-20T23:07:29+00:00,SAT-51886,265.89426922464014,50.96918773463233,684.5840666694247,-3.3401196703151768,116985.11954663435,10.5,10500116985.119547,47.655,-122.3035,60.0,7.483333333333333
2026-01-20T23:07:30+00:00,SAT-51886,265.2944485842953,51.36289937896065,681.2529013990093,-3.283884982476967,115015.54290604652,10.5,10500115015.542906,47.655,-122.3035,60.0,7.5
2026-01-20T23:07:31+00:00,SAT-51886,264.67819105727216,51.75687809777785,677.977820058994,-3.226827573879516,113017.15110436473,10.5,10500113017.151104,47.655,-122.3035,60.0,7.516666666666667
2026-01-20T23:07:32+00:00,SAT-51886,264.0449646000849,52.150914315208716,674.7596431645378,-3.168946111740622,110989.89746191858,10.5,10500110989.897463,47.655,-122.3035,60.0,7.533333333333333
2026-01-20T23:07:33+00:00,SAT-51886,263.39422429554185,52.54478591165122,671.5991925600082,-3.1102399757368926,108933.76025235889,10.5,10500108933.760252,47.655,-122.3035,60.0,7.55
2026-01-20T23:07:34+00:00,SAT-51886,262.7254129897275,52.9382577661841,668.4972907084331,-3.0507091959187265,106848.74052817776,10.5,10500106848.740528,47.655,-122.3035,60.0,7.566666666666666
2026-01-20T23:07:35+00:00,SAT-51886,262.03796212277575,53.33108129234848,665.4547600428709,-2.9903545761768457,104734.86644502872,10.5,10500104734.866446,47.655,-122.3035,60.0,7.583333333333333
2026-01-20T23:07:36+00:00,SAT-51886,261.33129273914176,53.72299399421634,662.4724221946439,-2.9291776767395867,102592.19264870786,10.5,10500102592.192648,47.655,-122.3035,60.0,7.6
2026-01-20T23:07:37+00:00,SAT-51886,260.6048167295176,54.11371902971772,659.5510972390289,-2.867180851892335,100420.80159624803,10.5,10500100420.801596,47.655,-122.3035,60.0,7.616666666666666
2026-01-20T23:07:38+00:00,SAT-51886,259.8579383199597,54.50296479316419,656.6916029033296,-2.8043672616844977,98220.80396594643,10.5,10500098220.803967,47.655,-122.3035,60.0,7.633333333333334
2026-01-20T23:07:39+00:00,SAT-51886,259.0900558423829,54.890424519382236,653.8947537632708,-2.740740948215193,95992.34132921226,10.5,10500095992.34133,47.655,-122.3035,60.0,7.65
2026-01-20T23:07:40+00:00,SAT-51886,258.30056379880483,55.2757759250241,651.1613603633156,-2.676306801537806,93735.58495639995,10.5,10500093735.584957,47.655,-122.3035,60.0,7.666666666666667
2026-01-20T23:07:41+00:00,SAT-51886,257.48885527841963,55.658680879561075,648.4922283709824,-2.611070637499306,91450.7385430714,10.5,10500091450.738543,47.655,-122.3035,60.0,7.683333333333334
2026-01-20T23:07:42+00:00,SAT-51886,256.65432472909424,56.038785129884175,645.8881576535344,-2.545039171327559,89138.03728491184,10.5,10500089138.037285,47.655,-122.3035,60.0,7.7
2026-01-20T23:07:43+00:00,SAT-51886,255.79637114420572,56.41571807342412,643.3499413810098,-2.4782200983288756,86797.75070409942,10.5,10500086797.750704,47.655,-122.3035,60.0,7.716666666666667
2026-01-20T23:07:44+00:00,SAT-51886,254.91440166347257,56.78909260575474,640.8783650487701,-2.41062206173333,84430.18152311211,10.5,10500084430.181522,47.655,-122.3035,60.0,7.733333333333333
2026-01-20T23:07:45+00:00,SAT-51886,254.00783565264874,57.15850503798661,638.4742055321184,-2.3422546956901487,82035.66717060829,10.5,10500082035.667171,47.655,-122.3035,60.0,7.75
2026-01-20T23:07:46+00:00,SAT-51886,253.07610926596703,57.523535107584856,636.1382300980363,-2.273128648912637,79614.58060957187,10.5,10500079614.58061,47.655,-122.3035,60.0,7.766666666666667
2026-01-20T23:07:47+00:00,SAT-51886,252.1186805202233,57.883746093814246,633.8711953933396,-2.203255589118496,77167.33049283118,10.5,10500077167.330492,47.655,-122.3035,60.0,7.783333333333333
2026-01-20T23:07:48+00:00,SAT-51886,251.13503490526648,58.238685049688584,631.6738464284061,-2.1326482076537308,74694.36132500762,10.5,10500074694.361324,47.655,-122.3035,60.0,7.8
2026-01-20T23:07:49+00:00,SAT-51886,250.1246915441605,58.58788316607664,629.5469155562917,-2.0613202447288126,72196.15434639297,10.5,10500072196.154346,47.655,-122.3035,60.0,7.816666666666666
2026-01-20T23:07:50+00:00,SAT-51886,249.0872098951019,58.93085628783877,627.4911214266771,-1.9892864884417556,69673.22749873325,10.5,10500069673.227499,47.655,-122.3035,60.0,7.833333333333333
2026-01-20T23:07:51+00:00,SAT-51886,248.02219699774034,59.2671055949367,625.5071679407889,-1.916562778991381,67126.13557279516,10.5,10500067126.135572,47.655,-122.3035,60.0,7.85
2026-01-20T23:07:52+00:00,SAT-51886,246.92931523796952,59.59611846663939,623.5957432021224,-1.8431660121551954,64555.47033017605,10.5,10500064555.47033,47.655,-122.3035,60.0,7.866666666666666
2026-01-20T23:07:53+00:00,SAT-51886,245.80829059265554,59.91736954598249,621.7575184636888,-1.7691141267848978,61961.86006534369,10.5,10500061961.860065,47.655,-122.3035,60.0,7.883333333333334
2026-01-20T23:07:54+00:00,SAT-51886,244.65892130459284,60.23032201834228,619.9931470877401,-1.6944261223954813,59345.97022168101,10.5,10500059345.970222,47.655,-122.3035,60.0,7.9
2026-01-20T23:07:55+00:00,SAT-51886,243.48108689013506,60.534429124982324,618.303263487948,-1.6191220246771896,56708.50218356891,10.5,10500056708.502184,47.655,-122.3035,60.0,7.916666666666667
2026-01-20T23:07:56+00:00,SAT-51886,242.27475740581343,60.829135916191795,616.6884821059801,-1.5432228853946333,54050.19327285295,10.5,10500054050.193274,47.655,-122.3035,60.0,7.933333333333334
2026-01-20T23:07:57+00:00,SAT-51886,241.04000282575436,61.113881261246185,615.1493963881765,-1.4667507576678687,51371.81588308209,10.5,10500051371.815884,47.655,-122.3035,60.0,7.95
2026-01-20T23:07:58+00:00,SAT-51886,239.777002389429,61.38810011869287,613.686577786878,-1.3897286953864225,48674.177458985425,10.5,10500048674.17746,47.655,-122.3035,60.0,7.966666666666667
2026-01-20T23:07:59+00:00,SAT-51886,238.4860537179518,61.65122607514555,612.3005747623415,-1.3121807159624992,45958.11919193191,10.5,10500045958.119192,47.655,-122.3035,60.0,7.983333333333333
2026-01-20T23:08:00+00:00,SAT-51886,237.16758151623284,61.902694144412884,610.9919118217977,-1.2341317633417301,43224.514724410335,10.5,10500043224.514725,47.655,-122.3035,60.0,8.0
2026-01-20T23:08:01+00:00,SAT-51886,235.82214563266183,62.141943819363824,609.7610885954031,-1.1556076937858528,40474.26965207862,10.5,10500040474.269651,47.655,-122.3035,60.0,8.016666666666667
2026-01-20T23:08:02+00:00,SAT-51886,234.45044820242256,62.36842236657956,608.6085789263706,-1.0766352403721617,37708.32028038443,10.5,10500037708.32028,47.655,-122.3035,60.0,8.033333333333333
2026-01-20T23:08:03+00:00,SAT-51886,233.05333962445454,62.58158833789503,607.534829996502,-0.9972419670303668,34927.63201474152,10.5,10500034927.632015,47.655,-122.3035,60.0,8.05
2026-01-20T23:08:04+00:00,SAT-51886,231.6318231115994,62.780915266719106,606.5402614975661,-0.9174562287469534,32133.197966718068,10.5,10500032133.197968,47.655,-122.3035,60.0,8.066666666666666
2026-01-20T23:08:05+00:00,SAT-51886,230.18705753934861,62.96589551176496,605.6252648423591,-0.8373071300684027,29326.03750064396,10.5,10500029326.0375,47.655,-122.3035,60.0,8.083333333333334
2026-01-20T23:08:06+00:00,SAT-51886,228.72035833895296,63.13604420103547,604.7902024171582,-0.7568244806417443,26507.19467645285,10.5,10500026507.194677,47.655,-122.3035,60.0,8.1
2026-01-20T23:08:07+00:00,SAT-51886,227.2331962073036,63.29090322057606,604.0354068785072,-0.6760387311637467,23677.7360063519,10.5,10500023677.736006,47.655,-122.3035,60.0,8.116666666666667
2026-01-20T23:08:08+00:00,SAT-51886,225.727193475325,63.430045181891614,603.3611805138884,-0.5949809324590615,20838.749021565265,10.5,10500020838.749022,47.655,-122.3035,60.0,8.133333333333333
2026-01-20T23:08:09+00:00,SAT-51886,224.20411796419694,63.55307730470103,602.7677946432019,-0.5136826698142904,17991.339972435362,10.5,10500017991.339972,47.655,-122.3035,60.0,8.15
2026-01-20T23:08:10+00:00,SAT-51886,222.66587429723384,63.65964513774675,602.255489085737,-0.43217601350113943,15136.63209553445,10.5,10500015136.632095,47.655,-122.3035,60.0,8.166666666666666
2026-01-20T23:08:11+00:00,SAT-51886,221.11449263746604,63.74943604665162,601.8244716764879,-0.35049344612322597,12275.763069042492,10.5,10500012275.76307,47.655,-122.3035,60.0,8.183333333333334
2026-01-20T23:08:12+00:00,SAT-51886,219.55211498532816,63.82218239002003,601.4749178549254,-0.2686678054956079,9409.883012146634,10.5,10500009409.883013,47.655,-122.3035,60.0,8.2
2026-01-20T23:08:13+00:00,SAT-51886,217.9809791786778,63.87766431606516,601.2069703107403,-0.18673222230908787,6540.152301781463,10.5,10500006540.152302,47.655,-122.3035,60.0,8.216666666666667
2026-01-20T23:08:14+00:00,SAT-51886,216.4034008403164,63.91571211350874,601.02073869175,-0.10472004714350137,3667.7390163256355,10.5,10500003667.739016,47.655,-122.3035,60.0,8.233333333333333
2026-01-20T23:08:15+00:00,SAT-51886,214.82175366102396,63.9362080578577,600.9162993846016,-0.02266478858751346,793.8167682953896,10.5,10500000793.816769,47.655,-122.3035,60.0,8.25
2026-01-20T23:08:16+00:00,SAT-51886,213.23844835305368,63.93908770962252,600.8936953571847,0.0593999587710404,-2080.437817738311,10.5,10499997919.562181,47.655,-122.3035,60.0,8.266666666666667
2026-01-20T23:08:17+00:00,SAT-51886,211.6559108089728,63.92434062964473,600.9529360728633,0.14144057964186543,-4953.847392116806,10.5,10499995046.152607,47.655,-122.3035,60.0,8.283333333333333
2026-01-20T23:08:18+00:00,SAT-51886,210.07655986951303,63.89201049461499,601.0939974698301,0.22342350937965616,-7825.236378983189,10.5,10499992174.76362,47.655,-122.3035,60.0,8.3
2026-01-20T23:08:19+00:00,SAT-51886,208.50278527727306,63.84219460866127,601.3168220116135,0.3053152995082358,-10693.433271214837,10.5,10499989306.566729,47.655,-122.3035,60.0,8.316666666666666
2026-01-20T23:08:20+00:00,SAT-51886,206.93692630327928,63.775042824791406,601.6213188029371,0.38708268884731073,-13557.273121583208,10.5,10499986442.72688,47.655,-122.3035,60.0,8.333333333333334
2026-01-20T23:08:21+00:00,SAT-51886,205.38125146713588,63.690755902395374,602.0073637765131,0.4686926677837206,-16415.599793804908,10.5,10499983584.400206,47.655,-122.3035,60.0,8.35
2026-01-20T23:08:22+00:00,SAT-51886,203.8379398479117,63.5895833434229,602.4747999439342,0.5501125459248923,-19267.2683320518,10.5,10499980732.731668,47.655,-122.3035,60.0,8.366666666666667
2026-01-20T23:08:23+00:00,SAT-51886,202.30906429593446,63.47182075928825,603.0234377140389,0.6313100123371119,-22111.14707075011,10.5,10499977888.85293,47.655,-122.3035,60.0,8.383333333333333
2026-01-20T23:08:24+00:00,SAT-51886,200.7965768668034,63.33780683237916,603.6530552713537,0.7122532062744708,-24946.12011180729,10.5,10499975053.879889,47.655,-122.3035,60.0,8.4
2026-01-20T23:08:25+00:00,SAT-51886,199.3022966374063,63.187919938975156,604.3633990250731,0.7929107672131003,-27771.08907702259,10.5,10499972228.910923,47.655,-122.3035,60.0,8.416666666666666
2026-01-20T23:08:26+00:00,SAT-51886,197.82790008554488,63.02257451116945,605.154184107941,0.8732519027314196,-30584.97548554042,10.5,10499969415.024515,47.655,-122.3035,60.0,8.433333333333334
2026-01-20T23:08:27+00:00,SAT-51886,196.37491400830143,62.84221720842805,606.0250949428297,0.9532464355222429,-33386.72240041326,10.5,10499966613.2776,47.655,-122.3035,60.0,8.45
2026-01-20T23:08:28+00:00,SAT-51886,194.94471098704776,62.64732297647771,606.9757858562066,1.0328648613854816,-36175.29645975136,10.5,10499963824.70354,47.655,-122.3035,60.0,8.466666666666667
2026-01-20T23:08:29+00:00,SAT-51886,193.5385072549308,62.438391060972776,608.0058817494339,1.1120784006900983,-38949.689679138064,10.5,10499961050.310322,47.655,-122.3035,60.0,8.483333333333333
2026-01-20T23:08:30+00:00,SAT-51886,192.1573628146447,62.21594104182043,609.1149788213985,1.1908590380626403,-41708.92084169017,10.5,10499958291.079159,47.655,-122.3035,60.0,8.5
2026-01-20T23:08:31+00:00,SAT-51886,190.80218360357708,61.98050894821646,610.3026453307186,1.2691795679964053,-44452.037095483756,10.5,10499955547.962904,47.655,-122.3035,60.0,8.516666666666667
2026-01-20T23:08:32+00:00,SAT-51886,189.4737254490202,61.732643503104576,611.5684224034399,1.3470136456082393,-47178.115731272046,10.5,10499952821.884268,47.655,-122.3035,60.0,8.533333333333333
2026-01-20T23:08:33+00:00,SAT-51886,188.1725995447729,61.472902537763005,612.9118248913522,1.4243358029573474,-49886.2647540391,10.5,10499950113.735247,47.655,-122.3035,60.0,8.55
2026-01-20T23:08:34+00:00,SAT-51886,186.89927921583435,61.20184961644188,614.3323422465804,1.501121501193214,-52575.62470944065,10.5,10499947424.37529,47.655,-122.3035,60.0,8.566666666666666
2026-01-20T23:08:35+00:00,SAT-51886,185.65410765773086,60.92005088894995,615.8294394481837,1.5773471484789916,-55245.369311556904,10.5,10499944754.630688,47.655,-122.3035,60.0,8.583333333333334
2026-01-20T23:08:36+00:00,SAT-51886,184.4373064316797,60.62807219494253,617.4025579466314,1.6529901242470502,-57894.70629242456,10.5,10499942105.293707,47.655,-122.3035,60.0,8.6
2026-01-20T23:08:37+00:00,SAT-51886,183.24898446348197,60.32647642856264,619.051116632468,1.7280288158953665,-60522.878687299555,10.5,10499939477.121313,47.655,-122.3035,60.0,8.616666666666667
2026-01-20T23:08:38+00:00,SAT-51886,182.08914732051664,60.01582116479969,620.7745128415758,1.8024426096050108,-63129.1645130466,10.5,10499936870.835487,47.655,-122.3035,60.0,8.633333333333333
2026-01-20T23:08:39+00:00,SAT-51886,180.95770660841185,59.696656554108834,622.5721233512816,1.8762119431462119,-65712.87861763095,10.5,10499934287.121382,47.655,-122.3035,60.0,8.65
2026-01-20T23:08:40+00:00,SAT-51886,179.85448927612023,59.3695234676684,624.4433054291255,1.949318271456888,-68273.37147453298,10.5,10499931726.628525,47.655,-122.3035,60.0,8.666666666666666
2026-01-20T23:08:41+00:00,SAT-51886,178.77924675065017,59.0349518988284,626.3873978473024,2.021744122880974,-70810.03115245221,10.5,10499929189.968847,47.655,-122.3035,60.0,8.683333333333334
2026-01-20T23:08:42+00:00,SAT-51886,177.73166372910438,58.693459591851244,628.4037219531908,2.0934730544307256,-73322.28174840416,10.5,10499926677.718252,47.655,-122.3035,60.0,8.7
2026-01-20T23:08:43+00:00,SAT-51886,176.71136660121448,58.34555090063139,630.4915826952619,2.1644896910038804,-75809.5847612709,10.5,10499924190.41524,47.655,-122.3035,60.0,8.716666666666667
2026-01-20T23:08:44+00:00,SAT-51886,175.71793138758974,57.9917158465923,632.6502696881038,2.2347797152505144,-78271.43873689578,10.5,10499921728.561264,47.655,-122.3035,60.0,8.733333333333333
2026-01-20T23:08:45+00:00,SAT-51886,174.75089117617756,57.63242936734428,634.8790582673371,2.304329837917152,-80707.37822940861,10.5,10499919292.62177,47.655,-122.3035,60.0,8.75
2026-01-20T23:08:46+00:00,SAT-51886,173.80974303584563,57.26815074169517,637.1772105149562,2.3731278143691137,-83116.97437990816,10.5,10499916883.02562,47.655,-122.3035,60.0,8.766666666666667
2026-01-20T23:08:47+00:00,SAT-51886,172.89395436991822,56.89932316627662,639.5439763011467,2.4411624352955617,-85499.83459091355,10.5,10499914500.16541,47.655,-122.3035,60.0,8.783333333333333
2026-01-20T23:08:48+00:00,SAT-51886,172.00296872261418,56.52637347142332,641.9785943168338,2.508423499982855,-87855.60159028409,10.5,10499912144.398409,47.655,-122.3035,60.0,8.8
2026-01-20T23:08:49+00:00,SAT-51886,171.13621105215435,56.149711962882385,644.4802930795755,2.574901797295568,-90183.95276509413,10.5,10499909816.047235,47.655,-122.3035,60.0,8.816666666666666
2026-01-20T23:08:50+00:00,SAT-51886,170.2930924826273,55.769732372799574,647.0482919204889,2.6405891181240655,-92484.60059759971,10.5,10499907515.399403,47.655,-122.3035,60.0,8.833333333333334
2026-01-20T23:08:51+00:00,SAT-51886,169.4730145454552,55.38681190120778,649.6818019835887,2.7054781928612703,-94757.29047541061,10.5,10499905242.709524,47.655,-122.3035,60.0,8.85
2026-01-20T23:08:52+00:00,SAT-51886,168.67537296356872,55.001311345994836,652.3800271627711,2.769562704165209,-97001.80113848859,10.5,10499902998.198862,47.655,-122.3035,60.0,8.866666666666667
2026-01-20T23:08:53+00:00,SAT-51886,167.89956098011632,54.613575298099775,655.1421650515258,2.832837236757695,-99217.94292088495,10.5,10499900782.05708,47.655,-122.3035,60.0,8.883333333333333
2026-01-20T23:08:54+00:00,SAT-51886,167.14497228385727,54.223932400135425,657.9674078425834,2.8952972879855197,-101405.5581206381,10.5,10499898594.44188,47.655,-122.3035,60.0,8.9
2026-01-20T23:08:55+00:00,SAT-51886,166.411003543547,53.83269564993495,660.8549432380909,2.9569392089973148,-103564.51893953851,10.5,10499896435.48106,47.655,-122.3035,60.0,8.916666666666666
2026-01-20T23:08:56+00:00,SAT-51886,165.6970566041306,53.44016274984326,663.8039553011264,3.017760179202843,-105694.72658858499,10.5,10499894305.27341,47.655,-122.3035,60.0,8.933333333333334
2026-01-20T23:08:57+00:00,SAT-51886,165.00254036366627,53.04661648898615,666.8136252817396,3.0777582001418335,-107796.1110732454,10.5,10499892203.888927,47.655,-122.3035,60.0,8.95
2026-01-20T23:08:58+00:00,SAT-51886,164.32687235747068,52.65232514906101,669.8831324368776,3.1369320551315867,-109868.62978014497,10.5,10499890131.37022,47.655,-122.3035,60.0,8.966666666666667
2026-01-20T23:08:59+00:00,SAT-51886,163.66948008648035,52.25754293209344,673.0116548100659,3.195281279581858,-111912.26643736819,10.5,10499888087.733562,47.655,-122.3035,60.0,8.983333333333333
2026-01-20T23:09:00+00:00,SAT-51886,163.02980211392529,51.862510403266946,676.1983699814863,3.252806131473007,-113927.03008047845,10.5,10499886072.96992,47.655,-122.3035,60.0,9.0
2026-01-20T23:09:01+00:00,SAT-51886,162.40728895483724,51.46745494409531,679.4424557886078,3.309507543445736,-115912.95337449826,10.5,10499884087.046625,47.655,-122.3035,60.0,9.016666666666667
2026-01-20T23:09:02+00:00,SAT-51886,161.80140378595206,51.07259121405731,682.7430909990417,3.365387137103797,-117870.09311485036,10.5,10499882129.906885,47.655,-122.3035,60.0,9.033333333333333
2026-01-20T23:09:03+00:00,SAT-51886,161.21162298431003,50.678121609725665,686.0994559976543,3.42044714255187,-119798.527409234,10.5,10499880201.472591,47.655,-122.3035,60.0,9.05
2026-01-20T23:09:04+00:00,SAT-51886,160.6374365339593,50.28423672988164,689.5107333934385,3.4746903951874293,-121698.35556526245,10.5,10499878301.644434,47.655,-122.3035,60.0,9.066666666666666
2026-01-20T23:09:05+00:00,SAT-51886,160.07834830264952,49.89111583472009,692.976108623184,3.528120320759973,-123569.69756717402,10.5,10499876430.302433,47.655,-122.3035,60.0,9.083333333333334
2026-01-20T23:09:06+00:00,SAT-51886,159.5338762084126,49.4989272987228,696.4947705402446,3.58074084657702,-125412.6909658905,10.5,10499874587.309034,47.655,-122.3035,60.0,9.1
2026-01-20T23:09:07+00:00,SAT-51886,159.0035523022562,49.10782906364829,700.0659119147543,3.632556444567227,-127227.49238726974,10.5,10499872772.507612,47.655,-122.3035,60.0,9.116666666666667
2026-01-20T23:09:08+00:00,SAT-51886,158.48692275879216,48.71796907538684,703.6887299767862,3.683572040042232,-129014.27433655932,10.5,10499870985.725664,47.655,-122.3035,60.0,9.133333333333333
2026-01-20T23:09:09+00:00,SAT-51886,157.98354780796183,48.32948571854169,707.362426868522,3.733793030676251,-130773.2258631424,10.5,10499869226.774137,47.655,-122.3035,60.0,9.15
2026-01-20T23:09:10+00:00,SAT-51886,157.49300160151444,47.94250823567811,711.0862101153467,3.7832252247348848,-132504.55039704932,10.5,10499867495.449602,47.655,-122.3035,60.0,9.166666666666666
2026-01-20T23:09:11+00:00,SAT-51886,157.01487203559824,47.55715713930993,714.8592930353391,3.831874834844473,-134208.46553073384,10.5,10499865791.53447,47.655,-122.3035,60.0,9.183333333333334
2026-01-20T23:09:12+00:00,SAT-51886,156.54876052981456,47.17354461015943,718.6808951425502,3.87974841539073,-135885.20082650866,10.5,10499864114.799173,47.655,-122.3035,60.0,9.2
2026-01-20T23:09:13+00:00,SAT-51886,156.09428177738306,46.79177488709012,722.5502424878443,3.926852901016765,-137534.99916490904,10.5,10499862465.000835,47.655,-122.3035,60.0,9.216666666666667
2026-01-20T23:09:14+00:00,SAT-51886,155.6510634600644,46.41194463836318,726.4665680381394,3.9731955159194543,-139158.11356786793,10.5,10499860841.886433,47.655,-122.3035,60.0,9.233333333333333
2026-01-20T23:09:15+00:00,SAT-51886,155.21874595005096,46.03414332702924,730.4291119651816,4.018783784910847,-140754.80758613313,10.5,10499859245.192413,47.655,-122.3035,60.0,9.25
2026-01-20T23:09:16+00:00,SAT-51886,154.79698199064575,45.65845356026154,734.4371219453571,4.063625485634955,-142325.35362569737,10.5,10499857674.646374,47.655,-122.3035,60.0,9.266666666666667
2026-01-20T23:09:17+00:00,SAT-51886,154.38543636726683,45.28495142844886,738.4898534118454,4.107728662994973,-143870.03345310048,10.5,10499856129.966547,47.655,-122.3035,60.0,9.283333333333333
2026-01-20T23:09:18+00:00,SAT-51886,153.98378556558313,44.91370682835837,742.5865698211616,4.151101561939939,-145389.1358413338,10.5,10499854610.864159,47.655,-122.3035,60.0,9.3
2026-01-20T23:09:19+00:00,SAT-51886,153.59171742905818,44.5447837781388,746.726542852666,4.193752619445159,-146882.956288961,10.5,10499853117.04371,47.655,-122.3035,60.0,9.316666666666666
2026-01-20T23:09:20+00:00,SAT-51886,153.2089308116237,44.17824071880399,750.9090526000759,4.235690493094232,-148351.79802118117,10.5,10499851648.201979,47.655,-122.3035,60.0,9.333333333333334
2026-01-20T23:09:21+00:00,SAT-51886,152.8351352253354,43.81413079950189,755.1333877914838,4.276923960677687,-149795.96847334868,10.5,10499850204.031527,47.655,-122.3035,60.0,9.35
2026-01-20T23:09:22+00:00,SAT-51886,152.47005049703665,43.45250215816415,759.3988459092384,4.317461931381702,-151215.7796828494,10.5,10499848784.220318,47.655,-122.3035,60.0,9.366666666666667
2026-01-20T23:09:23+00:00,SAT-51886,152.11340642484066,43.09339818788122,763.7047333209919,4.357313476009777,-152611.5493475912,10.5,10499847388.450653,47.655,-122.3035,60.0,9.383333333333333
2026-01-20T23:09:24+00:00,SAT-51886,151.76494243457563,42.7368577881004,768.0503654408814,4.396487744039349,-153983.59792097623,10.5,10499846016.402079,47.655,-122.3035,60.0,9.4
2026-01-20T23:09:25+00:00,SAT-51886,151.42440724777896,42.38291561049963,772.4350668079943,4.434993968563478,-155332.2487849795,10.5,10499844667.751215,47.655,-122.3035,60.0,9.416666666666666
2026-01-20T23:09:26+00:00,SAT-51886,151.09155855388974,42.031602292400855,776.8581711697575,4.472841462105273,-156657.8281035521,10.5,10499843342.171896,47.655,-122.3035,60.0,9.433333333333334
2026-01-20T23:09:27+00:00,SAT-51886,150.76616268853184,41.68294467899481,781.319021561155,4.510039605906907,-157960.6644474776,10.5,10499842039.335552,47.655,-122.3035,60.0,9.45
2026-01-20T23:09:28+00:00,SAT-51886,150.44799431933168,41.336966035378104,785.8169703732639,4.546597800975472,-159241.08707979057,10.5,10499840758.91292,47.655,-122.3035,60.0,9.466666666666667
2026-01-20T23:09:29+00:00,SAT-51886,150.1368361426219,40.99368625166699,790.3513793729655,4.582525490256863,-160499.42673239985,10.5,10499839500.573267,47.655,-122.3035,60.0,9.483333333333333
2026-01-20T23:09:30+00:00,SAT-51886,149.83247858554802,40.65312203604295,794.9216197447714,4.617832148839465,-161736.0152629803,10.5,10499838263.984737,47.655,-122.3035,60.0,9.5
2026-01-20T23:09:31+00:00,SAT-51886,149.53471951716543,40.31528709872521,799.5270721228807,4.65252721511222,-162951.183243837,10.5,10499837048.816755,47.655,-122.3035,60.0,9.516666666666667
2026-01-20T23:09:32+00:00,SAT-51886,149.24336397201094,39.98019233148522,804.1671265545781,4.686620176475643,-164145.2629638677,10.5,10499835854.737036,47.655,-122.3035,60.0,9.533333333333333
2026-01-20T23:09:33+00:00,SAT-51886,148.95822387610946,39.64784597174172,808.8411825491138,4.720120457241753,-165318.584502344,10.5,10499834681.415497,47.655,-122.3035,60.0,9.55
2026-01-20T23:09:34+00:00,SAT-51886,148.67911778876,39.31825376606793,813.5486490147866,4.75303749595628,-166471.4784370624,10.5,10499833528.521563,47.655,-122.3035,60.0,9.566666666666666
2026-01-20T23:09:35+00:00,SAT-51886,148.40587064745432,38.99141911975551,818.2889442731351,4.785380648410001,-167604.27244739098,10.5,10499832395.727552,47.655,-122.3035,60.0,9.583333333333334
2026-01-20T23:09:36+00:00,SAT-51886,148.13831352719654,38.667343245153624,823.0614959764097,4.817159283701942,-168717.29467880877,10.5,10499831282.70532,47.655,-122.3035,60.0,9.6
2026-01-20T23:09:37+00:00,SAT-51886,147.87628340205194,38.346025295695085,827.86574112084,4.848382679886602,-169810.87008803044,10.5,10499830189.129911,47.655,-122.3035,60.0,9.616666666666667
2026-01-20T23:09:38+00:00,SAT-51886,147.6196229211377,38.02746249975918,832.7011259558385,4.879060056434085,-170885.32157989743,10.5,10499829114.678421,47.655,-122.3035,60.0,9.633333333333333
2026-01-20T23:09:39+00:00,SAT-51886,147.36818019050213,37.71165028521542,837.5671059255716,4.9092006051473875,-171940.9710902319,10.5,10499828059.02891,47.655,-122.3035,60.0,9.65
2026-01-20T23:09:40+00:00,SAT-51886,147.12180856117487,37.39858239534085,842.4631456413662,4.9388134011689315,-172978.13646890936,10.5,10499827021.863531,47.655,-122.3035,60.0,9.666666666666666
2026-01-20T23:09:41+00:00,SAT-51886,146.88036642982178,37.088251004131216,847.388718765363,4.967907484991098,-173997.1343522142,10.5,10499826002.865648,47.655,-122.3035,60.0,9.683333333333334
2026-01-20T23:09:42+00:00,SAT-51886,146.6437170422811,36.78064682023905,852.3433079759579,4.9964917727226545,-174998.27701999052,10.5,10499825001.72298,47.655,-122.3035,60.0,9.7
2026-01-20T23:09:43+00:00,SAT-51886,146.41172830926396,36.47575919079222,857.326404843754,5.0245751107293675,-175981.87430938758,10.5,10499824018.12569,47.655,-122.3035,60.0,9.716666666666667
2026-01-20T23:09:44+00:00,SAT-51886,146.18427262606107,36.173576196203406,862.3375097620028,5.052166292733315,-176948.23421375,10.5,10499823051.765787,47.655,-122.3035,60.0,9.733333333333333
2026-01-20T23:09:45+00:00,SAT-51886,145.96122669854515,35.87408473881015,867.3761318941043,5.07927395817808,-177897.6593229368,10.5,10499822102.340677,47.655,-122.3035,60.0,9.75
2026-01-20T23:09:46+00:00,SAT-51886,145.74247138067395,35.57727063260762,872.4417890197403,5.1059066599069745,-178830.4491936993,10.5,10499821169.550806,47.655,-122.3035,60.0,9.766666666666667
2026-01-20T23:09:47+00:00,SAT-51886,145.52789151512565,35.283118684045945,877.5340074485072,5.132072901910818,-179746.90167176782,10.5,10499820253.098328,47.655,-122.3035,60.0,9.783333333333333
2026-01-20T23:09:48+00:00,SAT-51886,145.31737577845126,34.99161276623725,882.6523219711937,5.157781018272516,-180647.3086519789,10.5,10499819352.691347,47.655,-122.3035,60.0,9.8
2026-01-20T23:09:49+00:00,SAT-51886,145.11081653790748,34.702735895842004,887.7962756903302,5.183039262794046,-181531.95921739127,10.5,10499818468.040783,47.655,-122.3035,60.0,9.816666666666666
2026-01-20T23:09:50+00:00,SAT-51886,144.90810970977134,34.41647030063556,892.9654199401202,5.207855779245134,-182401.13859726887,10.5,10499817598.861403,47.655,-122.3035,60.0,9.833333333333334
2026-01-20T23:09:51+00:00,SAT-51886,144.7091546248711,34.132797484926364,898.1593141767053,5.232238606231368,-183255.1283375827,10.5,10499816744.871662,47.655,-122.3035,60.0,9.85
2026-01-20T23:09:52+00:00,SAT-51886,144.51385389901748,33.85169829101531,903.3775258732823,5.256195673221952,-184094.20616188584,10.5,10499815905.793839,47.655,-122.3035,60.0,9.866666666666667
2026-01-20T23:09:53+00:00,SAT-51886,144.322113309114,33.57315295738676,908.6196304112594,5.279734774402565,-184918.64505553016,10.5,10499815081.354944,47.655,-122.3035,60.0,9.883333333333333
2026-01-20T23:09:54+00:00,SAT-51886,144.13384167505254,33.29714117494426,913.8852109453351,5.302863606355401,-185728.71458538063,10.5,10499814271.285414,47.655,-122.3035,60.0,9.9
2026-01-20T23:09:55+00:00,SAT-51886,143.94895074502693,33.02364213806909,919.1738583061573,5.325589745863189,-186524.68012241818,10.5,10499813475.319878,47.655,-122.3035,60.0,9.916666666666666
2026-01-20T23:09:56+00:00,SAT-51886,143.76735508627917,32.75263459387937,924.4851708808429,5.347920661992495,-187306.80326494802,10.5,10499812693.196735,47.655,-122.3035,60.0,9.933333333333334
2026-01-20T23:09:57+00:00,SAT-51886,143.58897197990666,32.484096888036426,929.8187545055537,5.369863670834712,-188075.34025343784,10.5,10499811924.659746,47.655,-122.3035,60.0,9.95
2026-01-20T23:09:58+00:00,SAT-51886,143.4137213214925,32.218007010120154,935.1742223129282,5.3914260256756945,-188830.54512863958,10.5,10499811169.454872,47.655,-122.3035,60.0,9.966666666666667
2026-01-20T23:09:59+00:00,SAT-51886,143.2415255226166,31.95434263193889,940.5511946694457,5.412614821875814,-189572.66640008686,10.5,10499810427.3336,47.655,-122.3035,60.0,9.983333333333333
2026-01-20T23:10:00+00:00,SAT-51886,143.07230941968194,31.693081148192206,945.9492990179249,5.433437069513751,-190301.94959038758,10.5,10499809698.05041,47.655,-122.3035,60.0,10.0
2026-01-20T23:10:01+00:00,SAT-51886,142.90600018399653,31.434199711261513,951.3681697924696,5.453899615778283,-191018.63451705637,10.5,10499808981.365482,47.655,-122.3035,60.0,10.016666666666667
2026-01-20T23:10:02+00:00,SAT-51886,142.7425272380516,31.17767526757674,956.8074482560163,5.474009237105744,-191722.9585195579,10.5,10499808277.041481,47.655,-122.3035,60.0,10.033333333333333
2026-01-20T23:10:03+00:00,SAT-51886,142.5818221722154,30.923484587519855,962.2667824297705,5.493772580698146,-192415.15441102436,10.5,10499807584.845589,47.655,-122.3035,60.0,10.05
2026-01-20T23:10:04+00:00,SAT-51886,142.42381866666352,30.671604296226423,967.7458269643207,5.513196144603645,-193095.4497805888,10.5,10499806904.550219,47.655,-122.3035,60.0,10.066666666666666
2026-01-20T23:10:05+00:00,SAT-51886,142.26845241718445,30.422010903396316,973.2442429908816,5.532286368832454,-193764.07018465013,10.5,10499806235.929815,47.655,-122.3035,60.0,10.083333333333334
2026-01-20T23:10:06+00:00,SAT-51886,142.11566106103592,30.174680827218236,978.761698063415,5.5510495415399985,-194421.23586101018,10.5,10499805578.76414,47.655,-122.3035,60.0,10.1
