DopplerPredictor/satellites_20260205_234138/SAT-48358.csv

timestamp,satellite,azimuth_deg,elevation_deg,distance_km,relative_velocity_kms,doppler_shift_hz,tx_freq_ghz,rx_freq_hz,ue_lat,ue_lon,ue_alt_m,time_minutes
2026-01-20T23:07:27+00:00,SAT-48358,289.09201346423436,30.171524706702904,994.4271383821911,-5.675814356410947,198791.02743243444,10.5,10500198791.027431,47.655,-122.3035,60.0,7.45
2026-01-20T23:07:28+00:00,SAT-48358,288.98754311813883,30.420998200698367,988.7665401008072,-5.658884556872513,198198.07423961742,10.5,10500198198.07424,47.655,-122.3035,60.0,7.466666666666667
2026-01-20T23:07:29+00:00,SAT-48358,288.8812733336298,30.672894296523413,983.1228262325056,-5.641655026192557,197594.62319436282,10.5,10500197594.623194,47.655,-122.3035,60.0,7.483333333333333
2026-01-20T23:07:30+00:00,SAT-48358,288.77315922608756,30.927244111520153,977.4962957048901,-5.62411979301178,196980.46515440923,10.5,10500196980.465155,47.655,-122.3035,60.0,7.5
2026-01-20T23:07:31+00:00,SAT-48358,288.6631544330538,31.18407900869181,971.8872534009143,-5.606272740918105,196355.3858971332,10.5,10500196355.385897,47.655,-122.3035,60.0,7.516666666666667
2026-01-20T23:07:32+00:00,SAT-48358,288.55121105460654,31.44343058377842,966.2960103035489,-5.588107648873137,195719.1675354553,10.5,10500195719.167536,47.655,-122.3035,60.0,7.533333333333333
2026-01-20T23:07:33+00:00,SAT-48358,288.4372795902077,31.7053306530898,960.7228836001237,-5.569618186381539,195071.58834865072,10.5,10500195071.588348,47.655,-122.3035,60.0,7.55
2026-01-20T23:07:34+00:00,SAT-48358,288.3213088724325,31.969811240036087,955.168196791493,-5.550797871469387,194412.421310574,10.5,10500194412.42131,47.655,-122.3035,60.0,7.566666666666666
2026-01-20T23:07:35+00:00,SAT-48358,288.2032459983647,32.2369045584699,949.6322798431067,-5.53164012063112,193741.43583901218,10.5,10500193741.435839,47.655,-122.3035,60.0,7.583333333333333
2026-01-20T23:07:36+00:00,SAT-48358,288.08303625656885,32.506642997081485,944.1154692862725,-5.512138200024814,193058.396086337,10.5,10500193058.396086,47.655,-122.3035,60.0,7.6
2026-01-20T23:07:37+00:00,SAT-48358,287.96062305143084,32.77905910008745,938.6181083680866,-5.492285277274646,192363.06275384614,10.5,10500192363.062754,47.655,-122.3035,60.0,7.616666666666666
2026-01-20T23:07:38+00:00,SAT-48358,287.83594782267227,33.05418554896939,933.1405471497054,-5.4720743727580174,191655.19138563247,10.5,10500191655.191385,47.655,-122.3035,60.0,7.633333333333334
2026-01-20T23:07:39+00:00,SAT-48358,287.70894996184376,33.33205514027437,927.6831426531942,-5.451498376042542,190934.53294427673,10.5,10500190934.532944,47.655,-122.3035,60.0,7.65
2026-01-20T23:07:40+00:00,SAT-48358,287.57956672418925,33.61270076253162,922.246258991991,-5.430550071130194,190200.8346950044,10.5,10500190200.834696,47.655,-122.3035,60.0,7.666666666666667
2026-01-20T23:07:41+00:00,SAT-48358,287.4477331355688,33.89615537270956,916.8302674761857,-5.409222057757205,189453.8374492752,10.5,10500189453.83745,47.655,-122.3035,60.0,7.683333333333334
2026-01-20T23:07:42+00:00,SAT-48358,287.3133818963,34.18245196670144,911.4355467962926,-5.387506880666612,188693.28009245457,10.5,10500188693.280092,47.655,-122.3035,60.0,7.7
2026-01-20T23:07:43+00:00,SAT-48358,287.1764432772049,34.471623554552046,906.0624830780973,-5.365396861394124,187918.89369224323,10.5,10500187918.893692,47.655,-122.3035,60.0,7.716666666666667
2026-01-20T23:07:44+00:00,SAT-48358,287.03684501407207,34.76370312466703,900.7114701052635,-5.342884270228984,187130.40752147383,10.5,10500187130.407522,47.655,-122.3035,60.0,7.733333333333333
2026-01-20T23:07:45+00:00,SAT-48358,286.89451219269307,35.058723614890944,895.3829093704452,-5.319961201508528,186327.54469039894,10.5,10500186327.544691,47.655,-122.3035,60.0,7.75
2026-01-20T23:07:46+00:00,SAT-48358,286.7493671307671,35.356717874508085,890.0772102507628,-5.296619631543671,185510.0241754866,10.5,10500185510.024176,47.655,-122.3035,60.0,7.766666666666667
2026-01-20T23:07:47+00:00,SAT-48358,286.60132925225423,35.65771862678015,884.7947901255183,-5.2728513849031025,184677.55963855027,10.5,10500184677.559639,47.655,-122.3035,60.0,7.783333333333333
2026-01-20T23:07:48+00:00,SAT-48358,286.4503149558793,35.961758426861714,879.5360745275243,-5.24864817908428,183829.860991316,10.5,10500183829.86099,47.655,-122.3035,60.0,7.8
2026-01-20T23:07:49+00:00,SAT-48358,286.2962374755915,36.26886961934038,874.3014972498947,-5.224001602805203,182966.63363510845,10.5,10500182966.633635,47.655,-122.3035,60.0,7.816666666666666
2026-01-20T23:07:50+00:00,SAT-48358,286.13900673393186,36.57908429151962,869.0915004744745,-5.198903079942537,182087.5771978114,10.5,10500182087.577198,47.655,-122.3035,60.0,7.833333333333333
2026-01-20T23:07:51+00:00,SAT-48358,285.97852918873,36.89243422124609,863.9065349362405,-5.173343931798944,181192.38771473334,10.5,10500181192.387714,47.655,-122.3035,60.0,7.85
2026-01-20T23:07:52+00:00,SAT-48358,285.81470766962815,37.208950824906665,858.7470600256014,-5.147315366058593,180280.75724178232,10.5,10500180280.757242,47.655,-122.3035,60.0,7.866666666666666
2026-01-20T23:07:53+00:00,SAT-48358,285.64744120605747,37.528665101180685,853.6135439017096,-5.12080841532356,179352.37170275103,10.5,10500179352.371702,47.655,-122.3035,60.0,7.883333333333334
2026-01-20T23:07:54+00:00,SAT-48358,285.47662484766005,37.85160756704391,848.5064636670756,-5.093814052001098,178406.91491315476,10.5,10500178406.914913,47.655,-122.3035,60.0,7.9
2026-01-20T23:07:55+00:00,SAT-48358,285.30214947135374,38.17780819673802,843.4263054276021,-5.066323073502642,177444.0645594151,10.5,10500177444.06456,47.655,-122.3035,60.0,7.916666666666667
2026-01-20T23:07:56+00:00,SAT-48358,285.1239015812786,38.5072963491743,838.3735644671069,-5.038326195588655,176463.49546819113,10.5,10500176463.495468,47.655,-122.3035,60.0,7.933333333333334
2026-01-20T23:07:57+00:00,SAT-48358,284.94176309472425,38.840100696542756,833.3487453287596,-5.00981400570377,175464.87797197883,10.5,10500175464.877972,47.655,-122.3035,60.0,7.95
2026-01-20T23:07:58+00:00,SAT-48358,284.7556111175836,39.17624914502506,828.3523619430505,-4.980776971821708,174447.87821889744,10.5,10500174447.87822,47.655,-122.3035,60.0,7.966666666666667
2026-01-20T23:07:59+00:00,SAT-48358,284.56531770697757,39.515768750763925,823.3849377469431,-4.9512054685001905,173412.1590852429,10.5,10500173412.159084,47.655,-122.3035,60.0,7.983333333333333
2026-01-20T23:08:00+00:00,SAT-48358,284.370749619611,39.85868563201786,818.4470057770378,-4.921089755634429,172357.3794313448,10.5,10500172357.37943,47.655,-122.3035,60.0,8.0
2026-01-20T23:08:01+00:00,SAT-48358,284.171768046673,40.20502487397991,813.5391087839275,-4.890420034326101,171283.19605833467,10.5,10500171283.196058,47.655,-122.3035,60.0,8.016666666666667
2026-01-20T23:08:02+00:00,SAT-48358,283.9682283315185,40.55481043127057,808.6617992908356,-4.8591863465063945,170189.26019252004,10.5,10500170189.260193,47.655,-122.3035,60.0,8.033333333333333
2026-01-20T23:08:03+00:00,SAT-48358,283.75997967520397,40.90806501670036,803.8156397523566,-4.827378705227413,169075.22204874092,10.5,10500169075.222048,47.655,-122.3035,60.0,8.05
2026-01-20T23:08:04+00:00,SAT-48358,283.5468648200727,41.26480999222382,799.0012025832594,-4.794987036066352,167940.72877809586,10.5,10500167940.728779,47.655,-122.3035,60.0,8.066666666666666
2026-01-20T23:08:05+00:00,SAT-48358,283.32871971736876,41.62506524839398,794.2190702457286,-4.762001172973841,166785.4243225336,10.5,10500166785.424322,47.655,-122.3035,60.0,8.083333333333334
2026-01-20T23:08:06+00:00,SAT-48358,283.10537317596976,41.98884907554954,789.4698353407433,-4.728410905437508,165608.95106672042,10.5,10500165608.951067,47.655,-122.3035,60.0,8.1
2026-01-20T23:08:07+00:00,SAT-48358,282.876646488873,42.35617803015777,784.7541006524225,-4.694205959497809,164410.94917313432,10.5,10500164410.949173,47.655,-122.3035,60.0,8.116666666666667
2026-01-20T23:08:08+00:00,SAT-48358,282.6423530386641,42.72706679093455,780.0724792113018,-4.659376038341573,163191.05800382252,10.5,10500163191.058004,47.655,-122.3035,60.0,8.133333333333333
2026-01-20T23:08:09+00:00,SAT-48358,282.40229787831777,43.10152800879033,775.4255943171252,-4.623910769808619,161948.91428186127,10.5,10500161948.914282,47.655,-122.3035,60.0,8.15
2026-01-20T23:08:10+00:00,SAT-48358,282.1562772900091,43.479572142688355,770.8140796139907,-4.587799800346084,160684.15538203393,10.5,10500160684.155382,47.655,-122.3035,60.0,8.166666666666666
2026-01-20T23:08:11+00:00,SAT-48358,281.9040783136893,43.86120729251452,766.238579071793,-4.551032743112845,159396.41751322802,10.5,10500159396.417513,47.655,-122.3035,60.0,8.183333333333334
2026-01-20T23:08:12+00:00,SAT-48358,281.64547825047504,44.246439016723365,761.6997470194219,-4.513599222305417,158085.3372709159,10.5,10500158085.33727,47.655,-122.3035,60.0,8.2
2026-01-20T23:08:13+00:00,SAT-48358,281.38024413496487,44.63527014184698,757.1982481337546,-4.475488855628955,156750.55102321494,10.5,10500156750.551023,47.655,-122.3035,60.0,8.216666666666667
2026-01-20T23:08:14+00:00,SAT-48358,281.1081321774163,45.02770055802804,752.7347574461302,-4.43669132661171,155391.697443646,10.5,10500155391.697443,47.655,-122.3035,60.0,8.233333333333333
2026-01-20T23:08:15+00:00,SAT-48358,280.82888716944444,45.423727007634994,748.3099602767015,-4.397196341492371,154008.41600114535,10.5,10500154008.416,47.655,-122.3035,60.0,8.25
2026-01-20T23:08:16+00:00,SAT-48358,280.5422418571614,45.82334285623661,743.9245522117877,-4.356993653440673,152600.34780837304,10.5,10500152600.347809,47.655,-122.3035,60.0,8.266666666666667
2026-01-20T23:08:17+00:00,SAT-48358,280.24791627674205,46.226537850787025,739.5792390570667,-4.316073110861654,151167.13731353232,10.5,10500151167.137314,47.655,-122.3035,60.0,8.283333333333333
2026-01-20T23:08:18+00:00,SAT-48358,279.94561704806847,46.63329786651489,735.274736742597,-4.274424662278247,149708.4324713786,10.5,10500149708.432472,47.655,-122.3035,60.0,8.3
2026-01-20T23:08:19+00:00,SAT-48358,279.6350366272447,47.04360463779309,731.0117712229679,-4.232038358881404,148223.88483253552,10.5,10500148223.884832,47.655,-122.3035,60.0,8.316666666666666
2026-01-20T23:08:20+00:00,SAT-48358,279.31585251574637,47.457435471648196,726.7910783749055,-4.188904397522941,146713.15104928648,10.5,10500146713.151049,47.655,-122.3035,60.0,8.333333333333334
2026-01-20T23:08:21+00:00,SAT-48358,278.98772642134605,47.8747629467377,722.6134038520036,-4.145013094540194,145175.89195880317,10.5,10500145175.891958,47.655,-122.3035,60.0,8.35
2026-01-20T23:08:22+00:00,SAT-48358,278.6503033733847,48.295554589935726,718.4795029655577,-4.100355020798648,143611.77731290957,10.5,10500143611.777313,47.655,-122.3035,60.0,8.366666666666667
2026-01-20T23:08:23+00:00,SAT-48358,278.30321077794287,48.71977254558075,714.3901404307209,-4.054920863577114,142020.48094071698,10.5,10500142020.48094,47.655,-122.3035,60.0,8.383333333333333
2026-01-20T23:08:24+00:00,SAT-48358,277.9460574310076,49.14737320863837,710.3460902504,-4.008701579986576,140401.68612200062,10.5,10500140401.686123,47.655,-122.3035,60.0,8.4
2026-01-20T23:08:25+00:00,SAT-48358,277.5784324656254,49.57830684990388,706.3481354461484,-3.961688379935553,138755.08499057472,10.5,10500138755.084991,47.655,-122.3035,60.0,8.416666666666666
2026-01-20T23:08:26+00:00,SAT-48358,277.1999042431311,50.01251721483042,702.3970678060465,-3.91387272614013,137080.37853464403,10.5,10500137080.378534,47.655,-122.3035,60.0,8.433333333333334
2026-01-20T23:08:27+00:00,SAT-48358,276.8100191860001,50.449941095882835,698.4936876325705,-3.865246415442816,135377.27944493378,10.5,10500135377.279446,47.655,-122.3035,60.0,8.45
2026-01-20T23:08:28+00:00,SAT-48358,276.40830054282713,50.8905078858502,694.6388034093636,-3.815801533803451,133645.51053828123,10.5,10500133645.510538,47.655,-122.3035,60.0,8.466666666666667
2026-01-20T23:08:29+00:00,SAT-48358,275.994247095907,51.334139096511514,690.8332315128916,-3.765530585057063,131884.8092672804,10.5,10500131884.809267,47.655,-122.3035,60.0,8.483333333333333
2026-01-20T23:08:30+00:00,SAT-48358,275.56733179311175,51.780747860617055,687.07779579569,-3.7144264177815596,130094.92515887899,10.5,10500130094.92516,47.655,-122.3035,60.0,8.5
2026-01-20T23:08:31+00:00,SAT-48358,275.1270003237025,52.23023839235127,683.3733272425436,-3.6624823294708326,128275.62346296164,10.5,10500128275.623463,47.655,-122.3035,60.0,8.516666666666667
2026-01-20T23:08:32+00:00,SAT-48358,274.67266962024115,52.682505424820455,679.7206635227753,-3.6096920440742384,126426.68436568708,10.5,10500126426.684366,47.655,-122.3035,60.0,8.533333333333333
2026-01-20T23:08:33+00:00,SAT-48358,274.2037263011378,53.13743360772969,676.1206485649337,-3.5560498130066764,124547.90652728862,10.5,10500124547.906527,47.655,-122.3035,60.0,8.55
2026-01-20T23:08:34+00:00,SAT-48358,273.71952504138414,53.59489687831496,672.574132030741,-3.501550371452364,122639.1055516474,10.5,10500122639.10555,47.655,-122.3035,60.0,8.566666666666666
2026-01-20T23:08:35+00:00,SAT-48358,273.2193868927532,54.05475778549164,669.0819688326205,-3.4461890334429657,120700.11731633068,10.5,10500120700.117317,47.655,-122.3035,60.0,8.583333333333334
2026-01-20T23:08:36+00:00,SAT-48358,272.7025975413083,54.51686678243449,665.6450185564022,-3.389961690193433,118730.79791430592,10.5,10500118730.797915,47.655,-122.3035,60.0,8.6
2026-01-20T23:08:37+00:00,SAT-48358,272.1684055219956,54.981061473191005,662.2641448856855,-3.3328648658116555,116731.02560512841,10.5,10500116731.025604,47.655,-122.3035,60.0,8.616666666666667
2026-01-20T23:08:38+00:00,SAT-48358,271.616020392525,55.44716581853196,658.9402149706435,-3.2748957240255128,114700.70105055106,10.5,10500114700.70105,47.655,-122.3035,60.0,8.633333333333333
2026-01-20T23:08:39+00:00,SAT-48358,271.0446108870146,55.91498929223842,655.6740987901187,-3.216052152575433,112639.75027030882,10.5,10500112639.75027,47.655,-122.3035,60.0,8.65
2026-01-20T23:08:40+00:00,SAT-48358,270.4533030538354,56.38432599655893,652.4666684295489,-3.1563327420409446,110548.12390053495,10.5,10500110548.123901,47.655,-122.3035,60.0,8.666666666666666
2026-01-20T23:08:41+00:00,SAT-48358,269.84117841616904,56.854953720046346,649.3187973800156,-3.0957368769154345,108425.80038358424,10.5,10500108425.800385,47.655,-122.3035,60.0,8.683333333333334
2026-01-20T23:08:42+00:00,SAT-48358,269.20727216305306,57.32663295204784,646.2313597464554,-3.0342647281672086,106272.78570748997,10.5,10500106272.785707,47.655,-122.3035,60.0,8.7
2026-01-20T23:08:43+00:00,SAT-48358,268.55057142161945,57.79910583816045,643.2052294632958,-2.9719173002895896,104089.11505385733,10.5,10500104089.115053,47.655,-122.3035,60.0,8.716666666666667
2026-01-20T23:08:44+00:00,SAT-48358,267.87001364149114,58.27209508342021,640.2412794631637,-2.908696478802059,101874.85446155426,10.5,10500101874.854462,47.655,-122.3035,60.0,8.733333333333333
2026-01-20T23:08:45+00:00,SAT-48358,267.164485141091,58.74530280313536,637.3403807982212,-2.8446050542243797,99630.10166638678,10.5,10500099630.101665,47.655,-122.3035,60.0,8.75
2026-01-20T23:08:46+00:00,SAT-48358,266.4328198801443,59.21840931807793,634.5034017375915,-2.779646746542678,97354.98695800453,10.5,10500097354.986958,47.655,-122.3035,60.0,8.766666666666667
2026-01-20T23:08:47+00:00,SAT-48358,265.6737985319434,59.69107189522101,631.7312068403853,-2.713826261127468,95049.67513838662,10.5,10500095049.675138,47.655,-122.3035,60.0,8.783333333333333
2026-01-20T23:08:48+00:00,SAT-48358,264.8861479334893,60.16292344194505,629.0246559729558,-2.647149293138262,92714.36567610966,10.5,10500092714.365677,47.655,-122.3035,60.0,8.8
2026-01-20T23:08:49+00:00,SAT-48358,264.0685410290945,60.633571149362986,626.3846033217657,-2.579622579644051,90349.29453182755,10.5,10500090349.294533,47.655,-122.3035,60.0,8.816666666666666
2026-01-20T23:08:50+00:00,SAT-48358,263.2195974152817,61.10259509907957,623.8118963542698,-2.511253904691656,87954.73433578636,10.5,10500087954.734335,47.655,-122.3035,60.0,8.833333333333334
2026-01-20T23:08:51+00:00,SAT-48358,262.3378846414506,61.569546834002026,621.3073747747437,-2.4420521363421117,85530.99568499542,10.5,10500085530.995686,47.655,-122.3035,60.0,8.85
2026-01-20T23:08:52+00:00,SAT-48358,261.421920420482,62.033947910537286,618.8718694431758,-2.3720272609273483,83078.42834304109,10.5,10500083078.428343,47.655,-122.3035,60.0,8.866666666666667
2026-01-20T23:08:53+00:00,SAT-48358,260.470175936508,62.495288447566665,616.5062012599952,-2.3011903857799703,80597.42133569514,10.5,10500080597.421335,47.655,-122.3035,60.0,8.883333333333333
2026-01-20T23:08:54+00:00,SAT-48358,259.48108047399114,62.95302568621349,614.2111800480752,-2.2295537616662,78088.40373661135,10.5,10500078088.403736,47.655,-122.3035,60.0,8.9
2026-01-20T23:08:55+00:00,SAT-48358,258.45302760265884,63.40658258926319,611.9876034123655,-2.157130803144655,75551.84538037605,10.5,10500075551.84538,47.655,-122.3035,60.0,8.916666666666666
2026-01-20T23:08:56+00:00,SAT-48358,257.3843831838176,63.85534651145074,609.83625557922,-2.083936111404349,72988.25766239144,10.5,10500072988.257662,47.655,-122.3035,60.0,8.933333333333334
2026-01-20T23:08:57+00:00,SAT-48358,256.273495487045,64.29866798003023,607.7579062129474,-2.009985457603082,70398.19295531564,10.5,10500070398.192955,47.655,-122.3035,60.0,8.95
2026-01-20T23:08:58+00:00,SAT-48358,255.11870774660596,64.73585962421674,605.7533092489781,-1.9352957988005175,67782.24516710635,10.5,10500067782.245167,47.655,-122.3035,60.0,8.966666666666667
2026-01-20T23:08:59+00:00,SAT-48358,253.91837346984474,65.1661953160275,603.8232017111432,-1.8598853033827627,65141.05063149723,10.5,10500065141.05063,47.655,-122.3035,60.0,8.983333333333333
2026-01-20T23:09:00+00:00,SAT-48358,252.6708748159881,65.58890959116587,601.9683025035947,-1.7837733168725194,62475.28691052479,10.5,10500062475.286911,47.655,-122.3035,60.0,9.0
2026-01-20T23:09:01+00:00,SAT-48358,251.3746443965148,66.00319741360774,600.189311236824,-1.706980374355946,59785.67322976962,10.5,10500059785.67323,47.655,-122.3035,60.0,9.016666666666667
2026-01-20T23:09:02+00:00,SAT-48358,250.02819075506866,66.40821438182208,598.4869070412883,-1.6295281814009133,57072.96981003301,10.5,10500057072.96981,47.655,-122.3035,60.0,9.033333333333333
2026-01-20T23:09:03+00:00,SAT-48358,248.6301277731541,66.80307746830124,596.8617474000669,-1.5514396158159498,54337.97792894267,10.5,10500054337.977928,47.655,-122.3035,60.0,9.05
2026-01-20T23:09:04+00:00,SAT-48358,247.17920811841694,67.18686640593816,595.3144669797623,-1.472738686701834,51581.53848676626,10.5,10500051581.538486,47.655,-122.3035,60.0,9.066666666666666
2026-01-20T23:09:05+00:00,SAT-48358,245.67436077145834,67.55862582762467,593.8456765022415,-1.3934505418712213,48804.5322662781,10.5,10500048804.532267,47.655,-122.3035,60.0,9.083333333333334
2026-01-20T23:09:06+00:00,SAT-48358,244.11473241168912,67.9173682923649,592.4559616089768,-1.3136014012738864,46007.8776010296,10.5,10500046007.877602,47.655,-122.3035,60.0,9.1
2026-01-20T23:09:07+00:00,SAT-48358,242.4997323255768,68.26207830105743,591.1458817917827,-1.233218570251858,43192.53083960008,10.5,10500043192.53084,47.655,-122.3035,60.0,9.116666666666667
2026-01-20T23:09:08+00:00,SAT-48358,240.82908006746382,68.59171743761546,589.9159693103335,-1.1523303688663784,40359.48387032796,10.5,10500040359.48387,47.655,-122.3035,60.0,9.133333333333333
2026-01-20T23:09:09+00:00,SAT-48358,239.10285494325808,68.9052307148584,588.7667281801644,-1.0709661046856547,37509.76316822278,10.5,10500037509.763168,47.655,-122.3035,60.0,9.15
2026-01-20T23:09:10+00:00,SAT-48358,237.32154588646503,69.20155421259606,587.6986331878123,-0.9891560416508108,34644.42870451902,10.5,10500034644.428705,47.655,-122.3035,60.0,9.166666666666666
2026-01-20T23:09:11+00:00,SAT-48358,235.4860999491431,69.4796240474569,586.7121289370057,-0.906931321693023,31764.571201376726,10.5,10500031764.571201,47.655,-122.3035,60.0,9.183333333333334
2026-01-20T23:09:12+00:00,SAT-48358,233.59796733315312,69.73838665284595,585.8076289730294,-0.8243239422756707,28871.311345312573,10.5,10500028871.311346,47.655,-122.3035,60.0,9.2
2026-01-20T23:09:13+00:00,SAT-48358,231.6591403989407,69.97681031471566,584.9855149294863,-0.7413666760577509,25965.79697347284,10.5,10500025965.796974,47.655,-122.3035,60.0,9.216666666666667
2026-01-20T23:09:14+00:00,SAT-48358,229.67218404319334,70.1938978048182,584.2461357551784,-0.6580930320267534,23049.20171234231,10.5,10500023049.201712,47.655,-122.3035,60.0,9.233333333333333
2026-01-20T23:09:15+00:00,SAT-48358,227.64025457632627,70.38869990041667,583.5898069797533,-0.5745371732627329,20122.72209749418,10.5,10500020122.722097,47.655,-122.3035,60.0,9.25
2026-01-20T23:09:16+00:00,SAT-48358,225.567104520819,70.56032947118042,583.0168100613662,-0.49073386155874293,17187.575633963417,10.5,10500017187.575634,47.655,-122.3035,60.0,9.266666666666667
2026-01-20T23:09:17+00:00,SAT-48358,223.45707095270373,70.70797575368103,582.5273917895689,-0.40671838589004694,14244.998290935968,10.5,10500014244.998291,47.655,-122.3035,60.0,9.283333333333333
2026-01-20T23:09:18+00:00,SAT-48358,221.31504571327,70.83091835207208,582.1217637595445,-0.32252648398932887,11296.241754980885,10.5,10500011296.241755,47.655,-122.3035,60.0,9.3
2026-01-20T23:09:19+00:00,SAT-48358,219.14642668533145,70.92854045669094,581.8001019245501,-0.23819427851060532,8342.571194240503,10.5,10500008342.571194,47.655,-122.3035,60.0,9.316666666666666
2026-01-20T23:09:20+00:00,SAT-48358,216.9570502948215,71.00034075764312,581.5625462120291,-0.1537581904289581,5385.26222532276,10.5,10500005385.262226,47.655,-122.3035,60.0,9.333333333333334
2026-01-20T23:09:21+00:00,SAT-48358,214.75310676035488,71.04594353226807,581.4092002260902,-0.0692548669316455,2425.598387742889,10.5,10500002425.598389,47.655,-122.3035,60.0,9.35
2026-01-20T23:09:22+00:00,SAT-48358,212.5410406661424,71.0651064478454,581.3401310218994,0.015278898487132025,-535.1316546958839,10.5,10499999464.868345,47.655,-122.3035,60.0,9.366666666666667
2026-01-20T23:09:23+00:00,SAT-48358,210.32744061350584,71.05772570223422,581.3553689597684,0.09980624696416858,-3495.6369486912513,10.5,10499996504.36305,47.655,-122.3035,60.0,9.383333333333333
2026-01-20T23:09:24+00:00,SAT-48358,208.11892256027187,71.0238382474653,581.4549076399577,0.1842903339967702,-6454.627043906778,10.5,10499993545.372955,47.655,-122.3035,60.0,9.4
2026-01-20T23:09:25+00:00,SAT-48358,205.92201195641036,70.96362098472349,581.6387039170011,0.2686944087214812,-9410.814769648248,10.5,10499990589.18523,47.655,-122.3035,60.0,9.416666666666666
2026-01-20T23:09:26+00:00,SAT-48358,203.74302986498589,70.87738697179672,581.9066779930926,0.35298189352785414,-12362.919023274655,10.5,10499987637.080976,47.655,-122.3035,60.0,9.433333333333334
2026-01-20T23:09:27+00:00,SAT-48358,201.58798796091003,70.76557883306788,582.2587135908753,0.4371164654202422,-15309.667619832328,10.5,10499984690.33238,47.655,-122.3035,60.0,9.45
2026-01-20T23:09:28+00:00,SAT-48358,199.46249656656585,70.62875969369357,582.6946582073739,0.5210621277982509,-18249.799806109982,10.5,10499981750.200193,47.655,-122.3035,60.0,9.466666666666667
2026-01-20T23:09:29+00:00,SAT-48358,197.37168894650608,70.46760206725985,583.2143234395141,0.604783292425726,-21182.069131539403,10.5,10499978817.930868,47.655,-122.3035,60.0,9.483333333333333
2026-01-20T23:09:30+00:00,SAT-48358,195.32016377459843,70.28287518859064,583.8174853913928,0.6882448491253439,-24105.24588919482,10.5,10499975894.75411,47.655,-122.3035,60.0,9.5
2026-01-20T23:09:31+00:00,SAT-48358,193.3119466296034,70.07543132130101,584.5038851510556,0.7714122390849937,-27018.11968329248,10.5,10499972981.880316,47.655,-122.3035,60.0,9.516666666666667
2026-01-20T23:09:32+00:00,SAT-48358,191.3504701129387,69.84619155871209,585.2732293403826,0.8542515210765262,-29919.50174845134,10.5,10499970080.498251,47.655,-122.3035,60.0,9.533333333333333
2026-01-20T23:09:33+00:00,SAT-48358,189.438571285404,69.59613160292028,586.1251907310176,0.9367294396799375,-32808.227339192585,10.5,10499967191.772661,47.655,-122.3035,60.0,9.55
2026-01-20T23:09:34+00:00,SAT-48358,187.57850434443623,69.32626794295714,587.0594089283384,1.018813488567276,-35683.1579464097,10.5,10499964316.842054,47.655,-122.3035,60.0,9.566666666666666
2026-01-20T23:09:35+00:00,SAT-48358,185.77196601953113,69.0376447786786,588.0754911185389,1.1004719664489988,-38543.1832568466,10.5,10499961456.816744,47.655,-122.3035,60.0,9.583333333333334
2026-01-20T23:09:36+00:00,SAT-48358,184.02013093626394,68.73132195438298,589.1730128715111,1.1816740292892334,-41387.22298189687,10.5,10499958612.777018,47.655,-122.3035,60.0,9.6
2026-01-20T23:09:37+00:00,SAT-48358,182.32369418625086,68.4083640821186,590.3515189957989,1.2623897560086843,-44214.229158797534,10.5,10499955785.770842,47.655,-122.3035,60.0,9.616666666666667
2026-01-20T23:09:38+00:00,SAT-48358,180.68291848661775,68.0698309534078,591.6105244590815,1.3425901737337511,-47023.187034959985,10.5,10499952976.812965,47.655,-122.3035,60.0,9.633333333333333
2026-01-20T23:09:39+00:00,SAT-48358,179.09768368414413,67.71676928614579,592.9495153338369,1.4222473126263284,-49813.11698834148,10.5,10499950186.88301,47.655,-122.3035,60.0,9.65
2026-01-20T23:09:40+00:00,SAT-48358,177.56753660290613,67.3502057794284,594.3679497976881,1.5013342581575124,-52583.076358291444,10.5,10499947416.923641,47.655,-122.3035,60.0,9.666666666666666
2026-01-20T23:09:41+00:00,SAT-48358,176.0917396862551,66.97114141659475,595.8652591858836,1.5798251508697527,-55332.159437221075,10.5,10499944667.840563,47.655,-122.3035,60.0,9.683333333333334
2026-01-20T23:09:42+00:00,SAT-48358,174.66931730422078,66.5805469392017,597.4408490435396,1.6576952516950365,-58059.49975832242,10.5,10499941940.500242,47.655,-122.3035,60.0,9.7
2026-01-20T23:09:43+00:00,SAT-48358,173.29909881660666,66.17935936539942,599.0941002430269,1.7349209413583657,-60764.270074675595,10.5,10499939235.729925,47.655,-122.3035,60.0,9.716666666666667
2026-01-20T23:09:44+00:00,SAT-48358,171.97975793187973,65.76847945003215,600.8243701007608,1.81147975501446,-63445.68357237268,10.5,10499936554.316427,47.655,-122.3035,60.0,9.733333333333333
2026-01-20T23:09:45+00:00,SAT-48358,170.70984804779192,65.34876995540736,602.6309935285361,1.887350398472669,-66102.99443878279,10.5,10499933897.005562,47.655,-122.3035,60.0,9.75
2026-01-20T23:09:46+00:00,SAT-48358,169.4878335169525,64.92105461818751,604.5132842010449,1.9625127560338527,-68735.4981370327,10.5,10499931264.501863,47.655,-122.3035,60.0,9.766666666666667
2026-01-20T23:09:47+00:00,SAT-48358,168.31211692120485,64.48611770175513,606.4705357312064,2.036947889546616,-71342.53137295225,10.5,10499928657.468628,47.655,-122.3035,60.0,9.783333333333333
2026-01-20T23:09:48+00:00,SAT-48358,167.18106254527126,64.04470403244957,608.50202284456,2.1106380654383723,-73923.47304181651,10.5,10499926076.526958,47.655,-122.3035,60.0,9.8
2026-01-20T23:09:49+00:00,SAT-48358,166.09301629481757,63.59751942069197,610.6070025806131,2.1835667393464004,-76477.74369006042,10.5,10499923522.25631,47.655,-122.3035,60.0,9.816666666666666
2026-01-20T23:09:50+00:00,SAT-48358,165.04632239033944,63.14523139466253,612.7847154788635,2.255718555296557,-79004.80548651377,10.5,10499920995.194513,47.655,-122.3035,60.0,9.833333333333334
2026-01-20T23:09:51+00:00,SAT-48358,164.0393371519964,62.68847017221097,615.0343867640024,2.327079327079441,-81504.16157011573,10.5,10499918495.83843,47.655,-122.3035,60.0,9.85
2026-01-20T23:09:52+00:00,SAT-48358,163.07044021036307,62.22782981403051,617.3552275125429,2.3976360558401293,-83975.35666598177,10.5,10499916024.643333,47.655,-122.3035,60.0,9.866666666666667
2026-01-20T23:09:53+00:00,SAT-48358,162.13804344708043,61.763869499906846,619.746435836991,2.4673768905431293,-86417.97570071912,10.5,10499913582.0243,47.655,-122.3035,60.0,9.883333333333333
2026-01-20T23:09:54+00:00,SAT-48358,161.2405979914871,61.297114897248505,622.2071980305886,2.5362911222950544,-88831.64360358282,10.5,10499911168.356396,47.655,-122.3035,60.0,9.9
2026-01-20T23:09:55+00:00,SAT-48358,160.37659953557986,60.82805958027358,624.736689706393,2.6043691632510875,-91216.02456769084,10.5,10499908783.975431,47.655,-122.3035,60.0,9.916666666666666
2026-01-20T23:09:56+00:00,SAT-48358,159.54459222599124,60.35716647486584,627.3340769153203,2.67160252234457,-93570.82119997156,10.5,10499906429.1788,47.655,-122.3035,60.0,9.933333333333334
2026-01-20T23:09:57+00:00,SAT-48358,158.74317135987337,59.88486930730999,629.9985172399837,2.73798379733882,-95895.77424278503,10.5,10499904104.225758,47.655,-122.3035,60.0,9.95
2026-01-20T23:09:58+00:00,SAT-48358,157.9709850786204,59.41157403650416,632.7291608806037,2.803506599959885,-98190.659951755,10.5,10499901809.340048,47.655,-122.3035,60.0,9.966666666666667
2026-01-20T23:09:59+00:00,SAT-48358,157.22673525448397,58.93766026783924,635.5251516662528,2.868165608963958,-100455.29195441453,10.5,10499899544.708046,47.655,-122.3035,60.0,9.983333333333333
2026-01-20T23:10:00+00:00,SAT-48358,156.5091776821727,58.46348261640833,638.3856281190261,2.9319564589955593,-102689.51735754932,10.5,10499897310.482643,47.655,-122.3035,60.0,10.0
2026-01-20T23:10:01+00:00,SAT-48358,155.8171217544891,57.989372040579795,641.3097244073648,2.9948757584818297,-104893.21737393145,10.5,10499895106.782625,47.655,-122.3035,60.0,10.016666666666667
2026-01-20T23:10:02+00:00,SAT-48358,155.14942969394744,57.51563711852291,644.296571317231,3.0569210406853733,-107066.30560798303,10.5,10499892933.694391,47.655,-122.3035,60.0,10.033333333333333
2026-01-20T23:10:03+00:00,SAT-48358,154.5050154538977,57.0425652758303,647.3452971744617,3.1180907330794425,-109208.72698316563,10.5,10499890791.273016,47.655,-122.3035,60.0,10.05
2026-01-20T23:10:04+00:00,SAT-48358,153.88284336202582,56.57042395918262,650.4550287365822,3.178384125259581,-111320.45661811011,10.5,10499888679.543383,47.655,-122.3035,60.0,10.066666666666666
2026-01-20T23:10:05+00:00,SAT-48358,153.28192657296188,56.09946175555552,653.6248920526189,3.23780132396312,-113401.49825120938,10.5,10499886598.501749,47.655,-122.3035,60.0,10.083333333333334
2026-01-20T23:10:06+00:00,SAT-48358,152.70132538641406,55.629909458959325,656.8540132780491,3.296343230479703,-115451.88344943915,10.5,10499884548.11655,47.655,-122.3035,60.0,10.1
2026-01-20T23:10:07+00:00,SAT-48358,152.1401454715034,55.161981082089746,660.1415194672232,3.354011509040776,-117471.67050122438,10.5,10499882528.329498,47.655,-122.3035,60.0,10.116666666666667
2026-01-20T23:10:08+00:00,SAT-48358,151.5975360358788,54.6958748156618,663.4865393342617,3.410808522079123,-119460.94214895423,10.5,10499880539.057852,47.655,-122.3035,60.0,10.133333333333333
2026-01-20T23:10:09+00:00,SAT-48358,151.0726879750833,54.231773941552824,666.8882039493849,3.4667373350267168,-121419.80575702316,10.5,10499878580.194242,47.655,-122.3035,60.0,10.15
2026-01-20T23:10:10+00:00,SAT-48358,150.5648320132146,53.769847691868485,670.3456474400261,3.5218016487691313,-123348.3909460987,10.5,10499876651.609055,47.655,-122.3035,60.0,10.166666666666666
2026-01-20T23:10:11+00:00,SAT-48358,150.073236866964,53.310252066087116,673.8580076245836,3.576005778870414,-125246.84886548862,10.5,10499874753.151134,47.655,-122.3035,60.0,10.183333333333334
2026-01-20T23:10:12+00:00,SAT-48358,149.5972074391998,52.853130601855504,677.4244266254497,3.6293546239727332,-127115.35108636289,10.5,10499872884.648914,47.655,-122.3035,60.0,10.2
2026-01-20T23:10:13+00:00,SAT-48358,149.136083055765,52.398615103229005,681.0440514505264,3.681853604004106,-128954.08743752692,10.5,10499871045.912563,47.655,-122.3035,60.0,10.216666666666667
2026-01-20T23:10:14+00:00,SAT-48358,148.68923575759393,51.94682633222686,684.7160345131136,3.7335086682977123,-130763.26628979431,10.5,10499869236.73371,47.655,-122.3035,60.0,10.233333333333333
2026-01-20T23:10:15+00:00,SAT-48358,148.2560686453241,51.49787465706042,688.4395341598964,3.7843262526409696,-132543.11305166382,10.5,10499867456.886948,47.655,-122.3035,60.0,10.25
2026-01-20T23:10:16+00:00,SAT-48358,147.83601428745314,51.051860665806856,692.2137151560908,3.8343132004096137,-134293.86740710118,10.5,10499865706.132593,47.655,-122.3035,60.0,10.266666666666667
2026-01-20T23:10:17+00:00,SAT-48358,147.42853319903554,50.60887575147693,696.0377490919454,3.883476788762612,-136015.7842329957,10.5,10499863984.215767,47.655,-122.3035,60.0,10.283333333333333
2026-01-20T23:10:18+00:00,SAT-48358,147.03311237909898,50.16900265791855,699.9108148153572,3.931824682595422,-137709.13198640884,10.5,10499862290.868013,47.655,-122.3035,60.0,10.3
2026-01-20T23:10:19+00:00,SAT-48358,146.64926391690642,49.73231599730834,703.8320988185704,3.9793648779922806,-139374.19072403398,10.5,10499860625.809277,47.655,-122.3035,60.0,10.316666666666666
2026-01-20T23:10:20+00:00,SAT-48358,146.27652366708116,49.29888274189228,707.8007955684772,4.026105706116375,-141011.25223844673,10.5,10499858988.74776,47.655,-122.3035,60.0,10.333333333333334
2026-01-20T23:10:21+00:00,SAT-48358,145.91444998638025,48.868762684909896,711.8161078407978,4.072055785949345,-142620.6184028423,10.5,10499857379.381598,47.655,-122.3035,60.0,10.35
2026-01-20T23:10:22+00:00,SAT-48358,145.5626225360502,48.442008878102925,715.8772470071291,4.11722401374686,-144202.6008017254,10.5,10499855797.399199,47.655,-122.3035,60.0,10.366666666666667
2026-01-20T23:10:23+00:00,SAT-48358,145.22064114470237,48.01866804334187,719.9834333114717,4.161619520543824,-145757.51924256264,10.5,10499854242.480757,47.655,-122.3035,60.0,10.383333333333333
2026-01-20T23:10:24+00:00,SAT-48358,144.88812473240418,47.598780963231405,724.1338961043847,4.205251642896554,-147285.70073104982,10.5,10499852714.299269,47.655,-122.3035,60.0,10.4
2026-01-20T23:10:25+00:00,SAT-48358,144.56471029263875,47.18238285055584,728.327874047951,4.24812993894785,-148787.48003377864,10.5,10499851212.519966,47.655,-122.3035,60.0,10.416666666666666
2026-01-20T23:10:26+00:00,SAT-48358,144.25005192602237,46.76950369344246,732.5646153367748,4.290264093097041,-150263.19633937866,10.5,10499849736.803661,47.655,-122.3035,60.0,10.433333333333334
2026-01-20T23:10:27+00:00,SAT-48358,143.94381993288766,46.36016858850784,736.8433778238946,4.331663996478618,-151713.19607721915,10.5,10499848286.803923,47.655,-122.3035,60.0,10.45
2026-01-20T23:10:28+00:00,SAT-48358,143.64569994783807,45.95439804592387,741.1634292269683,4.372339593770311,-153137.8275519802,10.5,10499846862.172447,47.655,-122.3035,60.0,10.466666666666667
2026-01-20T23:10:29+00:00,SAT-48358,143.35539213257155,45.55220829003315,745.5240471816708,4.412301011676769,-154537.4454436945,10.5,10499845462.554556,47.655,-122.3035,60.0,10.483333333333333
2026-01-20T23:10:30+00:00,SAT-48358,143.07261040278655,45.15361152975774,749.9245194232326,4.451558424995343,-155912.4061168047,10.5,10499844087.593884,47.655,-122.3035,60.0,10.5
2026-01-20T23:10:31+00:00,SAT-48358,142.7970817069926,44.75861622456815,754.3641438344055,4.49012208754712,-157263.06870349872,10.5,10499842736.931297,47.655,-122.3035,60.0,10.516666666666667
2026-01-20T23:10:32+00:00,SAT-48358,142.52854534229442,44.367227331365456,758.8422285242729,4.528002287998631,-158589.7935563997,10.5,10499841410.206444,47.655,-122.3035,60.0,10.533333333333333
2026-01-20T23:10:33+00:00,SAT-48358,142.2667523106795,43.979446540073155,763.3580918630018,4.5652093885161715,-159892.9436024031,10.5,10499840107.056398,47.655,-122.3035,60.0,10.55
2026-01-20T23:10:34+00:00,SAT-48358,142.01146470813921,43.59527249154652,767.911062555146,4.601753783162547,-161172.88288555524,10.5,10499838827.117115,47.655,-122.3035,60.0,10.566666666666666
2026-01-20T23:10:35+00:00,SAT-48358,141.76245515030905,43.2147009857168,772.5004796714582,4.6376458021478255,-162429.9732135095,10.5,10499837570.026787,47.655,-122.3035,60.0,10.583333333333334
2026-01-20T23:10:36+00:00,SAT-48358,141.5195062349908,42.83772518477716,777.1256925852055,4.672895865542576,-163664.57954121396,10.5,10499836335.420458,47.655,-122.3035,60.0,10.6
2026-01-20T23:10:37+00:00,SAT-48358,141.28241002568447,42.46433579152974,781.7860610617921,4.70751431580649,-164877.06410535568,10.5,10499835122.935894,47.655,-122.3035,60.0,10.616666666666667
2026-01-20T23:10:38+00:00,SAT-48358,141.05096757285276,42.09452123019366,786.4809551813551,4.741511495615509,-166067.7891501955,10.5,10499833932.21085,47.655,-122.3035,60.0,10.633333333333333
2026-01-20T23:10:39+00:00,SAT-48358,140.8249884572976,41.72826780999699,791.2097553389792,4.774897694185932,-167237.11504761165,10.5,10499832762.884953,47.655,-122.3035,60.0,10.65
2026-01-20T23:10:40+00:00,SAT-48358,140.60429036138504,41.36555988289162,795.9718521913832,4.807683160843641,-168385.40077235107,10.5,10499831614.599228,47.655,-122.3035,60.0,10.666666666666666
2026-01-20T23:10:41+00:00,SAT-48358,140.3886986631495,41.00637999055506,800.7666466171329,4.83987810075898,-169513.00375264708,10.5,10499830486.996248,47.655,-122.3035,60.0,10.683333333333334
2026-01-20T23:10:42+00:00,SAT-48358,140.17804605277354,40.65070900271134,805.5935496726066,4.8714926204537905,-170620.27796164504,10.5,10499829379.722038,47.655,-122.3035,60.0,10.7
2026-01-20T23:10:43+00:00,SAT-48358,139.97217217267996,40.29852625090255,810.451982493611,4.902536799091556,-171707.57641428502,10.5,10499828292.423586,47.655,-122.3035,60.0,10.716666666666667
2026-01-20T23:10:44+00:00,SAT-48358,139.77092327377432,39.94980964890658,815.3413762680945,4.933020593603692,-172775.247844423,10.5,10499827224.752155,47.655,-122.3035,60.0,10.733333333333333
2026-01-20T23:10:45+00:00,SAT-48358,139.57415189480344,39.604535812446436,820.2611721142434,4.96295389910507,-173823.63882083795,10.5,10499826176.36118,47.655,-122.3035,60.0,10.75
2026-01-20T23:10:46+00:00,SAT-48358,139.38171655620602,39.26268016726723,825.2108210188329,4.992346500395229,-174853.0920485995,10.5,10499825146.907951,47.655,-122.3035,60.0,10.766666666666667
2026-01-20T23:10:47+00:00,SAT-48358,139.19348147268965,38.92421705384967,830.1897837272043,5.021208096638682,-175863.94723347633,10.5,10499824136.052767,47.655,-122.3035,60.0,10.783333333333333
2026-01-20T23:10:48+00:00,SAT-48358,139.0093162800913,38.58911982394894,835.1975306578627,5.049548270269991,-176856.53999286034,10.5,10499823143.460007,47.655,-122.3035,60.0,10.8
2026-01-20T23:10:49+00:00,SAT-48358,138.82909577819044,38.257360933178234,840.2335417860576,5.077376530402344,-177831.20337611903,10.5,10499822168.796623,47.655,-122.3035,60.0,10.816666666666666
2026-01-20T23:10:50+00:00,SAT-48358,138.65269968549381,37.92891202500109,845.2973065706599,5.10470222624571,-178788.26483213247,10.5,10499821211.735168,47.655,-122.3035,60.0,10.833333333333334
2026-01-20T23:10:51+00:00,SAT-48358,138.48001241039913,37.60374401499551,850.3883237946859,5.131534599763871,-179728.0480535659,10.5,10499820271.951946,47.655,-122.3035,60.0,10.85
2026-01-20T23:10:52+00:00,SAT-48358,138.3109228323412,37.28182716646079,855.5061014583396,5.157882826648876,-180650.87441196805,10.5,10499819349.125587,47.655,-122.3035,60.0,10.866666666666667
2026-01-20T23:10:53+00:00,SAT-48358,138.14532409307046,36.96313115875043,860.650156712918,5.183755895296136,-181557.0587189669,10.5,10499818442.94128,47.655,-122.3035,60.0,10.883333333333333
2026-01-20T23:10:54+00:00,SAT-48358,137.98311340316863,36.64762515866748,865.8200156740173,5.209162691577625,-182446.91219538637,10.5,10499817553.087805,47.655,-122.3035,60.0,10.9
2026-01-20T23:10:55+00:00,SAT-48358,137.82419185562367,36.33527788216997,871.0152133192831,5.234111984107841,-183320.7419551973,10.5,10499816679.258045,47.655,-122.3035,60.0,10.916666666666666
2026-01-20T23:10:56+00:00,SAT-48358,137.66846424960258,36.026057653019905,876.2352933714692,5.258612427151196,-184178.8511073469,10.5,10499815821.148893,47.655,-122.3035,60.0,10.933333333333334
2026-01-20T23:10:57+00:00,SAT-48358,137.5158389232849,35.71993245750776,881.4798081843917,5.2826725190698465,-185021.53730042596,10.5,10499814978.4627,47.655,-122.3035,60.0,10.95
2026-01-20T23:10:58+00:00,SAT-48358,137.3662275965658,35.41686999801231,886.7483185874468,5.306300617988674,-185849.09327132264,10.5,10499814150.906729,47.655,-122.3035,60.0,10.966666666666667
2026-01-20T23:10:59+00:00,SAT-48358,137.21954522132162,35.11683774217029,892.0403937457478,5.329504982708883,-186661.80827818983,10.5,10499813338.191721,47.655,-122.3035,60.0,10.983333333333333
2026-01-20T23:11:00+00:00,SAT-48358,137.0757098379686,34.8198029665478,897.3556110610699,5.352293739933674,-187459.96695254947,10.5,10499812540.033047,47.655,-122.3035,60.0,11.0
2026-01-20T23:11:01+00:00,SAT-48358,136.93464244038083,34.52573279925194,902.6935560401035,5.374674833971248,-188243.84753767925,10.5,10499811756.152462,47.655,-122.3035,60.0,11.016666666666667
2026-01-20T23:11:02+00:00,SAT-48358,136.7962668489777,34.234594262416834,908.05382211255,5.396656162697206,-189013.7266505906,10.5,10499810986.27335,47.655,-122.3035,60.0,11.033333333333333
2026-01-20T23:11:03+00:00,SAT-48358,136.66050958637618,33.9463543045906,913.4360105848135,5.418245391322225,-189769.87275938533,10.5,10499810230.127241,47.655,-122.3035,60.0,11.05
2026-01-20T23:11:04+00:00,SAT-48358,136.52729976433122,33.660979840742286,918.8397304079596,5.439450144110355,-190512.55289804097,10.5,10499809487.447102,47.655,-122.3035,60.0,11.066666666666666
2026-01-20T23:11:05+00:00,SAT-48358,136.39656897111314,33.37843777958405,924.2645981368777,5.4602778394741485,-191242.02689074504,10.5,10499808757.97311,47.655,-122.3035,60.0,11.083333333333334
2026-01-20T23:11:06+00:00,SAT-48358,136.26825116883086,33.09869505746134,929.7102377249823,5.480735814959883,-191958.551729406,10.5,10499808041.44827,47.655,-122.3035,60.0,11.1
2026-01-20T23:11:07+00:00,SAT-48358,136.14228259251948,32.82171866357052,935.176280443564,5.500831250055961,-192662.3788700768,10.5,10499807337.62113,47.655,-122.3035,60.0,11.116666666666667
2026-01-20T23:11:08+00:00,SAT-48358,136.01860165606317,32.54747566725565,940.6623647241532,5.520571221108218,-193353.75615632161,10.5,10499806646.243843,47.655,-122.3035,60.0,11.133333333333333
2026-01-20T23:11:09+00:00,SAT-48358,135.89714886147598,32.275933240666475,946.1681360556566,5.5399626291919795,-194032.9252929898,10.5,10499805967.074707,47.655,-122.3035,60.0,11.15
2026-01-20T23:11:10+00:00,SAT-48358,135.77786671412275,32.00705868327177,951.6932468095545,5.559012293663242,-194700.12512277425,10.5,10499805299.874878,47.655,-122.3035,60.0,11.166666666666666
2026-01-20T23:11:11+00:00,SAT-48358,135.66069963988957,31.740819440120486,957.2373561584021,5.577726883580772,-195355.58922432302,10.5,10499804644.410776,47.655,-122.3035,60.0,11.183333333333334
2026-01-20T23:11:12+00:00,SAT-48358,135.54559390787756,31.47718312197766,962.8001299259344,5.596112951660529,-195999.54710146695,10.5,10499804000.452898,47.655,-122.3035,60.0,11.2
2026-01-20T23:11:13+00:00,SAT-48358,135.432497555985,31.216117522368965,968.3812404710353,5.614176906616808,-196632.22321448955,10.5,10499803367.776785,47.655,-122.3035,60.0,11.216666666666667
2026-01-20T23:11:14+00:00,SAT-48358,135.32136032065415,30.957590634582356,973.9803665441216,5.631925062769074,-197253.838717568,10.5,10499802746.161282,47.655,-122.3035,60.0,11.233333333333333
2026-01-20T23:11:15+00:00,SAT-48358,135.21213356878278,30.701570665111888,979.597193193003,5.649363588982261,-197864.60967044657,10.5,10499802135.39033,47.655,-122.3035,60.0,11.25
2026-01-20T23:11:16+00:00,SAT-48358,135.10477023392568,30.448026048292355,985.2314116178158,5.666498567324736,-198464.74909288657,10.5,10499801535.250908,47.655,-122.3035,60.0,11.266666666666667
2026-01-20T23:11:17+00:00,SAT-48358,134.9992247542501,30.19692545717526,990.882719084458,5.68333589360664,-199054.46348109838,10.5,10499800945.536518,47.655,-122.3035,60.0,11.283333333333333
