DopplerPredictor/satellites_20260205_234138/SAT-53559.csv

timestamp,satellite,azimuth_deg,elevation_deg,distance_km,relative_velocity_kms,doppler_shift_hz,tx_freq_ghz,rx_freq_hz,ue_lat,ue_lon,ue_alt_m,time_minutes
2026-01-20T23:07:20+00:00,SAT-53559,278.29170034361323,30.225246111362793,978.4617544247038,-5.120351545047264,179336.37017311578,10.5,10500179336.370173,47.655,-122.3035,60.0,7.333333333333333
2026-01-20T23:07:21+00:00,SAT-53559,278.5266143727597,30.45425622649383,973.3551298355405,-5.097258676382795,178527.5602297485,10.5,10500178527.56023,47.655,-122.3035,60.0,7.35
2026-01-20T23:07:22+00:00,SAT-53559,278.7650747819267,30.6848989352785,968.2715362062478,-5.073794745918748,177705.7541325701,10.5,10500177705.754133,47.655,-122.3035,60.0,7.366666666666666
2026-01-20T23:07:23+00:00,SAT-53559,279.00715599202016,30.91717718198787,963.2113436038586,-5.049953662407544,176870.73854032453,10.5,10500176870.73854,47.655,-122.3035,60.0,7.383333333333334
2026-01-20T23:07:24+00:00,SAT-53559,279.25293424410063,31.151093171872564,958.1749281703266,-5.02572928181371,176022.29826290012,10.5,10500176022.298264,47.655,-122.3035,60.0,7.4
2026-01-20T23:07:25+00:00,SAT-53559,279.50248764345224,31.386648328254655,953.1626721751669,-5.00111539160302,175160.21571106938,10.5,10500175160.215712,47.655,-122.3035,60.0,7.416666666666667
2026-01-20T23:07:26+00:00,SAT-53559,279.75589620356607,31.623843246964437,948.1749640837747,-4.976105699231955,174284.27049334085,10.5,10500174284.270493,47.655,-122.3035,60.0,7.433333333333334
2026-01-20T23:07:27+00:00,SAT-53559,280.013241889715,31.862677648192843,943.2121986372197,-4.950693869526631,173394.24072512737,10.5,10500173394.240725,47.655,-122.3035,60.0,7.45
2026-01-20T23:07:28+00:00,SAT-53559,280.2746086647837,32.10315032802286,938.2747768947618,-4.924873513064272,172489.90262181597,10.5,10500172489.902622,47.655,-122.3035,60.0,7.466666666666667
2026-01-20T23:07:29+00:00,SAT-53559,280.5400825346293,32.34525910729261,933.3631062879532,-4.898638150514961,171571.02924986556,10.5,10500171571.02925,47.655,-122.3035,60.0,7.483333333333333
2026-01-20T23:07:30+00:00,SAT-53559,280.8097515918492,32.5890007764616,928.477600710308,-4.871981253670119,170637.3919637973,10.5,10500170637.391964,47.655,-122.3035,60.0,7.5
2026-01-20T23:07:31+00:00,SAT-53559,281.08370606137737,32.83437104013417,923.6186805660453,-4.844896291825929,169688.7620307388,10.5,10500169688.762032,47.655,-122.3035,60.0,7.516666666666667
2026-01-20T23:07:32+00:00,SAT-53559,281.36203834866666,33.08136446160765,918.786772772582,-4.817376618454025,168724.9066611518,10.5,10500168724.906662,47.655,-122.3035,60.0,7.533333333333333
2026-01-20T23:07:33+00:00,SAT-53559,281.6448430813957,33.329974399270505,913.982310876044,-4.789415582290951,167745.59289965525,10.5,10500167745.5929,47.655,-122.3035,60.0,7.55
2026-01-20T23:07:34+00:00,SAT-53559,281.93221715682597,33.580192946075584,909.2057350559904,-4.761006462051628,166750.58533841468,10.5,10500166750.585339,47.655,-122.3035,60.0,7.566666666666666
2026-01-20T23:07:35+00:00,SAT-53559,282.2242597848432,33.83201086310254,904.4574921952444,-4.732142539513246,165739.64867684926,10.5,10500165739.648676,47.655,-122.3035,60.0,7.583333333333333
2026-01-20T23:07:36+00:00,SAT-53559,282.52107253450043,34.0854175142951,899.7380358768438,-4.702817025160695,164712.5451174202,10.5,10500164712.545118,47.655,-122.3035,60.0,7.6
2026-01-20T23:07:37+00:00,SAT-53559,282.82275937524236,34.3404007945809,895.0478264551385,-4.673023100843347,163669.03585965175,10.5,10500163669.03586,47.655,-122.3035,60.0,7.616666666666666
2026-01-20T23:07:38+00:00,SAT-53559,283.1294267192812,34.596947057412514,890.3873310843519,-4.642753965578238,162608.8827043524,10.5,10500162608.882704,47.655,-122.3035,60.0,7.633333333333334
2026-01-20T23:07:39+00:00,SAT-53559,283.44118346543684,34.85504104202273,885.7570237014551,-4.612002740788299,161531.84473465686,10.5,10500161531.844734,47.655,-122.3035,60.0,7.65
2026-01-20T23:07:40+00:00,SAT-53559,283.75814103537607,35.11466579257925,881.1573851035583,-4.580762584461856,160437.68231437457,10.5,10500160437.682314,47.655,-122.3035,60.0,7.666666666666667
2026-01-20T23:07:41+00:00,SAT-53559,284.08041341489263,35.37580258068322,876.5889029114403,-4.549026609434706,159326.15422588255,10.5,10500159326.154226,47.655,-122.3035,60.0,7.683333333333334
2026-01-20T23:07:42+00:00,SAT-53559,284.4081171876817,35.63843082032442,872.05207161458,-4.516787952809885,158197.020101499,10.5,10500158197.020102,47.655,-122.3035,60.0,7.7
2026-01-20T23:07:43+00:00,SAT-53559,284.7413715708136,35.90252798370636,867.5473925469548,-4.484039758732066,157050.03982017015,10.5,10500157050.03982,47.655,-122.3035,60.0,7.716666666666667
2026-01-20T23:07:44+00:00,SAT-53559,285.08029844622195,36.16806951306971,863.0753738800181,-4.450775157652198,155884.97278123014,10.5,10500155884.972782,47.655,-122.3035,60.0,7.733333333333333
2026-01-20T23:07:45+00:00,SAT-53559,285.4250223868904,36.435028728154684,858.6365306363567,-4.416987310684666,154701.5794579762,10.5,10500154701.579458,47.655,-122.3035,60.0,7.75
2026-01-20T23:07:46+00:00,SAT-53559,285.7756706822698,36.70337673311395,854.2313846591078,-4.382669422301484,153499.62184227325,10.5,10500153499.621841,47.655,-122.3035,60.0,7.766666666666667
2026-01-20T23:07:47+00:00,SAT-53559,286.1323733601662,36.97308232111369,849.8604645687194,-4.3478147160707685,152278.8625948124,10.5,10500152278.862595,47.655,-122.3035,60.0,7.783333333333333
2026-01-20T23:07:48+00:00,SAT-53559,286.49526320183196,37.24411187432966,845.5243057439038,-4.312416461611191,151039.0659891701,10.5,10500151039.065989,47.655,-122.3035,60.0,7.8
2026-01-20T23:07:49+00:00,SAT-53559,286.8644757532388,37.51642926243947,841.2234502757126,-4.276468002322992,149779.99888306533,10.5,10500149779.998882,47.655,-122.3035,60.0,7.816666666666666
2026-01-20T23:07:50+00:00,SAT-53559,287.24014933261986,37.789995739789106,836.9584468939515,-4.239962693599251,148501.42855425715,10.5,10500148501.428555,47.655,-122.3035,60.0,7.833333333333333
2026-01-20T23:07:51+00:00,SAT-53559,287.6224250255921,38.06476983554893,832.7298509552186,-4.202894026027388,147203.12701558214,10.5,10500147203.127016,47.655,-122.3035,60.0,7.85
2026-01-20T23:07:52+00:00,SAT-53559,288.01144668307586,38.340707248734546,828.5382243080758,-4.165255525287651,145884.86750897628,10.5,10500145884.86751,47.655,-122.3035,60.0,7.866666666666666
2026-01-20T23:07:53+00:00,SAT-53559,288.40736090212033,38.61776073389207,824.3841352580462,-4.127040843788697,144546.42771494042,10.5,10500144546.427715,47.655,-122.3035,60.0,7.883333333333334
2026-01-20T23:07:54+00:00,SAT-53559,288.8103170053536,38.89587998989556,820.2681584412279,-4.088243713946189,143187.58811615928,10.5,10500143187.588116,47.655,-122.3035,60.0,7.9
2026-01-20T23:07:55+00:00,SAT-53559,289.22046700591216,39.17501154296592,816.1908747445013,-4.048857999133353,141808.1337820053,10.5,10500141808.133781,47.655,-122.3035,60.0,7.916666666666667
2026-01-20T23:07:56+00:00,SAT-53559,289.63796556578995,39.45509863050133,812.1528711749215,-4.008877692126712,140407.85431410177,10.5,10500140407.854315,47.655,-122.3035,60.0,7.933333333333334
2026-01-20T23:07:57+00:00,SAT-53559,290.06296994174255,39.73608108244383,808.154740730662,-3.9682969062667484,138986.54353673186,10.5,10500138986.543537,47.655,-122.3035,60.0,7.95
2026-01-20T23:07:58+00:00,SAT-53559,290.4956399167392,40.01789519977496,804.1970822807759,-3.927109961861111,137544.00252304433,10.5,10500137544.002523,47.655,-122.3035,60.0,7.966666666666667
2026-01-20T23:07:59+00:00,SAT-53559,290.9361377257114,40.30047363713938,800.2805003587814,-3.885311284994369,136080.0360509432,10.5,10500136080.03605,47.655,-122.3035,60.0,7.983333333333333
2026-01-20T23:08:00+00:00,SAT-53559,291.3846279548042,40.583745276590136,796.4056050571693,-3.8428955092055137,134594.4561642638,10.5,10500134594.456163,47.655,-122.3035,60.0,8.0
2026-01-20T23:08:01+00:00,SAT-53559,291.84127743383834,40.86763510707894,792.5730118205042,-3.7998574811420305,133087.0823708024,10.5,10500133087.08237,47.655,-122.3035,60.0,8.016666666666667
2026-01-20T23:08:02+00:00,SAT-53559,292.3062551111471,41.15206410340433,788.7833412328888,-3.7561922554530454,131557.7414634526,10.5,10500131557.741463,47.655,-122.3035,60.0,8.033333333333333
2026-01-20T23:08:03+00:00,SAT-53559,292.77973190775145,41.436949104122846,785.0372188105181,-3.7118950713146637,130006.26669802336,10.5,10500130006.266699,47.655,-122.3035,60.0,8.05
2026-01-20T23:08:04+00:00,SAT-53559,293.2618805466102,41.72220268731676,781.3352748176483,-3.6669614757602886,128432.50211278841,10.5,10500128432.502113,47.655,-122.3035,60.0,8.066666666666666
2026-01-20T23:08:05+00:00,SAT-53559,293.75287537357246,42.007733055925314,777.6781439595635,-3.621387228163771,126836.29918308217,10.5,10500126836.299183,47.655,-122.3035,60.0,8.083333333333334
2026-01-20T23:08:06+00:00,SAT-53559,294.2528921416673,42.29344391657656,774.066465170807,-3.5751683772376213,125217.51951810282,10.5,10500125217.519518,47.655,-122.3035,60.0,8.1
2026-01-20T23:08:07+00:00,SAT-53559,294.7621077778915,42.57923436559087,770.5008813266156,-3.5283012526999866,123576.03456905464,10.5,10500123576.034569,47.655,-122.3035,60.0,8.116666666666667
2026-01-20T23:08:08+00:00,SAT-53559,295.28070012048323,42.8649987762934,766.9820389626685,-3.480782521884873,121911.7276118773,10.5,10500121911.727612,47.655,-122.3035,60.0,8.133333333333333
2026-01-20T23:08:09+00:00,SAT-53559,295.8088476333657,43.150626693528224,763.5105879383771,-3.432609143296822,120224.49212053437,10.5,10500120224.49212,47.655,-122.3035,60.0,8.15
2026-01-20T23:08:10+00:00,SAT-53559,296.34672908172394,43.436002727830314,760.0871811464932,-3.3837784532526065,118514.23480157185,10.5,10500118514.234802,47.655,-122.3035,60.0,8.166666666666666
2026-01-20T23:08:11+00:00,SAT-53559,296.89452318556,43.7210064608975,756.7124741363124,-3.3342881027668096,116780.87338358426,10.5,10500116780.873384,47.655,-122.3035,60.0,8.183333333333334
2026-01-20T23:08:12+00:00,SAT-53559,297.45240822755113,44.00551235094677,753.3871247998172,-3.28413617128582,115024.34060066016,10.5,10500115024.340601,47.655,-122.3035,60.0,8.2
2026-01-20T23:08:13+00:00,SAT-53559,298.020561639851,44.28938965369699,750.1117929443959,-3.2333211095089163,113244.5821897348,10.5,10500113244.58219,47.655,-122.3035,60.0,8.216666666666667
2026-01-20T23:08:14+00:00,SAT-53559,298.5991595422725,44.57250234572166,746.8871399225832,-3.181841779181747,111441.55828432596,10.5,10500111441.558285,47.655,-122.3035,60.0,8.233333333333333
2026-01-20T23:08:15+00:00,SAT-53559,299.18837624414243,44.85470905937685,743.7138282221172,-3.129697495987791,109615.24491677442,10.5,10500109615.244917,47.655,-122.3035,60.0,8.25
2026-01-20T23:08:16+00:00,SAT-53559,299.78838371012813,45.13586303094975,740.5925210132181,-3.0768879947477568,107765.63279937964,10.5,10500107765.6328,47.655,-122.3035,60.0,8.266666666666667
2026-01-20T23:08:17+00:00,SAT-53559,300.39935097383636,45.41581205639857,737.5238817305734,-3.023413518732853,105892.73045252846,10.5,10500105892.730452,47.655,-122.3035,60.0,8.283333333333333
2026-01-20T23:08:18+00:00,SAT-53559,301.02144352097946,45.69439846711983,734.5085735662533,-2.9692747579162124,103996.5620419985,10.5,10500103996.562042,47.655,-122.3035,60.0,8.3
2026-01-20T23:08:19+00:00,SAT-53559,301.6548226121163,45.97145911355656,731.5472590242031,-2.9144729302167787,102077.17022446301,10.5,10500102077.170225,47.655,-122.3035,60.0,8.316666666666666
2026-01-20T23:08:20+00:00,SAT-53559,302.29964457139334,46.246825371083894,728.640599393715,-2.859009786621401,100134.61632688809,10.5,10500100134.616327,47.655,-122.3035,60.0,8.333333333333334
2026-01-20T23:08:21+00:00,SAT-53559,302.95606002651203,46.520323162919595,725.7892542177882,-2.802887570236164,98168.97891233717,10.5,10500098168.978912,47.655,-122.3035,60.0,8.35
2026-01-20T23:08:22+00:00,SAT-53559,303.6242130882212,46.79177299708096,722.9938808023294,-2.7461091197706113,96180.35740442616,10.5,10500096180.357405,47.655,-122.3035,60.0,8.366666666666667
2026-01-20T23:08:23+00:00,SAT-53559,304.3042405008739,47.06099003280684,720.2551336221456,-2.6886778298805916,94168.8706983623,10.5,10500094168.870699,47.655,-122.3035,60.0,8.383333333333333
2026-01-20T23:08:24+00:00,SAT-53559,304.9962707338814,47.32778416457239,717.5736637664894,-2.6305976857143705,92134.658370895,10.5,10500092134.658371,47.655,-122.3035,60.0,8.4
2026-01-20T23:08:25+00:00,SAT-53559,305.700423030606,47.59196013245638,714.950118350148,-2.5718732642061775,90077.8807256214,10.5,10500090077.880726,47.655,-122.3035,60.0,8.416666666666666
2026-01-20T23:08:26+00:00,SAT-53559,306.41680640881464,47.853317657353635,712.3851399232447,-2.5125097474608085,87998.71926177172,10.5,10500087998.719261,47.655,-122.3035,60.0,8.433333333333334
2026-01-20T23:08:27+00:00,SAT-53559,307.1455186170024,48.11165160389889,709.8793658676905,-2.4525129699829984,85897.37832838172,10.5,10500085897.378328,47.655,-122.3035,60.0,8.45
2026-01-20T23:08:28+00:00,SAT-53559,307.88664505972804,48.36675217635455,707.4334277465332,-2.3918893782875417,83774.0837096682,10.5,10500083774.08371,47.655,-122.3035,60.0,8.466666666666667
2026-01-20T23:08:29+00:00,SAT-53559,308.64025767095086,48.618405140130406,705.0479506935878,-2.330646088703703,81629.08464958408,10.5,10500081629.08465,47.655,-122.3035,60.0,8.483333333333333
2026-01-20T23:08:30+00:00,SAT-53559,309.4064137676563,48.86639208062068,702.7235527454189,-2.2687908552420044,79462.65272637729,10.5,10500079462.652727,47.655,-122.3035,60.0,8.5
2026-01-20T23:08:31+00:00,SAT-53559,310.1851548626781,49.110490691500225,700.4608442053667,-2.206332111791715,77275.08333052532,10.5,10500077275.08333,47.655,-122.3035,60.0,8.516666666666667
2026-01-20T23:08:32+00:00,SAT-53559,310.97650546553564,49.3504751016614,698.2604269654928,-2.1432789689365976,75066.69555320927,10.5,10500075066.695553,47.655,-122.3035,60.0,8.533333333333333
2026-01-20T23:08:33+00:00,SAT-53559,311.7804718651303,49.58611623727185,696.1228938316993,-2.0796412087384137,72837.83200361012,10.5,10500072837.832005,47.655,-122.3035,60.0,8.55
2026-01-20T23:08:34+00:00,SAT-53559,312.59704090149654,49.81718221968278,694.0488278540512,-2.0154293102292296,70588.8597017571,10.5,10500070588.859701,47.655,-122.3035,60.0,8.566666666666666
2026-01-20T23:08:35+00:00,SAT-53559,313.42617874656247,50.04343880338418,692.0388016316732,-1.9506544195062374,68320.16903112183,10.5,10500068320.169031,47.655,-122.3035,60.0,8.583333333333334
2026-01-20T23:08:36+00:00,SAT-53559,314.2678296845156,50.26464984843014,690.0933766474756,-1.8853284038377252,66032.17563363824,10.5,10500066032.175634,47.655,-122.3035,60.0,8.6
2026-01-20T23:08:37+00:00,SAT-53559,315.12191493591024,50.48057783699525,688.213102548913,-1.8194637712278918,63725.317592522166,10.5,10500063725.317593,47.655,-122.3035,60.0,8.616666666666667
2026-01-20T23:08:38+00:00,SAT-53559,315.98833148344875,50.69098441879808,686.3985165089698,-1.7530737738545654,61400.05905509784,10.5,10500061400.059055,47.655,-122.3035,60.0,8.633333333333333
2026-01-20T23:08:39+00:00,SAT-53559,316.8669509910178,50.895631005891886,684.6501424839788,-1.6861723016944852,59056.88650710517,10.5,10500059056.886507,47.655,-122.3035,60.0,8.65
2026-01-20T23:08:40+00:00,SAT-53559,317.7576187397047,51.09427939196143,682.9684905775332,-1.6187739466251871,56696.311017819084,10.5,10500056696.311018,47.655,-122.3035,60.0,8.666666666666666
2026-01-20T23:08:41+00:00,SAT-53559,318.66015267127955,51.2866924144393,681.3540563404684,-1.5508939586693165,54318.86670754013,10.5,10500054318.866707,47.655,-122.3035,60.0,8.683333333333334
2026-01-20T23:08:42+00:00,SAT-53559,319.57434250644695,51.47263464522665,679.8073201144788,-1.4825482486564263,51925.11084082201,10.5,10500051925.110842,47.655,-122.3035,60.0,8.7
2026-01-20T23:08:43+00:00,SAT-53559,320.49994897478786,51.651873113169536,678.3287463730853,-1.4137533887597875,49515.62384527288,10.5,10500049515.623846,47.655,-122.3035,60.0,8.716666666666667
2026-01-20T23:08:44+00:00,SAT-53559,321.43670317554114,51.82417805537631,676.9187830620626,-1.3445265690747248,47091.00779074506,10.5,10500047091.007792,47.655,-122.3035,60.0,8.733333333333333
2026-01-20T23:08:45+00:00,SAT-53559,322.3843060578746,51.98932368878791,675.5778609831748,-1.2748856155341275,44651.88701681194,10.5,10500044651.887016,47.655,-122.3035,60.0,8.75
2026-01-20T23:08:46+00:00,SAT-53559,323.3424280748292,52.14708900563675,674.3063931600418,-1.2048489478453843,42198.906659541564,10.5,10500042198.90666,47.655,-122.3035,60.0,8.766666666666667
2026-01-20T23:08:47+00:00,SAT-53559,324.31070898920643,52.29725858123482,673.1047742459566,-1.134435573753982,39732.732450583564,10.5,10500039732.73245,47.655,-122.3035,60.0,8.783333333333333
2026-01-20T23:08:48+00:00,SAT-53559,325.2887578694331,52.439623393703116,671.9733799374236,-1.0636650685400126,37254.04999905012,10.5,10500037254.05,47.655,-122.3035,60.0,8.8
2026-01-20T23:08:49+00:00,SAT-53559,326.276153280207,52.57398164863087,670.9125664081465,-0.9925575366754066,34763.56344859006,10.5,10500034763.563448,47.655,-122.3035,60.0,8.816666666666666
2026-01-20T23:08:50+00:00,SAT-53559,327.2724436642521,52.70013960069144,669.9226697812538,-0.92113361078996,32261.995441174775,10.5,10500032261.995441,47.655,-122.3035,60.0,8.833333333333334
2026-01-20T23:08:51+00:00,SAT-53559,328.2771479564717,52.81791237088447,669.0040056025582,-0.8494144110239157,29750.085693453686,10.5,10500029750.085693,47.655,-122.3035,60.0,8.85
2026-01-20T23:08:52+00:00,SAT-53559,329.2897564068865,52.92712474806027,668.156868354351,-0.777421503363728,27228.58953749645,10.5,10500027228.589537,47.655,-122.3035,60.0,8.866666666666667
2026-01-20T23:08:53+00:00,SAT-53559,330.30973160871923,53.02761196794384,667.3815310107534,-0.7051769077839957,24698.27820595792,10.5,10500024698.278206,47.655,-122.3035,60.0,8.883333333333333
2026-01-20T23:08:54+00:00,SAT-53559,331.33650979248966,53.119220469344164,666.6782445849447,-0.6327030288895678,22159.936402871288,10.5,10500022159.936403,47.655,-122.3035,60.0,8.9
2026-01-20T23:08:55+00:00,SAT-53559,332.3695022990257,53.20180861082068,666.0472377455627,-0.5600226435738072,19614.361871388286,10.5,10500019614.361872,47.655,-122.3035,60.0,8.916666666666666
2026-01-20T23:08:56+00:00,SAT-53559,333.40809729224463,53.27524734840672,665.488716445413,-0.48715885914610907,17062.36392722777,10.5,10500017062.363928,47.655,-122.3035,60.0,8.933333333333334
2026-01-20T23:08:57+00:00,SAT-53559,334.45166166806695,53.33942086403031,665.0028635919406,-0.4141350835901197,14504.76241699268,10.5,10500014504.762417,47.655,-122.3035,60.0,8.95
2026-01-20T23:08:58+00:00,SAT-53559,335.49954316887533,53.394227139938074,664.5898387473588,-0.34097498180309016,11942.386185487183,10.5,10500011942.386185,47.655,-122.3035,60.0,8.966666666666667
2026-01-20T23:08:59+00:00,SAT-53559,336.5510726637459,53.439578471391435,664.2497778724273,-0.2677024465310428,9376.072057743193,10.5,10500009376.072058,47.655,-122.3035,60.0,8.983333333333333
2026-01-20T23:09:00+00:00,SAT-53559,337.6055666099152,53.47540191418552,663.9827930992126,-0.1943415498577969,6806.66313996087,10.5,10500006806.66314,47.655,-122.3035,60.0,9.0
2026-01-20T23:09:01+00:00,SAT-53559,338.6623296270597,53.50163965963768,663.7889725522307,-0.12091651450312949,4235.007814248815,10.5,10500004235.007814,47.655,-122.3035,60.0,9.016666666666667
2026-01-20T23:09:02+00:00,SAT-53559,339.7206572205742,53.518249335574374,663.6683801982164,-0.04745166649697009,1661.9580810741606,10.5,10500001661.95808,47.655,-122.3035,60.0,9.033333333333333
2026-01-20T23:09:03+00:00,SAT-53559,340.7798385701896,53.525204227529954,663.621055743089,0.026028601322976345,-911.6317192050631,10.5,10499999088.36828,47.655,-122.3035,60.0,9.05
2026-01-20T23:09:04+00:00,SAT-53559,341.8391593927888,53.5224934191299,663.6470145653238,0.09949986993476005,-3484.906329147815,10.5,10499996515.093672,47.655,-122.3035,60.0,9.066666666666666
2026-01-20T23:09:05+00:00,SAT-53559,342.89790484318837,53.51012184952707,663.746247689838,0.17293773597989162,-6057.011039913692,10.5,10499993942.98896,47.655,-122.3035,60.0,9.083333333333334
2026-01-20T23:09:06+00:00,SAT-53559,343.95536241769526,53.48811028709343,663.9187218036133,0.2463178502228728,-8627.093038278383,10.5,10499991372.906961,47.655,-122.3035,60.0,9.1
2026-01-20T23:09:07+00:00,SAT-53559,345.0108248261318,53.456495220084406,664.1643793096714,0.3196159593023402,-11194.302868935323,10.5,10499988805.69713,47.655,-122.3035,60.0,9.116666666666667
2026-01-20T23:09:08+00:00,SAT-53559,346.0635928243155,53.41532866509849,664.4831384226937,0.39280794419199344,-13757.795781560093,10.5,10499986242.204218,47.655,-122.3035,60.0,9.133333333333333
2026-01-20T23:09:09+00:00,SAT-53559,347.1129779573782,53.36467789587973,664.874893302995,0.4658698611767037,-16316.733165967065,10.5,10499983683.266834,47.655,-122.3035,60.0,9.15
2026-01-20T23:09:10+00:00,SAT-53559,348.15830520101395,53.30462509515682,665.339514231364,0.5387779794553129,-18870.2838691185,10.5,10499981129.716131,47.655,-122.3035,60.0,9.166666666666666
2026-01-20T23:09:11+00:00,SAT-53559,349.19891546771186,53.23526693374566,665.8768478214075,0.6115088157568802,-21417.625407531905,10.5,10499978582.374592,47.655,-122.3035,60.0,9.183333333333334
2026-01-20T23:09:12+00:00,SAT-53559,350.23416795366677,53.15671408185404,666.4867172664175,0.6840391803474029,-23957.945578630035,10.5,10499976042.05442,47.655,-122.3035,60.0,9.2
2026-01-20T23:09:13+00:00,SAT-53559,351.26344233158454,53.06909065628704,667.1689226321199,0.756346199166854,-26490.443236073555,10.5,10499973509.556765,47.655,-122.3035,60.0,9.216666666666667
2026-01-20T23:09:14+00:00,SAT-53559,352.2861407268571,52.97253361233955,667.9232411715026,0.8284073646295586,-29014.33006900515,10.5,10499970985.669931,47.655,-122.3035,60.0,9.233333333333333
2026-01-20T23:09:15+00:00,SAT-53559,353.30168951946064,52.867192082840205,668.7494276903075,0.9002005505484495,-31528.83112476005,10.5,10499968471.168875,47.655,-122.3035,60.0,9.25
2026-01-20T23:09:16+00:00,SAT-53559,354.3095409046159,52.75322667540255,669.6472149274076,0.9717040626117086,-34033.18657677153,10.5,10499965966.813423,47.655,-122.3035,60.0,9.266666666666667
2026-01-20T23:09:17+00:00,SAT-53559,355.3091742604706,52.63080873002755,670.6163139855225,1.0428966570992297,-36526.65238010061,10.5,10499963473.34762,47.655,-122.3035,60.0,9.283333333333333
2026-01-20T23:09:18+00:00,SAT-53559,356.3000972759215,52.500119547870966,671.6564147806038,1.113757563963801,-39008.501079836744,10.5,10499960991.49892,47.655,-122.3035,60.0,9.3
2026-01-20T23:09:19+00:00,SAT-53559,357.2818468518256,52.36134959736128,672.767186514237,1.184266534497546,-41478.02348057813,10.5,10499958521.976519,47.655,-122.3035,60.0,9.316666666666666
2026-01-20T23:09:20+00:00,SAT-53559,358.2539898023905,52.2146977012507,673.9482781935845,1.2544038476914032,-43934.528869167654,10.5,10499956065.47113,47.655,-122.3035,60.0,9.333333333333334
2026-01-20T23:09:21+00:00,SAT-53559,359.21612332085846,52.06037021624759,675.199319157668,1.3241503395637262,-46377.346041904515,10.5,10499953622.653957,47.655,-122.3035,60.0,9.35
2026-01-20T23:09:22+00:00,SAT-53559,0.1678752449449754,51.898580208513195,676.519919632904,1.3934874235696306,-48805.82401936583,10.5,10499951194.175982,47.655,-122.3035,60.0,9.366666666666667
2026-01-20T23:09:23+00:00,SAT-53559,1.1089041232738444,51.729546631961625,677.9096713089921,1.4623971173259809,-51219.332982428794,10.5,10499948780.667017,47.655,-122.3035,60.0,9.383333333333333
2026-01-20T23:09:24+00:00,SAT-53559,2.03889910068714,51.55349351403641,679.3681479414574,1.530862049033257,-53617.26449719158,10.5,10499946382.735502,47.655,-122.3035,60.0,9.4
2026-01-20T23:09:25+00:00,SAT-53559,2.9575796219897685,51.37064915640027,680.8949059605961,1.598865486432011,-55999.032529150936,10.5,10499944000.96747,47.655,-122.3035,60.0,9.416666666666666
2026-01-20T23:09:26+00:00,SAT-53559,3.864694985656434,51.18124535229243,682.4894851093026,1.6663913299603228,-58364.073203547334,10.5,10499941635.926796,47.655,-122.3035,60.0,9.433333333333334
2026-01-20T23:09:27+00:00,SAT-53559,4.7600237408859005,50.9855166288182,684.1514090740689,1.7334241522315499,-60711.84618804277,10.5,10499939288.153812,47.655,-122.3035,60.0,9.45
2026-01-20T23:09:28+00:00,SAT-53559,5.643372972569923,50.78369951212789,685.880186155361,1.7999491808692039,-63041.83409152555,10.5,10499936958.165909,47.655,-122.3035,60.0,9.466666666666667
2026-01-20T23:09:29+00:00,SAT-53559,6.51457745743261,50.576031825113475,687.6753099208693,1.8659523307756025,-65353.54359429492,10.5,10499934646.456406,47.655,-122.3035,60.0,9.483333333333333
2026-01-20T23:09:30+00:00,SAT-53559,7.373498736369705,50.36275201425728,689.5362598909475,1.9314201846058143,-67646.50476417606,10.5,10499932353.495235,47.655,-122.3035,60.0,9.5
2026-01-20T23:09:31+00:00,SAT-53559,8.220024091154276,50.14409851356562,691.4625022045742,1.9963400284984258,-69920.2723079627,10.5,10499930079.727692,47.655,-122.3035,60.0,9.516666666666667
2026-01-20T23:09:32+00:00,SAT-53559,9.054065469323309,49.92030914069572,693.4534903209512,2.06069982450958,-72174.42460594051,10.5,10499927825.575394,47.655,-122.3035,60.0,9.533333333333333
2026-01-20T23:09:33+00:00,SAT-53559,9.875558341185801,49.69162053351823,695.5086656936078,2.124488219790657,-74408.56403332835,10.5,10499925591.435966,47.655,-122.3035,60.0,9.55
2026-01-20T23:09:34+00:00,SAT-53559,10.684460521891703,49.45826762346133,697.6274584536604,2.187694561750382,-76622.3174913193,10.5,10499923377.682508,47.655,-122.3035,60.0,9.566666666666666
2026-01-20T23:09:35+00:00,SAT-53559,11.480750972176484,49.22048314525751,699.8092881081928,2.250308882587531,-78815.33586535082,10.5,10499921184.664135,47.655,-122.3035,60.0,9.583333333333334
2026-01-20T23:09:36+00:00,SAT-53559,12.264428577339073,48.97849718637624,702.0535642232087,2.3123218867949564,-80987.29358744256,10.5,10499919012.706413,47.655,-122.3035,60.0,9.6
2026-01-20T23:09:37+00:00,SAT-53559,13.035510917918703,48.73253677527127,704.3596870941255,2.3737249625423082,-83137.88903486771,10.5,10499916862.110966,47.655,-122.3035,60.0,9.616666666666667
2026-01-20T23:09:38+00:00,SAT-53559,13.79403305060722,48.482825505161095,706.7270484276171,2.4345101696565106,-85266.84410917823,10.5,10499914733.155891,47.655,-122.3035,60.0,9.633333333333333
2026-01-20T23:09:39+00:00,SAT-53559,14.540046299065763,48.22958319494964,709.1550320114712,2.49467021034589,-87373.9032108401,10.5,10499912626.096788,47.655,-122.3035,60.0,9.65
2026-01-20T23:09:40+00:00,SAT-53559,15.273617057945916,47.97302558786044,711.6430143552475,2.5541984760603245,-89458.83488047389,10.5,10499910541.16512,47.655,-122.3035,60.0,9.666666666666666
2026-01-20T23:09:41+00:00,SAT-53559,15.994825640267367,47.71336407858919,714.1903653776731,2.613088953050031,-91521.42849112411,10.5,10499908478.571508,47.655,-122.3035,60.0,9.683333333333334
2026-01-20T23:09:42+00:00,SAT-53559,16.703765130620425,47.45080548211635,716.796448999846,2.6713362953400885,-93561.4968041355,10.5,10499906438.503197,47.655,-122.3035,60.0,9.7
2026-01-20T23:09:43+00:00,SAT-53559,17.40054029955526,47.18555182538772,719.4606238112228,2.728935757015479,-95578.87359748899,10.5,10499904421.126402,47.655,-122.3035,60.0,9.716666666666667
2026-01-20T23:09:44+00:00,SAT-53559,18.08526654121291,46.91780017466131,722.1822436680669,2.7858831951908787,-97573.41376981614,10.5,10499902426.58623,47.655,-122.3035,60.0,9.733333333333333
2026-01-20T23:09:45+00:00,SAT-53559,18.758068858411328,46.64774248956652,724.9606582948633,2.842175051205379,-99544.9926817588,10.5,10499900455.007318,47.655,-122.3035,60.0,9.75
2026-01-20T23:09:46+00:00,SAT-53559,19.41908089148016,46.375565504359905,727.7952138669765,2.8978083594416244,-101493.50646485262,10.5,10499898506.493536,47.655,-122.3035,60.0,9.766666666666667
2026-01-20T23:09:47+00:00,SAT-53559,20.068443998789004,46.10145063202296,730.6852536021038,2.9527807015495693,-103418.8704182494,10.5,10499896581.129581,47.655,-122.3035,60.0,9.783333333333333
2026-01-20T23:09:48+00:00,SAT-53559,20.70630637708893,45.82557389474109,733.6301183060764,3.0070901935595473,-105321.01855736227,10.5,10499894678.981443,47.655,-122.3035,60.0,9.8
2026-01-20T23:09:49+00:00,SAT-53559,21.332822230718833,45.54810587579854,736.6291469058052,3.0607354794854413,-107199.90338982154,10.5,10499892800.096611,47.655,-122.3035,60.0,9.816666666666666
2026-01-20T23:09:50+00:00,SAT-53559,21.948150991057346,45.2692116906657,739.6816769758517,3.113715726984861,-109055.49576347595,10.5,10499890944.504236,47.655,-122.3035,60.0,9.833333333333334
2026-01-20T23:09:51+00:00,SAT-53559,22.55245658545597,44.989050975554036,742.7870452606653,3.166030591158909,-110887.78359850714,10.5,10499889112.216402,47.655,-122.3035,60.0,9.85
2026-01-20T23:09:52+00:00,SAT-53559,23.145906748863688,44.707777894778914,745.9445881607215,3.217680178436935,-112696.77062252119,10.5,10499887303.229378,47.655,-122.3035,60.0,9.866666666666667
2026-01-20T23:09:53+00:00,SAT-53559,23.728672377677952,44.42554116526475,749.1536421826397,3.2686650810440048,-114482.47757774495,10.5,10499885517.522423,47.655,-122.3035,60.0,9.883333333333333
2026-01-20T23:09:54+00:00,SAT-53559,24.300926938264105,44.14248409053024,752.4135444236772,3.3189863042464434,-116244.93967285746,10.5,10499883755.060328,47.655,-122.3035,60.0,9.9
2026-01-20T23:09:55+00:00,SAT-53559,24.86284590793679,43.858744612287204,755.7236329836621,3.3686453014635958,-117984.20781275211,10.5,10499882015.792187,47.655,-122.3035,60.0,9.916666666666666
2026-01-20T23:09:56+00:00,SAT-53559,25.414606267126572,43.57445536888181,759.0832474119453,3.417643879119051,-119700.3452660241,10.5,10499880299.654734,47.655,-122.3035,60.0,9.933333333333334
2026-01-20T23:09:57+00:00,SAT-53559,25.956386018037385,43.289743770538756,762.4917290594594,3.465984299839359,-121393.43127942621,10.5,10499878606.56872,47.655,-122.3035,60.0,9.95
2026-01-20T23:09:58+00:00,SAT-53559,26.488363761704743,43.00473207344845,765.9484215336968,3.5136691224895817,-123063.55547523683,10.5,10499876936.444525,47.655,-122.3035,60.0,9.966666666666667
2026-01-20T23:09:59+00:00,SAT-53559,27.01071828775695,42.7195374737552,769.4526709941551,3.560701289089671,-124710.82089543942,10.5,10499875289.179104,47.655,-122.3035,60.0,9.983333333333333
2026-01-20T23:10:00+00:00,SAT-53559,27.523628215926195,42.434272199718116,773.0038265344657,3.607084069420412,-126335.34206158825,10.5,10499873664.657938,47.655,-122.3035,60.0,10.0
2026-01-20T23:10:01+00:00,SAT-53559,28.027271663724232,42.14904361305941,776.6012405092736,3.652821050225543,-127937.24459662092,10.5,10499872062.755404,47.655,-122.3035,60.0,10.016666666666667
2026-01-20T23:10:02+00:00,SAT-53559,28.521825945903988,41.863954314892574,780.2442688503526,3.6979161019455846,-129516.66405973642,10.5,10499870483.33594,47.655,-122.3035,60.0,10.033333333333333
2026-01-20T23:10:03+00:00,SAT-53559,29.00746730056309,41.57910225719033,783.9322713495412,3.742373377727456,-131073.74591170767,10.5,10499868926.254087,47.655,-122.3035,60.0,10.05
2026-01-20T23:10:04+00:00,SAT-53559,29.484370644802777,41.29458085650194,787.6646119406905,3.7861972996504405,-132608.6450324565,10.5,10499867391.354967,47.655,-122.3035,60.0,10.066666666666666
2026-01-20T23:10:05+00:00,SAT-53559,29.952709355953743,41.010479110305,791.4406589678758,3.829392530683515,-134121.52473888086,10.5,10499865878.475262,47.655,-122.3035,60.0,10.083333333333334
2026-01-20T23:10:06+00:00,SAT-53559,30.412655075039332,40.726881716443145,795.2597854256408,3.8719639778017485,-135612.55689400417,10.5,10499864387.443106,47.655,-122.3035,60.0,10.1
2026-01-20T23:10:07+00:00,SAT-53559,30.86437753461905,40.443869192741865,799.1213692023489,3.9139167444668646,-137081.9202426436,10.5,10499862918.079758,47.655,-122.3035,60.0,10.116666666666667
2026-01-20T23:10:08+00:00,SAT-53559,31.30804440330144,40.161518000044765,803.0247932761442,3.9552561475245387,-138529.8010032249,10.5,10499861470.198997,47.655,-122.3035,60.0,10.133333333333333
2026-01-20T23:10:09+00:00,SAT-53559,31.743821153163314,39.87990066344521,806.9694459277628,3.995987690887882,-139956.39194606675,10.5,10499860043.608053,47.655,-122.3035,60.0,10.15
2026-01-20T23:10:10+00:00,SAT-53559,32.17187094336503,39.5990858945296,810.9547209270974,4.036117036570946,-141361.89137885164,10.5,10499858638.108622,47.655,-122.3035,60.0,10.166666666666666
2026-01-20T23:10:11+00:00,SAT-53559,32.59235451839621,39.31913871436201,814.9800176908776,4.075650025622436,-142746.50387981266,10.5,10499857253.49612,47.655,-122.3035,60.0,10.183333333333334
2026-01-20T23:10:12+00:00,SAT-53559,33.00543012513951,39.040120573398525,819.0447414612213,4.11459263051998,-144110.43863038006,10.5,10499855889.561369,47.655,-122.3035,60.0,10.2
2026-01-20T23:10:13+00:00,SAT-53559,33.41125343992206,38.76208947286598,823.1483034367122,4.152950963824372,-145453.90971828887,10.5,10499854546.090282,47.655,-122.3035,60.0,10.216666666666667
2026-01-20T23:10:14+00:00,SAT-53559,33.809977510590514,38.48510008339864,827.2901209121098,4.1907312467090625,-146777.13503534888,10.5,10499853222.864965,47.655,-122.3035,60.0,10.233333333333333
2026-01-20T23:10:15+00:00,SAT-53559,34.20175270812668,38.20920386347664,831.4696173866676,4.227939816477503,-148080.33654073373,10.5,10499851919.66346,47.655,-122.3035,60.0,10.25
2026-01-20T23:10:16+00:00,SAT-53559,34.5867266909118,37.93444917484176,835.6862226799526,4.2645831177168105,-149363.73995114482,10.5,10499850636.260048,47.655,-122.3035,60.0,10.266666666666667
2026-01-20T23:10:17+00:00,SAT-53559,34.96504437863098,37.66088139588304,839.9393730388433,4.300667659500457,-150627.57324186852,10.5,10499849372.426758,47.655,-122.3035,60.0,10.283333333333333
2026-01-20T23:10:18+00:00,SAT-53559,35.33684793207686,37.38854303500838,844.2285112018407,4.336200040653017,-151872.06753165444,10.5,10499848127.932468,47.655,-122.3035,60.0,10.3
2026-01-20T23:10:19+00:00,SAT-53559,35.702276744193895,37.117473839476546,848.5530864885802,4.371186921931998,-153097.45610840543,10.5,10499846902.543892,47.655,-122.3035,60.0,10.316666666666666
2026-01-20T23:10:20+00:00,SAT-53559,36.06146743665642,36.84771090305484,852.9125548615983,4.4056350195883125,-154303.97420363818,10.5,10499845696.025797,47.655,-122.3035,60.0,10.333333333333334
2026-01-20T23:10:21+00:00,SAT-53559,36.41455386318748,36.57928877104124,857.3063789816767,4.439551100879843,-155491.85883534918,10.5,10499844508.141165,47.655,-122.3035,60.0,10.35
2026-01-20T23:10:22+00:00,SAT-53559,36.76166711911846,36.3122395424871,861.7340282587132,4.472941955124889,-156661.3477941841,10.5,10499843338.652206,47.655,-122.3035,60.0,10.366666666666667
2026-01-20T23:10:23+00:00,SAT-53559,37.102935554486194,36.04659297106267,866.1949788737223,4.505814424343897,-157812.6807166407,10.5,10499842187.319283,47.655,-122.3035,60.0,10.383333333333333
2026-01-20T23:10:24+00:00,SAT-53559,37.438484794935505,35.78237656094822,870.6887138313967,4.538175360719664,-158946.0975951452,10.5,10499841053.902405,47.655,-122.3035,60.0,10.4
2026-01-20T23:10:25+00:00,SAT-53559,37.76843776392611,35.519615662165755,875.2147229702425,4.570031626962639,-160061.8387908468,10.5,10499839938.16121,47.655,-122.3035,60.0,10.416666666666666
2026-01-20T23:10:26+00:00,SAT-53559,38.09291470931579,35.258333562725085,879.772502973078,4.601390080485206,-161160.14447933398,10.5,10499838839.85552,47.655,-122.3035,60.0,10.433333333333334
2026-01-20T23:10:27+00:00,SAT-53559,38.41203323255423,34.99855157855282,884.3615573617489,4.632257626705301,-162241.25651755274,10.5,10499837758.743483,47.655,-122.3035,60.0,10.45
2026-01-20T23:10:28+00:00,SAT-53559,38.725908324949884,34.7402891373426,888.9813965450086,4.662641113524606,-163305.41474798665,10.5,10499836694.585253,47.655,-122.3035,60.0,10.466666666666667
2026-01-20T23:10:29+00:00,SAT-53559,39.03465239926655,34.48356386534412,893.6315377611525,4.692547417032711,-164352.86000037886,10.5,10499835647.14,47.655,-122.3035,60.0,10.483333333333333
2026-01-20T23:10:30+00:00,SAT-53559,39.33837532994368,34.22839166631101,898.3115051061313,4.721983322751389,-165383.8299324047,10.5,10499834616.170067,47.655,-122.3035,60.0,10.5
2026-01-20T23:10:31+00:00,SAT-53559,39.6371844874917,33.97478680399538,903.0208294432281,4.750955714709384,-166398.5656518702,10.5,10499833601.43435,47.655,-122.3035,60.0,10.516666666666667
2026-01-20T23:10:32+00:00,SAT-53559,39.93118478722261,33.72276197148659,907.7590485012984,4.7794713355983784,-167397.30331635952,10.5,10499832602.696684,47.655,-122.3035,60.0,10.533333333333333
2026-01-20T23:10:33+00:00,SAT-53559,40.220478723822964,33.472328370667896,912.5257067338129,4.807536948494238,-168380.27979739735,10.5,10499831619.720203,47.655,-122.3035,60.0,10.55
2026-01-20T23:10:34+00:00,SAT-53559,40.505166417888624,33.22349578012736,917.3203553391885,4.835159283266895,-169347.73080349606,10.5,10499830652.269196,47.655,-122.3035,60.0,10.566666666666666
2026-01-20T23:10:35+00:00,SAT-53559,40.78534565992269,32.976272623266375,922.1425522276688,4.8623450010587055,-170299.88963603752,10.5,10499829700.110365,47.655,-122.3035,60.0,10.583333333333334
2026-01-20T23:10:36+00:00,SAT-53559,41.061111953201056,32.73066603554576,926.9918619527832,4.889100750310598,-171236.9891515459,10.5,10499828763.010849,47.655,-122.3035,60.0,10.6
2026-01-20T23:10:37+00:00,SAT-53559,41.33255856057324,32.4866819262522,931.8678556986781,4.915433098756421,-172159.25937984211,10.5,10499827840.74062,47.655,-122.3035,60.0,10.616666666666667
2026-01-20T23:10:38+00:00,SAT-53559,41.59977654786336,32.244325041185995,936.7701111996263,4.941348595766901,-173066.9297075928,10.5,10499826933.070292,47.655,-122.3035,60.0,10.633333333333333
2026-01-20T23:10:39+00:00,SAT-53559,41.862854831138996,32.00359901975352,941.6982127217143,4.966853707246941,-173960.2265981384,10.5,10499826039.773401,47.655,-122.3035,60.0,10.65
2026-01-20T23:10:40+00:00,SAT-53559,42.121880220545506,31.764506452903444,946.651750979598,4.991954862729049,-174839.3752409042,10.5,10499825160.62476,47.655,-122.3035,60.0,10.666666666666666
2026-01-20T23:10:41+00:00,SAT-53559,42.37693746680228,31.52704893641476,951.6303231002297,5.016658406743683,-175704.59784818423,10.5,10499824295.402151,47.655,-122.3035,60.0,10.683333333333334
2026-01-20T23:10:42+00:00,SAT-53559,42.628109305077764,31.291227124278393,956.6335325380838,5.040970660082231,-176556.11580082987,10.5,10499823443.8842,47.655,-122.3035,60.0,10.7
2026-01-20T23:10:43+00:00,SAT-53559,42.875476501879454,31.05704077698753,961.6609890514801,5.064897854339068,-177394.14735563568,10.5,10499822605.852644,47.655,-122.3035,60.0,10.716666666666667
2026-01-20T23:10:44+00:00,SAT-53559,43.119117898304694,30.8244888108323,966.7123086136277,5.088446154482353,-178218.90843586434,10.5,10499821781.091564,47.655,-122.3035,60.0,10.733333333333333
2026-01-20T23:10:45+00:00,SAT-53559,43.35911045417182,30.593569344051556,971.7871133461754,5.1116216582441645,-179030.61260988668,10.5,10499820969.38739,47.655,-122.3035,60.0,10.75
2026-01-20T23:10:46+00:00,SAT-53559,43.595529291744654,30.364279741042537,976.8850314521577,5.134430398011593,-179829.4711574156,10.5,10499820170.528843,47.655,-122.3035,60.0,10.766666666666667
2026-01-20T23:10:47+00:00,SAT-53559,43.82844773905317,30.13661665458249,982.0056971508234,5.156878349303969,-180615.6933664144,10.5,10499819384.306633,47.655,-122.3035,60.0,10.783333333333333
