DopplerPredictor/satellites_20260205_234138/SAT-54789.csv

timestamp,satellite,azimuth_deg,elevation_deg,distance_km,relative_velocity_kms,doppler_shift_hz,tx_freq_ghz,rx_freq_hz,ue_lat,ue_lon,ue_alt_m,time_minutes
2026-01-20T23:07:19+00:00,SAT-54789,310.6909823048371,30.021529370926064,986.9831632982604,-5.507035227608291,192879.6684067584,10.5,10500192879.668407,47.655,-122.3035,60.0,7.316666666666666
2026-01-20T23:07:20+00:00,SAT-54789,310.8516114138419,30.26386427800759,981.4908916721262,-5.488301318817451,192223.52767654762,10.5,10500192223.527676,47.655,-122.3035,60.0,7.333333333333333
2026-01-20T23:07:21+00:00,SAT-54789,311.01479844673923,30.508372506817114,976.0173037317587,-5.469244069045825,191556.06217745866,10.5,10500191556.062178,47.655,-122.3035,60.0,7.35
2026-01-20T23:07:22+00:00,SAT-54789,311.18060414135726,30.755076030375115,970.5627219513067,-5.449857366900132,190877.05786264772,10.5,10500190877.057863,47.655,-122.3035,60.0,7.366666666666666
2026-01-20T23:07:23+00:00,SAT-54789,311.34909108604876,31.00399671816785,965.1274748999265,-5.430134962302426,190186.29582794732,10.5,10500190186.295828,47.655,-122.3035,60.0,7.383333333333334
2026-01-20T23:07:24+00:00,SAT-54789,311.52032378576547,31.25515630939936,959.7118973800996,-5.410070469551998,189483.55241910715,10.5,10500189483.55242,47.655,-122.3035,60.0,7.4
2026-01-20T23:07:25+00:00,SAT-54789,311.6943687309466,31.50857638466782,954.3163305628866,-5.389657456731397,188768.60236317109,10.5,10500188768.602364,47.655,-122.3035,60.0,7.416666666666667
2026-01-20T23:07:26+00:00,SAT-54789,311.87129447213636,31.76427834011233,948.941122034024,-5.368889308711338,188041.21397032958,10.5,10500188041.21397,47.655,-122.3035,60.0,7.433333333333334
2026-01-20T23:07:27+00:00,SAT-54789,312.0511716931203,32.02228335335846,943.5866259766425,-5.347759363083618,187301.15389486548,10.5,10500187301.153894,47.655,-122.3035,60.0,7.45
2026-01-20T23:07:28+00:00,SAT-54789,312.2340732916165,32.282612353954526,938.2532032184207,-5.326260820103678,186548.18398096133,10.5,10500186548.18398,47.655,-122.3035,60.0,7.466666666666667
2026-01-20T23:07:29+00:00,SAT-54789,312.42007446025775,32.54528598756182,932.9412213685516,-5.304386744762489,185782.06133526593,10.5,10500185782.061335,47.655,-122.3035,60.0,7.483333333333333
2026-01-20T23:07:30+00:00,SAT-54789,312.6092527707904,32.81032457803079,927.6510549526466,-5.282130129053381,185002.54050774185,10.5,10500185002.540508,47.655,-122.3035,60.0,7.5
2026-01-20T23:07:31+00:00,SAT-54789,312.8016882640833,33.077748090312795,922.3830854855349,-5.259483848526502,184209.3719700189,10.5,10500184209.37197,47.655,-122.3035,60.0,7.516666666666667
2026-01-20T23:07:32+00:00,SAT-54789,312.99746354217234,33.34757608891749,917.1377015873976,-5.236440646813009,183402.30157336578,10.5,10500183402.301573,47.655,-122.3035,60.0,7.533333333333333
2026-01-20T23:07:33+00:00,SAT-54789,313.1966638634805,33.61982769304919,911.9152991153298,-5.212993174702604,182581.07191735072,10.5,10500182581.071917,47.655,-122.3035,60.0,7.55
2026-01-20T23:07:34+00:00,SAT-54789,313.39937724333544,33.89452153109784,906.7162812559359,-5.189133965983264,181745.42150364662,10.5,10500181745.421503,47.655,-122.3035,60.0,7.566666666666666
2026-01-20T23:07:35+00:00,SAT-54789,313.6056945576901,34.171675691141765,901.5410586420147,-5.164855468206461,180895.0858135592,10.5,10500180895.085814,47.655,-122.3035,60.0,7.583333333333333
2026-01-20T23:07:36+00:00,SAT-54789,313.81570965224904,34.451307670170166,896.3900494385683,-5.140149973199156,180029.7948742631,10.5,10500180029.794874,47.655,-122.3035,60.0,7.6
2026-01-20T23:07:37+00:00,SAT-54789,314.0295194530651,34.73343431650043,891.2636794981065,-5.1150097339867475,179149.27735393815,10.5,10500179149.277353,47.655,-122.3035,60.0,7.616666666666666
2026-01-20T23:07:38+00:00,SAT-54789,314.2472240865598,35.01807177529126,886.1623823993456,-5.089426825325117,178253.2556770115,10.5,10500178253.255676,47.655,-122.3035,60.0,7.633333333333334
2026-01-20T23:07:39+00:00,SAT-54789,314.4689269982693,35.30523542303971,881.0865996249979,-5.063393306971563,177341.45174259658,10.5,10500177341.451742,47.655,-122.3035,60.0,7.65
2026-01-20T23:07:40+00:00,SAT-54789,314.69473508350677,35.594939807557886,876.0367805767343,-5.036901048179107,176413.58077754118,10.5,10500176413.580778,47.655,-122.3035,60.0,7.666666666666667
2026-01-20T23:07:41+00:00,SAT-54789,314.92475881526565,35.88719857435159,871.0133827651728,-5.009941885899724,175469.35687737382,10.5,10500175469.356878,47.655,-122.3035,60.0,7.683333333333334
2026-01-20T23:07:42+00:00,SAT-54789,315.1591123843263,36.18202439797597,866.0168718420973,-4.982507528787849,174508.48964410042,10.5,10500174508.489645,47.655,-122.3035,60.0,7.7
2026-01-20T23:07:43+00:00,SAT-54789,315.39791384038347,36.479428903789035,861.047721728408,-4.954589637641907,173530.68700360708,10.5,10500173530.687004,47.655,-122.3035,60.0,7.716666666666667
2026-01-20T23:07:44+00:00,SAT-54789,315.641285242422,36.77942259007275,856.1064146618512,-4.92617970794228,172535.65109164268,10.5,10500172535.651093,47.655,-122.3035,60.0,7.733333333333333
2026-01-20T23:07:45+00:00,SAT-54789,315.889352808961,37.08201473853692,851.1934413618932,-4.897269245803341,171523.08441640344,10.5,10500171523.084417,47.655,-122.3035,60.0,7.75
2026-01-20T23:07:46+00:00,SAT-54789,316.14224708287793,37.387213330644265,846.3093010191146,-4.8678496101605395,170492.68433125713,10.5,10500170492.684332,47.655,-122.3035,60.0,7.766666666666667
2026-01-20T23:07:47+00:00,SAT-54789,316.40010309420654,37.69502494935424,841.4545014419958,-4.837912085340634,169444.14557645962,10.5,10500169444.145576,47.655,-122.3035,60.0,7.783333333333333
2026-01-20T23:07:48+00:00,SAT-54789,316.6630605324987,38.0054546798996,836.629559131324,-4.807447945734302,168377.16254426312,10.5,10500168377.162544,47.655,-122.3035,60.0,7.8
2026-01-20T23:07:49+00:00,SAT-54789,316.93126392921147,38.31850600926377,831.8349992901043,-4.776448333938387,167291.4250109423,10.5,10500167291.42501,47.655,-122.3035,60.0,7.816666666666666
2026-01-20T23:07:50+00:00,SAT-54789,317.20486283947554,38.63418071208772,827.0713559549993,-4.7449044018924615,166186.6230799937,10.5,10500166186.62308,47.655,-122.3035,60.0,7.833333333333333
2026-01-20T23:07:51+00:00,SAT-54789,317.4840120384299,38.952478739650914,822.3391719870115,-4.712807163716297,165062.4420278816,10.5,10500165062.442028,47.655,-122.3035,60.0,7.85
2026-01-20T23:07:52+00:00,SAT-54789,317.7688717152399,39.27339809280299,817.6389992089338,-4.680147663511079,163918.5681811459,10.5,10500163918.568182,47.655,-122.3035,60.0,7.866666666666666
2026-01-20T23:07:53+00:00,SAT-54789,318.0596076837025,39.59693469942092,812.9713983754481,-4.646916899917602,162754.68627411174,10.5,10500162754.686274,47.655,-122.3035,60.0,7.883333333333334
2026-01-20T23:07:54+00:00,SAT-54789,318.35639159504865,39.923082280047495,808.3369392184645,-4.613105807603993,161570.47880051046,10.5,10500161570.4788,47.655,-122.3035,60.0,7.9
2026-01-20T23:07:55+00:00,SAT-54789,318.65940115591997,40.25183220491182,803.7362005109222,-4.578705313806679,160365.62799378403,10.5,10500160365.627995,47.655,-122.3035,60.0,7.916666666666667
2026-01-20T23:07:56+00:00,SAT-54789,318.96882035633803,40.58317334728742,799.1697700742006,-4.543706363527037,159139.8167095781,10.5,10500159139.81671,47.655,-122.3035,60.0,7.933333333333334
2026-01-20T23:07:57+00:00,SAT-54789,319.2848397060089,40.917091930915596,794.6382447604026,-4.508099881499149,157892.7270936918,10.5,10500157892.727093,47.655,-122.3035,60.0,7.95
2026-01-20T23:07:58+00:00,SAT-54789,319.60765647426695,41.25357136655986,790.1422304725678,-4.4718767839169695,156624.04099281304,10.5,10500156624.040993,47.655,-122.3035,60.0,7.966666666666667
2026-01-20T23:07:59+00:00,SAT-54789,319.9374749366366,41.59259208078603,785.6823421731896,-4.435028047575343,155333.44237612907,10.5,10500155333.442375,47.655,-122.3035,60.0,7.983333333333333
2026-01-20T23:08:00+00:00,SAT-54789,320.27450663228467,41.93413134109922,781.2592038237759,-4.397544645017471,154020.6150639168,10.5,10500154020.615065,47.655,-122.3035,60.0,8.0
2026-01-20T23:08:01+00:00,SAT-54789,320.61897062196704,42.27816306703674,776.8734483890905,-4.359417636914283,152685.24596305878,10.5,10500152685.245962,47.655,-122.3035,60.0,8.016666666666667
2026-01-20T23:08:02+00:00,SAT-54789,320.9710937579901,42.6246576388243,772.5257177492612,-4.320638102656468,151327.02263608284,10.5,10500151327.022636,47.655,-122.3035,60.0,8.033333333333333
2026-01-20T23:08:03+00:00,SAT-54789,321.3311109529774,42.973581690797346,768.2166626811099,-4.2811972335580535,149945.63656554546,10.5,10500149945.636566,47.655,-122.3035,60.0,8.05
2026-01-20T23:08:04+00:00,SAT-54789,321.6992654598495,43.32489790197633,763.9469427465299,-4.241086265464045,148540.78079366652,10.5,10500148540.780794,47.655,-122.3035,60.0,8.066666666666666
2026-01-20T23:08:05+00:00,SAT-54789,322.0758091487224,43.67856477069846,759.7172262480734,-4.200296590496135,147112.15383613628,10.5,10500147112.153835,47.655,-122.3035,60.0,8.083333333333334
2026-01-20T23:08:06+00:00,SAT-54789,322.4610027953494,44.03453638752328,755.5281900730955,-4.158819682738021,145659.45707930124,10.5,10500145659.457079,47.655,-122.3035,60.0,8.1
2026-01-20T23:08:07+00:00,SAT-54789,322.8551163635386,44.392762190883666,751.3805196120098,-4.116647168847702,144182.3972533054,10.5,10500144182.397253,47.655,-122.3035,60.0,8.116666666666667
2026-01-20T23:08:08+00:00,SAT-54789,323.2584292928505,44.753186717105216,747.2749086061244,-4.073770843286547,142680.68696547643,10.5,10500142680.686966,47.655,-122.3035,60.0,8.133333333333333
2026-01-20T23:08:09+00:00,SAT-54789,323.6712307855487,45.11574934008566,743.2120589802884,-4.030182658186029,141154.04434541616,10.5,10500141154.044346,47.655,-122.3035,60.0,8.15
2026-01-20T23:08:10+00:00,SAT-54789,324.09382008788276,45.48038399806562,739.1926806856437,-3.9858747619447255,139602.19439683043,10.5,10500139602.194397,47.655,-122.3035,60.0,8.166666666666666
2026-01-20T23:08:11+00:00,SAT-54789,324.526506768497,45.8470189114885,735.2174915038851,-3.940839528200401,138024.8700122543,10.5,10500138024.870012,47.655,-122.3035,60.0,8.183333333333334
2026-01-20T23:08:12+00:00,SAT-54789,324.96961099055665,46.21557629108732,731.287216822624,-3.8950695818349814,136421.81288385615,10.5,10500136421.812883,47.655,-122.3035,60.0,8.2
2026-01-20T23:08:13+00:00,SAT-54789,325.4234637749448,46.58597203586439,727.4025893848183,-3.8485577720777835,134792.7725613989,10.5,10500134792.772562,47.655,-122.3035,60.0,8.216666666666667
2026-01-20T23:08:14+00:00,SAT-54789,325.8884072442855,46.95811541580684,723.5643490650261,-3.801297244834718,133137.5089855147,10.5,10500133137.508986,47.655,-122.3035,60.0,8.233333333333333
2026-01-20T23:08:15+00:00,SAT-54789,326.3647948559393,47.33190874861877,719.773242573526,-3.753281460251982,131455.7931028599,10.5,10500131455.793102,47.655,-122.3035,60.0,8.25
2026-01-20T23:08:16+00:00,SAT-54789,326.85299161332154,47.70724706556169,716.0300231429161,-3.7045042148631357,129747.40764179906,10.5,10500129747.407642,47.655,-122.3035,60.0,8.266666666666667
2026-01-20T23:08:17+00:00,SAT-54789,327.3533742516272,48.08401776698874,712.3354501926312,-3.654959614519278,128012.14616430551,10.5,10500128012.146164,47.655,-122.3035,60.0,8.283333333333333
2026-01-20T23:08:18+00:00,SAT-54789,327.86633138469307,48.462100262656975,708.6902890204542,-3.6046422059920595,126249.81767525528,10.5,10500126249.817675,47.655,-122.3035,60.0,8.3
2026-01-20T23:08:19+00:00,SAT-54789,328.39226362944106,48.84136561340697,705.0953103627755,-3.553546906777972,124460.24416387657,10.5,10500124460.244164,47.655,-122.3035,60.0,8.316666666666666
2026-01-20T23:08:20+00:00,SAT-54789,328.931583672727,49.22167615424935,701.5512900248655,-3.5016690677716418,122643.26279883346,10.5,10500122643.262798,47.655,-122.3035,60.0,8.333333333333334
2026-01-20T23:08:21+00:00,SAT-54789,329.4847162909893,49.60288511291187,698.0590084486341,-3.4490045091353396,120798.72718452798,10.5,10500120798.727184,47.655,-122.3035,60.0,8.35
2026-01-20T23:08:22+00:00,SAT-54789,330.0520983107837,49.98483622216312,694.619250244625,-3.395549533028232,118926.50780693235,10.5,10500118926.507807,47.655,-122.3035,60.0,8.366666666666667
2026-01-20T23:08:23+00:00,SAT-54789,330.6341784967756,50.367363324447,691.2328037113089,-3.3413009682641683,117026.49359769339,10.5,10500117026.493597,47.655,-122.3035,60.0,8.383333333333333
2026-01-20T23:08:24+00:00,SAT-54789,331.2314173614987,50.750289973615125,687.9004603098413,-3.286256173496304,115098.59204567179,10.5,10500115098.592045,47.655,-122.3035,60.0,8.4
2026-01-20T23:08:25+00:00,SAT-54789,331.8442868780549,51.13342903066379,684.6230141356427,-3.2304130799618207,113142.73069404274,10.5,10500113142.730694,47.655,-122.3035,60.0,8.416666666666666
2026-01-20T23:08:26+00:00,SAT-54789,332.47327008902096,51.51658225970946,681.4012613473511,-3.1737702340486305,111158.85863116215,10.5,10500111158.858631,47.655,-122.3035,60.0,8.433333333333334
2026-01-20T23:08:27+00:00,SAT-54789,333.11886059816584,51.8995399265589,678.2359995533197,-3.1163267975250935,109146.94649861232,10.5,10500109146.946499,47.655,-122.3035,60.0,8.45
2026-01-20T23:08:28+00:00,SAT-54789,333.78156192057753,52.2820803974039,675.1280271978857,-3.058082604041986,107106.98847013975,10.5,10500107106.98847,47.655,-122.3035,60.0,8.466666666666667
2026-01-20T23:08:29+00:00,SAT-54789,334.46188668581954,52.663969747290956,672.0781428912893,-2.999038157399217,105039.0021909483,10.5,10500105039.002192,47.655,-122.3035,60.0,8.483333333333333
2026-01-20T23:08:30+00:00,SAT-54789,335.16035566314997,53.04496137475741,669.0871447413232,-2.9391946864902265,102943.0307020845,10.5,10500102943.030703,47.655,-122.3035,60.0,8.5
2026-01-20T23:08:31+00:00,SAT-54789,335.87749660178605,53.424795633512936,666.1558296301785,-2.8785541616343955,100819.14301246748,10.5,10500100819.143013,47.655,-122.3035,60.0,8.516666666666667
2026-01-20T23:08:32+00:00,SAT-54789,336.6138428569835,53.80319948098146,663.2849924750109,-2.8171193101256446,98667.4346434668,10.5,10500098667.434643,47.655,-122.3035,60.0,8.533333333333333
2026-01-20T23:08:33+00:00,SAT-54789,337.36993177904367,54.179886148524965,660.4754254729935,-2.754893677801862,96488.0297853242,10.5,10500096488.029785,47.655,-122.3035,60.0,8.55
2026-01-20T23:08:34+00:00,SAT-54789,338.14630285464034,54.55455484527587,657.7279172849663,-2.691881606994393,94281.08052485138,10.5,10500094281.080524,47.655,-122.3035,60.0,8.566666666666666
2026-01-20T23:08:35+00:00,SAT-54789,338.9434955548273,54.9268904909413,655.0432522410806,-2.6280882961349747,92046.76893311717,10.5,10500092046.768932,47.655,-122.3035,60.0,8.583333333333334
2026-01-20T23:08:36+00:00,SAT-54789,339.76204688733065,55.296563495650304,652.4222094869914,-2.5635198089010256,89785.30738575407,10.5,10500089785.307386,47.655,-122.3035,60.0,8.6
2026-01-20T23:08:37+00:00,SAT-54789,340.60248861605027,55.66322958813889,649.8655621209322,-2.498183093835339,87496.93925012303,10.5,10500087496.93925,47.655,-122.3035,60.0,8.616666666666667
2026-01-20T23:08:38+00:00,SAT-54789,341.4653441267204,56.02652970242353,647.3740763112222,-2.4320860258424872,85181.94033869296,10.5,10500085181.940338,47.655,-122.3035,60.0,8.633333333333333
2026-01-20T23:08:39+00:00,SAT-54789,342.3511249252506,56.386089935839514,644.9485103723871,-2.3652373860906297,82840.61820511712,10.5,10500082840.618206,47.655,-122.3035,60.0,8.65
2026-01-20T23:08:40+00:00,SAT-54789,343.2603267269421,56.74152157997012,642.5896138613256,-2.2976468997627157,80473.3134664399,10.5,10500080473.313467,47.655,-122.3035,60.0,8.666666666666666
2026-01-20T23:08:41+00:00,SAT-54789,344.19342513962897,57.092421243994835,640.2981266358261,-2.22932527853273,78080.40129079453,10.5,10500078080.40129,47.655,-122.3035,60.0,8.683333333333334
2026-01-20T23:08:42+00:00,SAT-54789,345.1508709333661,57.43837108359831,638.0747778707182,-2.160284178519146,75662.28992475531,10.5,10500075662.289925,47.655,-122.3035,60.0,8.7
2026-01-20T23:08:43+00:00,SAT-54789,346.133084855231,57.77893913519553,635.9202851159623,-2.0905362511323142,73219.42247422815,10.5,10500073219.422474,47.655,-122.3035,60.0,8.716666666666667
2026-01-20T23:08:44+00:00,SAT-54789,347.14045202655683,58.11367978276336,633.8353533040253,-2.020095128899196,70752.27640797273,10.5,10500070752.276407,47.655,-122.3035,60.0,8.733333333333333
2026-01-20T23:08:45+00:00,SAT-54789,348.1733159053719,58.442134360948465,631.8206737713932,-1.9489754481502957,68261.36435219496,10.5,10500068261.364351,47.655,-122.3035,60.0,8.75
2026-01-20T23:08:46+00:00,SAT-54789,349.2319718499862,58.76383191396136,629.8769232574609,-1.8771928405407712,65747.23379358028,10.5,10500065747.233793,47.655,-122.3035,60.0,8.766666666666667
2026-01-20T23:08:47+00:00,SAT-54789,350.31666030130935,59.078290118915454,628.0047629118733,-1.804763932714889,63210.46706754156,10.5,10500063210.467068,47.655,-122.3035,60.0,8.783333333333333
2026-01-20T23:08:48+00:00,SAT-54789,351.4275596328002,59.385016387967994,626.2048373022045,-1.731706343377403,60651.6812556463,10.5,10500060651.681255,47.655,-122.3035,60.0,8.8
2026-01-20T23:08:49+00:00,SAT-54789,352.5647787289799,59.68350916106078,624.477773424558,-1.6580386769573245,58071.52796369516,10.5,10500058071.527964,47.655,-122.3035,60.0,8.816666666666666
2026-01-20T23:08:50+00:00,SAT-54789,353.7283493693277,59.97325939952609,622.8241797204843,-1.5837805220915238,55470.69326861118,10.5,10500055470.693268,47.655,-122.3035,60.0,8.833333333333334
2026-01-20T23:08:51+00:00,SAT-54789,354.9182185208868,60.25375229040311,621.2446450954109,-1.5089524230828526,52849.89671878254,10.5,10500052849.896719,47.655,-122.3035,60.0,8.85
2026-01-20T23:08:52+00:00,SAT-54789,356.1342406372292,60.524469163142065,619.7397379655386,-1.433575884485811,50209.89149467201,10.5,10500050209.891495,47.655,-122.3035,60.0,8.866666666666667
2026-01-20T23:08:53+00:00,SAT-54789,357.37617012735836,60.784889627820455,618.3100053001657,-1.3576733200215667,47551.462619604834,10.5,10500047551.46262,47.655,-122.3035,60.0,8.883333333333333
2026-01-20T23:08:54+00:00,SAT-54789,358.64365410530627,61.03449392437224,616.9559717149561,-1.281268061167251,44875.42726060218,10.5,10500044875.427261,47.655,-122.3035,60.0,8.9
2026-01-20T23:08:55+00:00,SAT-54789,359.9362256460404,61.27276548854585,615.678138556646,-1.2043843159929521,42182.6332866786,10.5,10500042182.633287,47.655,-122.3035,60.0,8.916666666666666
2026-01-20T23:08:56+00:00,SAT-54789,1.2532976955847268,61.499193715579324,614.4769830287992,-1.1270471415450531,39473.95830158962,10.5,10500039473.958302,47.655,-122.3035,60.0,8.933333333333334
2026-01-20T23:08:57+00:00,SAT-54789,2.5941578487027925,61.71327690824883,613.3529573451083,-1.0492824043888123,36750.30826186604,10.5,10500036750.308262,47.655,-122.3035,60.0,8.95
2026-01-20T23:08:58+00:00,SAT-54789,3.957964186680261,61.914525385220095,612.3064879220443,-0.9711167586981178,34012.61670942448,10.5,10500034012.616709,47.655,-122.3035,60.0,8.966666666666667
2026-01-20T23:08:59+00:00,SAT-54789,5.343742407180347,62.10246472491222,611.3379745933622,-0.8925775845610396,31261.8426107668,10.5,10500031261.842611,47.655,-122.3035,60.0,8.983333333333333
2026-01-20T23:09:00+00:00,SAT-54789,6.750384392238143,62.27663910264684,610.4477898861298,-0.8136929735085258,28498.969850133853,10.5,10500028498.96985,47.655,-122.3035,60.0,9.0
2026-01-20T23:09:01+00:00,SAT-54789,8.176648468481774,62.43661468936733,609.6362783111935,-0.7344916596578649,25725.0048178583,10.5,10500025725.004818,47.655,-122.3035,60.0,9.016666666666667
2026-01-20T23:09:02+00:00,SAT-54789,9.621161438136074,62.581983054837146,608.9037557223152,-0.6550029752340555,22940.97485253476,10.5,10500022940.974852,47.655,-122.3035,60.0,9.033333333333333
2026-01-20T23:09:03+00:00,SAT-54789,11.082422537226554,62.71236452839374,608.2505087196673,-0.5752568120525913,20147.92689198408,10.5,10500020147.926891,47.655,-122.3035,60.0,9.05
2026-01-20T23:09:04+00:00,SAT-54789,12.558809424871038,62.82741146306841,607.6767940917425,-0.4952835551828057,17346.925149863044,10.5,10500017346.92515,47.655,-122.3035,60.0,9.066666666666666
2026-01-20T23:09:05+00:00,SAT-54789,14.048586179127637,62.926811339601755,607.1828383234221,-0.4151140314630495,14539.049312448078,10.5,10500014539.049313,47.655,-122.3035,60.0,9.083333333333334
2026-01-20T23:09:06+00:00,SAT-54789,15.549913301126335,63.01028965450475,606.7688371553915,-0.33477945125984837,11725.392498794641,10.5,10500011725.392498,47.655,-122.3035,60.0,9.1
2026-01-20T23:09:07+00:00,SAT-54789,17.06085962881294,63.07761253307781,606.4349552016408,-0.25431134990789966,8907.059209718167,10.5,10500008907.05921,47.655,-122.3035,60.0,9.116666666666667
2026-01-20T23:09:08+00:00,SAT-54789,18.579416006930035,63.12858901261374,606.1813256253671,-0.1737415270697973,6085.163203915129,10.5,10500006085.163204,47.655,-122.3035,60.0,9.133333333333333
2026-01-20T23:09:09+00:00,SAT-54789,20.103510509272226,63.163072945667594,606.008049875355,-0.09310198285509395,3260.825260582394,10.5,10500003260.82526,47.655,-122.3035,60.0,9.15
2026-01-20T23:09:10+00:00,SAT-54789,21.631024921442535,63.180964480032536,605.9151974860681,-0.01242485576844622,435.17100609877684,10.5,10500000435.171005,47.655,-122.3035,60.0,9.166666666666666
2026-01-20T23:09:11+00:00,SAT-54789,23.159812195922083,63.1822110817449,605.902805939623,0.0682576409156887,-2390.6713144022165,10.5,10499997609.328686,47.655,-122.3035,60.0,9.183333333333334
2026-01-20T23:09:12+00:00,SAT-54789,24.687714488679376,63.166808076913455,605.970880591223,0.14891328387471353,-5215.57310385871,10.5,10499994784.426897,47.655,-122.3035,60.0,9.2
2026-01-20T23:09:13+00:00,SAT-54789,26.212581455261585,63.134798699301555,606.1193946591337,0.22950990389009115,-8038.407660161874,10.5,10499991961.59234,47.655,-122.3035,60.0,9.216666666666667
2026-01-20T23:09:14+00:00,SAT-54789,27.732288363487523,63.08627364274535,606.3482892786438,0.31001544756453664,-10858.052337753055,10.5,10499989141.947662,47.655,-122.3035,60.0,9.233333333333333
2026-01-20T23:09:15+00:00,SAT-54789,29.244753670064966,63.021370129492766,606.6574736175753,0.39039804484269847,-13673.390912483643,10.5,10499986326.609087,47.655,-122.3035,60.0,9.25
2026-01-20T23:09:16+00:00,SAT-54789,30.747955720743583,62.940270515153706,607.0468250591348,0.4706260665241021,-16483.31559596163,10.5,10499983516.684404,47.655,-122.3035,60.0,9.266666666666667
2026-01-20T23:09:17+00:00,SAT-54789,32.239948205547165,62.84320046457824,607.516189442121,0.5506681902046657,-19286.729345102438,10.5,10499980713.270655,47.655,-122.3035,60.0,9.283333333333333
2026-01-20T23:09:18+00:00,SAT-54789,33.718874134682444,62.73042673811579,608.0653813668998,0.6304934587547528,-22082.547910277666,10.5,10499977917.45209,47.655,-122.3035,60.0,9.3
2026-01-20T23:09:19+00:00,SAT-54789,35.18297808346532,62.60225463829998,608.6941845596998,0.7100713364849539,-24869.701802478354,10.5,10499975130.298197,47.655,-122.3035,60.0,9.316666666666666
2026-01-20T23:09:20+00:00,SAT-54789,36.63061654539735,62.45902517134935,609.4023522929215,0.7893717660505635,-27647.138286350473,10.5,10499972352.861713,47.655,-122.3035,60.0,9.333333333333334
2026-01-20T23:09:21+00:00,SAT-54789,38.06026630047069,62.301111980616874,610.1896078622007,0.8683652269776615,-30413.823430025866,10.5,10499969586.17657,47.655,-122.3035,60.0,9.35
2026-01-20T23:09:22+00:00,SAT-54789,39.47053075884075,62.12891811040732,611.0556451218391,0.9470227849138003,-33168.74383008963,10.5,10499966831.25617,47.655,-122.3035,60.0,9.366666666666667
2026-01-20T23:09:23+00:00,SAT-54789,40.86014428606504,61.94287266024329,612.0001290693557,1.0253161347584585,-35910.90812219103,10.5,10499964089.091877,47.655,-122.3035,60.0,9.383333333333333
2026-01-20T23:09:24+00:00,SAT-54789,42.2279745770099,61.74342738677985,613.0226964730506,1.1032176667044182,-38639.34929409195,10.5,10499961360.650705,47.655,-122.3035,60.0,9.4
2026-01-20T23:09:25+00:00,SAT-54789,43.57302322582407,61.53105330126318,614.1229565654344,1.1807004711010503,-41353.12485599964,10.5,10499958646.875143,47.655,-122.3035,60.0,9.416666666666666
2026-01-20T23:09:26+00:00,SAT-54789,44.8944245683013,61.306237322008144,615.3004917415093,1.257738434215749,-44051.32019453726,10.5,10499955948.679806,47.655,-122.3035,60.0,9.433333333333334
2026-01-20T23:09:27+00:00,SAT-54789,46.19144308579074,61.06947900624697,616.5548583525504,1.3343062259600433,-46733.0481428604,10.5,10499953266.951857,47.655,-122.3035,60.0,9.45
2026-01-20T23:09:28+00:00,SAT-54789,47.46346944201514,60.82128741796148,617.8855874876532,1.410379362065333,-49397.45115831432,10.5,10499950602.548841,47.655,-122.3035,60.0,9.466666666666667
2026-01-20T23:09:29+00:00,SAT-54789,48.710015445903984,60.56217814672864,619.2921858172813,1.4859342217519076,-52043.70194127776,10.5,10499947956.29806,47.655,-122.3035,60.0,9.483333333333333
2026-01-20T23:09:30+00:00,SAT-54789,49.93070809922039,60.29267050906303,620.7741364544435,1.5609480846098231,-54671.00472688724,10.5,10499945328.995274,47.655,-122.3035,60.0,9.5
2026-01-20T23:09:31+00:00,SAT-54789,51.125282951871334,60.01328494550005,622.3308998526493,1.635399159509108,-57278.59629759476,10.5,10499942721.403702,47.655,-122.3035,60.0,9.516666666666667
2026-01-20T23:09:32+00:00,SAT-54789,52.29357694604623,59.72454062611574,623.9619147326969,1.7092665733593404,-59865.745589480684,10.5,10499940134.25441,47.655,-122.3035,60.0,9.533333333333333
2026-01-20T23:09:33+00:00,SAT-54789,53.43552090173276,59.4269532774652,625.6665989982517,1.7825304398993553,-62431.756101560204,10.5,10499937568.243898,47.655,-122.3035,60.0,9.55
2026-01-20T23:09:34+00:00,SAT-54789,54.55113185806131,59.1210332181117,627.4443507200309,1.8551718200400904,-64975.96450682208,10.5,10499935024.035494,47.655,-122.3035,60.0,9.566666666666666
2026-01-20T23:09:35+00:00,SAT-54789,55.64050533810538,58.80728361925947,629.2945490804352,1.9271727842201054,-67497.7428361827,10.5,10499932502.257164,47.655,-122.3035,60.0,9.583333333333334
2026-01-20T23:09:36+00:00,SAT-54789,56.70380772407232,58.48619896687501,631.2165553803707,1.9985163695593502,-69996.49697782983,10.5,10499930003.503021,47.655,-122.3035,60.0,9.6
2026-01-20T23:09:37+00:00,SAT-54789,57.74126878124921,58.158263734836154,633.2097140033385,2.0691866297283577,-72471.6684238526,10.5,10499927528.331575,47.655,-122.3035,60.0,9.616666666666667
2026-01-20T23:09:38+00:00,SAT-54789,58.75317446602921,57.82395124288712,635.2733534292602,2.1391685999424475,-74922.73304419052,10.5,10499925077.266956,47.655,-122.3035,60.0,9.633333333333333
2026-01-20T23:09:39+00:00,SAT-54789,59.73986003710188,57.4837227016368,637.4067872133916,2.2084483219539406,-77349.20196196655,10.5,10499922650.798038,47.655,-122.3035,60.0,9.65
2026-01-20T23:09:40+00:00,SAT-54789,60.70170354948189,57.13802642168931,639.6093149901601,2.27701282777299,-79750.62098332171,10.5,10499920249.379017,47.655,-122.3035,60.0,9.666666666666666
2026-01-20T23:09:41+00:00,SAT-54789,61.639119744780665,56.78729718019694,641.8802234607697,2.3448501326328053,-82126.57035102749,10.5,10499917873.42965,47.655,-122.3035,60.0,9.683333333333334
2026-01-20T23:09:42+00:00,SAT-54789,62.55255436464366,56.431955729522755,644.2187873737862,2.4119492245773695,-84476.66437980364,10.5,10499915523.33562,47.655,-122.3035,60.0,9.7
2026-01-20T23:09:43+00:00,SAT-54789,63.442478897025794,56.07240843491298,646.6242704953414,2.478300053034884,-86800.5510561119,10.5,10499913199.448944,47.655,-122.3035,60.0,9.716666666666667
2026-01-20T23:09:44+00:00,SAT-54789,64.30938575641393,55.70904702803212,649.0959265679396,2.5438935273187706,-89097.91198565473,10.5,10499910902.088015,47.655,-122.3035,60.0,9.733333333333333
2026-01-20T23:09:45+00:00,SAT-54789,65.15378389566901,55.342248462184585,651.6330002677688,2.608721482290696,-91368.46119074918,10.5,10499908631.538809,47.655,-122.3035,60.0,9.75
2026-01-20T23:09:46+00:00,SAT-54789,65.97619482649644,54.97237486191236,654.2347281277692,2.672776674536975,-93611.94497640844,10.5,10499906388.055023,47.655,-122.3035,60.0,9.766666666666667
2026-01-20T23:09:47+00:00,SAT-54789,66.777149043647,54.59977355105605,656.9003394568848,2.7360527379987034,-95828.14037632123,10.5,10499904171.859623,47.655,-122.3035,60.0,9.783333333333333
2026-01-20T23:09:48+00:00,SAT-54789,67.55718282071241,54.224777154423705,659.6290572150682,2.798544201499874,-98016.85576676074,10.5,10499901983.144234,47.655,-122.3035,60.0,9.8
2026-01-20T23:09:49+00:00,SAT-54789,68.316835374361,53.84770375459636,662.4200989057631,2.860246457620186,-100177.92977637867,10.5,10499899822.070223,47.655,-122.3035,60.0,9.816666666666666
2026-01-20T23:09:50+00:00,SAT-54789,69.05664635817772,53.46885710194848,665.2726774373443,2.9211556861266557,-102311.22860445638,10.5,10499897688.771395,47.655,-122.3035,60.0,9.833333333333334
2026-01-20T23:09:51+00:00,SAT-54789,69.77715365332641,53.08852687544329,668.1860019081961,2.981268903327218,-104416.6477494767,10.5,10499895583.352251,47.655,-122.3035,60.0,9.85
2026-01-20T23:09:52+00:00,SAT-54789,70.4788914631415,52.7069889700586,671.1592784410084,3.0405838809207375,-106494.10916690821,10.5,10499893505.890833,47.655,-122.3035,60.0,9.866666666666667
2026-01-20T23:09:53+00:00,SAT-54789,71.16238865556518,52.32450582166037,674.191710936145,3.099099171222621,-108543.56215271272,10.5,10499891456.437847,47.655,-122.3035,60.0,9.883333333333333
2026-01-20T23:09:54+00:00,SAT-54789,71.82816735506577,51.94132674955916,677.2825018501651,3.156814014683304,-110564.98010425163,10.5,10499889435.019896,47.655,-122.3035,60.0,9.9
2026-01-20T23:09:55+00:00,SAT-54789,72.47674173631304,51.55768832646052,680.4308528821157,3.2137283660098612,-112558.36143517506,10.5,10499887441.638565,47.655,-122.3035,60.0,9.916666666666666
2026-01-20T23:09:56+00:00,SAT-54789,73.10861702417051,51.1738147562099,683.6359656858705,3.269842844083103,-114523.72782130691,10.5,10499885476.272179,47.655,-122.3035,60.0,9.933333333333334
2026-01-20T23:09:57+00:00,SAT-54789,73.72428866365365,50.789918264926236,686.897042532527,3.325158724665006,-116461.12394522801,10.5,10499883538.876055,47.655,-122.3035,60.0,9.95
2026-01-20T23:09:58+00:00,SAT-54789,74.32424164961358,50.406199496790855,690.2132869655231,3.3796778499312756,-118370.61432772399,10.5,10499881629.385672,47.655,-122.3035,60.0,9.966666666666667
2026-01-20T23:09:59+00:00,SAT-54789,74.90894998460168,50.02284792107184,693.5839043655342,3.433402684465724,-120252.28528894513,10.5,10499879747.71471,47.655,-122.3035,60.0,9.983333333333333
2026-01-20T23:10:00+00:00,SAT-54789,75.47887627460898,49.64004223070493,697.0081025712124,3.4863362282567385,-122106.24190117471,10.5,10499877893.758099,47.655,-122.3035,60.0,10.0
2026-01-20T23:10:01+00:00,SAT-54789,76.03447142290536,49.25795074686823,700.4850924131557,3.53848201253,-123932.60784287308,10.5,10499876067.392157,47.655,-122.3035,60.0,10.016666666666667
2026-01-20T23:10:02+00:00,SAT-54789,76.5761744230486,48.87673181799347,704.0140882437206,3.589844049044415,-125731.52362280694,10.5,10499874268.476377,47.655,-122.3035,60.0,10.033333333333333
2026-01-20T23:10:03+00:00,SAT-54789,77.1044122316932,48.49653421680018,707.5943084162681,3.6404268505299204,-127503.14729586747,10.5,10499872496.852705,47.655,-122.3035,60.0,10.05
2026-01-20T23:10:04+00:00,SAT-54789,77.619599720299,48.1174975263914,711.2249757847906,3.6902353391893747,-129247.6512584197,10.5,10499870752.348742,47.655,-122.3035,60.0,10.066666666666666
2026-01-20T23:10:05+00:00,SAT-54789,78.12213968007786,47.73975252624856,714.905318112288,3.7392748683452894,-130965.22300646249,10.5,10499869034.776993,47.655,-122.3035,60.0,10.083333333333334
2026-01-20T23:10:06+00:00,SAT-54789,78.61242288718647,47.36342156515602,718.6345685007313,3.787551176099589,-132656.06351259738,10.5,10499867343.936487,47.655,-122.3035,60.0,10.1
2026-01-20T23:10:07+00:00,SAT-54789,79.09082821074227,46.9886189276027,722.4119657748098,3.8350703637833092,-134320.38647124587,10.5,10499865679.61353,47.655,-122.3035,60.0,10.116666666666667
2026-01-20T23:10:08+00:00,SAT-54789,79.55772275983743,46.61545119046861,726.2367548441874,3.8818388660561345,-135958.41725140868,10.5,10499864041.582748,47.655,-122.3035,60.0,10.133333333333333
2026-01-20T23:10:09+00:00,SAT-54789,80.01346206241747,46.24401757043272,730.1081870359374,3.9278634522892486,-137570.39294509907,10.5,10499862429.607056,47.655,-122.3035,60.0,10.15
2026-01-20T23:10:10+00:00,SAT-54789,80.45839027355305,45.874410258830984,734.0255204283563,3.9731511326310844,-139156.55907736806,10.5,10499860843.440922,47.655,-122.3035,60.0,10.166666666666666
2026-01-20T23:10:11+00:00,SAT-54789,80.89284039803265,45.5067147528136,737.9880200910957,4.017709238539573,-140717.17242688444,10.5,10499859282.827574,47.655,-122.3035,60.0,10.183333333333334
2026-01-20T23:10:12+00:00,SAT-54789,81.31713454176197,45.141010166194334,741.9949584056108,4.061545310817133,-142252.49710444646,10.5,10499857747.502895,47.655,-122.3035,60.0,10.2
2026-01-20T23:10:13+00:00,SAT-54789,81.73158416721064,44.77736953817658,746.0456152739429,4.104667138684896,-143762.80592152657,10.5,10499856237.194078,47.655,-122.3035,60.0,10.216666666666667
2026-01-20T23:10:14+00:00,SAT-54789,82.13649036554807,44.41586012585824,750.1392783664726,4.1470826723990175,-145248.37732972484,10.5,10499854751.622671,47.655,-122.3035,60.0,10.233333333333333
2026-01-20T23:10:15+00:00,SAT-54789,82.53214413016772,44.056543692109905,754.2752432825247,4.188800095960539,-146709.497967376,10.5,10499853290.502033,47.655,-122.3035,60.0,10.25
2026-01-20T23:10:16+00:00,SAT-54789,82.918826643841,43.69947677478979,758.4528137834824,4.229827715542461,-148146.4587517937,10.5,10499851853.541248,47.655,-122.3035,60.0,10.266666666666667
2026-01-20T23:10:17+00:00,SAT-54789,83.29680956042033,43.34471095370019,762.6713019146356,4.270174000433849,-149559.55631330598,10.5,10499850440.443687,47.655,-122.3035,60.0,10.283333333333333
2026-01-20T23:10:18+00:00,SAT-54789,83.66635529306666,42.99229310215091,766.9300281678582,4.309847546757123,-150949.09172448158,10.5,10499849050.908276,47.655,-122.3035,60.0,10.3
2026-01-20T23:10:19+00:00,SAT-54789,84.02771730031732,42.642265630149744,771.2283216081014,4.348857046136183,-152315.369402755,10.5,10499847684.630598,47.655,-122.3035,60.0,10.316666666666666
2026-01-20T23:10:20+00:00,SAT-54789,84.38114036925147,42.29466671892746,775.5655199686394,4.387211306516528,-153658.69783963528,10.5,10499846341.30216,47.655,-122.3035,60.0,10.333333333333334
2026-01-20T23:10:21+00:00,SAT-54789,84.72686089873197,41.94953054288477,779.9409697670782,4.424919200872282,-154979.38780420873,10.5,10499845020.612196,47.655,-122.3035,60.0,10.35
2026-01-20T23:10:22+00:00,SAT-54789,85.06510717581112,41.60688748511831,784.3540263702116,4.461989673555507,-156277.75256551927,10.5,10499843722.247435,47.655,-122.3035,60.0,10.366666666666667
2026-01-20T23:10:23+00:00,SAT-54789,85.39609964928718,41.26676434216869,788.804054065207,4.498431700883134,-157554.1065121555,10.5,10499842445.893488,47.655,-122.3035,60.0,10.383333333333333
2026-01-20T23:10:24+00:00,SAT-54789,85.72005119606841,40.92918452188444,793.2904260914839,4.534254339845496,-158808.76685823,10.5,10499841191.23314,47.655,-122.3035,60.0,10.4
2026-01-20T23:10:25+00:00,SAT-54789,86.03716738607422,40.59416822805309,797.8125247211711,4.569466614801283,-160042.04967495703,10.5,10499839957.950325,47.655,-122.3035,60.0,10.416666666666666
2026-01-20T23:10:26+00:00,SAT-54789,86.34764673397781,40.26173264431158,802.3697412265648,4.604077622972398,-161254.2735855289,10.5,10499838745.726414,47.655,-122.3035,60.0,10.433333333333334
2026-01-20T23:10:27+00:00,SAT-54789,86.65168095238973,39.93189210129745,806.9614759527925,4.63809642196209,-162445.75582552495,10.5,10499837554.244175,47.655,-122.3035,60.0,10.45
2026-01-20T23:10:28+00:00,SAT-54789,86.9494551914983,39.604658243539546,811.5871382783047,4.671532085765601,-163616.81420464156,10.5,10499836383.185795,47.655,-122.3035,60.0,10.466666666666667
2026-01-20T23:10:29+00:00,SAT-54789,87.24114827620167,39.280040183997166,816.2461466312199,4.704393652317441,-164767.76526957573,10.5,10499835232.23473,47.655,-122.3035,60.0,10.483333333333333
2026-01-20T23:10:30+00:00,SAT-54789,87.52693293348766,38.95804465443549,820.9379284533616,4.7366901578836345,-165898.92550858686,10.5,10499834101.074492,47.655,-122.3035,60.0,10.5
2026-01-20T23:10:31+00:00,SAT-54789,87.80697601541938,38.63867614580958,825.6619201985951,4.768430593484412,-167010.6098252356,10.5,10499832989.390175,47.655,-122.3035,60.0,10.516666666666667
2026-01-20T23:10:32+00:00,SAT-54789,88.08143871287096,38.321937044411854,830.417567287702,4.799623891114987,-168103.13105577647,10.5,10499831896.868944,47.655,-122.3035,60.0,10.533333333333333
2026-01-20T23:10:33+00:00,SAT-54789,88.3504767621072,38.00782776189018,835.204324049513,4.830278976240195,-169176.8018077428,10.5,10499830823.198193,47.655,-122.3035,60.0,10.55
2026-01-20T23:10:34+00:00,SAT-54789,88.61424064749627,37.696346855146466,840.0216537143965,4.8604046674953025,-170231.93094704428,10.5,10499829768.069054,47.655,-122.3035,60.0,10.566666666666666
2026-01-20T23:10:35+00:00,SAT-54789,88.87287579247054,37.387491146429056,844.8690283077141,4.890009786628675,-171268.82744862477,10.5,10499828731.172552,47.655,-122.3035,60.0,10.583333333333334
2026-01-20T23:10:36+00:00,SAT-54789,89.12652274956386,37.08125583020684,849.7459286529261,4.91910299685384,-172287.79473486726,10.5,10499827712.205265,47.655,-122.3035,60.0,10.6
2026-01-20T23:10:37+00:00,SAT-54789,89.37531737620272,36.777634584476836,854.6518442134816,4.9476929747341165,-173289.13669572107,10.5,10499826710.863304,47.655,-122.3035,60.0,10.616666666666667
2026-01-20T23:10:38+00:00,SAT-54789,89.61939101259213,36.47661966563266,859.586273106132,4.975788271546484,-174273.15283307788,10.5,10499825726.847166,47.655,-122.3035,60.0,10.633333333333333
2026-01-20T23:10:39+00:00,SAT-54789,89.85887064678847,36.178202006731915,864.5487219759813,5.003397387145485,-175240.1408477981,10.5,10499824759.859152,47.655,-122.3035,60.0,10.65
2026-01-20T23:10:40+00:00,SAT-54789,90.09387907725588,35.88237130610368,869.5387059452007,5.030528691220545,-176190.3938818091,10.5,10499823809.606117,47.655,-122.3035,60.0,10.666666666666666
2026-01-20T23:10:41+00:00,SAT-54789,90.32453506610143,35.58911611583282,874.5557484832132,5.057190507605047,-177124.20347096588,10.5,10499822875.79653,47.655,-122.3035,60.0,10.683333333333334
2026-01-20T23:10:42+00:00,SAT-54789,90.55095349033643,35.298423920600975,879.5993813609595,5.083391040263414,-178041.85695280513,10.5,10499821958.143047,47.655,-122.3035,60.0,10.7
2026-01-20T23:10:43+00:00,SAT-54789,90.77324548440559,35.01028121651068,884.6691445313518,5.109138424197053,-178943.63924948726,10.5,10499821056.36075,47.655,-122.3035,60.0,10.716666666666667
2026-01-20T23:10:44+00:00,SAT-54789,90.99151857945962,34.72467358277079,889.764586060495,5.134440650639503,-179829.83024781354,10.5,10499820170.169752,47.655,-122.3035,60.0,10.733333333333333
2026-01-20T23:10:45+00:00,SAT-54789,91.20587683445622,34.44158575361339,894.8852619843027,5.159305659373523,-180700.7080325616,10.5,10499819299.291967,47.655,-122.3035,60.0,10.75
2026-01-20T23:10:46+00:00,SAT-54789,91.41642096588363,34.161001681226864,900.0307362571876,5.183741246239301,-181556.54564703113,10.5,10499818443.454353,47.655,-122.3035,60.0,10.766666666666667
2026-01-20T23:10:47+00:00,SAT-54789,91.62324846900972,33.882904600229,905.2005806085022,5.207755134190938,-182397.61358174277,10.5,10499817602.386417,47.655,-122.3035,60.0,10.783333333333333
2026-01-20T23:10:48+00:00,SAT-54789,91.82645373712951,33.60727708479081,910.3943744698486,5.2313549215922075,-183224.17796353696,10.5,10499816775.822037,47.655,-122.3035,60.0,10.8
2026-01-20T23:10:49+00:00,SAT-54789,92.02612817433265,33.334101105318005,915.6117048508231,5.254548103765829,-184036.50131032048,10.5,10499815963.49869,47.655,-122.3035,60.0,10.816666666666666
2026-01-20T23:10:50+00:00,SAT-54789,92.2223603046924,33.063358080848005,920.8521662362501,5.277342071804368,-184834.84248941936,10.5,10499815165.15751,47.655,-122.3035,60.0,10.833333333333334
2026-01-20T23:10:51+00:00,SAT-54789,92.41523587718045,32.795028928582035,926.1153604822331,5.29974408914867,-185619.45589725624,10.5,10499814380.544104,47.655,-122.3035,60.0,10.85
2026-01-20T23:10:52+00:00,SAT-54789,92.60483796569234,32.5290941118014,931.4008966888435,5.321761331825656,-186390.59286864844,10.5,10499813609.407131,47.655,-122.3035,60.0,10.866666666666667
2026-01-20T23:10:53+00:00,SAT-54789,92.79124706654132,32.26553368307828,936.7083911129417,5.343400865786031,-187148.50088307867,10.5,10499812851.499117,47.655,-122.3035,60.0,10.883333333333333
2026-01-20T23:10:54+00:00,SAT-54789,92.97454119133768,32.004327326156385,942.0374670583959,5.364669632004949,-187893.42304285706,10.5,10499812106.576958,47.655,-122.3035,60.0,10.9
2026-01-20T23:10:55+00:00,SAT-54789,93.15479595579703,31.745454396151338,947.3877547514418,5.385574437097714,-188625.59774444357,10.5,10499811374.402256,47.655,-122.3035,60.0,10.916666666666666
2026-01-20T23:10:56+00:00,SAT-54789,93.33208466480264,31.488893957875714,952.7588912066831,5.406122046610781,-189345.26194589323,10.5,10499810654.738054,47.655,-122.3035,60.0,10.933333333333334
2026-01-20T23:10:57+00:00,SAT-54789,93.50647839697218,31.23462481757246,958.1505201861318,5.426319050440574,-190052.64645325407,10.5,10499809947.353546,47.655,-122.3035,60.0,10.95
2026-01-20T23:10:58+00:00,SAT-54789,93.67804608178558,30.982625559068193,963.5622920240302,5.446171955456541,-190747.9791646182,10.5,10499809252.020836,47.655,-122.3035,60.0,10.966666666666667
2026-01-20T23:10:59+00:00,SAT-54789,93.84685457653163,30.73287457354661,968.9938635440459,5.465687154414119,-191431.48398132232,10.5,10499808568.516018,47.655,-122.3035,60.0,10.983333333333333
2026-01-20T23:11:00+00:00,SAT-54789,94.0129687392429,30.485350088986667,974.4448979454637,5.484870930108788,-192103.3809534404,10.5,10499807896.619047,47.655,-122.3035,60.0,11.0
2026-01-20T23:11:01+00:00,SAT-54789,94.17645149893912,30.240030197671786,979.9150646935215,5.503729457209863,-192763.88634401053,10.5,10499807236.113655,47.655,-122.3035,60.0,11.016666666666667
