DopplerPredictor/satellites_20260205_234138/SAT-54773.csv

timestamp,satellite,azimuth_deg,elevation_deg,distance_km,relative_velocity_kms,doppler_shift_hz,tx_freq_ghz,rx_freq_hz,ue_lat,ue_lon,ue_alt_m,time_minutes
2026-01-20T23:09:53+00:00,SAT-54773,320.93739198359935,30.061660711742448,986.8444333367271,-3.4386754594832336,120436.96017387453,10.5,10500120436.960175,47.655,-122.3035,60.0,9.883333333333333
2026-01-20T23:09:54+00:00,SAT-54773,321.33317705173295,30.21314205022987,983.4149764916139,-3.4015323435494165,119136.05113864764,10.5,10500119136.051138,47.655,-122.3035,60.0,9.9
2026-01-20T23:09:55+00:00,SAT-54773,321.7329102076434,30.36413967512059,980.022563186866,-3.363998474371248,117821.45627191896,10.5,10500117821.456272,47.655,-122.3035,60.0,9.916666666666666
2026-01-20T23:09:56+00:00,SAT-54773,322.13661371135004,30.514614178490017,976.6675831281726,-3.3260728218828013,116493.1394964226,10.5,10500116493.139496,47.655,-122.3035,60.0,9.933333333333334
2026-01-20T23:09:57+00:00,SAT-54773,322.5443087385007,30.664525260505982,973.3504270485272,-3.2877544903933655,115151.06944128106,10.5,10500115151.06944,47.655,-122.3035,60.0,9.95
2026-01-20T23:09:58+00:00,SAT-54773,322.9560153171893,30.813831733449714,970.0714865742126,-3.2490427029263937,113795.21889348909,10.5,10500113795.218893,47.655,-122.3035,60.0,9.966666666666667
2026-01-20T23:09:59+00:00,SAT-54773,323.3717522606877,30.962491526289696,966.8311541064046,-3.209936861218026,112425.56689931564,10.5,10500112425.5669,47.655,-122.3035,60.0,9.983333333333333
2026-01-20T23:10:00+00:00,SAT-54773,323.7915371055588,31.11046169331911,963.6298226429403,-3.1704364979115245,111042.09708995084,10.5,10500111042.09709,47.655,-122.3035,60.0,10.0
2026-01-20T23:10:01+00:00,SAT-54773,324.2153860419744,31.25769842204456,960.4678856477597,-3.1305412835418607,109644.79792613574,10.5,10500109644.797926,47.655,-122.3035,60.0,10.016666666666667
2026-01-20T23:10:02+00:00,SAT-54773,324.64331384267786,31.40415704282947,957.345736913384,-3.0902510772837513,108233.66447557327,10.5,10500108233.664476,47.655,-122.3035,60.0,10.033333333333333
2026-01-20T23:10:03+00:00,SAT-54773,325.07533379687015,31.549792042447034,954.2637703727838,-3.0495658962548005,106808.69733779429,10.5,10500106808.697338,47.655,-122.3035,60.0,10.05
2026-01-20T23:10:04+00:00,SAT-54773,325.5114576384026,31.694557077829902,951.2223799418566,-3.0084858960828287,105369.90196354341,10.5,10500105369.901964,47.655,-122.3035,60.0,10.066666666666666
2026-01-20T23:10:05+00:00,SAT-54773,325.95169546934994,31.838404990549822,948.2219593812903,-2.967011435779489,103917.2909269273,10.5,10500103917.290926,47.655,-122.3035,60.0,10.083333333333334
2026-01-20T23:10:06+00:00,SAT-54773,326.39605569102434,31.981287826101042,945.2629020937225,-2.9251430563613683,102450.88317663538,10.5,10500102450.883177,47.655,-122.3035,60.0,10.1
2026-01-20T23:10:07+00:00,SAT-54773,326.84454493084166,32.123156853998445,942.3456009422252,-2.8828814534937903,100970.7030778099,10.5,10500100970.703077,47.655,-122.3035,60.0,10.116666666666667
2026-01-20T23:10:08+00:00,SAT-54773,327.2971679635954,32.263962588405064,939.4704480960706,-2.8402275302487228,99476.78225985121,10.5,10500099476.782259,47.655,-122.3035,60.0,10.133333333333333
2026-01-20T23:10:09+00:00,SAT-54773,327.75392763938254,32.40365481321041,936.6378348238793,-2.7971823744487274,97969.15882290687,10.5,10500097969.158823,47.655,-122.3035,60.0,10.15
2026-01-20T23:10:10+00:00,SAT-54773,328.2148248071284,32.54218260799933,933.848151309365,-2.7537472769784954,96447.87797921922,10.5,10500096447.87798,47.655,-122.3035,60.0,10.166666666666666
2026-01-20T23:10:11+00:00,SAT-54773,328.679858240168,32.67949437694207,931.1017864488192,-2.7099237265196923,94912.99186871728,10.5,10500094912.991869,47.655,-122.3035,60.0,10.183333333333334
2026-01-20T23:10:12+00:00,SAT-54773,329.1490245603377,32.81553787949642,928.3991276538408,-2.6657134021653794,93364.55930034265,10.5,10500093364.5593,47.655,-122.3035,60.0,10.2
2026-01-20T23:10:13+00:00,SAT-54773,329.62231816018436,32.95026026284687,925.7405606614382,-2.6211182114281226,91802.64708325414,10.5,10500091802.647083,47.655,-122.3035,60.0,10.216666666666667
2026-01-20T23:10:14+00:00,SAT-54773,330.09973113135874,33.08360809840037,923.1264693062204,-2.576140268429991,90227.32926294932,10.5,10500090227.329264,47.655,-122.3035,60.0,10.233333333333333
2026-01-20T23:10:15+00:00,SAT-54773,330.5812531894533,33.215527419390945,920.5572353143427,-2.5307818999710827,88638.68733381,10.5,10500088638.687334,47.655,-122.3035,60.0,10.25
2026-01-20T23:10:16+00:00,SAT-54773,331.0668715999189,33.34596376099056,918.0332380913975,-2.485045656490938,87036.81062301724,10.5,10500087036.810623,47.655,-122.3035,60.0,10.266666666666667
2026-01-20T23:10:17+00:00,SAT-54773,331.55657110653374,33.474862203225825,915.5548544993753,-2.4389343054807395,85421.7960598187,10.5,10500085421.79606,47.655,-122.3035,60.0,10.283333333333333
2026-01-20T23:10:18+00:00,SAT-54773,332.05033385928857,33.60216741579665,913.1224586401944,-2.392450843044167,83793.74858043878,10.5,10500083793.74858,47.655,-122.3035,60.0,10.3
2026-01-20T23:10:19+00:00,SAT-54773,332.548139345499,33.727823705757395,910.7364216277024,-2.3455985090979987,82152.78166046788,10.5,10500082152.78166,47.655,-122.3035,60.0,10.316666666666666
2026-01-20T23:10:20+00:00,SAT-54773,333.0499643255011,33.85177506826025,908.3971113445147,-2.298380750249833,80499.01601468322,10.5,10500080499.016014,47.655,-122.3035,60.0,10.333333333333334
2026-01-20T23:10:21+00:00,SAT-54773,333.55578276230875,33.9739652375983,906.1048922358796,-2.2508012628321046,78832.58110428214,10.5,10500078832.581104,47.655,-122.3035,60.0,10.35
2026-01-20T23:10:22+00:00,SAT-54773,334.0655657620146,34.09433774274016,903.8601250606226,-2.202863984734612,77153.61485082263,10.5,10500077153.614851,47.655,-122.3035,60.0,10.366666666666667
2026-01-20T23:10:23+00:00,SAT-54773,334.5792815151709,34.212835964663796,901.6631666502358,-2.1545730713832567,75462.26279489725,10.5,10500075462.262794,47.655,-122.3035,60.0,10.383333333333333
2026-01-20T23:10:24+00:00,SAT-54773,335.09689523519745,34.32940319456707,899.5143696919258,-2.1059329449846342,73758.67982088681,10.5,10500073758.679821,47.655,-122.3035,60.0,10.4
2026-01-20T23:10:25+00:00,SAT-54773,335.6183691111514,34.44398269685531,897.414082462548,-2.0569482449024346,72043.02841893228,10.5,10500072043.02842,47.655,-122.3035,60.0,10.416666666666666
2026-01-20T23:10:26+00:00,SAT-54773,336.1436622523125,34.55651777153044,895.3626486120312,-2.007623876399536,70315.48039208888,10.5,10500070315.480392,47.655,-122.3035,60.0,10.433333333333334
2026-01-20T23:10:27+00:00,SAT-54773,336.6727306483427,34.66695182123506,893.360406898192,-1.95796496471361,68576.2152478596,10.5,10500068576.215248,47.655,-122.3035,60.0,10.45
2026-01-20T23:10:28+00:00,SAT-54773,337.20552712217057,34.775228417720875,891.4076909673497,-1.9079768909797492,66825.42145635754,10.5,10500066825.421457,47.655,-122.3035,60.0,10.466666666666667
2026-01-20T23:10:29+00:00,SAT-54773,337.7420012964576,34.881291372135095,889.5048290991137,-1.857665283075777,65063.29612967,10.5,10500065063.29613,47.655,-122.3035,60.0,10.483333333333333
2026-01-20T23:10:30+00:00,SAT-54773,338.2820995629622,34.98508480655629,887.6521439603041,-1.8070360000744052,63290.04447730721,10.5,10500063290.044477,47.655,-122.3035,60.0,10.5
2026-01-20T23:10:31+00:00,SAT-54773,338.82576505286505,35.08655322630973,885.8499523743749,-1.7560951566065306,61505.88065950802,10.5,10500061505.88066,47.655,-122.3035,60.0,10.516666666666667
2026-01-20T23:10:32+00:00,SAT-54773,339.37293761978077,35.18564159516315,884.0985650665422,-1.7048490956416176,59711.02683389381,10.5,10500059711.026834,47.655,-122.3035,60.0,10.533333333333333
2026-01-20T23:10:33+00:00,SAT-54773,339.9235538210488,35.28229541038821,882.3982864360567,-1.6533044123751706,57905.7139921088,10.5,10500057905.713991,47.655,-122.3035,60.0,10.55
2026-01-20T23:10:34+00:00,SAT-54773,340.4775469128316,35.376460780417986,880.749414304655,-1.6014679261548026,56090.18097655221,10.5,10500056090.180977,47.655,-122.3035,60.0,10.566666666666666
2026-01-20T23:10:35+00:00,SAT-54773,341.0348468434312,35.46808450201804,879.1522396930077,-1.5493467095319813,54264.675497893295,10.5,10500054264.675497,47.655,-122.3035,60.0,10.583333333333334
2026-01-20T23:10:36+00:00,SAT-54773,341.5953802635565,35.557114140046096,877.607046568194,-1.496948047696563,52429.45271429714,10.5,10500052429.452715,47.655,-122.3035,60.0,10.6
2026-01-20T23:10:37+00:00,SAT-54773,342.15907053071504,35.64349810566095,876.1141116316343,-1.4442794724952457,50584.7764228948,10.5,10500050584.776423,47.655,-122.3035,60.0,10.616666666666667
2026-01-20T23:10:38+00:00,SAT-54773,342.725837733543,35.7271857370663,874.6737040730939,-1.3913487298878429,48730.91791996432,10.5,10500048730.91792,47.655,-122.3035,60.0,10.633333333333333
2026-01-20T23:10:39+00:00,SAT-54773,343.29559871310386,35.808127378776994,873.2860853571451,-1.3381637984508021,46868.15664900224,10.5,10500046868.156649,47.655,-122.3035,60.0,10.65
2026-01-20T23:10:40+00:00,SAT-54773,343.8682671000936,35.88627446215451,871.9515089911714,-1.2847328659743222,44996.779381055625,10.5,10500044996.77938,47.655,-122.3035,60.0,10.666666666666666
2026-01-20T23:10:41+00:00,SAT-54773,344.44375335222463,35.96157958457565,870.6702203167176,-1.2310643375614683,43117.080498387375,10.5,10500043117.080498,47.655,-122.3035,60.0,10.683333333333334
2026-01-20T23:10:42+00:00,SAT-54773,345.02196480436237,36.03399658885208,869.4424562927584,-1.1771668293047743,41229.36177300408,10.5,10500041229.361773,47.655,-122.3035,60.0,10.7
2026-01-20T23:10:43+00:00,SAT-54773,345.6028057264328,36.10348064184956,868.2684452852734,-1.123049152665984,39333.93181956844,10.5,10500039333.93182,47.655,-122.3035,60.0,10.716666666666667
2026-01-20T23:10:44+00:00,SAT-54773,346.18617738431834,36.169988311526474,867.1484068724052,-1.06872032291021,37431.106390799214,10.5,10500037431.10639,47.655,-122.3035,60.0,10.733333333333333
2026-01-20T23:10:45+00:00,SAT-54773,346.7719781155433,36.233477643592046,866.082551641197,-1.0141895416493463,35521.20776606773,10.5,10500035521.207766,47.655,-122.3035,60.0,10.75
2026-01-20T23:10:46+00:00,SAT-54773,347.36010340745133,36.29390823601755,865.0710810017508,-0.9594661958033956,33604.56471501913,10.5,10500033604.564714,47.655,-122.3035,60.0,10.766666666666667
2026-01-20T23:10:47+00:00,SAT-54773,347.95044598611963,36.35124131215228,864.114187002412,-0.9045598456336736,31681.512078444524,10.5,10500031681.51208,47.655,-122.3035,60.0,10.783333333333333
2026-01-20T23:10:48+00:00,SAT-54773,348.542895910063,36.405439791553896,863.2120521568953,-0.8494802268880015,29752.3908434148,10.5,10500029752.390844,47.655,-122.3035,60.0,10.8
2026-01-20T23:10:49+00:00,SAT-54773,349.1373406776021,36.45646835915348,862.3648492692673,-0.7942372259280522,27817.54727213501,10.5,10500027817.547272,47.655,-122.3035,60.0,10.816666666666666
2026-01-20T23:10:50+00:00,SAT-54773,349.7336653304605,36.504293530915895,861.5727412837374,-0.7388408980914561,25877.333545062997,10.5,10500025877.333546,47.655,-122.3035,60.0,10.833333333333334
2026-01-20T23:10:51+00:00,SAT-54773,350.33175258304385,36.548883718357345,860.8358811161335,-0.6833014263933551,23932.106314463148,10.5,10500023932.106314,47.655,-122.3035,60.0,10.85
2026-01-20T23:10:52+00:00,SAT-54773,350.93148293511854,36.5902092881246,860.1544115265687,-0.6276291417696847,21982.227413411747,10.5,10500021982.227413,47.655,-122.3035,60.0,10.866666666666667
2026-01-20T23:10:53+00:00,SAT-54773,351.53273481278643,36.62824262012764,859.528464971915,-0.5718344930016185,20028.06280242378,10.5,10500020028.062803,47.655,-122.3035,60.0,10.883333333333333
2026-01-20T23:10:54+00:00,SAT-54773,352.1353846988572,36.66295816099382,858.958163488276,-0.515928055462792,18069.98287581776,10.5,10500018069.982876,47.655,-122.3035,60.0,10.9
2026-01-20T23:10:55+00:00,SAT-54773,352.73930728581735,36.69433247498788,858.443618564732,-0.4599205054448022,16108.361562486081,10.5,10500016108.361563,47.655,-122.3035,60.0,10.916666666666666
2026-01-20T23:10:56+00:00,SAT-54773,353.3443756194405,36.72234429014394,857.984931042693,-0.4038226167713211,14143.57620730696,10.5,10500014143.576208,47.655,-122.3035,60.0,10.933333333333334
2026-01-20T23:10:57+00:00,SAT-54773,353.9504612522367,36.746974540780414,857.5821910186297,-0.3476452570917752,12176.00744133343,10.5,10500012176.00744,47.655,-122.3035,60.0,10.95
2026-01-20T23:10:58+00:00,SAT-54773,354.5574344117154,36.76820640622464,857.235477750497,-0.29139936472355005,10206.038370709364,10.5,10500010206.03837,47.655,-122.3035,60.0,10.966666666666667
2026-01-20T23:10:59+00:00,SAT-54773,355.16516415507425,36.78602534442758,856.9448595872572,-0.2350959494275332,8234.05460383229,10.5,10500008234.054604,47.655,-122.3035,60.0,10.983333333333333
2026-01-20T23:11:00+00:00,SAT-54773,355.7735185440181,36.80041912178609,856.7103938976267,-0.17874607468331477,6260.443630555926,10.5,10500006260.44363,47.655,-122.3035,60.0,11.0
2026-01-20T23:11:01+00:00,SAT-54773,356.38236481071135,36.81137783794297,856.532127016503,-0.12236085191631882,4285.594619999905,10.5,10500004285.59462,47.655,-122.3035,60.0,11.016666666666667
2026-01-20T23:11:02+00:00,SAT-54773,356.99156953810655,36.818893946195494,856.4100941971446,-0.06595142500701107,2309.8978779967047,10.5,10500002309.897879,47.655,-122.3035,60.0,11.033333333333333
2026-01-20T23:11:03+00:00,SAT-54773,357.60099882909617,36.82296226884139,856.3443195788067,-0.009528963178108798,333.7445979716487,10.5,10500000333.744598,47.655,-122.3035,60.0,11.05
2026-01-20T23:11:04+00:00,SAT-54773,358.2105184880761,36.823580007914245,856.3348161614637,0.04689535180442561,-1642.4735873324366,10.5,10499998357.526413,47.655,-122.3035,60.0,11.066666666666666
2026-01-20T23:11:05+00:00,SAT-54773,358.81999419952086,36.820746750921025,856.3815857933014,0.1033103367680045,-3618.364995906759,10.5,10499996381.635004,47.655,-122.3035,60.0,11.083333333333334
2026-01-20T23:11:06+00:00,SAT-54773,359.42929170821446,36.81446447166043,856.4846191693134,0.15970481722221272,-5593.538249828931,10.5,10499994406.46175,47.655,-122.3035,60.0,11.1
2026-01-20T23:11:07+00:00,SAT-54773,0.03827699387223751,36.8047375261836,856.6438958399597,0.21606763885893127,-7567.6026780459515,10.5,10499992432.397322,47.655,-122.3035,60.0,11.116666666666667
2026-01-20T23:11:08+00:00,SAT-54773,0.6468164525506348,36.79157264382431,856.8593842312964,0.27238767848071455,-9540.168699132195,10.5,10499990459.8313,47.655,-122.3035,60.0,11.133333333333333
2026-01-20T23:11:09+00:00,SAT-54773,1.2547770726659044,36.77497891337174,857.1310416760005,0.3286538576420439,-11510.848299063819,10.5,10499988489.151701,47.655,-122.3035,60.0,11.15
2026-01-20T23:11:10+00:00,SAT-54773,1.862026614659577,36.754967764271335,857.4588144580043,0.3848551430168974,-13479.255044092612,10.5,10499986520.744955,47.655,-122.3035,60.0,11.166666666666666
2026-01-20T23:11:11+00:00,SAT-54773,2.4684337684431505,36.73155294373159,857.8426378574931,0.44098057454002226,-15445.005066372394,10.5,10499984554.994934,47.655,-122.3035,60.0,11.183333333333334
2026-01-20T23:11:12+00:00,SAT-54773,3.073868341478183,36.70475048814334,858.2824362239678,0.49701925903436683,-17407.716840764726,10.5,10499982592.28316,47.655,-122.3035,60.0,11.2
2026-01-20T23:11:13+00:00,SAT-54773,3.678201411202366,36.67457869100502,858.7781230429575,0.5529603931431005,-19367.01198801524,10.5,10499980632.988012,47.655,-122.3035,60.0,11.216666666666667
2026-01-20T23:11:14+00:00,SAT-54773,4.2813054942260615,36.64105806570644,859.329601025595,0.6087932582503379,-21322.515096855932,10.5,10499978677.484903,47.655,-122.3035,60.0,11.233333333333333
2026-01-20T23:11:15+00:00,SAT-54773,4.8830546921615055,36.60421130500549,859.9367621931331,0.6645072552036029,-23273.85494013272,10.5,10499976726.14506,47.655,-122.3035,60.0,11.25
2026-01-20T23:11:16+00:00,SAT-54773,5.483324859475472,36.56406323493027,860.5994879960876,0.7200918857320433,-25220.663823992712,10.5,10499974779.336176,47.655,-122.3035,60.0,11.266666666666667
2026-01-20T23:11:17+00:00,SAT-54773,6.081993735541956,36.52064076651487,861.3176494148466,0.7755367790408094,-27162.57851933186,10.5,10499972837.42148,47.655,-122.3035,60.0,11.283333333333333
2026-01-20T23:11:18+00:00,SAT-54773,6.678941089647028,36.47397284280033,862.0911070868069,0.8308317005008488,-29099.240566148306,10.5,10499970900.759434,47.655,-122.3035,60.0,11.3
2026-01-20T23:11:19+00:00,SAT-54773,7.2740488574516995,36.424090382378836,862.9197114421736,0.8859665543129958,-31030.296366850078,10.5,10499968969.703632,47.655,-122.3035,60.0,11.316666666666666
2026-01-20T23:11:20+00:00,SAT-54773,7.867201265840567,36.37102622004145,863.8033028424176,0.9409314012922311,-32955.397809135095,10.5,10499967044.60219,47.655,-122.3035,60.0,11.333333333333334
2026-01-20T23:11:21+00:00,SAT-54773,8.458284957345745,36.31481504383394,864.7417117364714,0.9957164396572302,-34874.20159315989,10.5,10499965125.798407,47.655,-122.3035,60.0,11.35
2026-01-20T23:11:22+00:00,SAT-54773,9.047189090248152,36.25549333093455,865.7347587977628,1.0503120666625554,-36786.37139015963,10.5,10499963213.62861,47.655,-122.3035,60.0,11.366666666666667
2026-01-20T23:11:23+00:00,SAT-54773,9.633805464811646,36.19309927775897,866.7822551227179,1.1047088255586799,-38691.5759847639,10.5,10499961308.424015,47.655,-122.3035,60.0,11.383333333333333
2026-01-20T23:11:24+00:00,SAT-54773,10.218028604372488,36.12767273135692,867.8840023763652,1.1588974580167644,-40589.49111113404,10.5,10499959410.508888,47.655,-122.3035,60.0,11.4
2026-01-20T23:11:25+00:00,SAT-54773,10.799755855998328,36.05925511603589,869.0397929902246,1.2128688798455338,-42479.798602465526,10.5,10499957520.201397,47.655,-122.3035,60.0,11.416666666666666
2026-01-20T23:11:26+00:00,SAT-54773,11.378887465968978,35.98788936001233,870.249410335979,1.2666142170436265,-44362.18765369367,10.5,10499955637.812346,47.655,-122.3035,60.0,11.433333333333334
2026-01-20T23:11:27+00:00,SAT-54773,11.955326662572551,35.91361981873744,871.5126289350992,1.3201247890552767,-46236.354235036844,10.5,10499953763.645765,47.655,-122.3035,60.0,11.45
2026-01-20T23:11:28+00:00,SAT-54773,12.528979719215043,35.83649219826176,872.8292146517725,1.3733921119717187,-48102.001204123175,10.5,10499951897.998796,47.655,-122.3035,60.0,11.466666666666667
2026-01-20T23:11:29+00:00,SAT-54773,13.099756009659352,35.756553477655565,874.1989248890202,1.4264079291509193,-49958.839378423094,10.5,10499950041.160622,47.655,-122.3035,60.0,11.483333333333333
2026-01-20T23:11:30+00:00,SAT-54773,13.667568066237084,35.67385182913935,875.6215088153573,1.4791641967328049,-51806.58702793134,10.5,10499948193.412971,47.655,-122.3035,60.0,11.5
2026-01-20T23:11:31+00:00,SAT-54773,14.232331621406324,35.58843653876955,877.0967075770033,1.5316530813178435,-53644.96979386105,10.5,10499946355.030207,47.655,-122.3035,60.0,11.516666666666667
2026-01-20T23:11:32+00:00,SAT-54773,14.79396563965548,35.50035792716529,878.624254507778,1.5838669872941467,-55473.72164575447,10.5,10499944526.278355,47.655,-122.3035,60.0,11.533333333333333
2026-01-20T23:11:33+00:00,SAT-54773,15.352392350774876,35.40966726879446,880.2038753662531,1.6357985396726005,-57292.584280296694,10.5,10499942707.41572,47.655,-122.3035,60.0,11.55
2026-01-20T23:11:34+00:00,SAT-54773,15.907537267762718,35.31641671256833,881.8352885557808,1.687440602579587,-59101.30776900887,10.5,10499940898.69223,47.655,-122.3035,60.0,11.566666666666666
2026-01-20T23:11:35+00:00,SAT-54773,16.459329203048682,35.220659201904716,883.5182053629715,1.7387862689911988,-60899.650198697076,10.5,10499939100.349802,47.655,-122.3035,60.0,11.583333333333334
2026-01-20T23:11:36+00:00,SAT-54773,17.007700273162488,35.12244839607815,885.2523301859281,1.789828861487435,-62687.37769786746,10.5,10499937312.622303,47.655,-122.3035,60.0,11.6
2026-01-20T23:11:37+00:00,SAT-54773,17.552585896545907,35.02183859240011,887.0373607632346,1.8405619639766797,-64464.265547851566,10.5,10499935535.734451,47.655,-122.3035,60.0,11.616666666666667
2026-01-20T23:11:38+00:00,SAT-54773,18.093924793883104,34.91888464765347,888.8729884345832,1.8909793822372634,-66230.096800805,10.5,10499933769.903198,47.655,-122.3035,60.0,11.633333333333333
2026-01-20T23:11:39+00:00,SAT-54773,18.631658969331614,34.8136419029616,890.758898362052,1.9410751659575565,-67984.66305164469,10.5,10499932015.336948,47.655,-122.3035,60.0,11.65
2026-01-20T23:11:40+00:00,SAT-54773,19.165733692549225,34.70616610874679,892.6947697733577,1.9908436146215371,-69727.76464418642,10.5,10499930272.235355,47.655,-122.3035,60.0,11.666666666666666
2026-01-20T23:11:41+00:00,SAT-54773,19.696097476196414,34.596513350844724,894.6802762109849,2.0402792730377253,-71459.2105145491,10.5,10499928540.789486,47.655,-122.3035,60.0,11.683333333333334
2026-01-20T23:11:42+00:00,SAT-54773,20.222702046421585,34.48473997848439,896.7150857768503,2.089376915692369,-73178.81764313723,10.5,10499926821.182358,47.655,-122.3035,60.0,11.7
2026-01-20T23:11:43+00:00,SAT-54773,20.745502304326752,34.370902534827465,898.7988613613653,2.138131568344463,-74886.4118109898,10.5,10499925113.588188,47.655,-122.3035,60.0,11.716666666666667
2026-01-20T23:11:44+00:00,SAT-54773,21.26445628849017,34.2550576881386,900.9312608940372,2.18653851141494,-76581.82771848406,10.5,10499923418.172281,47.655,-122.3035,60.0,11.733333333333333
2026-01-20T23:11:45+00:00,SAT-54773,21.779525133564423,34.13726216469019,903.1119375974455,2.234593242294679,-78264.9076652026,10.5,10499921735.092335,47.655,-122.3035,60.0,11.75
2026-01-20T23:11:46+00:00,SAT-54773,22.290673015988897,34.01757268568982,905.3405402036313,2.2822915179738508,-79935.50304299328,10.5,10499920064.496958,47.655,-122.3035,60.0,11.766666666666667
2026-01-20T23:11:47+00:00,SAT-54773,22.797867106442617,33.896045903954075,907.6167132130018,2.329629334918198,-81593.47363115144,10.5,10499918406.52637,47.655,-122.3035,60.0,11.783333333333333
2026-01-20T23:11:48+00:00,SAT-54773,23.301077514094082,33.77273834379256,909.9400971331618,2.3766029089174787,-83238.68689062726,10.5,10499916761.313108,47.655,-122.3035,60.0,11.8
2026-01-20T23:11:49+00:00,SAT-54773,23.800277223865205,33.647706344114475,912.3103286976517,2.4232087106520903,-84871.01920971925,10.5,10499915128.980791,47.655,-122.3035,60.0,11.816666666666666
2026-01-20T23:11:50+00:00,SAT-54773,24.295442039007394,33.52100600184269,914.7270411201534,2.4694434338882933,-86490.35479013645,10.5,10499913509.64521,47.655,-122.3035,60.0,11.833333333333334
2026-01-20T23:11:51+00:00,SAT-54773,24.786550514636133,33.39269311925066,917.1898643169785,2.5153040044273247,-88096.58596043437,10.5,10499911903.41404,47.655,-122.3035,60.0,11.85
2026-01-20T23:11:52+00:00,SAT-54773,25.273583891517227,33.26282315306027,919.6984251384819,2.5607875732975405,-89689.61293757487,10.5,10499910310.387062,47.655,-122.3035,60.0,11.866666666666667
2026-01-20T23:11:53+00:00,SAT-54773,25.756526027032397,33.13145116616191,922.2523475936839,2.6058915245489835,-91269.34409992503,10.5,10499908730.655901,47.655,-122.3035,60.0,11.883333333333333
2026-01-20T23:11:54+00:00,SAT-54773,26.235363326457282,32.998631781190994,924.8512530826688,2.650613452484374,-92835.69518979001,10.5,10499907164.30481,47.655,-122.3035,60.0,11.9
2026-01-20T23:11:55+00:00,SAT-54773,26.710084669082693,32.864419137533005,927.4947606062717,2.6949511706019997,-94388.58962663097,10.5,10499905611.410374,47.655,-122.3035,60.0,11.916666666666666
2026-01-20T23:11:56+00:00,SAT-54773,27.18068133558064,32.72886685010443,930.1824869846881,2.7389027087252917,-95927.95840653057,10.5,10499904072.041594,47.655,-122.3035,60.0,11.933333333333334
2026-01-20T23:11:57+00:00,SAT-54773,27.6471469344831,32.592027970507864,932.9140470732203,2.7824663112499706,-97453.7400408008,10.5,10499902546.259958,47.655,-122.3035,60.0,11.95
2026-01-20T23:11:58+00:00,SAT-54773,28.109477328218897,32.45395495048173,935.6890539762702,2.825640424307055,-98965.88010637705,10.5,10499901034.119894,47.655,-122.3035,60.0,11.966666666666667
2026-01-20T23:11:59+00:00,SAT-54773,28.567670557134864,32.314699608154534,938.5071192485378,2.868423685593127,-100464.3308896311,10.5,10499899535.669111,47.655,-122.3035,60.0,11.983333333333333
2026-01-20T23:12:00+00:00,SAT-54773,29.021726762395303,32.174313096930014,941.3678530860723,2.9108149528030687,-101949.05238220576,10.5,10499898050.947618,47.655,-122.3035,60.0,12.0
2026-01-20T23:12:01+00:00,SAT-54773,29.47164811400254,32.03284587505539,944.2708645456793,2.9528132620243976,-103420.01082380857,10.5,10499896579.989176,47.655,-122.3035,60.0,12.016666666666667
2026-01-20T23:12:02+00:00,SAT-54773,29.917438732893547,31.890347679288613,947.2157617228365,2.9944178381227378,-104877.17906595486,10.5,10499895122.820934,47.655,-122.3035,60.0,12.033333333333333
2026-01-20T23:12:03+00:00,SAT-54773,30.35910461580116,31.746867500033762,950.2021519399648,3.0356280844460475,-106320.53621136627,10.5,10499893679.463789,47.655,-122.3035,60.0,12.05
2026-01-20T23:12:04+00:00,SAT-54773,30.79665355974879,31.602453558903395,953.2296419244333,3.076443610403422,-107750.06857989711,10.5,10499892249.93142,47.655,-122.3035,60.0,12.066666666666666
2026-01-20T23:12:05+00:00,SAT-54773,31.230095091704385,31.4571532868603,956.2978380140662,3.1168641626775453,-109165.76729930352,10.5,10499890834.2327,47.655,-122.3035,60.0,12.083333333333334
2026-01-20T23:12:06+00:00,SAT-54773,31.65944038980287,31.31101330744932,959.4063462940509,3.1568896879609913,-110567.6305025339,10.5,10499889432.369497,47.655,-122.3035,60.0,12.1
2026-01-20T23:12:07+00:00,SAT-54773,32.08470221505554,31.164079418811024,962.5547727964093,3.1965202838081983,-111955.6616063573,10.5,10499888044.338394,47.655,-122.3035,60.0,12.116666666666667
2026-01-20T23:12:08+00:00,SAT-54773,32.505894837783565,31.016396579715206,965.7427236504565,3.235756208586151,-113329.86965987846,10.5,10499886670.13034,47.655,-122.3035,60.0,12.133333333333333
2026-01-20T23:12:09+00:00,SAT-54773,32.923033967248045,30.868008896750215,968.9698052431814,3.274597889744268,-114690.26963418411,10.5,10499885309.730366,47.655,-122.3035,60.0,12.15
2026-01-20T23:12:10+00:00,SAT-54773,33.336136684110436,30.71895961270498,972.2356243878779,3.3130458745202542,-116036.88069585348,10.5,10499883963.119305,47.655,-122.3035,60.0,12.166666666666666
2026-01-20T23:12:11+00:00,SAT-54773,33.74522136853747,30.569291098701896,975.5397884436089,3.351100894841929,-117369.72848009491,10.5,10499882630.27152,47.655,-122.3035,60.0,12.183333333333334
2026-01-20T23:12:12+00:00,SAT-54773,34.15030763846803,30.419044844802418,978.8819054994035,3.388763798409702,-118688.84267696243,10.5,10499881311.157324,47.655,-122.3035,60.0,12.2
2026-01-20T23:12:13+00:00,SAT-54773,34.55141628121718,30.268261455114995,982.2615844897191,3.4260355560012137,-119994.25728719548,10.5,10499880005.742712,47.655,-122.3035,60.0,12.216666666666667
2026-01-20T23:12:14+00:00,SAT-54773,34.94856918834973,30.11698064383297,985.6784353171876,3.462917313782783,-121286.01245438676,10.5,10499878713.987545,47.655,-122.3035,60.0,12.233333333333333
