DopplerPredictor/satellites_20260205_234138/SAT-58374.csv

timestamp,satellite,azimuth_deg,elevation_deg,distance_km,relative_velocity_kms,doppler_shift_hz,tx_freq_ghz,rx_freq_hz,ue_lat,ue_lon,ue_alt_m,time_minutes
2026-01-20T23:03:38+00:00,SAT-58374,304.6262797092672,30.033898751953732,877.8442512189536,-5.835770628315406,204393.37268888784,10.5,10500204393.372688,47.655,-122.3035,60.0,3.6333333333333333
2026-01-20T23:03:39+00:00,SAT-58374,304.71560715044774,30.315486804157448,872.0241254863564,-5.817589447207703,203756.59082017626,10.5,10500203756.59082,47.655,-122.3035,60.0,3.65
2026-01-20T23:03:40+00:00,SAT-58374,304.8065946983461,30.600379712009946,866.2221321936295,-5.799033500966115,203106.68309122112,10.5,10500203106.683092,47.655,-122.3035,60.0,3.6666666666666665
2026-01-20T23:03:41+00:00,SAT-58374,304.8992906738456,30.888631208561442,860.4386451012127,-5.7800939107705975,202443.33852818696,10.5,10500202443.338528,47.655,-122.3035,60.0,3.683333333333333
2026-01-20T23:03:42+00:00,SAT-58374,304.9937452736066,31.18029578984837,854.6740468245639,-5.760761545748617,201766.23732929426,10.5,10500201766.23733,47.655,-122.3035,60.0,3.7
2026-01-20T23:03:43+00:00,SAT-58374,305.0900106605075,31.475428706575645,848.9287290855343,-5.741027091483693,201075.05326427784,10.5,10500201075.053265,47.655,-122.3035,60.0,3.716666666666667
2026-01-20T23:03:44+00:00,SAT-58374,305.1881410606248,31.774085957714163,843.2030928954212,-5.720881012110839,200369.45234680924,10.5,10500200369.452347,47.655,-122.3035,60.0,3.7333333333333334
2026-01-20T23:03:45+00:00,SAT-58374,305.28819286535065,32.07632428059898,837.4975487758221,-5.700313473396991,199649.09014044778,10.5,10500199649.090141,47.655,-122.3035,60.0,3.75
2026-01-20T23:03:46+00:00,SAT-58374,305.39022473812724,32.38220113508259,831.8125170562041,-5.679314503642119,198913.61739407817,10.5,10500198913.617393,47.655,-122.3035,60.0,3.7666666666666666
2026-01-20T23:03:47+00:00,SAT-58374,305.4942977307561,32.69177469419813,826.148428011001,-5.657873820371838,198162.67397195264,10.5,10500198162.673971,47.655,-122.3035,60.0,3.783333333333333
2026-01-20T23:03:48+00:00,SAT-58374,305.6004754034173,33.0051038234861,820.5057221695548,-5.635980928344158,197395.89228630182,10.5,10500197395.892286,47.655,-122.3035,60.0,3.8
2026-01-20T23:03:49+00:00,SAT-58374,305.7088239540116,33.322248063150816,814.8848505283142,-5.613625082283383,196612.89599211837,10.5,10500196612.895992,47.655,-122.3035,60.0,3.816666666666667
2026-01-20T23:03:50+00:00,SAT-58374,305.8194123547925,33.64326760566397,809.286274800196,-5.590795293562308,195813.3002211958,10.5,10500195813.30022,47.655,-122.3035,60.0,3.8333333333333335
2026-01-20T23:03:51+00:00,SAT-58374,305.93231249770537,33.96822327095738,803.7104676572862,-5.567480297197923,194996.71042617818,10.5,10500194996.710426,47.655,-122.3035,60.0,3.85
2026-01-20T23:03:52+00:00,SAT-58374,306.04759934811506,34.29717647666827,798.1579130064529,-5.543668630906265,194162.7251493958,10.5,10500194162.72515,47.655,-122.3035,60.0,3.8666666666666667
2026-01-20T23:03:53+00:00,SAT-58374,306.16535111018635,34.630189209762804,792.6291061861194,-5.5193484805882385,193310.93061112464,10.5,10500193310.93061,47.655,-122.3035,60.0,3.8833333333333333
2026-01-20T23:03:54+00:00,SAT-58374,306.28564939928316,34.967323985450854,787.1245543171376,-5.494507890293494,192440.90806340994,10.5,10500192440.908064,47.655,-122.3035,60.0,3.9
2026-01-20T23:03:55+00:00,SAT-58374,306.40857943052265,35.30864381484859,781.644776444256,-5.469134543419876,191552.22612674496,10.5,10500191552.226128,47.655,-122.3035,60.0,3.9166666666666665
2026-01-20T23:03:56+00:00,SAT-58374,306.5342302143873,35.654212155299284,776.1903038958064,-5.44321591193094,190644.44601629995,10.5,10500190644.446016,47.655,-122.3035,60.0,3.933333333333333
2026-01-20T23:03:57+00:00,SAT-58374,306.66269476892086,36.00409286526861,770.7616804945716,-5.416739170524368,189717.1185357367,10.5,10500189717.118536,47.655,-122.3035,60.0,3.95
2026-01-20T23:03:58+00:00,SAT-58374,306.79407034387566,36.35835014908908,765.3594628542533,-5.389691279006262,188769.78696230493,10.5,10500188769.786963,47.655,-122.3035,60.0,3.966666666666667
2026-01-20T23:03:59+00:00,SAT-58374,306.9284586620951,36.717048501810574,759.9842205937887,-5.362058871563774,187801.9831687014,10.5,10500187801.98317,47.655,-122.3035,60.0,3.9833333333333334
2026-01-20T23:04:00+00:00,SAT-58374,307.0659661743136,37.080252641220525,754.6365366620955,-5.333828349293256,186813.23086379707,10.5,10500186813.230864,47.655,-122.3035,60.0,4.0
2026-01-20T23:04:01+00:00,SAT-58374,307.20670433391086,37.44802743982887,749.3170075705383,-5.304985852328847,185803.04461646226,10.5,10500185803.044617,47.655,-122.3035,60.0,4.016666666666667
2026-01-20T23:04:02+00:00,SAT-58374,307.35078988988033,37.820437848594835,744.0262436531916,-5.275517244150933,184770.92930598272,10.5,10500184770.929306,47.655,-122.3035,60.0,4.033333333333333
2026-01-20T23:04:03+00:00,SAT-58374,307.4983451998208,38.19754881253712,738.7648693427508,-5.245408139755502,183716.38110866942,10.5,10500183716.38111,47.655,-122.3035,60.0,4.05
2026-01-20T23:04:04+00:00,SAT-58374,307.6494985657463,38.579425180765654,733.5335234183516,-5.2146438519308695,182638.88561624233,10.5,10500182638.885616,47.655,-122.3035,60.0,4.066666666666666
2026-01-20T23:04:05+00:00,SAT-58374,307.8043845921469,38.966131604472984,728.332859306967,-5.183209530861448,181537.9227253449,10.5,10500181537.922726,47.655,-122.3035,60.0,4.083333333333333
2026-01-20T23:04:06+00:00,SAT-58374,307.96314457414843,39.357732436477896,723.1635452455747,-5.15108997081099,180412.95986677357,10.5,10500180412.959867,47.655,-122.3035,60.0,4.1
2026-01-20T23:04:07+00:00,SAT-58374,308.1259269075753,39.75429160714054,718.0262646361251,-5.118269795745158,179263.45850676525,10.5,10500179263.458508,47.655,-122.3035,60.0,4.116666666666666
2026-01-20T23:04:08+00:00,SAT-58374,308.2928875351222,40.1558725039864,712.921716215381,-5.084733352290654,178088.87039797337,10.5,10500178088.870398,47.655,-122.3035,60.0,4.133333333333334
2026-01-20T23:04:09+00:00,SAT-58374,308.46419042191394,40.56253783250768,707.8506143315147,-5.05046476489867,176888.6395115251,10.5,10500176888.639511,47.655,-122.3035,60.0,4.15
2026-01-20T23:04:10+00:00,SAT-58374,308.6400080684003,40.97434946952281,702.8136891656867,-5.015447966428654,175662.20310819452,10.5,10500175662.203108,47.655,-122.3035,60.0,4.166666666666667
2026-01-20T23:04:11+00:00,SAT-58374,308.8205220631832,41.39136830668487,697.8116869231241,-4.979666626105884,174408.9892151716,10.5,10500174408.989216,47.655,-122.3035,60.0,4.183333333333334
2026-01-20T23:04:12+00:00,SAT-58374,309.0059236750603,41.81365407470885,692.8453700960488,-4.943104239343713,173128.4197720177,10.5,10500173128.419771,47.655,-122.3035,60.0,4.2
2026-01-20T23:04:13+00:00,SAT-58374,309.1964144941283,42.24126516053774,687.9155176370224,-4.905744142613695,171819.91115148002,10.5,10500171819.911152,47.655,-122.3035,60.0,4.216666666666667
2026-01-20T23:04:14+00:00,SAT-58374,309.3922071233495,42.67425841064424,683.0229251174624,-4.867569432958199,170482.8713404828,10.5,10500170482.87134,47.655,-122.3035,60.0,4.233333333333333
2026-01-20T23:04:15+00:00,SAT-58374,309.5935259209427,43.11268891074316,678.1684049664293,-4.8285631043967046,169116.70471765302,10.5,10500169116.704718,47.655,-122.3035,60.0,4.25
2026-01-20T23:04:16+00:00,SAT-58374,309.80060780744213,43.556609759643706,673.3527865733737,-4.788707999933734,167720.81037243505,10.5,10500167720.810373,47.655,-122.3035,60.0,4.266666666666667
2026-01-20T23:04:17+00:00,SAT-58374,310.0137031354309,44.0060718200453,668.576916438746,-4.7479868294472904,166294.58273161948,10.5,10500166294.582731,47.655,-122.3035,60.0,4.283333333333333
2026-01-20T23:04:18+00:00,SAT-58374,310.23307663019125,44.46112345042677,663.8416583067665,-4.7063822384182155,164837.4139665357,10.5,10500164837.413967,47.655,-122.3035,60.0,4.3
2026-01-20T23:04:19+00:00,SAT-58374,310.45900841084705,44.921810221549926,659.1478932296485,-4.663876720846225,163348.69094300352,10.5,10500163348.690943,47.655,-122.3035,60.0,4.316666666666666
2026-01-20T23:04:20+00:00,SAT-58374,310.6917950910166,45.38817460091975,654.4965197186759,-4.6204528264126035,161827.8024770468,10.5,10500161827.802477,47.655,-122.3035,60.0,4.333333333333333
2026-01-20T23:04:21+00:00,SAT-58374,310.93175098236486,45.86025563223763,649.8884536886683,-4.576093015684466,160274.13426353404,10.5,10500160274.134264,47.655,-122.3035,60.0,4.35
2026-01-20T23:04:22+00:00,SAT-58374,311.1792093917217,46.33808857361446,645.3246285468582,-4.530779755727401,158687.07222493808,10.5,10500158687.072226,47.655,-122.3035,60.0,4.366666666666666
2026-01-20T23:04:23+00:00,SAT-58374,311.4345240337346,46.82170451580869,640.8059951864082,-4.484495605600624,157066.0055057374,10.5,10500157066.005507,47.655,-122.3035,60.0,4.383333333333334
2026-01-20T23:04:24+00:00,SAT-58374,311.69807057017545,47.31112997821511,636.3335218946656,-4.437223136859201,155410.32368806825,10.5,10500155410.323689,47.655,-122.3035,60.0,4.4
2026-01-20T23:04:25+00:00,SAT-58374,311.9702482780101,47.806386462553334,631.9081943406995,-4.388945103741734,153719.42275241695,10.5,10500153719.422752,47.655,-122.3035,60.0,4.416666666666667
2026-01-20T23:04:26+00:00,SAT-58374,312.25148187453635,48.30748998852505,627.5310153931064,-4.339644371071633,151992.7025524176,10.5,10500151992.702553,47.655,-122.3035,60.0,4.433333333333334
2026-01-20T23:04:27+00:00,SAT-58374,312.5422234996512,48.81445058240146,623.2030050097229,-4.289303995113868,150229.56964679752,10.5,10500150229.569647,47.655,-122.3035,60.0,4.45
2026-01-20T23:04:28+00:00,SAT-58374,312.8429548805201,49.327271731912596,618.9252000466957,-4.237907313859705,148429.44046153058,10.5,10500148429.440462,47.655,-122.3035,60.0,4.466666666666667
2026-01-20T23:04:29+00:00,SAT-58374,313.1541896984897,49.84594980594474,614.6986539775136,-4.185437950673934,146591.74141757863,10.5,10500146591.741417,47.655,-122.3035,60.0,4.483333333333333
2026-01-20T23:04:30+00:00,SAT-58374,313.4764761720722,50.370473425268784,610.5244366083948,-4.131879835193894,144715.9096628638,10.5,10500144715.909662,47.655,-122.3035,60.0,4.5
2026-01-20T23:04:31+00:00,SAT-58374,313.8103998786379,50.900822781605775,606.4036337728398,-4.077217343067545,142801.3979664866,10.5,10500142801.397966,47.655,-122.3035,60.0,4.516666666666667
2026-01-20T23:04:32+00:00,SAT-58374,314.15658684932686,51.436968915637486,602.337346886813,-4.021435283551756,140847.67428436587,10.5,10500140847.674284,47.655,-122.3035,60.0,4.533333333333333
2026-01-20T23:04:33+00:00,SAT-58374,314.5157069524335,51.97887293013629,598.3266925162983,-3.964519000367256,138854.22529160551,10.5,10500138854.225292,47.655,-122.3035,60.0,4.55
2026-01-20T23:04:34+00:00,SAT-58374,314.8884776043594,52.52648514694394,594.3728018442672,-3.9064543988247307,136820.55733256528,10.5,10500136820.557333,47.655,-122.3035,60.0,4.566666666666666
2026-01-20T23:04:35+00:00,SAT-58374,315.27566783516517,53.07974419202286,590.4768201105951,-3.8472280456784493,134746.1999181571,10.5,10500134746.199919,47.655,-122.3035,60.0,4.583333333333333
2026-01-20T23:04:36+00:00,SAT-58374,315.6781027520046,53.63857601150535,586.6399059523898,-3.786827220952735,132630.70754102734,10.5,10500132630.70754,47.655,-122.3035,60.0,4.6
2026-01-20T23:04:37+00:00,SAT-58374,316.0966684363528,54.202892804635184,582.8632306926341,-3.7252399930211437,130473.66230514714,10.5,10500130473.662306,47.655,-122.3035,60.0,4.616666666666666
2026-01-20T23:04:38+00:00,SAT-58374,316.5323173214065,54.772591868117566,579.1479775539513,-3.662455293580064,128274.67655170523,10.5,10500128274.676552,47.655,-122.3035,60.0,4.633333333333334
2026-01-20T23:04:39+00:00,SAT-58374,316.986074098211,55.34755434222009,575.4953407975942,-3.598462992650009,126033.39548597015,10.5,10500126033.395487,47.655,-122.3035,60.0,4.65
2026-01-20T23:04:40+00:00,SAT-58374,317.45904220257773,55.92764384769844,571.9065247876397,-3.533253972901361,123749.49978049244,10.5,10500123749.49978,47.655,-122.3035,60.0,4.666666666666667
2026-01-20T23:04:41+00:00,SAT-58374,317.9524109398521,56.512705001007575,568.3827429810506,-3.4668202443715153,121422.7095929842,10.5,10500121422.709593,47.655,-122.3035,60.0,4.683333333333334
2026-01-20T23:04:42+00:00,SAT-58374,318.4674633138917,57.102561800653774,564.925216803333,-3.399154935668998,119052.78425825,10.5,10500119052.784258,47.655,-122.3035,60.0,4.7
2026-01-20T23:04:43+00:00,SAT-58374,319.0055846062999,57.69701584810471,561.5351745329631,-3.330252504053403,116639.52964607513,10.5,10500116639.529646,47.655,-122.3035,60.0,4.716666666666667
2026-01-20T23:04:44+00:00,SAT-58374,319.568271806362,58.295844422213094,558.2138499762981,-3.2601087363495656,114182.79819324354,10.5,10500114182.798193,47.655,-122.3035,60.0,4.733333333333333
2026-01-20T23:04:45+00:00,SAT-58374,320.15714392995216,58.89879835207526,554.9624811415757,-3.1887208133485876,111682.49115913438,10.5,10500111682.49116,47.655,-122.3035,60.0,4.75
2026-01-20T23:04:46+00:00,SAT-58374,320.7739533026381,59.50559967484176,551.7823088486844,-3.116087487130485,109138.56483631117,10.5,10500109138.564837,47.655,-122.3035,60.0,4.766666666666667
2026-01-20T23:04:47+00:00,SAT-58374,321.4205978965316,60.115939074279225,548.6745751620867,-3.0422090833732875,106551.03063139608,10.5,10500106551.030632,47.655,-122.3035,60.0,4.783333333333333
2026-01-20T23:04:48+00:00,SAT-58374,322.09913474658214,60.72947303892829,545.640521821441,-2.9670876223152445,103919.95930167819,10.5,10500103919.959301,47.655,-122.3035,60.0,4.8
2026-01-20T23:04:49+00:00,SAT-58374,322.81179451571705,61.34582072916336,542.6813885515833,-2.890726878793943,101245.48305793737,10.5,10500101245.483057,47.655,-122.3035,60.0,4.816666666666666
2026-01-20T23:04:50+00:00,SAT-58374,323.56099722118455,61.96456050531021,539.798411312631,-2.81313250036287,98527.79970138588,10.5,10500098527.799702,47.655,-122.3035,60.0,4.833333333333333
2026-01-20T23:04:51+00:00,SAT-58374,324.3493691321533,62.585226088896434,536.9928204322892,-2.7343120342222984,95767.17356690185,10.5,10500095767.173567,47.655,-122.3035,60.0,4.85
2026-01-20T23:04:52+00:00,SAT-58374,325.17976076253996,63.20730229401847,534.2658387112956,-2.6542750403041513,92963.93948373974,10.5,10500092963.939484,47.655,-122.3035,60.0,4.866666666666666
2026-01-20T23:04:53+00:00,SAT-58374,326.0552658641479,63.83022029974586,531.6186794160844,-2.573033130953489,90118.50416534374,10.5,10500090118.504166,47.655,-122.3035,60.0,4.883333333333334
2026-01-20T23:04:54+00:00,SAT-58374,326.9792411887194,64.45335239742107,529.0525442318766,-2.490600085133177,87231.3502092783,10.5,10500087231.35021,47.655,-122.3035,60.0,4.9
2026-01-20T23:04:55+00:00,SAT-58374,327.9553267062281,65.0760061787161,526.5686211018688,-2.4069918197375455,84303.03509251132,10.5,10500084303.035093,47.655,-122.3035,60.0,4.916666666666667
2026-01-20T23:04:56+00:00,SAT-58374,328.9874657151229,65.69741807874081,524.1680820950352,-2.3222265483562454,81334.19673199576,10.5,10500081334.196732,47.655,-122.3035,60.0,4.933333333333334
2026-01-20T23:04:57+00:00,SAT-58374,330.0799241730694,66.31674627286381,521.8520811155878,-2.2363247444747536,78325.55219579577,10.5,10500078325.552197,47.655,-122.3035,60.0,4.95
2026-01-20T23:04:58+00:00,SAT-58374,331.23730812115633,66.93306284044512,519.6217516491402,-2.1493092026807386,75277.89984679253,10.5,10500075277.899847,47.655,-122.3035,60.0,4.966666666666667
2026-01-20T23:04:59+00:00,SAT-58374,332.464577786394,67.54534519644444,517.478204447827,-2.061205110520875,72192.12185941376,10.5,10500072192.121859,47.655,-122.3035,60.0,4.983333333333333
2026-01-20T23:05:00+00:00,SAT-58374,333.76705641537603,68.15246679918525,515.4225251437609,-1.9720399898147984,69069.18216420035,10.5,10500069069.182165,47.655,-122.3035,60.0,5.0
2026-01-20T23:05:01+00:00,SAT-58374,335.1504311522286,68.75318714072559,513.4557719210173,-1.8818437695314099,65910.12900024258,10.5,10500065910.129,47.655,-122.3035,60.0,5.016666666666667
2026-01-20T23:05:02+00:00,SAT-58374,336.6207426295453,69.34614115956812,511.5789731149376,-1.7906487714650796,62716.094413500345,10.5,10500062716.094414,47.655,-122.3035,60.0,5.033333333333333
2026-01-20T23:05:03+00:00,SAT-58374,338.18435886728855,69.92982823883666,509.79312482571936,-1.6984896731497716,59488.2929578989,10.5,10500059488.292957,47.655,-122.3035,60.0,5.05
2026-01-20T23:05:04+00:00,SAT-58374,339.8479279992607,70.50260108547788,508.0991885689917,-1.605403514939561,56228.0219433185,10.5,10500056228.021944,47.655,-122.3035,60.0,5.066666666666666
2026-01-20T23:05:05+00:00,SAT-58374,341.61830322053106,71.06265496504312,506.49808891933003,-1.5114296548879944,52936.659855278755,10.5,10500052936.659855,47.655,-122.3035,60.0,5.083333333333333
2026-01-20T23:05:06+00:00,SAT-58374,343.50243210047375,71.60801794013004,504.9907111987695,-1.4166097151554897,49615.66447789905,10.5,10500049615.664478,47.655,-122.3035,60.0,5.1
2026-01-20T23:05:07+00:00,SAT-58374,345.5072014663113,72.13654302882387,503.5778992187681,-1.3209875374444326,46266.571333047155,10.5,10500046266.571333,47.655,-122.3035,60.0,5.116666666666666
2026-01-20T23:05:08+00:00,SAT-58374,347.6392286572327,72.64590351265588,502.26045306661524,-1.224609080622626,42890.99009467934,10.5,10500042890.990095,47.655,-122.3035,60.0,5.133333333333334
2026-01-20T23:05:09+00:00,SAT-58374,349.90459040271884,73.1335929434067,501.03912699394164,-1.127522385096955,39490.60334105545,10.5,10500039490.60334,47.655,-122.3035,60.0,5.15
2026-01-20T23:05:10+00:00,SAT-58374,352.3084829582479,73.59693179961512,499.914627340761,-1.0297774320811086,36067.161625699206,10.5,10500036067.161625,47.655,-122.3035,60.0,5.166666666666667
2026-01-20T23:05:11+00:00,SAT-58374,354.8548114008032,74.03308298670645,498.88761059986615,-0.9314260505314569,32622.480217898934,10.5,10500032622.480217,47.655,-122.3035,60.0,5.183333333333334
2026-01-20T23:05:12+00:00,SAT-58374,357.54571391206025,74.4390786103305,497.95868157403925,-0.8325218022114322,29158.435077176087,10.5,10500029158.435078,47.655,-122.3035,60.0,5.2
2026-01-20T23:05:13+00:00,SAT-58374,0.3810380928560103,74.81186035215711,497.12839164789153,-0.7331198459741748,25676.958099889343,10.5,10500025676.9581,47.655,-122.3035,60.0,5.216666666666667
2026-01-20T23:05:14+00:00,SAT-58374,3.3578011117936066,75.14833530497867,496.39723719505383,-0.6332767909041698,22180.031975633563,10.5,10500022180.031975,47.655,-122.3035,60.0,5.233333333333333
2026-01-20T23:05:15+00:00,SAT-58374,6.469682384363767,75.44544811596064,495.7656581318338,-0.5330505515301375,18669.685116182754,10.5,10500018669.685116,47.655,-122.3035,60.0,5.25
2026-01-20T23:05:16+00:00,SAT-58374,9.706613589549443,75.70026865351447,495.2340366152714,-0.4325001833454226,15147.985894718331,10.5,10500015147.985895,47.655,-122.3035,60.0,5.266666666666667
2026-01-20T23:05:17+00:00,SAT-58374,13.054541254177247,75.9100921721339,494.8026959052325,-0.33168571624195076,11617.036811981716,10.5,10500011617.036812,47.655,-122.3035,60.0,5.283333333333333
2026-01-20T23:05:18+00:00,SAT-58374,16.495436507381765,76.0725463666115,494.47189939262336,-0.23066797846569603,8078.968330450155,10.5,10500008078.96833,47.655,-122.3035,60.0,5.3
2026-01-20T23:05:19+00:00,SAT-58374,20.007609710512444,76.18569721450582,494.24184980317546,-0.1295084134242281,4535.93245816209,10.5,10500004535.932459,47.655,-122.3035,60.0,5.316666666666666
2026-01-20T23:05:20+00:00,SAT-58374,23.566352887007394,76.24814375688644,494.1126885839356,-0.028268900184315705,990.0964617839549,10.5,10500000990.096462,47.655,-122.3035,60.0,5.333333333333333
2026-01-20T23:05:21+00:00,SAT-58374,27.14488427564312,76.25909161545263,494.08449546877154,0.07298844005307889,-2556.363911454131,10.5,10499997443.63609,47.655,-122.3035,60.0,5.35
2026-01-20T23:05:22+00:00,SAT-58374,30.715516142240375,76.21839649627277,494.1572882368892,0.17420143152750475,-6101.271003417971,10.5,10499993898.728996,47.655,-122.3035,60.0,5.366666666666666
2026-01-20T23:05:23+00:00,SAT-58374,34.25092414922502,76.12657218795736,494.3310226584186,0.2753080342270606,-9642.45191046179,10.5,10499990357.54809,47.655,-122.3035,60.0,5.383333333333334
2026-01-20T23:05:24+00:00,SAT-58374,37.72537568295416,75.98476201983885,494.60559262979837,0.3762465350632647,-13177.745179180858,10.5,10499986822.25482,47.655,-122.3035,60.0,5.4
2026-01-20T23:05:25+00:00,SAT-58374,41.11578315603603,75.79467744334485,494.98083049982307,0.47695573209525793,-16705.007258722326,10.5,10499983294.99274,47.655,-122.3035,60.0,5.416666666666667
2026-01-20T23:05:26+00:00,SAT-58374,44.402482882606414,75.55851127589067,495.4565075794205,0.5773751200044175,-20222.118996890786,10.5,10499979777.881002,47.655,-122.3035,60.0,5.433333333333334
2026-01-20T23:05:27+00:00,SAT-58374,47.569690745651585,75.27883541104518,496.0323348364058,0.6774450701096737,-23726.991945046106,10.5,10499976273.008055,47.655,-122.3035,60.0,5.45
2026-01-20T23:05:28+00:00,SAT-58374,50.605637852620504,74.95849320083242,496.7079637697699,0.7771069976628495,-27217.57421749389,10.5,10499972782.425783,47.655,-122.3035,60.0,5.466666666666667
2026-01-20T23:05:29+00:00,SAT-58374,53.502431018479705,74.60049549876669,497.482987450813,0.8763035307664897,-30691.856407702366,10.5,10499969308.143593,47.655,-122.3035,60.0,5.483333333333333
2026-01-20T23:05:30+00:00,SAT-58374,56.25570761982176,74.20792709207157,498.35694173274317,0.9749786723900676,-34147.877262795286,10.5,10499965852.122738,47.655,-122.3035,60.0,5.5
2026-01-20T23:05:31+00:00,SAT-58374,58.86416148468386,73.78386764051432,499.32930662185976,1.073077934237613,-37583.728372162506,10.5,10499962416.271627,47.655,-122.3035,60.0,5.516666666666667
2026-01-20T23:05:32+00:00,SAT-58374,61.32901005781028,73.33132882068601,500.3995077822404,1.1705484835066509,-40997.55930757883,10.5,10499959002.440693,47.655,-122.3035,60.0,5.533333333333333
2026-01-20T23:05:33+00:00,SAT-58374,63.65345888581845,72.85320744648004,501.5669181867984,1.2673392769674423,-44387.58231922614,10.5,10499955612.41768,47.655,-122.3035,60.0,5.55
2026-01-20T23:05:34+00:00,SAT-58374,65.84220236657283,72.3522530717172,502.8308599020572,1.3634011580830174,-47752.07573724781,10.5,10499952247.924263,47.655,-122.3035,60.0,5.566666666666666
2026-01-20T23:05:35+00:00,SAT-58374,67.90098375404062,71.83104790034594,504.1906059697845,1.458686974673424,-51089.38809284839,10.5,10499948910.611908,47.655,-122.3035,60.0,5.583333333333333
2026-01-20T23:05:36+00:00,SAT-58374,69.83622463707661,71.29199657839114,505.6453824059778,1.553151669811468,-54397.94130184695,10.5,10499945602.058699,47.655,-122.3035,60.0,5.6
2026-01-20T23:05:37+00:00,SAT-58374,71.65472480083196,70.73732354657297,507.1943702904974,1.6467523515237863,-57676.233105903404,10.5,10499942323.766893,47.655,-122.3035,60.0,5.616666666666666
2026-01-20T23:05:38+00:00,SAT-58374,73.36342758913813,70.16907589374709,508.83670792621865,1.7394483641861909,-60922.83957308561,10.5,10499939077.160427,47.655,-122.3035,60.0,5.633333333333334
2026-01-20T23:05:39+00:00,SAT-58374,74.96924281063959,69.58912998571734,510.57149306938425,1.8312013509594876,-64136.417284635696,10.5,10499935863.582716,47.655,-122.3035,60.0,5.65
2026-01-20T23:05:40+00:00,SAT-58374,76.47891803949621,68.99920050216448,512.3977852222275,1.9219752768554743,-67315.70414283898,10.5,10499932684.295856,47.655,-122.3035,60.0,5.666666666666667
2026-01-20T23:05:41+00:00,SAT-58374,77.89894921990908,68.40085084881632,514.3146079485982,2.0117364955129506,-70459.52170980227,10.5,10499929540.47829,47.655,-122.3035,60.0,5.683333333333334
2026-01-20T23:05:42+00:00,SAT-58374,79.23552233412069,67.79550416289398,516.3209512561866,2.10045369459929,-73566.7732951859,10.5,10499926433.226706,47.655,-122.3035,60.0,5.7
2026-01-20T23:05:43+00:00,SAT-58374,80.49447888944856,67.18445440719786,518.4157739242933,2.188097995960922,-76636.44746389745,10.5,10499923363.552536,47.655,-122.3035,60.0,5.716666666666667
2026-01-20T23:05:44+00:00,SAT-58374,81.68129936688645,66.56887713923501,520.5980059314844,2.274642885798453,-79667.61559052882,10.5,10499920332.384409,47.655,-122.3035,60.0,5.733333333333333
2026-01-20T23:05:45+00:00,SAT-58374,82.80109970275956,65.94983977423377,522.8665508136066,2.3600642014236586,-82659.43139553037,10.5,10499917340.568605,47.655,-122.3035,60.0,5.75
2026-01-20T23:05:46+00:00,SAT-58374,83.85863704960187,65.32831118756891,525.2202880085953,2.4443401636320083,-85611.13207903344,10.5,10499914388.867922,47.655,-122.3035,60.0,5.766666666666667
2026-01-20T23:05:47+00:00,SAT-58374,84.8583218965972,64.70517057905302,527.6580752335675,2.527451265019464,-88522.03440923244,10.5,10499911477.965591,47.655,-122.3035,60.0,5.783333333333333
2026-01-20T23:05:48+00:00,SAT-58374,85.80423425941233,64.08121561868498,530.1787507505337,2.6093803044568036,-91391.53592982129,10.5,10499908608.46407,47.655,-122.3035,60.0,5.8
2026-01-20T23:05:49+00:00,SAT-58374,86.70014234693102,63.45716984796817,532.7811356664888,2.6901122702805846,-94219.11086884694,10.5,10499905780.889132,47.655,-122.3035,60.0,5.816666666666666
2026-01-20T23:05:50+00:00,SAT-58374,87.54952243405319,62.8336894081889,535.4640361170082,2.7696343410063617,-97004.31016368931,10.5,10499902995.689837,47.655,-122.3035,60.0,5.833333333333333
2026-01-20T23:05:51+00:00,SAT-58374,88.35557911844496,62.21136911040417,538.2262454505558,2.847935789734713,-99746.75811295588,10.5,10499900253.241886,47.655,-122.3035,60.0,5.85
2026-01-20T23:05:52+00:00,SAT-58374,89.12126532349335,61.59074792062472,541.0665463174535,2.925007931525841,-102446.15053331772,10.5,10499897553.849466,47.655,-122.3035,60.0,5.866666666666666
2026-01-20T23:05:53+00:00,SAT-58374,89.84930165653174,60.972313901337614,543.983712706366,3.0008440335487987,-105102.25161255519,10.5,10499894897.748388,47.655,-122.3035,60.0,5.883333333333334
2026-01-20T23:05:54+00:00,SAT-58374,90.54219485050253,60.35650866855996,546.9765118911773,3.075439292613664,-107714.89312263978,10.5,10499892285.106878,47.655,-122.3035,60.0,5.9
2026-01-20T23:05:55+00:00,SAT-58374,91.20225515072204,59.74373139905052,550.0437063554581,3.148790667509013,-110283.96854748306,10.5,10499889716.031452,47.655,-122.3035,60.0,5.916666666666667
2026-01-20T23:05:56+00:00,SAT-58374,91.83161253675149,59.13434246287206,553.1840555497206,3.220896887930703,-112809.43339566061,10.5,10499887190.566605,47.655,-122.3035,60.0,5.933333333333334
2026-01-20T23:05:57+00:00,SAT-58374,92.43223179496938,58.528666686663705,556.3963176575786,3.2917583211837727,-115291.30053174858,10.5,10499884708.699469,47.655,-122.3035,60.0,5.95
2026-01-20T23:05:58+00:00,SAT-58374,93.00592642445783,57.92699631453095,559.679251228966,3.361376887373773,-117729.6372059654,10.5,10499882270.362795,47.655,-122.3035,60.0,5.966666666666667
2026-01-20T23:05:59+00:00,SAT-58374,93.55437142718439,57.32959369013716,563.0316167287745,3.4297560235230873,-120124.5637973735,10.5,10499879875.436203,47.655,-122.3035,60.0,5.983333333333333
2026-01-20T23:06:00+00:00,SAT-58374,94.07911504263524,56.73669368208157,566.452178049705,3.496900506660135,-122476.24761771497,10.5,10499877523.752382,47.655,-122.3035,60.0,6.0
2026-01-20T23:06:01+00:00,SAT-58374,94.58158946999863,56.14850590463587,569.939703848679,3.562816487461808,-124784.9040897119,10.5,10499875215.095911,47.655,-122.3035,60.0,6.016666666666667
2026-01-20T23:06:02+00:00,SAT-58374,95.06312067675225,55.56521672088153,573.4929689168065,3.6275112993838485,-127050.79006200485,10.5,10499872949.209938,47.655,-122.3035,60.0,6.033333333333333
2026-01-20T23:06:03+00:00,SAT-58374,95.52493733082316,54.986991088506,577.1107553589934,3.690993445652138,-129274.20335353284,10.5,10499870725.796646,47.655,-122.3035,60.0,6.05
2026-01-20T23:06:04+00:00,SAT-58374,95.96817894939745,54.413974236532276,580.7918537605748,3.7532724597629787,-131455.47786766294,10.5,10499868544.522133,47.655,-122.3035,60.0,6.066666666666666
2026-01-20T23:06:05+00:00,SAT-58374,96.39390331438399,53.846293210524315,584.5350642148246,3.8143589111529828,-133594.98379077407,10.5,10499866405.016209,47.655,-122.3035,60.0,6.083333333333333
2026-01-20T23:06:06+00:00,SAT-58374,96.80309323284857,53.284058278182,588.3391973561183,3.874264225837389,-135693.12131025185,10.5,10499864306.878689,47.655,-122.3035,60.0,6.1
2026-01-20T23:06:07+00:00,SAT-58374,97.19666268148754,52.72736423681557,592.2030752142148,3.933000704116442,-137750.32123464107,10.5,10499862249.678766,47.655,-122.3035,60.0,6.116666666666666
2026-01-20T23:06:08+00:00,SAT-58374,97.57546240972219,52.17629160422637,596.1255320861977,3.9905813351172283,-139767.03849811625,10.5,10499860232.961502,47.655,-122.3035,60.0,6.133333333333334
2026-01-20T23:06:09+00:00,SAT-58374,97.94028503228711,51.630907732933906,600.1054152234556,4.047019883121161,-141743.7551840353,10.5,10499858256.244816,47.655,-122.3035,60.0,6.15
2026-01-20T23:06:10+00:00,SAT-58374,98.29186968157394,51.09126781825042,604.1415856047588,4.102330670462909,-143680.9729211418,10.5,10499856319.027079,47.655,-122.3035,60.0,6.166666666666667
2026-01-20T23:06:11+00:00,SAT-58374,98.63090623491527,50.55741585087371,608.2329184928159,4.156528586521823,-145579.2131984826,10.5,10499854420.786802,47.655,-122.3035,60.0,6.183333333333334
2026-01-20T23:06:12+00:00,SAT-58374,98.95803917527029,50.029385489346,612.3783039997982,4.209629019042135,-147439.0149599508,10.5,10499852560.98504,47.655,-122.3035,60.0,6.2
2026-01-20T23:06:13+00:00,SAT-58374,99.27387111280707,49.50720086994085,616.5766475843692,4.261647777827186,-149260.93193173473,10.5,10499850739.068068,47.655,-122.3035,60.0,6.216666666666667
2026-01-20T23:06:14+00:00,SAT-58374,99.5789659985226,48.99087736044492,620.8268704726114,4.312601081216968,-151045.53214870457,10.5,10499848954.467852,47.655,-122.3035,60.0,6.233333333333333
2026-01-20T23:06:15+00:00,SAT-58374,99.87385206287459,48.48042225526676,625.1279100654684,4.36250540812325,-152793.39277205608,10.5,10499847206.607227,47.655,-122.3035,60.0,6.25
2026-01-20T23:06:16+00:00,SAT-58374,100.15902449625573,47.97583543267015,629.4787201986184,4.411377572036534,-154505.10268134763,10.5,10499845494.897318,47.655,-122.3035,60.0,6.266666666666667
2026-01-20T23:06:17+00:00,SAT-58374,100.43494790902248,47.477109951737525,633.8782714761544,4.459234577593474,-156181.2574508845,10.5,10499843818.74255,47.655,-122.3035,60.0,6.283333333333333
2026-01-20T23:06:18+00:00,SAT-58374,100.70205857812869,46.98423261887394,638.3255514612196,4.506093620322772,-157822.45934081875,10.5,10499842177.540659,47.655,-122.3035,60.0,6.3
2026-01-20T23:06:19+00:00,SAT-58374,100.96076650837551,46.49718451024144,642.8195648663872,4.551972018576257,-159429.314913088,10.5,10499840570.685087,47.655,-122.3035,60.0,6.316666666666666
2026-01-20T23:06:20+00:00,SAT-58374,101.21145732128214,46.01594146113607,647.3593336761539,4.596887215177032,-161002.43508914034,10.5,10499838997.56491,47.655,-122.3035,60.0,6.333333333333333
2026-01-20T23:06:21+00:00,SAT-58374,101.4544939909593,45.54047451757153,651.9438972710775,4.640856684888798,-162542.4319091189,10.5,10499837457.56809,47.655,-122.3035,60.0,6.35
2026-01-20T23:06:22+00:00,SAT-58374,101.69021843569072,45.07075036277102,656.5723124596323,4.683897960533779,-164049.91944662156,10.5,10499835950.080553,47.655,-122.3035,60.0,6.366666666666666
2026-01-20T23:06:23+00:00,SAT-58374,101.91895298424583,44.60673170845827,661.2436535361118,4.726028544581016,-165525.5107121496,10.5,10499834474.489288,47.655,-122.3035,60.0,6.383333333333334
2026-01-20T23:06:24+00:00,SAT-58374,102.14100172225302,44.14837766504416,665.9570122503566,4.76726591656119,-166969.81791280583,10.5,10499833030.182087,47.655,-122.3035,60.0,6.4
2026-01-20T23:06:25+00:00,SAT-58374,102.35665173399214,43.695644082904955,670.7114977848785,4.8076275142496385,-168383.45179324428,10.5,10499831616.548206,47.655,-122.3035,60.0,6.416666666666667
2026-01-20T23:06:26+00:00,SAT-58374,102.56617424682818,43.24848386956777,675.506236713215,4.847130643839539,-169767.01848955505,10.5,10499830232.98151,47.655,-122.3035,60.0,6.433333333333334
2026-01-20T23:06:27+00:00,SAT-58374,102.76982568467625,42.80684729103205,680.3403728687023,4.88579255901213,-171121.12229863825,10.5,10499828878.8777,47.655,-122.3035,60.0,6.45
2026-01-20T23:06:28+00:00,SAT-58374,102.96784864415292,42.3706822430735,685.2130672921032,4.923630355062729,-172446.3619700488,10.5,10499827553.63803,47.655,-122.3035,60.0,6.466666666666667
2026-01-20T23:06:29+00:00,SAT-58374,103.16047279355294,41.939934511333185,690.1234980736449,4.960660977629645,-173743.33101172032,10.5,10499826256.66899,47.655,-122.3035,60.0,6.483333333333333
2026-01-20T23:06:30+00:00,SAT-58374,103.34791570490738,41.514548010781986,695.0708602037648,4.996901210720535,-175012.6172705973,10.5,10499824987.382729,47.655,-122.3035,60.0,6.5
2026-01-20T23:06:31+00:00,SAT-58374,103.53038362447629,41.094465007926324,700.0543654119117,5.032367694322972,-176254.80354943153,10.5,10499823745.196451,47.655,-122.3035,60.0,6.516666666666667
2026-01-20T23:06:32+00:00,SAT-58374,103.70807218716354,40.67962632460081,705.0732420229132,5.067076801932638,-177470.46331730165,10.5,10499822529.536682,47.655,-122.3035,60.0,6.533333333333333
2026-01-20T23:06:33+00:00,SAT-58374,103.88116707544383,40.2699715360567,710.1267346911961,5.101044784049164,-178660.16573544432,10.5,10499821339.834265,47.655,-122.3035,60.0,6.55
2026-01-20T23:06:34+00:00,SAT-58374,104.04984463531714,39.86543914229863,715.2141042781235,5.1342876004767035,-179824.46978371078,10.5,10499820175.530216,47.655,-122.3035,60.0,6.566666666666666
2026-01-20T23:06:35+00:00,SAT-58374,104.21427244355658,39.46596673933024,720.3346275620752,5.16682104741546,-180963.9287118501,10.5,10499819036.07129,47.655,-122.3035,60.0,6.583333333333333
2026-01-20T23:06:36+00:00,SAT-58374,104.37460983852745,39.071491167264846,725.4875970752839,5.198660659680586,-182079.0866148012,10.5,10499817920.913385,47.655,-122.3035,60.0,6.6
2026-01-20T23:06:37+00:00,SAT-58374,104.53100841136347,38.681948654265796,730.672320843151,5.229821709625143,-183170.47839497015,10.5,10499816829.521605,47.655,-122.3035,60.0,6.616666666666666
2026-01-20T23:06:38+00:00,SAT-58374,104.68361246304148,38.29727494915928,735.8881221224879,5.260319261536761,-184238.63166743168,10.5,10499815761.368332,47.655,-122.3035,60.0,6.633333333333334
2026-01-20T23:06:39+00:00,SAT-58374,104.83255943166694,37.917405439587306,741.1343391940085,5.2901681058206425,-185284.06445473936,10.5,10499814715.935545,47.655,-122.3035,60.0,6.65
2026-01-20T23:06:40+00:00,SAT-58374,104.97798028896563,37.542275265410964,746.4103250891808,5.319382775809949,-186307.2857756964,10.5,10499813692.714224,47.655,-122.3035,60.0,6.666666666666667
2026-01-20T23:06:41+00:00,SAT-58374,105.1199999106168,37.17181942176445,751.7154473338435,5.347977558470812,-187308.79602029058,10.5,10499812691.20398,47.655,-122.3035,60.0,6.683333333333334
2026-01-20T23:06:42+00:00,SAT-58374,105.25873742211606,36.80597285297159,757.0490877025011,5.3759664704321475,-188289.08611015673,10.5,10499811710.913889,47.655,-122.3035,60.0,6.7
2026-01-20T23:06:43+00:00,SAT-58374,105.39430652115765,36.44467054035748,762.4106419487093,5.403363254101207,-189248.63736252725,10.5,10499810751.362637,47.655,-122.3035,60.0,6.716666666666667
2026-01-20T23:06:44+00:00,SAT-58374,105.52681577896126,36.08784758297142,767.7995195315905,5.430181409473945,-190187.92260436525,10.5,10499809812.077396,47.655,-122.3035,60.0,6.733333333333333
2026-01-20T23:06:45+00:00,SAT-58374,105.65636892267842,35.7354392694441,773.2151433740706,5.456434125708805,-191107.40377578963,10.5,10499808892.596224,47.655,-122.3035,60.0,6.75
2026-01-20T23:06:46+00:00,SAT-58374,105.78306509811914,35.38738114804382,778.6569495528762,5.4821343941707,-192007.535889353,10.5,10499807992.464111,47.655,-122.3035,60.0,6.766666666666667
2026-01-20T23:06:47+00:00,SAT-58374,105.90699911821126,35.04360908357411,784.1243871012709,5.507294896517565,-192888.7631103596,10.5,10499807111.236889,47.655,-122.3035,60.0,6.783333333333333
2026-01-20T23:06:48+00:00,SAT-58374,106.02826169329096,34.70405931613662,789.6169177001774,5.531928049033655,-193751.5203096049,10.5,10499806248.47969,47.655,-122.3035,60.0,6.8
2026-01-20T23:06:49+00:00,SAT-58374,106.1469396480458,34.36866851191841,795.1340154135175,5.556046029357704,-194596.23399950875,10.5,10499805403.766,47.655,-122.3035,60.0,6.816666666666666
2026-01-20T23:06:50+00:00,SAT-58374,106.26311612535692,34.03737380773353,800.6751664502053,5.579660706615797,-195423.3198870729,10.5,10499804576.680113,47.655,-122.3035,60.0,6.833333333333333
2026-01-20T23:06:51+00:00,SAT-58374,106.37687077639431,33.71011285545812,806.2398688564597,5.602783767865555,-196233.18730249154,10.5,10499803766.812698,47.655,-122.3035,60.0,6.85
2026-01-20T23:06:52+00:00,SAT-58374,106.48827994126418,33.386823854955075,811.8276323342279,5.625426576972276,-197026.23425639648,10.5,10499802973.765743,47.655,-122.3035,60.0,6.866666666666666
2026-01-20T23:06:53+00:00,SAT-58374,106.5974168163414,33.06744559168445,817.4379779188561,5.647600268373579,-197802.85072389172,10.5,10499802197.149277,47.655,-122.3035,60.0,6.883333333333334
2026-01-20T23:06:54+00:00,SAT-58374,106.70435161312447,32.751917465318094,823.0704377502791,5.669315750539987,-198563.41876575781,10.5,10499801436.581234,47.655,-122.3035,60.0,6.9
2026-01-20T23:06:55+00:00,SAT-58374,106.80915170765597,32.44017951514749,828.7245548476575,5.6905836121164075,-199308.30924112935,10.5,10499800691.69076,47.655,-122.3035,60.0,6.916666666666667
2026-01-20T23:06:56+00:00,SAT-58374,106.91188177967854,32.13217244773754,834.3998827904103,5.711414294562854,-200037.88785410326,10.5,10499799962.112146,47.655,-122.3035,60.0,6.933333333333334
2026-01-20T23:06:57+00:00,SAT-58374,107.01260394631485,31.827837652396802,840.0959855714244,5.731817927178688,-200752.50937559016,10.5,10499799247.490623,47.655,-122.3035,60.0,6.95
2026-01-20T23:06:58+00:00,SAT-58374,107.11137788542585,31.527117223245888,845.8124372857313,5.751804431137238,-201452.52128704652,10.5,10499798547.478712,47.655,-122.3035,60.0,6.966666666666667
2026-01-20T23:06:59+00:00,SAT-58374,107.2082609534943,31.229953973318022,851.5488219229379,5.771383500592986,-202138.2631187685,10.5,10499797861.736881,47.655,-122.3035,60.0,6.983333333333333
2026-01-20T23:07:00+00:00,SAT-58374,107.30330829642608,30.936291447659496,857.3047331408163,5.790564556810917,-202810.0648433078,10.5,10499797189.935156,47.655,-122.3035,60.0,7.0
2026-01-20T23:07:01+00:00,SAT-58374,107.39657295345306,30.64607393681389,863.0797739931488,5.809356874687711,-203468.2513067789,10.5,10499796531.748693,47.655,-122.3035,60.0,7.016666666666667
2026-01-20T23:07:02+00:00,SAT-58374,107.48810595697394,30.359246482150198,868.8735567837465,5.82776944487908,-204113.13739997533,10.5,10499795886.8626,47.655,-122.3035,60.0,7.033333333333333
2026-01-20T23:07:03+00:00,SAT-58374,107.57795642490426,30.075754886578917,874.6857027829761,5.845811051124265,-204745.03076660048,10.5,10499795254.969233,47.655,-122.3035,60.0,7.05
