DopplerPredictor/satellites_20260205_234138/SAT-51854.csv

timestamp,satellite,azimuth_deg,elevation_deg,distance_km,relative_velocity_kms,doppler_shift_hz,tx_freq_ghz,rx_freq_hz,ue_lat,ue_lon,ue_alt_m,time_minutes
2026-01-20T23:10:58+00:00,SAT-51854,315.97482619414757,30.142023366215618,982.8589407336007,-5.149098713137129,180343.21760002334,10.5,10500180343.2176,47.655,-122.3035,60.0,10.966666666666667
2026-01-20T23:10:59+00:00,SAT-51854,316.2050915416915,30.37018888870362,977.7236460435377,-5.126471381783407,179550.71274249925,10.5,10500179550.712742,47.655,-122.3035,60.0,10.983333333333333
2026-01-20T23:11:00+00:00,SAT-51854,316.4388243761299,30.600000826076776,972.6109180240758,-5.103479375213849,178745.435416342,10.5,10500178745.435417,47.655,-122.3035,60.0,11.0
2026-01-20T23:11:01+00:00,SAT-51854,316.6760977052632,30.831463220716664,967.5211203727868,-5.080116692321657,177927.17543740675,10.5,10500177927.175438,47.655,-122.3035,60.0,11.016666666666667
2026-01-20T23:11:02+00:00,SAT-51854,316.916986343253,31.064579426813868,962.4546227722612,-5.05637722914766,177095.71901922376,10.5,10500177095.719019,47.655,-122.3035,60.0,11.033333333333333
2026-01-20T23:11:03+00:00,SAT-51854,317.1615669536204,31.299352067073727,957.4118009926846,-5.032254779139762,176250.84878208477,10.5,10500176250.848782,47.655,-122.3035,60.0,11.05
2026-01-20T23:11:04+00:00,SAT-51854,317.4099180926987,31.53578298742207,952.3930369941567,-5.007743127874555,175392.3470705952,10.5,10500175392.34707,47.655,-122.3035,60.0,11.066666666666666
2026-01-20T23:11:05+00:00,SAT-51854,317.66212025823984,31.773873214149116,947.3987189345391,-4.9828359778303835,174519.9933189081,10.5,10500174519.993319,47.655,-122.3035,60.0,11.083333333333334
2026-01-20T23:11:06+00:00,SAT-51854,317.9182559348858,32.01362290556724,942.4292412523341,-4.95752694125765,173633.56380101238,10.5,10500173633.5638,47.655,-122.3035,60.0,11.1
2026-01-20T23:11:07+00:00,SAT-51854,318.1784096394785,32.2550313011379,937.4850047566672,-4.931809574175289,172732.8328214332,10.5,10500172732.83282,47.655,-122.3035,60.0,11.116666666666667
2026-01-20T23:11:08+00:00,SAT-51854,318.4426679683992,32.49809666999993,932.5664166833704,-4.905677426848804,171817.57448318612,10.5,10500171817.574484,47.655,-122.3035,60.0,11.133333333333333
2026-01-20T23:11:09+00:00,SAT-51854,318.7111196478976,32.742816259776866,927.6738907007197,-4.87912390517435,170887.5578328614,10.5,10500170887.557833,47.655,-122.3035,60.0,11.15
2026-01-20T23:11:10+00:00,SAT-51854,318.98385557696315,32.98918623619982,922.8078470534159,-4.852142444694312,169942.5529553858,10.5,10500169942.552956,47.655,-122.3035,60.0,11.166666666666666
2026-01-20T23:11:11+00:00,SAT-51854,319.26096887970596,33.23720162893618,917.9687125330202,-4.8247263593020735,168982.3256750234,10.5,10500168982.325676,47.655,-122.3035,60.0,11.183333333333334
2026-01-20T23:11:12+00:00,SAT-51854,319.5425549490983,33.48685626736463,913.1569205992753,-4.796868978063534,168006.64234744394,10.5,10500168006.642347,47.655,-122.3035,60.0,11.2
2026-01-20T23:11:13+00:00,SAT-51854,319.82871149825274,33.73814272072535,908.372911364974,-4.7685635362232865,167015.26604229823,10.5,10500167015.266043,47.655,-122.3035,60.0,11.216666666666667
2026-01-20T23:11:14+00:00,SAT-51854,320.119538604823,33.99105223005954,903.6171316895293,-4.739803270366481,166007.95987618892,10.5,10500166007.959877,47.655,-122.3035,60.0,11.233333333333333
2026-01-20T23:11:15+00:00,SAT-51854,320.4151387604461,34.245574642383005,898.890035177638,-4.710581336805461,164984.4841542256,10.5,10500164984.484154,47.655,-122.3035,60.0,11.25
2026-01-20T23:11:16+00:00,SAT-51854,320.7156169142769,34.501698337776986,894.1920822593363,-4.6808909011260615,163944.5995063146,10.5,10500163944.599506,47.655,-122.3035,60.0,11.266666666666667
2026-01-20T23:11:17+00:00,SAT-51854,321.0210805210192,34.75941015841273,889.5237401807528,-4.650725090587224,162888.06521999245,10.5,10500162888.06522,47.655,-122.3035,60.0,11.283333333333333
2026-01-20T23:11:18+00:00,SAT-51854,321.33163958470266,35.01869533215316,884.8854830423337,-4.620076983056558,161814.63885290222,10.5,10500161814.638853,47.655,-122.3035,60.0,11.3
2026-01-20T23:11:19+00:00,SAT-51854,321.64740669989334,35.279537392500934,880.2777918480979,-4.588939685391543,160724.07897803487,10.5,10500160724.078978,47.655,-122.3035,60.0,11.316666666666666
2026-01-20T23:11:20+00:00,SAT-51854,321.96849709638866,35.541918099896435,875.7011544767291,-4.5573062775847815,159616.14322745972,10.5,10500159616.143227,47.655,-122.3035,60.0,11.333333333333334
2026-01-20T23:11:21+00:00,SAT-51854,322.2950286778989,35.80581735686505,871.1560657083663,-4.525169828835176,158490.5888552051,10.5,10500158490.588856,47.655,-122.3035,60.0,11.35
2026-01-20T23:11:22+00:00,SAT-51854,322.62712205919144,36.071213120895635,866.6430272353689,-4.4925233956511255,157347.17267082422,10.5,10500157347.17267,47.655,-122.3035,60.0,11.366666666666667
2026-01-20T23:11:23+00:00,SAT-51854,322.9649005999403,36.33808131399383,862.1625476749732,-4.459360087574782,156185.6533413366,10.5,10500156185.653341,47.655,-122.3035,60.0,11.383333333333333
2026-01-20T23:11:24+00:00,SAT-51854,323.3084904402029,36.60639573291871,857.7151425164017,-4.425673006994724,155005.78928321338,10.5,10500155005.789284,47.655,-122.3035,60.0,11.4
2026-01-20T23:11:25+00:00,SAT-51854,323.6580205274851,36.876127952684854,853.3013341279958,-4.391455256518186,153807.33892058404,10.5,10500153807.33892,47.655,-122.3035,60.0,11.416666666666666
2026-01-20T23:11:26+00:00,SAT-51854,324.0136226398026,37.14724722713849,848.9216517569992,-4.35670003859993,152590.06417466069,10.5,10500152590.064175,47.655,-122.3035,60.0,11.433333333333334
2026-01-20T23:11:27+00:00,SAT-51854,324.37543141186046,37.419720392413524,844.5766314299782,-4.3214005153862844,151353.72555488365,10.5,10500151353.725555,47.655,-122.3035,60.0,11.45
2026-01-20T23:11:28+00:00,SAT-51854,324.7435843442255,37.69351175850419,840.2668159930205,-4.285549974653978,150098.0879708013,10.5,10500150098.08797,47.655,-122.3035,60.0,11.466666666666667
2026-01-20T23:11:29+00:00,SAT-51854,325.11822182014527,37.968583007898594,835.9927549864427,-4.249141708497446,148822.91648318648,10.5,10500148822.916483,47.655,-122.3035,60.0,11.483333333333333
2026-01-20T23:11:30+00:00,SAT-51854,325.4994871051437,38.24489308342314,831.755004640484,-4.212169101983963,147527.9794091138,10.5,10500147527.979408,47.655,-122.3035,60.0,11.5
2026-01-20T23:11:31+00:00,SAT-51854,325.8875263465992,38.522398078510214,827.554127782583,-4.174625638265691,146213.04850100583,10.5,10500146213.0485,47.655,-122.3035,60.0,11.516666666666667
2026-01-20T23:11:32+00:00,SAT-51854,326.2824885655658,38.80105112481675,823.3906937395553,-4.13650486333693,144877.89771228257,10.5,10500144877.897713,47.655,-122.3035,60.0,11.533333333333333
2026-01-20T23:11:33+00:00,SAT-51854,326.6845256359539,39.08080227451095,819.2652782749195,-4.097800425834457,143522.30459133766,10.5,10500143522.304592,47.655,-122.3035,60.0,11.55
2026-01-20T23:11:34+00:00,SAT-51854,327.0937922569456,39.36159838224437,815.17846348653,-4.0585061209942195,142146.05182108787,10.5,10500142146.05182,47.655,-122.3035,60.0,11.566666666666666
2026-01-20T23:11:35+00:00,SAT-51854,327.51044591875177,39.643382987409225,811.1308376603722,-4.01861583820661,140748.9253821369,10.5,10500140748.925383,47.655,-122.3035,60.0,11.583333333333334
2026-01-20T23:11:36+00:00,SAT-51854,327.93464685063145,39.92609619023477,807.122995176659,-3.9781236144740704,139330.71642508678,10.5,10500139330.716425,47.655,-122.3035,60.0,11.6
2026-01-20T23:11:37+00:00,SAT-51854,328.3665579608371,40.20967452910981,803.1555363626142,-3.937023638317147,137891.22140734456,10.5,10500137891.221407,47.655,-122.3035,60.0,11.616666666666667
2026-01-20T23:11:38+00:00,SAT-51854,328.80634476212884,40.49405085601404,799.229067341362,-3.895310288825073,136430.2434608387,10.5,10500136430.243462,47.655,-122.3035,60.0,11.633333333333333
2026-01-20T23:11:39+00:00,SAT-51854,329.2541752858859,40.77915421286355,795.3441998418685,-3.852978087138829,134947.59069275085,10.5,10500134947.590693,47.655,-122.3035,60.0,11.65
2026-01-20T23:11:40+00:00,SAT-51854,329.71021997302734,41.06490970270227,791.5015510572704,-3.8100217569930726,133443.0783059501,10.5,10500133443.078306,47.655,-122.3035,60.0,11.666666666666666
2026-01-20T23:11:41+00:00,SAT-51854,330.17465155285066,41.351238363914455,787.7017434428246,-3.7664362702924032,131916.53019526674,10.5,10500131916.530195,47.655,-122.3035,60.0,11.683333333333334
2026-01-20T23:11:42+00:00,SAT-51854,330.64764490724565,41.638057047006015,783.9454044684047,-3.7222167718144057,130367.77631027414,10.5,10500130367.77631,47.655,-122.3035,60.0,11.7
2026-01-20T23:11:43+00:00,SAT-51854,331.12937690348696,41.9252782852301,780.2331664460894,-3.677358672897171,128796.65593662232,10.5,10500128796.655937,47.655,-122.3035,60.0,11.716666666666667
2026-01-20T23:11:44+00:00,SAT-51854,331.62002621473033,42.212810172192,776.5656662643189,-3.6318576513102085,127203.0176915164,10.5,10500127203.01769,47.655,-122.3035,60.0,11.733333333333333
2026-01-20T23:11:45+00:00,SAT-51854,332.11977311541546,42.500556240046905,772.9435451221755,-3.585709622976463,125586.71853330232,10.5,10500125586.718533,47.655,-122.3035,60.0,11.75
2026-01-20T23:11:46+00:00,SAT-51854,332.6287992449857,42.788415336505004,769.3674482918702,-3.5389108409169854,123947.62722692758,10.5,10500123947.627228,47.655,-122.3035,60.0,11.766666666666667
2026-01-20T23:11:47+00:00,SAT-51854,333.1472873562606,43.07628151137414,765.8380247825481,-3.491457819112496,122285.62167725117,10.5,10500122285.621677,47.655,-122.3035,60.0,11.783333333333333
2026-01-20T23:11:48+00:00,SAT-51854,333.6754210214922,43.36404389945345,762.3559270800273,-3.4433474297697906,120600.59233572449,10.5,10500120600.592337,47.655,-122.3035,60.0,11.8
2026-01-20T23:11:49+00:00,SAT-51854,334.21338431928956,43.65158661443554,758.9218107895349,-3.3945768720663474,118892.44110569535,10.5,10500118892.441105,47.655,-122.3035,60.0,11.816666666666666
2026-01-20T23:11:50+00:00,SAT-51854,334.7613614815444,43.93878864432951,755.536334309611,-3.345143708488805,117161.08261513522,10.5,10500117161.082615,47.655,-122.3035,60.0,11.833333333333334
2026-01-20T23:11:51+00:00,SAT-51854,335.3195365084309,44.22552375479384,752.2001584697748,-3.295045882432358,115406.44483304433,10.5,10500115406.444834,47.655,-122.3035,60.0,11.85
2026-01-20T23:11:52+00:00,SAT-51854,335.8880927466759,44.51166039988015,748.9139461506367,-3.244281722485558,113628.46921952373,10.5,10500113628.46922,47.655,-122.3035,60.0,11.866666666666667
2026-01-20T23:11:53+00:00,SAT-51854,336.46721242672413,44.79706164008851,745.6783618997381,-3.1928499939416928,111827.11252992153,10.5,10500111827.11253,47.655,-122.3035,60.0,11.883333333333333
2026-01-20T23:11:54+00:00,SAT-51854,337.0570761652543,45.08158507300687,742.494071496017,-3.1407498542322285,110002.34525392365,10.5,10500110002.345253,47.655,-122.3035,60.0,11.9
2026-01-20T23:11:55+00:00,SAT-51854,337.65786241363185,45.36508276931369,739.3617415587204,-3.087980986833828,108154.15630554387,10.5,10500108154.156305,47.655,-122.3035,60.0,11.916666666666666
2026-01-20T23:11:56+00:00,SAT-51854,338.2697468842766,45.64740123136661,736.2820390227708,-3.0345434432107306,106282.54748727758,10.5,10500106282.547487,47.655,-122.3035,60.0,11.933333333333334
2026-01-20T23:11:57+00:00,SAT-51854,338.89290189673346,45.92838134950403,733.2556307717643,-2.9804378467770674,104387.54063372471,10.5,10500104387.540634,47.655,-122.3035,60.0,11.95
2026-01-20T23:11:58+00:00,SAT-51854,339.5274957130834,46.207858390248525,730.2831830675541,-2.925665286207177,102469.17387486565,10.5,10500102469.173876,47.655,-122.3035,60.0,11.966666666666667
2026-01-20T23:11:59+00:00,SAT-51854,340.17369180004255,46.48566198979164,727.3653610862374,-2.870227385130064,100527.50407705612,10.5,10500100527.504078,47.655,-122.3035,60.0,11.983333333333333
2026-01-20T23:12:00+00:00,SAT-51854,340.8316480519538,46.76161617041036,724.5028283846354,-2.8141262920000774,98562.60648825533,10.5,10500098562.60649,47.655,-122.3035,60.0,12.0
2026-01-20T23:12:01+00:00,SAT-51854,341.5015159574028,47.035539374102946,721.6962463768748,-2.757364721407421,96574.57618489495,10.5,10500096574.576185,47.655,-122.3035,60.0,12.016666666666667
2026-01-20T23:12:02+00:00,SAT-51854,342.1834397206421,47.30724452004173,718.946273769769,-2.6999459715644756,94563.52868432399,10.5,10500094563.528685,47.655,-122.3035,60.0,12.033333333333333
2026-01-20T23:12:03+00:00,SAT-51854,342.87755533343875,47.576539085424145,716.2535659807618,-2.6418739070195927,92529.59933937271,10.5,10500092529.599339,47.655,-122.3035,60.0,12.05
2026-01-20T23:12:04+00:00,SAT-51854,343.58398958847823,47.843225208027555,713.6187745731083,-2.58315300681104,90472.9450249076,10.5,10500090472.945024,47.655,-122.3035,60.0,12.066666666666666
2026-01-20T23:12:05+00:00,SAT-51854,344.3028590523546,48.10709981871513,711.0425466430333,-2.523788361747016,88393.74404256583,10.5,10500088393.744043,47.655,-122.3035,60.0,12.083333333333334
2026-01-20T23:12:06+00:00,SAT-51854,345.03426898716447,48.36795480074308,708.5255242096014,-2.4637857033754416,86292.19713540004,10.5,10500086292.197136,47.655,-122.3035,60.0,12.1
2026-01-20T23:12:07+00:00,SAT-51854,345.7783122324704,48.625577180847934,706.0683435756943,-2.4031513837584684,84168.52677949597,10.5,10500084168.52678,47.655,-122.3035,60.0,12.116666666666667
2026-01-20T23:12:08+00:00,SAT-51854,346.53506803598447,48.87974934881075,703.6716347091608,-2.3418924335336633,82022.97921752075,10.5,10500082022.979218,47.655,-122.3035,60.0,12.133333333333333
2026-01-20T23:12:09+00:00,SAT-51854,347.3046008618488,49.130249315344784,701.3360205660601,-2.2800165184046794,79855.82293484226,10.5,10500079855.822935,47.655,-122.3035,60.0,12.15
2026-01-20T23:12:10+00:00,SAT-51854,348.0869591496924,49.37685099929186,699.0621164572991,-2.21753201188974,77667.3512074886,10.5,10500077667.351208,47.655,-122.3035,60.0,12.166666666666666
2026-01-20T23:12:11+00:00,SAT-51854,348.88217406941277,49.61932455795602,696.8505293427137,-2.1544479341737786,75457.87996049145,10.5,10500075457.879961,47.655,-122.3035,60.0,12.183333333333334
2026-01-20T23:12:12+00:00,SAT-51854,349.6902582333826,49.857436747585155,694.7018571861375,-2.0907740056774715,73227.74964410029,10.5,10500073227.749643,47.655,-122.3035,60.0,12.2
2026-01-20T23:12:13+00:00,SAT-51854,350.5112044144616,50.090951327482486,692.6166882570427,-2.026520645200456,70977.32516874986,10.5,10500070977.325169,47.655,-122.3035,60.0,12.216666666666667
2026-01-20T23:12:14+00:00,SAT-51854,351.34498426117574,50.31962950278892,690.5956004340318,-1.9616989573534371,68706.99546487954,10.5,10500068706.995464,47.655,-122.3035,60.0,12.233333333333333
2026-01-20T23:12:15+00:00,SAT-51854,352.19154701593334,50.54323040533447,688.6391605208688,-1.8963207386772813,66417.17369724976,10.5,10500066417.173697,47.655,-122.3035,60.0,12.25
2026-01-20T23:12:16+00:00,SAT-51854,353.0508182550696,50.76151161497374,686.7479235563994,-1.8303984825121422,64108.297435479486,10.5,10500064108.297436,47.655,-122.3035,60.0,12.266666666666667
2026-01-20T23:12:17+00:00,SAT-51854,353.9226986640928,50.97422972132178,684.922432119624,-1.7639453976003368,61780.82930559759,10.5,10500061780.829306,47.655,-122.3035,60.0,12.283333333333333
2026-01-20T23:12:18+00:00,SAT-51854,354.8070628707976,51.181140927214635,683.1632156162101,-1.6969753456749261,59435.25480413094,10.5,10500059435.254805,47.655,-122.3035,60.0,12.3
2026-01-20T23:12:19+00:00,SAT-51854,355.70375831054827,51.382001683623514,681.4707896272545,-1.6295029112495956,57072.084742441235,10.5,10500057072.084742,47.655,-122.3035,60.0,12.316666666666666
2026-01-20T23:12:20+00:00,SAT-51854,356.61260420653525,51.57656937023059,679.8456551884385,-1.5615433323364865,54691.852820170374,10.5,10500054691.85282,47.655,-122.3035,60.0,12.333333333333334
2026-01-20T23:12:21+00:00,SAT-51854,357.53339061124194,51.76460300366085,678.2882981382829,-1.4931125310257785,52295.116696266836,10.5,10500052295.116695,47.655,-122.3035,60.0,12.35
2026-01-20T23:12:22+00:00,SAT-51854,358.4658775788044,51.94586398288733,676.7991884359033,-1.4242270756397064,49882.45666345921,10.5,10500049882.456663,47.655,-122.3035,60.0,12.366666666666667
2026-01-20T23:12:23+00:00,SAT-51854,359.40979444860716,52.12011686088328,675.3787795165101,-1.3549041805175837,47454.47564072686,10.5,10500047454.475641,47.655,-122.3035,60.0,12.383333333333333
2026-01-20T23:12:24+00:00,SAT-51854,0.36483927825746226,52.287130143689545,674.0275076471235,-1.2851617065890746,45011.799193378254,10.5,10500045011.799192,47.655,-122.3035,60.0,12.4
2026-01-20T23:12:25+00:00,SAT-51854,1.330678449275432,52.44667711319096,672.7457912817176,-1.2150181067601364,42555.073620235744,10.5,10500042555.07362,47.655,-122.3035,60.0,12.416666666666666
2026-01-20T23:12:26+00:00,SAT-51854,2.306946420364305,52.598536662333316,671.534030470829,-1.1444924353246115,40084.96628326928,10.5,10500040084.966284,47.655,-122.3035,60.0,12.433333333333334
2026-01-20T23:12:27+00:00,SAT-51854,3.2932456905745364,52.74249414567746,670.3926062617835,-1.0736043240053526,37602.16476845525,10.5,10500037602.164768,47.655,-122.3035,60.0,12.45
2026-01-20T23:12:28+00:00,SAT-51854,4.2891469650194916,52.87834223573623,669.3218801228135,-1.0023739461328596,35107.375631160896,10.5,10500035107.375631,47.655,-122.3035,60.0,12.466666666666667
2026-01-20T23:12:29+00:00,SAT-51854,5.294189523965729,53.005881777627074,668.3221934029026,-0.9308220113646222,32601.32421119324,10.5,10500032601.324211,47.655,-122.3035,60.0,12.483333333333333
2026-01-20T23:12:30+00:00,SAT-51854,6.307881834902555,53.12492263953434,667.3938667968969,-0.8589697142127481,30084.75283001901,10.5,10500030084.75283,47.655,-122.3035,60.0,12.5
2026-01-20T23:12:31+00:00,SAT-51854,7.3297023707867845,53.235284546444426,666.5371998619501,-0.7868387302729737,27558.420658688563,10.5,10500027558.420658,47.655,-122.3035,60.0,12.516666666666667
2026-01-20T23:12:32+00:00,SAT-51854,8.359100690105846,53.33679789625176,665.7524705377293,-0.7144511726025081,25023.10219000351,10.5,10500025023.10219,47.655,-122.3035,60.0,12.533333333333333
2026-01-20T23:12:33+00:00,SAT-51854,9.395498740538363,53.4293045460648,665.0399347101262,-0.6418295633574328,22479.586245138442,10.5,10500022479.586245,47.655,-122.3035,60.0,12.55
2026-01-20T23:12:34+00:00,SAT-51854,10.438292401336797,53.51265856344332,664.3998258032556,-0.5689967948640828,19928.674610196063,10.5,10500019928.67461,47.655,-122.3035,60.0,12.566666666666666
2026-01-20T23:12:35+00:00,SAT-51854,11.486853243989179,53.58672693408203,663.8323544102769,-0.49597611157927846,17371.18140437817,10.5,10500017371.181404,47.655,-122.3035,60.0,12.583333333333334
2026-01-20T23:12:36+00:00,SAT-51854,12.540530544415121,53.65139022168378,663.3377079422081,-0.4227910552403251,14807.931158906653,10.5,10500014807.931158,47.655,-122.3035,60.0,12.6
2026-01-20T23:12:37+00:00,SAT-51854,13.59865346931996,53.70654316854985,662.9160503314416,-0.34946543782251266,12239.757869880714,10.5,10500012239.75787,47.655,-122.3035,60.0,12.616666666666667
2026-01-20T23:12:38+00:00,SAT-51854,14.660533470032922,53.75209523422406,662.5675217622318,-0.2760233036524753,9667.503671326484,10.5,10500009667.503672,47.655,-122.3035,60.0,12.633333333333333
2026-01-20T23:12:39+00:00,SAT-51854,15.725466852243434,53.78797106501869,662.2922384389651,-0.20248888887296368,7092.017415481875,10.5,10500007092.017416,47.655,-122.3035,60.0,12.65
2026-01-20T23:12:40+00:00,SAT-51854,16.79273749237391,53.814110888971264,662.0902923948598,-0.12888658187082108,4514.153286816913,10.5,10500004514.153286,47.655,-122.3035,60.0,12.666666666666666
2026-01-20T23:12:41+00:00,SAT-51854,17.861619680224536,53.83047083195408,661.9617513401284,-0.05524088290451322,1934.7693880190568,10.5,10500001934.769388,47.655,-122.3035,60.0,12.683333333333334
2026-01-20T23:12:42+00:00,SAT-51854,18.931381055598973,53.83702315129888,661.9066585504078,0.018423634916858615,-645.2736266868176,10.5,10499999354.726374,47.655,-122.3035,60.0,12.7
2026-01-20T23:12:43+00:00,SAT-51854,20.001285610374907,53.833756384450844,661.9250327941018,0.09208236832935428,-3225.1140469258235,10.5,10499996774.885954,47.655,-122.3035,60.0,12.716666666666667
2026-01-20T23:12:44+00:00,SAT-51854,21.070596752151506,53.82067541044738,662.0168683023091,0.16571072319068914,-5803.890481802034,10.5,10499994196.109518,47.655,-122.3035,60.0,12.733333333333333
2026-01-20T23:12:45+00:00,SAT-51854,22.138580335458663,53.79780142402187,662.1821347779189,0.23928415538353964,-8380.743292505265,10.5,10499991619.256708,47.655,-122.3035,60.0,12.75
2026-01-20T23:12:46+00:00,SAT-51854,23.20450769504899,53.76517182236347,662.4207774455032,0.3127782138322812,-10954.816098939196,10.5,10499989045.1839,47.655,-122.3035,60.0,12.766666666666667
2026-01-20T23:12:47+00:00,SAT-51854,24.26765862023352,53.722840005583635,662.7327171441074,0.3861685798474567,-13525.257157731085,10.5,10499986474.742842,47.655,-122.3035,60.0,12.783333333333333
2026-01-20T23:12:48+00:00,SAT-51854,25.32732423698857,53.67087509364533,663.1178504592837,0.45943110289174244,-16091.220614907183,10.5,10499983908.779385,47.655,-122.3035,60.0,12.8
2026-01-20T23:12:49+00:00,SAT-51854,26.38280976751876,53.609361563440316,663.57604989079,0.5325418441877459,-18651.868033222272,10.5,10499981348.131968,47.655,-122.3035,60.0,12.816666666666666
2026-01-20T23:12:50+00:00,SAT-51854,27.43343716397053,53.53839880901155,664.1071640637844,0.6054771196436443,-21206.369895597127,10.5,10499978793.630104,47.655,-122.3035,60.0,12.833333333333334
2026-01-20T23:12:51+00:00,SAT-51854,28.47854757904281,53.45810062985605,664.711017982826,0.6782135234818472,-23753.906432694163,10.5,10499976246.093567,47.655,-122.3035,60.0,12.85
2026-01-20T23:12:52+00:00,SAT-51854,29.517503629998053,53.36859465538848,665.3874133094448,0.7507279786268255,-26293.669387712438,10.5,10499973706.330612,47.655,-122.3035,60.0,12.866666666666667
2026-01-20T23:12:53+00:00,SAT-51854,30.54969148343136,53.270021708082794,666.1361286899613,0.8229977608796021,-28824.862863080507,10.5,10499971175.137136,47.655,-122.3035,60.0,12.883333333333333
2026-01-20T23:12:54+00:00,SAT-51854,31.574522707789615,53.16253511529155,666.9569201074179,0.8950005447509161,-31346.704925727714,10.5,10499968653.295074,47.655,-122.3035,60.0,12.9
2026-01-20T23:12:55+00:00,SAT-51854,32.59143591366802,53.0462999737773,667.8495212792182,0.9667144254748888,-33858.42837809593,10.5,10499966141.571623,47.655,-122.3035,60.0,12.916666666666666
2026-01-20T23:12:56+00:00,SAT-51854,33.5998981476391,52.921492377150756,668.8136440767249,1.038117948727302,-36359.281798999335,10.5,10499963640.7182,47.655,-122.3035,60.0,12.933333333333334
2026-01-20T23:12:57+00:00,SAT-51854,34.59940604964803,52.788298612362986,669.8489789744921,1.1091901519086713,-38848.530989532264,10.5,10499961151.469011,47.655,-122.3035,60.0,12.95
2026-01-20T23:12:58+00:00,SAT-51854,35.58948678533778,52.646914330930656,670.9551955406715,1.1799105789396664,-41325.45949126745,10.5,10499958674.540508,47.655,-122.3035,60.0,12.966666666666667
2026-01-20T23:12:59+00:00,SAT-51854,36.56969873184522,52.49754370533917,672.1319429421768,1.2502593206037238,-43789.36999922493,10.5,10499956210.630001,47.655,-122.3035,60.0,12.983333333333333
2026-01-20T23:13:00+00:00,SAT-51854,37.539631948465534,52.34039857416424,673.3788504900778,1.3202170021322543,-46239.58392705353,10.5,10499953760.416073,47.655,-122.3035,60.0,13.0
2026-01-20T23:13:01+00:00,SAT-51854,38.49890840106431,52.175697589052575,674.6955281726172,1.3897648736279926,-48675.44457403902,10.5,10499951324.555426,47.655,-122.3035,60.0,13.016666666666667
2026-01-20T23:13:02+00:00,SAT-51854,39.447182028739704,52.003665356774576,676.0815672784065,1.4588847502831077,-51096.315031289516,10.5,10499948903.684969,47.655,-122.3035,60.0,13.033333333333333
2026-01-20T23:13:03+00:00,SAT-51854,40.38413855729493,51.82453160084769,677.5365409600001,1.527559092698635,-53501.58099486169,10.5,10499946498.419004,47.655,-122.3035,60.0,13.05
2026-01-20T23:13:04+00:00,SAT-51854,41.30949517526432,51.63853033038419,679.0600048775746,1.595770978939505,-55890.64978700966,10.5,10499944109.350212,47.655,-122.3035,60.0,13.066666666666666
2026-01-20T23:13:05+00:00,SAT-51854,42.22300001575523,51.44589903427963,680.6514978147358,1.663504163209784,-58262.95241124022,10.5,10499941737.047588,47.655,-122.3035,60.0,13.083333333333334
2026-01-20T23:13:06+00:00,SAT-51854,43.12443151491835,51.24687789421971,682.3105423528474,1.7307430411641374,-60617.94233737342,10.5,10499939382.057663,47.655,-122.3035,60.0,13.1
2026-01-20T23:13:07+00:00,SAT-51854,44.01359761073905,51.0417090314214,684.036645510761,1.7974726851310132,-62955.09673520752,10.5,10499937044.903265,47.655,-122.3035,60.0,13.116666666666667
2026-01-20T23:13:08+00:00,SAT-51854,44.89033484076113,50.830635781588356,685.8292994196743,1.863678869039174,-65273.91734755156,10.5,10499934726.082653,47.655,-122.3035,60.0,13.133333333333333
2026-01-20T23:13:09+00:00,SAT-51854,45.75450734677838,50.613902001926,687.6879820228531,1.9293480290375207,-67573.92911096505,10.5,10499932426.070889,47.655,-122.3035,60.0,13.15
2026-01-20T23:13:10+00:00,SAT-51854,46.60600577506011,50.391751419657375,689.6121577360748,1.9944673109399562,-69854.68181747767,10.5,10499930145.318182,47.655,-122.3035,60.0,13.166666666666666
2026-01-20T23:13:11+00:00,SAT-51854,47.44474612884882,50.1644270132618,691.6012781553907,2.059024544628635,-72115.74921808296,10.5,10499927884.250782,47.655,-122.3035,60.0,13.183333333333334
2026-01-20T23:13:12+00:00,SAT-51854,48.27066855597664,49.932170435941494,693.6547827393606,2.123008267404507,-74356.72984057298,10.5,10499925643.270159,47.655,-122.3035,60.0,13.2
2026-01-20T23:13:13+00:00,SAT-51854,49.08373610681274,49.69522147618624,695.7720995145751,2.186407702792263,-76577.246247198,10.5,10499923422.753754,47.655,-122.3035,60.0,13.216666666666667
2026-01-20T23:13:14+00:00,SAT-51854,49.88393345865057,49.45381756063589,697.9526457600406,2.249212780975219,-78776.94575038242,10.5,10499921223.054249,47.655,-122.3035,60.0,13.233333333333333
2026-01-20T23:13:15+00:00,SAT-51854,50.6712656348812,49.20819329432501,700.1958287119415,2.311414090577583,-80955.49872393595,10.5,10499919044.501276,47.655,-122.3035,60.0,13.25
2026-01-20T23:13:16+00:00,SAT-51854,51.44575670643372,48.958580045322115,702.5010462203171,2.3730029442977334,-83112.60090180855,10.5,10499916887.399097,47.655,-122.3035,60.0,13.266666666666667
2026-01-20T23:13:17+00:00,SAT-51854,52.20744852405091,48.70520556047607,704.8676874711957,2.4339713047573057,-85247.97078101181,10.5,10499914752.029219,47.655,-122.3035,60.0,13.283333333333333
2026-01-20T23:13:18+00:00,SAT-51854,52.95639944373243,48.448293626472406,707.2951336347732,2.494311798252475,-87361.35010324705,10.5,10499912638.649897,47.655,-122.3035,60.0,13.3
2026-01-20T23:13:19+00:00,SAT-51854,53.692683083319494,48.18806376523912,709.7827585273094,2.554017730465696,-89452.50440519689,10.5,10499910547.495594,47.655,-122.3035,60.0,13.316666666666666
2026-01-20T23:13:20+00:00,SAT-51854,54.41638711600249,47.92473096225826,712.3299292886943,2.6130830497642314,-91521.22173308453,10.5,10499908478.778267,47.655,-122.3035,60.0,13.333333333333334
2026-01-20T23:13:21+00:00,SAT-51854,55.12761209065542,47.65850543172336,714.9360070234076,2.671502326623099,-93567.31192197818,10.5,10499906432.688078,47.655,-122.3035,60.0,13.35
2026-01-20T23:13:22+00:00,SAT-51854,55.8264702901601,47.38959241504852,717.60034742096,2.7292707616315623,-95590.60687621236,10.5,10499904409.393124,47.655,-122.3035,60.0,13.366666666666667
2026-01-20T23:13:23+00:00,SAT-51854,56.513084638677945,47.11819200807595,720.3223013843192,2.7863841695689544,-97590.96001165586,10.5,10499902409.039988,47.655,-122.3035,60.0,13.383333333333333
2026-01-20T23:13:24+00:00,SAT-51854,57.18758765417121,46.84449901770237,723.1012156424505,2.842838971151443,-99568.24596664852,10.5,10499900431.754034,47.655,-122.3035,60.0,13.4
2026-01-20T23:13:25+00:00,SAT-51854,57.8501204501498,46.56870284535389,725.9364333546321,2.898632137659709,-101522.35866262834,10.5,10499898477.641336,47.655,-122.3035,60.0,13.416666666666666
2026-01-20T23:13:26+00:00,SAT-51854,58.50083177796762,46.29098740001136,728.827294659542,2.9537612371856734,-103453.2129238874,10.5,10499896546.787077,47.655,-122.3035,60.0,13.433333333333334
2026-01-20T23:13:27+00:00,SAT-51854,59.139877133692885,46.01153102910311,731.7731372704696,3.008224352293527,-105360.74159371291,10.5,10499894639.258406,47.655,-122.3035,60.0,13.45
2026-01-20T23:13:28+00:00,SAT-51854,59.76741790111944,45.730506477920905,734.7732969884098,3.0620201363120567,-107244.89750598262,10.5,10499892755.102493,47.655,-122.3035,60.0,13.466666666666667
2026-01-20T23:13:29+00:00,SAT-51854,60.38362056066502,45.448080862573434,737.8271082712952,3.11514771917245,-109105.65018720625,10.5,10499890894.349813,47.655,-122.3035,60.0,13.483333333333333
2026-01-20T23:13:30+00:00,SAT-51854,60.98865593249324,45.16441566900293,740.9339047093229,3.1676067430516515,-110942.98710490689,10.5,10499889057.012896,47.655,-122.3035,60.0,13.5
2026-01-20T23:13:31+00:00,SAT-51854,61.58269847957923,44.87966676420187,744.0930195358262,3.2193973451593427,-112756.91306474795,10.5,10499887243.086935,47.655,-122.3035,60.0,13.516666666666667
2026-01-20T23:13:32+00:00,SAT-51854,62.165925658242834,44.593984423167996,747.3037861209801,3.2705200877921627,-114547.44776073624,10.5,10499885452.552238,47.655,-122.3035,60.0,13.533333333333333
2026-01-20T23:13:33+00:00,SAT-51854,62.73851730579985,44.3075133746827,750.5655383957485,3.3209760049415262,-116314.62740762487,10.5,10499883685.372593,47.655,-122.3035,60.0,13.55
2026-01-20T23:13:34+00:00,SAT-51854,63.30065508499712,44.02039285407956,753.8776113223154,3.3707665446270694,-118058.50272118663,10.5,10499881941.497278,47.655,-122.3035,60.0,13.566666666666666
2026-01-20T23:13:35+00:00,SAT-51854,63.85252196423303,43.73275667100153,757.2393413070021,3.4198935510705892,-119779.13829386991,10.5,10499880220.861706,47.655,-122.3035,60.0,13.583333333333334
2026-01-20T23:13:36+00:00,SAT-51854,64.39430173967469,43.44473328724548,760.6500665954077,3.4683592741813296,-121476.61292701353,10.5,10499878523.387074,47.655,-122.3035,60.0,13.6
2026-01-20T23:13:37+00:00,SAT-51854,64.92617860102465,43.15644590125171,764.1091276770084,3.5161663241704293,-123151.01804125276,10.5,10499876848.981958,47.655,-122.3035,60.0,13.616666666666667
2026-01-20T23:13:38+00:00,SAT-51854,65.44833673045372,42.86801254281123,767.6158676444948,3.5633176569098763,-124802.45716372793,10.5,10499875197.542837,47.655,-122.3035,60.0,13.633333333333333
2026-01-20T23:13:39+00:00,SAT-51854,65.96095993766991,42.579546174279216,771.1696325385041,3.6098165710162133,-126431.0458259435,10.5,10499873568.954174,47.655,-122.3035,60.0,13.65
2026-01-20T23:13:40+00:00,SAT-51854,66.46423133067128,42.29115479643477,774.7697716894484,3.6556666747989732,-128036.91040616245,10.5,10499871963.089594,47.655,-122.3035,60.0,13.666666666666666
2026-01-20T23:13:41+00:00,SAT-51854,66.95833301583255,42.002941560561986,778.4156380263743,3.700871888865053,-129620.18822062247,10.5,10499870379.811779,47.655,-122.3035,60.0,13.683333333333334
2026-01-20T23:13:42+00:00,SAT-51854,67.44344583020356,41.71500488308051,782.1065883884255,3.7454363959060903,-131181.02576487747,10.5,10499868818.974236,47.655,-122.3035,60.0,13.7
2026-01-20T23:13:43+00:00,SAT-51854,67.91974909731525,41.42743856613629,785.8419837862243,3.7893646538361985,-132719.57917393668,10.5,10499867280.420826,47.655,-122.3035,60.0,13.716666666666667
2026-01-20T23:13:44+00:00,SAT-51854,68.38742041276586,41.14033191847102,789.621189676356,3.8326613827772262,-134236.0137664333,10.5,10499865763.986233,47.655,-122.3035,60.0,13.733333333333333
2026-01-20T23:13:45+00:00,SAT-51854,68.84663545415869,40.853769878100636,793.4435762228733,3.875331505777708,-135730.50196835148,10.5,10499864269.498032,47.655,-122.3035,60.0,13.75
2026-01-20T23:13:46+00:00,SAT-51854,69.29756780843225,40.567833139644925,797.3085184996796,3.9173801797410923,-137203.22439626371,10.5,10499862796.775604,47.655,-122.3035,60.0,13.766666666666667
2026-01-20T23:13:47+00:00,SAT-51854,69.74038882558169,40.28259827898371,801.2153967237574,3.9588127815590908,-138654.36937166195,10.5,10499861345.630629,47.655,-122.3035,60.0,13.783333333333333
2026-01-20T23:13:48+00:00,SAT-51854,70.17526749144277,39.99813787828875,805.1635964745653,3.999634851441616,-140084.1309361324,10.5,10499859915.869064,47.655,-122.3035,60.0,13.8
2026-01-20T23:13:49+00:00,SAT-51854,70.60237031375263,39.7145206540439,809.1525088569197,4.03985208894479,-141492.70871223952,10.5,10499858507.291288,47.655,-122.3035,60.0,13.816666666666666
2026-01-20T23:13:50+00:00,SAT-51854,71.0218612259882,39.431811583747496,813.1815306599137,4.079470408812864,-142880.30985934634,10.5,10499857119.69014,47.655,-122.3035,60.0,13.833333333333334
2026-01-20T23:13:51+00:00,SAT-51854,71.43390151324041,39.15007202693873,817.2500645715273,4.118495809299488,-144247.1444616683,10.5,10499855752.855537,47.655,-122.3035,60.0,13.85
2026-01-20T23:13:52+00:00,SAT-51854,71.83864973988064,38.86935985340726,821.3575192619145,4.15693447064813,-145593.42897747402,10.5,10499854406.571022,47.655,-122.3035,60.0,13.866666666666667
2026-01-20T23:13:53+00:00,SAT-51854,72.23626170109989,38.5897295622028,825.5033095649038,4.194792644101954,-146919.38235174186,10.5,10499853080.61765,47.655,-122.3035,60.0,13.883333333333333
2026-01-20T23:13:54+00:00,SAT-51854,72.62689037642309,38.31123240574487,829.6868565488085,4.232076747188804,-148225.22935344302,10.5,10499851774.770647,47.655,-122.3035,60.0,13.9
2026-01-20T23:13:55+00:00,SAT-51854,73.01068590379239,38.03391650481258,833.9075876822646,4.268793266536501,-149511.19717172225,10.5,10499850488.802828,47.655,-122.3035,60.0,13.916666666666666
2026-01-20T23:13:56+00:00,SAT-51854,73.38779555514577,37.757826967277374,838.1649369031469,4.304948747900803,-150777.51506663463,10.5,10499849222.484934,47.655,-122.3035,60.0,13.933333333333334
2026-01-20T23:13:57+00:00,SAT-51854,73.7583637212247,37.48300600439137,842.4583446775375,4.34054985778388,-152024.41652728547,10.5,10499847975.583473,47.655,-122.3035,60.0,13.95
2026-01-20T23:13:58+00:00,SAT-51854,74.12253191022141,37.20949304006892,846.7872581201486,4.3756033014801865,-153252.13640144997,10.5,10499846747.863598,47.655,-122.3035,60.0,13.966666666666667
2026-01-20T23:13:59+00:00,SAT-51854,74.48043874741788,36.937324822354206,851.151131033011,4.410115859595872,-154460.91217463734,10.5,10499845539.087826,47.655,-122.3035,60.0,13.983333333333333
2026-01-20T23:14:00+00:00,SAT-51854,74.83221998492256,36.666535529371686,855.5494239805831,4.44409433955012,-155650.9822714628,10.5,10499844349.017729,47.655,-122.3035,60.0,14.0
2026-01-20T23:14:01+00:00,SAT-51854,75.17800851403435,36.39715687509333,859.9816043164938,4.4775455867642515,-156822.58644753712,10.5,10499843177.413553,47.655,-122.3035,60.0,14.016666666666667
2026-01-20T23:14:02+00:00,SAT-51854,75.51793438427391,36.129218211120026,864.4471462214414,4.510476490704578,-157975.96600111292,10.5,10499842024.033998,47.655,-122.3035,60.0,14.033333333333333
2026-01-20T23:14:03+00:00,SAT-51854,75.85212482799344,35.862746624877296,868.9455307471201,4.5428939636379315,-159111.3630290135,10.5,10499840888.63697,47.655,-122.3035,60.0,14.05
2026-01-20T23:14:04+00:00,SAT-51854,76.18070428779434,35.59776703587216,873.476245838961,4.574804918029855,-160229.0196350219,10.5,10499839770.980366,47.655,-122.3035,60.0,14.066666666666666
2026-01-20T23:14:05+00:00,SAT-51854,76.50379444661532,35.33430229002635,878.0387863363287,4.6062162545469345,-161329.17750967175,10.5,10499838670.82249,47.655,-122.3035,60.0,14.083333333333334
2026-01-20T23:14:06+00:00,SAT-51854,76.82151426049211,35.072373251421084,882.6326539607549,4.637134932062933,-162412.08038215822,10.5,10499837587.919619,47.655,-122.3035,60.0,14.1
2026-01-20T23:14:07+00:00,SAT-51854,77.13397999924982,34.81199888689153,887.2573573739901,4.667567852132293,-163477.96997411145,10.5,10499836522.030025,47.655,-122.3035,60.0,14.116666666666667
2026-01-20T23:14:08+00:00,SAT-51854,77.44130528200664,34.5531963540974,891.9124121208347,4.697521914838295,-164527.08795563527,10.5,10499835472.912045,47.655,-122.3035,60.0,14.133333333333333
2026-01-20T23:14:09+00:00,SAT-51854,77.74360111896473,34.29598108324971,896.5973406276776,4.727004002223177,-165559.67536495984,10.5,10499834440.324635,47.655,-122.3035,60.0,14.15
2026-01-20T23:14:10+00:00,SAT-51854,78.04097595405533,34.04036685674117,901.3116721844971,4.756021001460292,-166575.97342002866,10.5,10499833424.02658,47.655,-122.3035,60.0,14.166666666666666
2026-01-20T23:14:11+00:00,SAT-51854,78.33353571065133,33.78636588456047,906.0549429499833,4.7845797262245,-167576.2207645572,10.5,10499832423.779236,47.655,-122.3035,60.0,14.183333333333334
2026-01-20T23:14:12+00:00,SAT-51854,78.62138383395545,33.533988881018,910.826695878234,4.812686963625004,-168560.6551118192,10.5,10499831439.344889,47.655,-122.3035,60.0,14.2
2026-01-20T23:14:13+00:00,SAT-51854,78.90462133758913,33.28324513600581,915.6264806922604,4.840349511048857,-169529.51453506213,10.5,10499830470.485464,47.655,-122.3035,60.0,14.216666666666667
2026-01-20T23:14:14+00:00,SAT-51854,79.18334685290864,33.03414258160434,920.4538538942381,4.867574072154178,-170483.03382474976,10.5,10499829516.966175,47.655,-122.3035,60.0,14.233333333333333
2026-01-20T23:14:15+00:00,SAT-51854,79.45765667333892,32.78668786139753,925.3083786720302,4.894367323123322,-171421.4468090284,10.5,10499828578.55319,47.655,-122.3035,60.0,14.25
2026-01-20T23:14:16+00:00,SAT-51854,79.72764480289949,32.54088639363046,930.1896248717832,4.920735877792279,-172344.98513241095,10.5,10499827655.014868,47.655,-122.3035,60.0,14.266666666666667
2026-01-20T23:14:17+00:00,SAT-51854,79.99340300327871,32.29674243356687,935.0971689357484,4.946686336265957,-173253.87995848965,10.5,10499826746.12004,47.655,-122.3035,60.0,14.283333333333333
2026-01-20T23:14:18+00:00,SAT-51854,80.25502084360312,32.05425913091735,940.0305938885896,4.972225199956416,-174148.3589942158,10.5,10499825851.641006,47.655,-122.3035,60.0,14.3
2026-01-20T23:14:19+00:00,SAT-51854,80.51258574590722,31.81343858905644,944.9894892389519,4.99735894376659,-175028.64901807904,10.5,10499824971.350983,47.655,-122.3035,60.0,14.316666666666666
2026-01-20T23:14:20+00:00,SAT-51854,80.76618303418566,31.574281918282328,949.973450953026,5.022093932858123,-175894.97296496463,10.5,10499824105.027035,47.655,-122.3035,60.0,14.333333333333334
2026-01-20T23:14:21+00:00,SAT-51854,81.01589597930496,31.336789290809673,954.9820813450991,5.046436561982863,-176747.55480613213,10.5,10499823252.445194,47.655,-122.3035,60.0,14.35
2026-01-20T23:14:22+00:00,SAT-51854,81.261805850258,31.10095998690019,960.0149891070674,5.070393060543233,-177586.61272160467,10.5,10499822413.387278,47.655,-122.3035,60.0,14.366666666666667
2026-01-20T23:14:23+00:00,SAT-51854,81.50399195578413,30.866792448104437,965.0717891435298,5.093969638313313,-178412.36420393802,10.5,10499821587.635796,47.655,-122.3035,60.0,14.383333333333333
2026-01-20T23:14:24+00:00,SAT-51854,81.74253169259944,30.634284321481843,970.1521025522105,5.11717245936718,-179225.02514508017,10.5,10499820774.974855,47.655,-122.3035,60.0,14.4
2026-01-20T23:14:25+00:00,SAT-51854,81.97750059169303,30.40343250314469,975.2555565783838,5.140007564752112,-180024.8071280605,10.5,10499819975.192871,47.655,-122.3035,60.0,14.416666666666666
2026-01-20T23:14:26+00:00,SAT-51854,82.20897236067788,30.174233183361252,980.3817844921759,5.1624809544302686,-180811.92029693362,10.5,10499819188.079702,47.655,-122.3035,60.0,14.433333333333334
