DopplerPredictor/satellites_20260205_234138/SAT-58384.csv

timestamp,satellite,azimuth_deg,elevation_deg,distance_km,relative_velocity_kms,doppler_shift_hz,tx_freq_ghz,rx_freq_hz,ue_lat,ue_lon,ue_alt_m,time_minutes
2026-01-20T23:14:32+00:00,SAT-58384,299.54830338027654,30.2814719119731,872.2652211385227,-5.894835110544981,206462.0606990797,10.5,10500206462.0607,47.655,-122.3035,60.0,14.533333333333333
2026-01-20T23:14:33+00:00,SAT-58384,299.56788459365555,30.569747969653783,866.386189267422,-5.877235641943026,205845.65286296082,10.5,10500205845.652863,47.655,-122.3035,60.0,14.55
2026-01-20T23:14:34+00:00,SAT-58384,299.5877878083156,30.861537231299852,860.5247096831763,-5.859267059380657,205216.31709459782,10.5,10500205216.317095,47.655,-122.3035,60.0,14.566666666666666
2026-01-20T23:14:35+00:00,SAT-58384,299.60802271120906,31.15690105648047,854.681150510203,-5.840920353789109,204573.7378582941,10.5,10500204573.737858,47.655,-122.3035,60.0,14.583333333333334
2026-01-20T23:14:36+00:00,SAT-58384,299.62859938033444,31.455901883068766,848.8558888578356,-5.822186339441531,203917.5934310398,10.5,10500203917.593431,47.655,-122.3035,60.0,14.6
2026-01-20T23:14:37+00:00,SAT-58384,299.64952830487493,31.75860323803791,843.0493109965082,-5.803055577885452,203247.55323830477,10.5,10500203247.553238,47.655,-122.3035,60.0,14.616666666666667
2026-01-20T23:14:38+00:00,SAT-58384,299.6708204063548,32.065069743749746,837.2618126098052,-5.783518365012653,202563.2774011708,10.5,10500202563.277401,47.655,-122.3035,60.0,14.633333333333333
2026-01-20T23:14:39+00:00,SAT-58384,299.69248706093373,32.375367122647305,831.4937990594036,-5.763564827332633,201864.42010823585,10.5,10500201864.420109,47.655,-122.3035,60.0,14.65
2026-01-20T23:14:40+00:00,SAT-58384,299.7145401237594,32.689562206181584,825.745685554001,-5.743184743483419,201150.62336416714,10.5,10500201150.623363,47.655,-122.3035,60.0,14.666666666666666
2026-01-20T23:14:41+00:00,SAT-58384,299.73699195385797,33.0077229331388,820.0178974962555,-5.722367712784806,200421.52289314917,10.5,10500200421.522894,47.655,-122.3035,60.0,14.683333333333334
2026-01-20T23:14:42+00:00,SAT-58384,299.7598554416338,33.32991835585764,814.3108706616218,-5.701103046059029,199676.7443149614,10.5,10500199676.744314,47.655,-122.3035,60.0,14.7
2026-01-20T23:14:43+00:00,SAT-58384,299.7831440375132,33.65621863926924,808.6250514860772,-5.679379806771792,198915.9045859113,10.5,10500198915.904587,47.655,-122.3035,60.0,14.716666666666667
2026-01-20T23:14:44+00:00,SAT-58384,299.8068717828056,33.98669506077002,802.9608973128128,-5.657186747447242,198138.60977181766,10.5,10500198138.609772,47.655,-122.3035,60.0,14.733333333333333
2026-01-20T23:14:45+00:00,SAT-58384,299.83105334220426,34.321420004819394,797.3188767023439,-5.634512427196702,197344.4591643642,10.5,10500197344.459164,47.655,-122.3035,60.0,14.75
2026-01-20T23:14:46+00:00,SAT-58384,299.8557040392665,34.66046696267728,791.6994696254015,-5.611345066514963,196533.04019545118,10.5,10500196533.040195,47.655,-122.3035,60.0,14.766666666666667
2026-01-20T23:14:47+00:00,SAT-58384,299.8808398933828,35.003910521755145,786.1031678006443,-5.587672622801092,195703.9310822538,10.5,10500195703.931082,47.655,-122.3035,60.0,14.783333333333333
2026-01-20T23:14:48+00:00,SAT-58384,299.906477659868,35.3518263572377,780.5304749570463,-5.563482769753306,194856.70010554342,10.5,10500194856.700106,47.655,-122.3035,60.0,14.8
2026-01-20T23:14:49+00:00,SAT-58384,299.93263487261873,35.70429122019977,774.981907116838,-5.538762929575368,193990.90673769172,10.5,10500193990.906738,47.655,-122.3035,60.0,14.816666666666666
2026-01-20T23:14:50+00:00,SAT-58384,299.9593298901402,36.06138292532704,769.4579928463276,-5.513500178365491,193106.09832899013,10.5,10500193106.09833,47.655,-122.3035,60.0,14.833333333333334
2026-01-20T23:14:51+00:00,SAT-58384,299.98658194413156,36.42318032989222,763.9592736010771,-5.487681334935636,192201.81321847724,10.5,10500192201.81322,47.655,-122.3035,60.0,14.85
2026-01-20T23:14:52+00:00,SAT-58384,300.0144111922793,36.78976331537229,758.4863039825003,-5.461292933619974,191277.57978157583,10.5,10500191277.579782,47.655,-122.3035,60.0,14.866666666666667
2026-01-20T23:14:53+00:00,SAT-58384,300.04283877468595,37.16121276423056,753.0396520215771,-5.434321181431566,190332.91492953917,10.5,10500190332.91493,47.655,-122.3035,60.0,14.883333333333333
2026-01-20T23:14:54+00:00,SAT-58384,300.07188687420256,37.537610530304306,747.6198995052966,-5.406752025993319,189367.3264886799,10.5,10500189367.326488,47.655,-122.3035,60.0,14.9
2026-01-20T23:14:55+00:00,SAT-58384,300.1015787817597,37.91903941002257,742.2276422353531,-5.37857108616547,188380.31077065135,10.5,10500188380.31077,47.655,-122.3035,60.0,14.916666666666666
2026-01-20T23:14:56+00:00,SAT-58384,300.1319389661744,38.3055831048181,736.8634903560268,-5.3497636967874795,187371.35413949785,10.5,10500187371.35414,47.655,-122.3035,60.0,14.933333333333334
2026-01-20T23:14:57+00:00,SAT-58384,300.16299314957365,38.697326182209714,731.5280686374431,-5.3203148977928505,186339.9326304097,10.5,10500186339.93263,47.655,-122.3035,60.0,14.95
2026-01-20T23:14:58+00:00,SAT-58384,300.1947683887371,39.094354031438314,726.2220167696878,-5.290209463741784,185285.51298408158,10.5,10500185285.512983,47.655,-122.3035,60.0,14.966666666666667
2026-01-20T23:14:59+00:00,SAT-58384,300.22729316291355,39.496752816303854,720.9459896274692,-5.259431792235045,184207.54873849417,10.5,10500184207.548738,47.655,-122.3035,60.0,14.983333333333333
