DopplerPredictor/satellites_20260205_234138/SAT-47621.csv

timestamp,satellite,azimuth_deg,elevation_deg,distance_km,relative_velocity_kms,doppler_shift_hz,tx_freq_ghz,rx_freq_hz,ue_lat,ue_lon,ue_alt_m,time_minutes
2026-01-20T23:06:10+00:00,SAT-47621,253.98939065535097,30.249757802608492,992.8949344736793,-5.708749071000122,199944.5404510519,10.5,10500199944.540451,47.655,-122.3035,60.0,6.166666666666667
2026-01-20T23:06:11+00:00,SAT-47621,254.07477654407614,30.502647988597207,987.2014897711313,-5.69240471939747,199372.09212138833,10.5,10500199372.092121,47.655,-122.3035,60.0,6.183333333333334
2026-01-20T23:06:12+00:00,SAT-47621,254.16155350850283,30.758060520390647,981.5243456032349,-5.675768984336929,198789.43831047864,10.5,10500198789.43831,47.655,-122.3035,60.0,6.2
2026-01-20T23:06:13+00:00,SAT-47621,254.24975688072126,31.016029978539954,975.8637925722891,-5.658835970135285,198196.372526558,10.5,10500198196.372526,47.655,-122.3035,60.0,6.216666666666667
2026-01-20T23:06:14+00:00,SAT-47621,254.33942318759523,31.276591323432207,970.2201271604699,-5.641599649052482,197592.68365267236,10.5,10500197592.683653,47.655,-122.3035,60.0,6.233333333333333
2026-01-20T23:06:15+00:00,SAT-47621,254.4305902010092,31.539779888711884,964.5936518615358,-5.624053880308959,196978.15661274598,10.5,10500196978.156612,47.655,-122.3035,60.0,6.25
2026-01-20T23:06:16+00:00,SAT-47621,254.523296990877,31.805631374775174,958.9846752935608,-5.606192407786702,196352.57229106268,10.5,10500196352.57229,47.655,-122.3035,60.0,6.266666666666667
2026-01-20T23:06:17+00:00,SAT-47621,254.61758398086513,32.07418184134386,953.3935123139648,-5.588008814179834,195715.70592642546,10.5,10500195715.705927,47.655,-122.3035,60.0,6.283333333333333
2026-01-20T23:06:18+00:00,SAT-47621,254.7134930063419,32.345467696916295,947.8204841802705,-5.569496558896107,195067.3284396271,10.5,10500195067.32844,47.655,-122.3035,60.0,6.3
2026-01-20T23:06:19+00:00,SAT-47621,254.81106737585594,32.61952568898363,942.2659186730584,-5.55064903497079,194407.20842681537,10.5,10500194407.208427,47.655,-122.3035,60.0,6.316666666666666
2026-01-20T23:06:20+00:00,SAT-47621,254.91035193669646,32.896392896061926,936.7301501621607,-5.53145939641285,193735.10611242568,10.5,10500193735.106112,47.655,-122.3035,60.0,6.333333333333333
2026-01-20T23:06:21+00:00,SAT-47621,255.0113931413376,33.176106710064154,931.2135198450484,-5.5119207816162,193050.78117398836,10.5,10500193050.781174,47.655,-122.3035,60.0,6.35
2026-01-20T23:06:22+00:00,SAT-47621,255.11423912077083,33.45870482855052,925.7163757624025,-5.492026087691956,192353.98483828947,10.5,10500192353.984838,47.655,-122.3035,60.0,6.366666666666666
2026-01-20T23:06:23+00:00,SAT-47621,255.2189397583082,33.74422523435475,920.2390730387519,-5.471768140328441,191644.46583058682,10.5,10500191644.46583,47.655,-122.3035,60.0,6.383333333333334
2026-01-20T23:06:24+00:00,SAT-47621,255.32554676996816,34.03270618238254,914.7819739537041,-5.4511396265173735,190921.96801839632,10.5,10500190921.968018,47.655,-122.3035,60.0,6.4
2026-01-20T23:06:25+00:00,SAT-47621,255.43411378832516,34.32418618157769,909.345448080268,-5.430133083380146,190186.23002014123,10.5,10500190186.23002,47.655,-122.3035,60.0,6.416666666666667
2026-01-20T23:06:26+00:00,SAT-47621,255.54469645052856,34.618703974682404,903.9298724343262,-5.408740884255691,189436.98471789024,10.5,10500189436.984718,47.655,-122.3035,60.0,6.433333333333334
2026-01-20T23:06:27+00:00,SAT-47621,255.65735249111924,34.91629851547183,898.5356316379746,-5.386955307646082,188673.96167212407,10.5,10500188673.961672,47.655,-122.3035,60.0,6.45
2026-01-20T23:06:28+00:00,SAT-47621,255.7721418410535,35.21700894793067,893.1631180141087,-5.364768471426347,187896.88481748477,10.5,10500187896.884817,47.655,-122.3035,60.0,6.466666666666667
2026-01-20T23:06:29+00:00,SAT-47621,255.88912673128328,35.52087457995339,887.8127317466162,-5.342172336798406,187105.4726012596,10.5,10500187105.4726,47.655,-122.3035,60.0,6.483333333333333
2026-01-20T23:06:30+00:00,SAT-47621,256.00837180199494,35.82793485510611,882.4848810366333,-5.319158773896282,186299.44028115264,10.5,10500186299.44028,47.655,-122.3035,60.0,6.5
2026-01-20T23:06:31+00:00,SAT-47621,256.1299442195879,36.13822932595628,877.1799821933657,-5.295719439262698,185478.49563399734,10.5,10500185478.495634,47.655,-122.3035,60.0,6.516666666666667
2026-01-20T23:06:32+00:00,SAT-47621,256.2539137977212,36.45179761800104,871.8984598471104,-5.271845950077486,184642.34505797207,10.5,10500184642.345058,47.655,-122.3035,60.0,6.533333333333333
2026-01-20T23:06:33+00:00,SAT-47621,256.3803531290275,36.76867940125503,866.6407469885104,-5.247529646520753,183790.68524955324,10.5,10500183790.68525,47.655,-122.3035,60.0,6.55
2026-01-20T23:06:34+00:00,SAT-47621,256.50933771940004,37.08891434511381,861.4072852448127,-5.222761870811841,182923.21297663974,10.5,10500182923.212976,47.655,-122.3035,60.0,6.566666666666666
2026-01-20T23:06:35+00:00,SAT-47621,256.64094613625105,37.4125420870302,856.1985248778357,-5.197533731959219,182039.61683909938,10.5,10500182039.616838,47.655,-122.3035,60.0,6.583333333333333
2026-01-20T23:06:36+00:00,SAT-47621,256.77526016025934,37.73960218405749,851.0149250165522,-5.171836250542898,181139.58233966125,10.5,10500181139.58234,47.655,-122.3035,60.0,6.6
2026-01-20T23:06:37+00:00,SAT-47621,256.91236494955086,38.070134069947756,845.8569537452836,-5.145660285541325,180222.78932108395,10.5,10500180222.789322,47.655,-122.3035,60.0,6.616666666666666
2026-01-20T23:06:38+00:00,SAT-47621,257.05234921189003,38.40417700433459,840.7250882648663,-5.118996557272678,179288.91276965718,10.5,10500179288.91277,47.655,-122.3035,60.0,6.633333333333334
2026-01-20T23:06:39+00:00,SAT-47621,257.1953053879235,38.741770019635425,835.6198150309424,-5.091835690795441,178337.62433527308,10.5,10500178337.624334,47.655,-122.3035,60.0,6.65
2026-01-20T23:06:40+00:00,SAT-47621,257.3413298466169,39.082951866983784,830.5416298489607,-5.064168154938673,177368.59019600844,10.5,10500177368.590197,47.655,-122.3035,60.0,6.666666666666667
2026-01-20T23:06:41+00:00,SAT-47621,257.49052309124625,39.42776095408976,825.4910380299902,-5.03598428375015,176381.4718093294,10.5,10500176381.47181,47.655,-122.3035,60.0,6.683333333333334
2026-01-20T23:06:42+00:00,SAT-47621,257.64298997864455,39.77623528005191,820.468554525139,-5.007274329079072,175375.92775376042,10.5,10500175375.927753,47.655,-122.3035,60.0,6.7
2026-01-20T23:06:43+00:00,SAT-47621,257.7988399535232,40.128412369176985,815.4747040075323,-4.978028353551211,174351.60998042088,10.5,10500174351.60998,47.655,-122.3035,60.0,6.716666666666667
2026-01-20T23:06:44+00:00,SAT-47621,257.95818729467493,40.4843291924279,810.5100210610292,-4.948236392244025,173308.1694755719,10.5,10500173308.169476,47.655,-122.3035,60.0,6.733333333333333
2026-01-20T23:06:45+00:00,SAT-47621,258.1211513813681,40.84402209496804,805.575050207696,-4.917888302496041,172245.25100030514,10.5,10500172245.251,47.655,-122.3035,60.0,6.75
2026-01-20T23:06:46+00:00,SAT-47621,258.28785697234326,41.20752670756356,800.6703460850707,-4.88697387485897,171162.49697655567,10.5,10500171162.496977,47.655,-122.3035,60.0,6.766666666666667
2026-01-20T23:06:47+00:00,SAT-47621,258.4584345062924,41.57487785996121,795.7964735127675,-4.855482794426257,170059.54613266388,10.5,10500170059.546133,47.655,-122.3035,60.0,6.783333333333333
2026-01-20T23:06:48+00:00,SAT-47621,258.63302042050907,41.94610948527659,790.9540075976564,-4.823404620101645,168936.0327772731,10.5,10500168936.032778,47.655,-122.3035,60.0,6.8
2026-01-20T23:06:49+00:00,SAT-47621,258.8117574898843,42.321254516016765,786.1435338597116,-4.790728898442695,167791.5907866111,10.5,10500167791.590786,47.655,-122.3035,60.0,6.816666666666666
2026-01-20T23:06:50+00:00,SAT-47621,258.99479519202293,42.7003447817982,781.3656482443249,-4.757445019306172,166625.84854858092,10.5,10500166625.848549,47.655,-122.3035,60.0,6.833333333333333
2026-01-20T23:06:51+00:00,SAT-47621,259.1822900918335,43.08341088839472,776.6209572785883,-4.723542380053211,165438.43471392037,10.5,10500165438.434713,47.655,-122.3035,60.0,6.85
2026-01-20T23:06:52+00:00,SAT-47621,259.37440625765015,43.47048210166442,771.9100780638072,-4.689010240239764,164228.97310684685,10.5,10500164228.973106,47.655,-122.3035,60.0,6.866666666666666
2026-01-20T23:06:53+00:00,SAT-47621,259.57131570033596,43.86158621139084,767.233638412938,-4.653837880986173,162997.088306854,10.5,10500162997.088306,47.655,-122.3035,60.0,6.883333333333334
2026-01-20T23:06:54+00:00,SAT-47621,259.7731988482695,44.25674939901731,762.5922768290811,-4.618014512528332,161742.4024107621,10.5,10500161742.40241,47.655,-122.3035,60.0,6.9
2026-01-20T23:06:55+00:00,SAT-47621,259.98024505154297,44.65599608834197,757.9866425761752,-4.581529314924037,160464.53645842682,10.5,10500160464.536459,47.655,-122.3035,60.0,6.916666666666667
2026-01-20T23:06:56+00:00,SAT-47621,260.19265312269886,45.05934878929136,753.4173957090932,-4.544371462446275,159163.11128709544,10.5,10500159163.111286,47.655,-122.3035,60.0,6.933333333333334
2026-01-20T23:06:57+00:00,SAT-47621,260.41063191631014,45.46682793299387,748.8852070794144,-4.506530141191511,157837.74814812338,10.5,10500157837.748148,47.655,-122.3035,60.0,6.95
2026-01-20T23:06:58+00:00,SAT-47621,260.63440095017364,45.87845169697547,744.3907583236303,-4.467994523079548,156488.06779633946,10.5,10500156488.067797,47.655,-122.3035,60.0,6.966666666666667
2026-01-20T23:06:59+00:00,SAT-47621,260.86419106950996,46.29423581573684,739.9347418772838,-4.428753833294286,155113.6928521064,10.5,10500155113.692852,47.655,-122.3035,60.0,6.983333333333333
2026-01-20T23:07:00+00:00,SAT-47621,261.10024516171995,46.71419338437727,735.5178609218485,-4.3887973424234765,153714.24752602185,10.5,10500153714.247526,47.655,-122.3035,60.0,7.0
2026-01-20T23:07:01+00:00,SAT-47621,261.3428189224128,47.13833464774833,731.1408293394464,-4.348114363947089,152289.35753095042,10.5,10500152289.35753,47.655,-122.3035,60.0,7.016666666666667
2026-01-20T23:07:02+00:00,SAT-47621,261.5921816769733,47.56666677448497,726.8043716700691,-4.306694311969561,150838.65210405123,10.5,10500150838.652103,47.655,-122.3035,60.0,7.033333333333333
2026-01-20T23:07:03+00:00,SAT-47621,261.8486172651307,47.99919362079416,722.5092230112261,-4.264526681972621,149361.76333266034,10.5,10500149361.763332,47.655,-122.3035,60.0,7.05
2026-01-20T23:07:04+00:00,SAT-47621,262.11242498973854,48.43591547554958,718.256128936783,-4.22160110581153,147858.3280804918,10.5,10500147858.328081,47.655,-122.3035,60.0,7.066666666666666
2026-01-20T23:07:05+00:00,SAT-47621,262.38392063895475,48.87682879287729,714.0458453609555,-4.177907375327738,146327.98881465272,10.5,10500146327.988815,47.655,-122.3035,60.0,7.083333333333333
2026-01-20T23:07:06+00:00,SAT-47621,262.6634375863576,49.32192590814594,709.8791383787498,-4.133435392796306,144770.39187010238,10.5,10500144770.39187,47.655,-122.3035,60.0,7.1
2026-01-20T23:07:07+00:00,SAT-47621,262.9513279705127,49.7711947280823,705.7567841558275,-4.088175296915497,143185.1918623407,10.5,10500143185.191862,47.655,-122.3035,60.0,7.116666666666666
2026-01-20T23:07:08+00:00,SAT-47621,263.24796397163,50.22461841215768,701.6795686927147,-4.042117432526151,141572.0506268526,10.5,10500141572.050627,47.655,-122.3035,60.0,7.133333333333334
2026-01-20T23:07:09+00:00,SAT-47621,263.55373918348835,50.682175027427505,697.648287619213,-3.9952523662660004,139930.63776738843,10.5,10500139930.637768,47.655,-122.3035,60.0,7.15
2026-01-20T23:07:10+00:00,SAT-47621,263.86907009114094,51.1438371796694,693.6637459731961,-3.9475709464974162,138260.63275488693,10.5,10500138260.632755,47.655,-122.3035,60.0,7.166666666666667
2026-01-20T23:07:11+00:00,SAT-47621,264.19439766620826,51.60957162408229,689.7267579196415,-3.8990643128117553,136561.72526035804,10.5,10500136561.72526,47.655,-122.3035,60.0,7.183333333333334
2026-01-20T23:07:12+00:00,SAT-47621,264.53018908598483,52.079338847990364,685.8381464601814,-3.8497239265069187,134833.61622233555,10.5,10500134833.616222,47.655,-122.3035,60.0,7.2
2026-01-20T23:07:13+00:00,SAT-47621,264.87693958766556,52.55309262566199,681.9987431122598,-3.799541620861595,133076.0196076939,10.5,10500133076.019608,47.655,-122.3035,60.0,7.216666666666667
2026-01-20T23:07:14+00:00,SAT-47621,265.2351744705044,53.030779545397884,678.2093875381469,-3.748509578561152,131288.66162100746,10.5,10500131288.661621,47.655,-122.3035,60.0,7.233333333333333
2026-01-20T23:07:15+00:00,SAT-47621,265.6054512513717,53.512338497202975,674.4709271964715,-3.696620448652095,129471.2848007904,10.5,10500129471.284801,47.655,-122.3035,60.0,7.25
2026-01-20T23:07:16+00:00,SAT-47621,265.9883619980434,53.99770013563808,670.7842168771087,-3.6438672902643487,127623.64604841282,10.5,10500127623.646048,47.655,-122.3035,60.0,7.266666666666667
2026-01-20T23:07:17+00:00,SAT-47621,266.3845358384075,54.48678629287877,667.1501182921959,-3.590243694245279,125745.52088823872,10.5,10500125745.520887,47.655,-122.3035,60.0,7.283333333333333
2026-01-20T23:07:18+00:00,SAT-47621,266.7946416759353,54.97950936136361,663.5694995458414,-3.535743723515899,123836.70137864821,10.5,10500123836.701378,47.655,-122.3035,60.0,7.3
2026-01-20T23:07:19+00:00,SAT-47621,267.21939110820244,55.47577161833974,660.0432346633154,-3.4803620281685537,121897.00014324514,10.5,10500121897.000143,47.655,-122.3035,60.0,7.316666666666666
2026-01-20T23:07:20+00:00,SAT-47621,267.6595415814129,55.97546451137881,656.5722030054545,-3.424093859640784,119926.25086728578,10.5,10500119926.250868,47.655,-122.3035,60.0,7.333333333333333
2026-01-20T23:07:21+00:00,SAT-47621,268.11589978663744,56.47846788700381,653.1572886689264,-3.3669350973540477,117924.30923067952,10.5,10500117924.30923,47.655,-122.3035,60.0,7.35
2026-01-20T23:07:22+00:00,SAT-47621,268.58932531472084,56.98464915871812,649.7993798599314,-3.308882268762733,115891.05361019021,10.5,10500115891.05361,47.655,-122.3035,60.0,7.366666666666666
2026-01-20T23:07:23+00:00,SAT-47621,269.08073458359223,57.49386240752866,646.4993682479053,-3.249932638043976,113826.38818572865,10.5,10500113826.388186,47.655,-122.3035,60.0,7.383333333333334
2026-01-20T23:07:24+00:00,SAT-47621,269.59110506316784,58.00594741925056,643.2581482307734,-3.1900842052111953,111730.24290930478,10.5,10500111730.242908,47.655,-122.3035,60.0,7.4
2026-01-20T23:07:25+00:00,SAT-47621,270.1214797994596,58.520728638469265,640.0766162010847,-3.129335745970337,109602.57490096212,10.5,10500109602.574902,47.655,-122.3035,60.0,7.416666666666667
2026-01-20T23:07:26+00:00,SAT-47621,270.67297225541154,59.03801403751326,636.9556697724009,-3.067686877315042,107443.37074619785,10.5,10500107443.370747,47.655,-122.3035,60.0,7.433333333333334
2026-01-20T23:07:27+00:00,SAT-47621,271.2467714812372,59.55759389671078,633.8962069402633,-3.005138065229855,105252.64676576179,10.5,10500105252.646767,47.655,-122.3035,60.0,7.45
2026-01-20T23:07:28+00:00,SAT-47621,271.8441476106607,60.07923947771145,630.8991252354773,-2.941690683761246,103030.45108457361,10.5,10500103030.451084,47.655,-122.3035,60.0,7.466666666666667
2026-01-20T23:07:29+00:00,SAT-47621,272.466457689037,60.602701588619006,627.9653208184858,-2.8773470188612795,100776.8637663441,10.5,10500100776.863766,47.655,-122.3035,60.0,7.483333333333333
2026-01-20T23:07:30+00:00,SAT-47621,273.11515181421254,61.12770902109543,625.0956875699084,-2.8121103728097445,98492.00047088014,10.5,10500098492.000471,47.655,-122.3035,60.0,7.5
2026-01-20T23:07:31+00:00,SAT-47621,273.7917795889209,61.65396686641162,622.2911160769365,-2.745985006426523,96176.01043011727,10.5,10500096176.01043,47.655,-122.3035,60.0,7.516666666666667
2026-01-20T23:07:32+00:00,SAT-47621,274.4979968162183,62.18115466957565,619.5524926773666,-2.678976262033456,93829.0807547643,10.5,10500093829.080755,47.655,-122.3035,60.0,7.533333333333333
2026-01-20T23:07:33+00:00,SAT-47621,275.2355724211021,62.708924442390895,616.8806983809928,-2.611090527506306,91451.43517525117,10.5,10500091451.435175,47.655,-122.3035,60.0,7.55
2026-01-20T23:07:34+00:00,SAT-47621,276.00639548411755,63.23689849375644,614.2766078268604,-2.5423353098709525,89043.33661937888,10.5,10500089043.33662,47.655,-122.3035,60.0,7.566666666666666
2026-01-20T23:07:35+00:00,SAT-47621,276.8124823001676,63.7646670856091,611.7410881671129,-2.472719237096265,86605.08727511344,10.5,10500086605.087275,47.655,-122.3035,60.0,7.583333333333333
2026-01-20T23:07:36+00:00,SAT-47621,277.6559832935071,64.2917858890997,609.274997949056,-2.402252109634064,84137.03039573353,10.5,10500084137.030396,47.655,-122.3035,60.0,7.6
2026-01-20T23:07:37+00:00,SAT-47621,278.53918959998947,64.81777324075522,606.8791859458171,-2.3309449001011067,81639.55028869212,10.5,10500081639.55029,47.655,-122.3035,60.0,7.616666666666666
2026-01-20T23:07:38+00:00,SAT-47621,279.46453903513395,65.34210717989454,604.5544899873229,-2.2588097941140344,79113.07374582907,10.5,10500079113.073746,47.655,-122.3035,60.0,7.633333333333334
2026-01-20T23:07:39+00:00,SAT-47621,280.43462111696465,65.8642222715145,602.301735750551,-2.1858601967357596,76558.0702691509,10.5,10500076558.070269,47.655,-122.3035,60.0,7.65
2026-01-20T23:07:40+00:00,SAT-47621,281.4521806929065,66.3835062079937,600.1217355433539,-2.112110741970537,73975.05240338847,10.5,10500073975.052402,47.655,-122.3035,60.0,7.666666666666667
2026-01-20T23:07:41+00:00,SAT-47621,282.5201196139739,66.89929619810245,598.0152870788113,-2.037577321024919,71364.57672581493,10.5,10500071364.576725,47.655,-122.3035,60.0,7.683333333333334
2026-01-20T23:07:42+00:00,SAT-47621,283.6414957729575,67.4108751662362,595.9831722213984,-1.962277091806386,68727.24417892813,10.5,10500068727.244179,47.655,-122.3035,60.0,7.7
2026-01-20T23:07:43+00:00,SAT-47621,284.8195186458679,67.91746779002074,594.026155723681,-1.8862284567719516,66063.69929461498,10.5,10500066063.699295,47.655,-122.3035,60.0,7.716666666666667
2026-01-20T23:07:44+00:00,SAT-47621,286.05754028014337,68.41823641833486,592.1449839851019,-1.8094510901172831,63374.63114642955,10.5,10500063374.631145,47.655,-122.3035,60.0,7.733333333333333
2026-01-20T23:07:45+00:00,SAT-47621,287.3590405096528,68.91227695608757,590.340383783653,-1.7319659199422561,60660.77272495523,10.5,10500060660.772724,47.655,-122.3035,60.0,7.75
2026-01-20T23:07:46+00:00,SAT-47621,288.72760490847617,69.3986148083771,588.6130610253308,-1.6537951284560184,57922.90094498706,10.5,10500057922.900946,47.655,-122.3035,60.0,7.766666666666667
2026-01-20T23:07:47+00:00,SAT-47621,290.1668938039037,69.87620102991906,586.9636994933905,-1.5749621302156578,55161.8358833577,10.5,10500055161.835884,47.655,-122.3035,60.0,7.783333333333333
2026-01-20T23:07:48+00:00,SAT-47621,291.68060043764126,70.34390886043784,585.3929596193011,-1.4954915551708452,52378.44018508923,10.5,10500052378.440186,47.655,-122.3035,60.0,7.8
2026-01-20T23:07:49+00:00,SAT-47621,293.2723962186573,70.80053088768699,583.9014772706117,-1.4154092380191716,49573.61869057194,10.5,10500049573.61869,47.655,-122.3035,60.0,7.816666666666666
2026-01-20T23:07:50+00:00,SAT-47621,294.9458609519446,71.24477714282284,582.4898625494334,-1.3347421712640488,46748.316791453486,10.5,10500046748.316792,47.655,-122.3035,60.0,7.833333333333333
2026-01-20T23:07:51+00:00,SAT-47621,296.7043959593154,71.67527448781787,581.1586986377359,-1.2535185005181229,43903.52026614456,10.5,10500043903.520266,47.655,-122.3035,60.0,7.85
2026-01-20T23:07:52+00:00,SAT-47621,298.551118402088,72.09056774983432,579.9085406473323,-1.171767446148873,41040.25253551631,10.5,10500041040.252535,47.655,-122.3035,60.0,7.866666666666666
2026-01-20T23:07:53+00:00,SAT-47621,300.4887355982135,72.48912308846285,578.7399145480026,-1.0895193117256046,38159.57495874979,10.5,10500038159.574959,47.655,-122.3035,60.0,7.883333333333334
2026-01-20T23:07:54+00:00,SAT-47621,302.51939937121716,72.8693341887738,577.6533160871979,-1.006805403566736,35262.5840155416,10.5,10500035262.584015,47.655,-122.3035,60.0,7.9
2026-01-20T23:07:55+00:00,SAT-47621,304.64454177680136,73.2295318455205,576.6492097899792,-0.9236579791106406,32350.409497832417,10.5,10500032350.409498,47.655,-122.3035,60.0,7.916666666666667
2026-01-20T23:07:56+00:00,SAT-47621,306.8646957947895,73.5679975292629,575.7280280104457,-0.8401102168144269,29424.213455534904,10.5,10500029424.213455,47.655,-122.3035,60.0,7.933333333333334
2026-01-20T23:07:57+00:00,SAT-47621,309.17930725335134,73.88298145093664,574.8901700131873,-0.7561961280539129,26485.187110898183,10.5,10500026485.18711,47.655,-122.3035,60.0,7.95
2026-01-20T23:07:58+00:00,SAT-47621,311.58654715256694,74.1727254577139,574.1360011425974,-0.6719505183045303,23534.549498898898,10.5,10500023534.5495,47.655,-122.3035,60.0,7.966666666666667
2026-01-20T23:07:59+00:00,SAT-47621,314.0831370078895,74.43549087979216,573.4658520309033,-0.5874088941226232,20573.54420933279,10.5,10500020573.544209,47.655,-122.3035,60.0,7.983333333333333
2026-01-20T23:08:00+00:00,SAT-47621,316.66420248939085,74.66959105350763,572.8800178989634,-0.5026074131920178,17603.437637234314,10.5,10500017603.437637,47.655,-122.3035,60.0,8.0
2026-01-20T23:08:01+00:00,SAT-47621,319.32317288061887,74.87342783154257,572.3787579068864,-0.41758280109884344,14625.516067978788,10.5,10500014625.516068,47.655,-122.3035,60.0,8.016666666666667
2026-01-20T23:08:02+00:00,SAT-47621,322.0517439839844,75.04553084659584,571.9622945876508,-0.3323722736967694,11641.082958184621,10.5,10500011641.082958,47.655,-122.3035,60.0,8.033333333333333
2026-01-20T23:08:03+00:00,SAT-47621,324.8399201896542,75.18459778642816,571.6308133581524,-0.24701345807489275,8651.456167674418,10.5,10500008651.456167,47.655,-122.3035,60.0,8.05
2026-01-20T23:08:04+00:00,SAT-47621,327.67614665127616,75.28953348375741,571.384462109071,-0.16154431285617316,5657.965167989043,10.5,10500005657.965168,47.655,-122.3035,60.0,8.066666666666666
2026-01-20T23:08:05+00:00,SAT-47621,330.54753508727816,75.35948533530541,571.2233508742241,-0.07600304234691634,2661.948035539378,10.5,10500002661.948036,47.655,-122.3035,60.0,8.083333333333334
2026-01-20T23:08:06+00:00,SAT-47621,333.44017723327937,75.39387251853903,571.1475515855454,0.00957198814699612,-335.25151437752066,10.5,10499999664.748486,47.655,-122.3035,60.0,8.1
2026-01-20T23:08:07+00:00,SAT-47621,336.3395298943456,75.39240673510928,571.1570979125131,0.09514233675396053,-3332.2870848091366,10.5,10499996667.712915,47.655,-122.3035,60.0,8.116666666666667
2026-01-20T23:08:08+00:00,SAT-47621,339.23084649994667,75.3551027711956,571.2519851857918,0.18066957219888247,-6327.81264993753,10.5,10499993672.18735,47.655,-122.3035,60.0,8.133333333333333
2026-01-20T23:08:09+00:00,SAT-47621,342.09962392916884,75.28227797299061,571.4321704078,0.2661153589156306,-9320.4855360775,10.5,10499990679.514463,47.655,-122.3035,60.0,8.15
2026-01-20T23:08:10+00:00,SAT-47621,344.9320310506608,75.17454068250412,571.6975723481623,0.35144154437024705,-12308.96948010478,10.5,10499987691.03052,47.655,-122.3035,60.0,8.166666666666666
2026-01-20T23:08:11+00:00,SAT-47621,347.71528826873777,75.0327686159237,572.048071726251,0.4366102396709549,-15291.93745275949,10.5,10499984708.062548,47.655,-122.3035,60.0,8.183333333333334
2026-01-20T23:08:12+00:00,SAT-47621,350.4379735430255,74.8580789604806,572.4835114741217,0.5215839091241049,-18268.07479527421,10.5,10499981731.925205,47.655,-122.3035,60.0,8.2
2026-01-20T23:08:13+00:00,SAT-47621,353.0902398601066,74.65179249486269,573.0036970887639,0.6063254453006496,-21236.081848519418,10.5,10499978763.918152,47.655,-122.3035,60.0,8.216666666666667
2026-01-20T23:08:14+00:00,SAT-47621,355.6639389886684,74.41539427631945,573.6083970592185,0.6907982496099401,-24194.67677503872,10.5,10499975805.323225,47.655,-122.3035,60.0,8.233333333333333
2026-01-20T23:08:15+00:00,SAT-47621,358.1526558704797,74.15049336065732,574.2973433740514,0.7749663158843448,-27142.59848653571,10.5,10499972857.401514,47.655,-122.3035,60.0,8.25
2026-01-20T23:08:16+00:00,SAT-47621,0.5516651257338664,73.85878371429061,575.0702321121883,0.858794288709157,-30078.608686834104,10.5,10499969921.391314,47.655,-122.3035,60.0,8.266666666666667
2026-01-20T23:08:17+00:00,SAT-47621,2.8578255904360557,73.54200802590552,575.926724091923,0.9422475556395791,-33001.4951017066,10.5,10499966998.504898,47.655,-122.3035,60.0,8.283333333333333
2026-01-20T23:08:18+00:00,SAT-47621,5.069430779520482,73.2019255773034,576.866445611896,1.025292289934765,-35910.072975601775,10.5,10499964089.927025,47.655,-122.3035,60.0,8.3
2026-01-20T23:08:19+00:00,SAT-47621,7.186032398972,72.84028485276126,577.8889892346917,1.1078955302736124,-38803.18786362841,10.5,10499961196.812136,47.655,-122.3035,60.0,8.316666666666666
2026-01-20T23:08:20+00:00,SAT-47621,9.208252207157711,72.45880109027512,578.9939146499382,1.1900252366355628,-41679.717588737374,10.5,10499958320.282412,47.655,-122.3035,60.0,8.333333333333334
2026-01-20T23:08:21+00:00,SAT-47621,11.137594374151595,72.0591386541778,580.1807495931379,1.2716503356635327,-44538.57383052342,10.5,10499955461.42617,47.655,-122.3035,60.0,8.35
2026-01-20T23:08:22+00:00,SAT-47621,12.976267326193708,71.64289786051977,581.4489908097391,1.3527407853104858,-47378.70438942163,10.5,10499952621.29561,47.655,-122.3035,60.0,8.366666666666667
2026-01-20T23:08:23+00:00,SAT-47621,14.727021061238677,71.21160573019384,582.7981050836825,1.4332676033552632,-50199.09418545233,10.5,10499949800.905815,47.655,-122.3035,60.0,8.383333333333333
2026-01-20T23:08:24+00:00,SAT-47621,16.39300322567356,70.76671009615812,584.227530294384,1.5132029246267318,-52998.76726245289,10.5,10499947001.232738,47.655,-122.3035,60.0,8.4
2026-01-20T23:08:25+00:00,SAT-47621,17.97763529900847,70.30957646197248,585.7366765307918,1.5925200283313954,-55776.787745206224,10.5,10499944223.212255,47.655,-122.3035,60.0,8.416666666666666
2026-01-20T23:08:26+00:00,SAT-47621,19.48450865058083,69.84148706067086,587.324927232695,1.6711933542409583,-58532.260406397756,10.5,10499941467.739594,47.655,-122.3035,60.0,8.433333333333334
2026-01-20T23:08:27+00:00,SAT-47621,20.91729927848068,69.36364161295819,588.991640348178,1.7491985666503842,-61264.33290669719,10.5,10499938735.667093,47.655,-122.3035,60.0,8.45
2026-01-20T23:08:28+00:00,SAT-47621,22.27969949530082,68.87715933548527,590.7361495548603,1.8265125448368331,-63972.19546059009,10.5,10499936027.804539,47.655,-122.3035,60.0,8.466666666666667
2026-01-20T23:08:29+00:00,SAT-47621,23.57536442696395,68.38308185659173,592.557765471623,1.9031133947661216,-66655.08124638772,10.5,10499933344.918753,47.655,-122.3035,60.0,8.483333333333333
2026-01-20T23:08:30+00:00,SAT-47621,24.807871228371706,67.88237673582523,594.4557768820075,1.9789804959569401,-69312.26804761002,10.5,10499930687.731953,47.655,-122.3035,60.0,8.5
2026-01-20T23:08:31+00:00,SAT-47621,25.980688991404687,67.37594134296471,596.4294520043542,2.054094471451542,-71943.07720123229,10.5,10499928056.922798,47.655,-122.3035,60.0,8.516666666666667
2026-01-20T23:08:32+00:00,SAT-47621,27.09715741012479,66.86460693504736,598.4780397319927,2.1284372095820356,-74546.87436003269,10.5,10499925453.12564,47.655,-122.3035,60.0,8.533333333333333
2026-01-20T23:08:33+00:00,SAT-47621,28.160472572972182,66.34914277985321,600.6007708951403,2.2019918590714003,-77123.06932100907,10.5,10499922876.93068,47.655,-122.3035,60.0,8.55
2026-01-20T23:08:34+00:00,SAT-47621,29.173678416793972,65.8302602321237,602.7968595179125,2.274742834650583,-79671.11622211363,10.5,10499920328.883778,47.655,-122.3035,60.0,8.566666666666666
2026-01-20T23:08:35+00:00,SAT-47621,30.139662623500843,65.30861668859029,605.0655040809376,2.3466757909948304,-82190.51262939283,10.5,10499917809.487371,47.655,-122.3035,60.0,8.583333333333334
2026-01-20T23:08:36+00:00,SAT-47621,31.061155922073812,64.78481938082871,607.405888757978,2.4177776090656637,-84680.79905862566,10.5,10499915319.200941,47.655,-122.3035,60.0,8.6
2026-01-20T23:08:37+00:00,SAT-47621,31.940733966339067,64.25942897193113,609.817184638927,2.488036397939454,-87141.55903936805,10.5,10499912858.44096,47.655,-122.3035,60.0,8.616666666666667
2026-01-20T23:08:38+00:00,SAT-47621,32.78082111326068,63.73296293653307,612.2985509546327,2.5574414690228893,-89572.41821186955,10.5,10499910427.581789,47.655,-122.3035,60.0,8.633333333333333
2026-01-20T23:08:39+00:00,SAT-47621,33.583695545823105,63.20589872326345,614.8491362760041,2.6259833004388424,-91973.04307971564,10.5,10499908026.95692,47.655,-122.3035,60.0,8.65
2026-01-20T23:08:40+00:00,SAT-47621,34.3514953083654,62.67867670116661,617.4680796776,2.693653546173183,-94343.1413301879,10.5,10499905656.85867,47.655,-122.3035,60.0,8.666666666666666
2026-01-20T23:08:41+00:00,SAT-47621,35.086224932390344,62.15170288591394,620.1545119103401,2.760444949617697,-96682.45880617124,10.5,10499903317.541193,47.655,-122.3035,60.0,8.683333333333334
2026-01-20T23:08:42+00:00,SAT-47621,35.78976236365134,61.625351473298494,622.9075564879894,2.8263513836084093,-98990.78090846534,10.5,10499901009.219091,47.655,-122.3035,60.0,8.7
2026-01-20T23:08:43+00:00,SAT-47621,36.46386603146747,61.09996716525802,625.7263308135747,2.891367772619926,-101267.92987070151,10.5,10499898732.07013,47.655,-122.3035,60.0,8.716666666666667
2026-01-20T23:08:44+00:00,SAT-47621,37.11018187671678,60.575867323536244,628.6099472282049,2.95549007455821,-103513.76412164846,10.5,10499896486.235878,47.655,-122.3035,60.0,8.733333333333333
2026-01-20T23:08:45+00:00,SAT-47621,37.730250249148504,60.05334395129615,631.5575140417307,3.0187152563131776,-105728.17742896108,10.5,10499894271.82257,47.655,-122.3035,60.0,8.75
2026-01-20T23:08:46+00:00,SAT-47621,38.325512593316176,59.532665516563256,634.5681365390244,3.0810412362165303,-107911.09688381008,10.5,10499892088.903116,47.655,-122.3035,60.0,8.766666666666667
2026-01-20T23:08:47+00:00,SAT-47621,38.897317863685046,59.01407863536832,637.6409179288703,3.142466859098203,-110062.48202725343,10.5,10499889937.517973,47.655,-122.3035,60.0,8.783333333333333
2026-01-20T23:08:48+00:00,SAT-47621,39.44692864217395,58.49780962023711,640.7749602679798,3.2029918682232283,-112182.32386734658,10.5,10499887817.676132,47.655,-122.3035,60.0,8.8
2026-01-20T23:08:49+00:00,SAT-47621,39.97552693715,57.98406590588065,643.9693653570171,3.2626168704005467,-114270.64365710542,10.5,10499885729.356342,47.655,-122.3035,60.0,8.816666666666666
2026-01-20T23:08:50+00:00,SAT-47621,40.48421965303314,57.47303736362275,647.2232356018293,3.321343254013763,-116327.49002359665,10.5,10499883672.509977,47.655,-122.3035,60.0,8.833333333333334
2026-01-20T23:08:51+00:00,SAT-47621,40.97404372297103,56.96489752132763,650.5356747929244,3.379173219395792,-118352.9400317863,10.5,10499881647.059969,47.655,-122.3035,60.0,8.85
2026-01-20T23:08:52+00:00,SAT-47621,41.445970927908306,56.45980467991767,653.9057889152448,3.4361096675664586,-120347.09528766002,10.5,10499879652.904713,47.655,-122.3035,60.0,8.866666666666667
2026-01-20T23:08:53+00:00,SAT-47621,41.90091238856901,55.95790295675098,657.3326868469755,3.492156236151064,-122310.08319624295,10.5,10499877689.916803,47.655,-122.3035,60.0,8.883333333333333
2026-01-20T23:08:54+00:00,SAT-47621,42.339722765144785,55.45932324070906,660.8154810941751,3.5473172016621755,-124242.05353909485,10.5,10499875757.94646,47.655,-122.3035,60.0,8.9
2026-01-20T23:08:55+00:00,SAT-47621,42.763204159063484,54.96418408593298,664.3532884279493,3.6015974691650983,-126143.17811235109,10.5,10499873856.821888,47.655,-122.3035,60.0,8.916666666666666
2026-01-20T23:08:56+00:00,SAT-47621,43.17210974459463,54.47259253718222,667.94523051132,3.655002540349355,-128013.64960845088,10.5,10499871986.350391,47.655,-122.3035,60.0,8.933333333333334
2026-01-20T23:08:57+00:00,SAT-47621,43.56714714287522,53.98464489587065,671.5904344942489,3.70753842541049,-129853.67852986531,10.5,10499870146.32147,47.655,-122.3035,60.0,8.95
2026-01-20T23:08:58+00:00,SAT-47621,43.94898154772834,53.50042743917539,675.2880335207813,3.7592117215320395,-131663.49593786785,10.5,10499868336.504063,47.655,-122.3035,60.0,8.966666666666667
2026-01-20T23:08:59+00:00,SAT-47621,44.31823863773645,53.02001707475903,679.037167314459,3.8100294315271714,-133443.3471005975,10.5,10499866556.652899,47.655,-122.3035,60.0,8.983333333333333
2026-01-20T23:09:00+00:00,SAT-47621,44.67550726070658,52.5434819696169,682.8369825828644,3.859999061647112,-135193.49491872365,10.5,10499864806.505081,47.655,-122.3035,60.0,9.0
2026-01-20T23:09:01+00:00,SAT-47621,45.02134193583375,52.07088212023163,686.686633519707,3.9091284762982625,-136914.2148370249,10.5,10499863085.785164,47.655,-122.3035,60.0,9.016666666666667
2026-01-20T23:09:02+00:00,SAT-47621,45.356265161632365,51.60226989874845,690.58528216202,3.9574259728104777,-138605.79746309033,10.5,10499861394.202538,47.655,-122.3035,60.0,9.033333333333333
2026-01-20T23:09:03+00:00,SAT-47621,45.68076956504715,51.13769055069961,694.5320988219222,4.00490014929662,-140268.54393920247,10.5,10499859731.45606,47.655,-122.3035,60.0,9.05
2026-01-20T23:09:04+00:00,SAT-47621,45.99531988416552,50.67718267252826,698.5262623865945,4.051559941488078,-141902.7672324726,10.5,10499858097.232767,47.655,-122.3035,60.0,9.066666666666666
2026-01-20T23:09:05+00:00,SAT-47621,46.30035481203989,50.2207786509209,702.5669606549949,4.097414590875987,-143508.79101901175,10.5,10499856491.20898,47.655,-122.3035,60.0,9.083333333333334
2026-01-20T23:09:06+00:00,SAT-47621,46.596288705554635,49.768505074927056,706.6533906427959,4.142473572615815,-145086.94715884433,10.5,10499854913.052841,47.655,-122.3035,60.0,9.1
2026-01-20T23:09:07+00:00,SAT-47621,46.88351316690478,49.32038312724029,710.7847588154248,4.186746600882217,-146637.5758834576,10.5,10499853362.424116,47.655,-122.3035,60.0,9.116666666666667
2026-01-20T23:09:08+00:00,SAT-47621,47.16239851294155,48.87642894778893,714.9602813264411,4.230243601969346,-148161.02485366105,10.5,10499851838.975147,47.655,-122.3035,60.0,9.133333333333333
2026-01-20T23:09:09+00:00,SAT-47621,47.43329513868412,48.43665397524421,719.179184229087,4.272974688439868,-149657.6482541753,10.5,10499850342.351746,47.655,-122.3035,60.0,9.15
2026-01-20T23:09:10+00:00,SAT-47621,47.69653478277342,48.001065267959106,723.4407036620578,4.314950133006031,-151127.80587883678,10.5,10499848872.19412,47.655,-122.3035,60.0,9.166666666666666
2026-01-20T23:09:11+00:00,SAT-47621,47.95243170254284,47.56966580583617,727.7440860092204,4.356180341560723,-152571.86218603133,10.5,10499847428.137814,47.655,-122.3035,60.0,9.183333333333334
2026-01-20T23:09:12+00:00,SAT-47621,48.20128376538468,47.14245477457049,732.0885880324382,4.3966758324408355,-153990.18557240948,10.5,10499846009.814428,47.655,-122.3035,60.0,9.2
2026-01-20T23:09:13+00:00,SAT-47621,48.44337346329337,46.719427832876534,736.4734769837136,4.436447215518472,-155383.14764057193,10.5,10499844616.85236,47.655,-122.3035,60.0,9.216666666666667
2026-01-20T23:09:14+00:00,SAT-47621,48.67896885626003,46.30057736391354,740.8980306964768,4.47550519234604,-156751.1232041515,10.5,10499843248.876797,47.655,-122.3035,60.0,9.233333333333333
2026-01-20T23:09:15+00:00,SAT-47621,48.908324451058355,45.885892710053874,745.3615376770219,4.513860519385658,-158094.48899995149,10.5,10499841905.511,47.655,-122.3035,60.0,9.25
2026-01-20T23:09:16+00:00,SAT-47621,49.13168201819093,45.475360395565176,749.8632971592677,4.5515239910428855,-159413.6230937147,10.5,10499840586.376905,47.655,-122.3035,60.0,9.266666666666667
2026-01-20T23:09:17+00:00,SAT-47621,49.34927135279546,45.06896433616097,754.402619142601,4.588506423275605,-160708.90430603782,10.5,10499839291.095694,47.655,-122.3035,60.0,9.283333333333333
2026-01-20T23:09:18+00:00,SAT-47621,49.5613109836718,44.666686036244414,758.9788244133696,4.62481863784977,-161980.71166094037,10.5,10499838019.28834,47.655,-122.3035,60.0,9.3
2026-01-20T23:09:19+00:00,SAT-47621,49.76800883428504,44.26850477459695,763.5912445506763,4.660471473588069,-163229.42477984127,10.5,10499836770.57522,47.655,-122.3035,60.0,9.316666666666666
2026-01-20T23:09:20+00:00,SAT-47621,49.96956284062941,43.87439777700191,768.2392219433885,4.695475727548585,-164455.421821386,10.5,10499835544.578178,47.655,-122.3035,60.0,9.333333333333334
2026-01-20T23:09:21+00:00,SAT-47621,50.16616152565398,43.48434038254851,772.9221097484874,4.729842204810507,-165659.08122515318,10.5,10499834340.918776,47.655,-122.3035,60.0,9.35
2026-01-20T23:09:22+00:00,SAT-47621,50.35798453858635,43.09830619500296,777.6392718990652,4.763581624959528,-166840.77843637764,10.5,10499833159.221563,47.655,-122.3035,60.0,9.366666666666667
2026-01-20T23:09:23+00:00,SAT-47621,50.545203155202564,42.71626723189271,782.390083019062,4.796704664319775,-168000.88738509105,10.5,10499831999.112616,47.655,-122.3035,60.0,9.383333333333333
2026-01-20T23:09:24+00:00,SAT-47621,50.72798074790181,42.33819406045752,787.1739283801221,4.829221983379496,-169139.7814466857,10.5,10499830860.218554,47.655,-122.3035,60.0,9.4
2026-01-20T23:09:25+00:00,SAT-47621,50.90647322675641,41.9640559226803,791.9902038857969,4.8611441230949195,-170257.82981003696,10.5,10499829742.17019,47.655,-122.3035,60.0,9.416666666666666
2026-01-20T23:09:26+00:00,SAT-47621,51.080829448558774,41.59382086013044,796.8383159523355,4.89248155418999,-171355.39920418843,10.5,10499828644.600796,47.655,-122.3035,60.0,9.433333333333334
2026-01-20T23:09:27+00:00,SAT-47621,51.25119160219396,41.22745582687618,801.7176814386412,4.923244686408251,-172432.85422239217,10.5,10499827567.145777,47.655,-122.3035,60.0,9.45
2026-01-20T23:09:28+00:00,SAT-47621,51.41769557024016,40.86492679437197,806.6277275854527,4.953443810357508,-173490.55528526285,10.5,10499826509.444715,47.655,-122.3035,60.0,9.466666666666667
2026-01-20T23:09:29+00:00,SAT-47621,51.580471266047105,40.50619885371855,811.5678918965301,4.98308911368177,-174528.85920718723,10.5,10499825471.140793,47.655,-122.3035,60.0,9.483333333333333
2026-01-20T23:09:30+00:00,SAT-47621,51.73964295085028,40.15123631001476,816.5376220359643,5.012190707111953,-175548.1201087304,10.5,10499824451.87989,47.655,-122.3035,60.0,9.5
2026-01-20T23:09:31+00:00,SAT-47621,51.8953295322698,39.80000276867767,821.5363757514727,5.040758579374851,-176548.6878373569,10.5,10499823451.312162,47.655,-122.3035,60.0,9.516666666666667
2026-01-20T23:09:32+00:00,SAT-47621,52.04764484335727,39.45246121921501,826.563620752721,5.068802594243413,-177530.90786411925,10.5,10499822469.092136,47.655,-122.3035,60.0,9.533333333333333
2026-01-20T23:09:33+00:00,SAT-47621,52.19669790472227,39.10857411361747,831.618834586704,5.0963324784862385,-178495.12086159788,10.5,10499821504.879139,47.655,-122.3035,60.0,9.55
2026-01-20T23:09:34+00:00,SAT-47621,52.342593170767806,38.768303440315684,836.7015045011093,5.123357878844588,-179441.66469947743,10.5,10499820558.3353,47.655,-122.3035,60.0,9.566666666666666
2026-01-20T23:09:35+00:00,SAT-47621,52.48543076304455,38.4316107894429,841.811127364504,5.149888293969435,-180370.8720606943,10.5,10499819629.12794,47.655,-122.3035,60.0,9.583333333333334
2026-01-20T23:09:36+00:00,SAT-47621,52.625306687861716,38.09845741815811,846.947209518642,5.175933096985287,-181283.07123171695,10.5,10499818716.928768,47.655,-122.3035,60.0,9.6
2026-01-20T23:09:37+00:00,SAT-47621,52.76231304187497,37.768804310091426,852.109266653273,5.201501498033108,-182178.58479064083,10.5,10499817821.415209,47.655,-122.3035,60.0,9.616666666666667
2026-01-20T23:09:38+00:00,SAT-47621,52.89653820479688,37.44261223308421,857.296823643597,5.226602639926306,-183057.7329574656,10.5,10499816942.267042,47.655,-122.3035,60.0,9.633333333333333
2026-01-20T23:09:39+00:00,SAT-47621,53.028067023622604,37.11984178706857,862.5094144831168,5.251245444129527,-183920.8281996208,10.5,10499816079.1718,47.655,-122.3035,60.0,9.65
2026-01-20T23:09:40+00:00,SAT-47621,53.15698098221384,36.800453458034106,867.7465820628825,5.27543877102587,-184768.18084520203,10.5,10499815231.819155,47.655,-122.3035,60.0,9.666666666666666
2026-01-20T23:09:41+00:00,SAT-47621,53.28335836554435,36.48440765860383,873.0078781105738,5.29919129780529,-185600.094806106,10.5,10499814399.905193,47.655,-122.3035,60.0,9.683333333333334
2026-01-20T23:09:42+00:00,SAT-47621,53.40727441155329,36.17166477301287,878.292863007798,5.322511588969284,-186416.87004740286,10.5,10499813583.129953,47.655,-122.3035,60.0,9.7
2026-01-20T23:09:43+00:00,SAT-47621,53.52880145629604,35.86218519478356,883.6011056777037,5.345408046728506,-187218.80085005114,10.5,10499812781.19915,47.655,-122.3035,60.0,9.716666666666667
2026-01-20T23:09:44+00:00,SAT-47621,53.64800906987981,35.555929364558615,888.9321834231255,5.367888932133548,-188006.17655098668,10.5,10499811993.823448,47.655,-122.3035,60.0,9.733333333333333
2026-01-20T23:09:45+00:00,SAT-47621,53.76496418542018,35.252857804000726,894.2856817858005,5.38996238494936,-188779.28223920925,10.5,10499811220.71776,47.655,-122.3035,60.0,9.75
2026-01-20T23:09:46+00:00,SAT-47621,53.87973122146425,34.95293114611636,899.6611944254107,5.411636399211804,-189538.39789966945,10.5,10499810461.6021,47.655,-122.3035,60.0,9.766666666666667
2026-01-20T23:09:47+00:00,SAT-47621,53.992372197149706,34.656110164682666,905.0583229742418,5.432918824807313,-190283.7984685952,10.5,10499809716.20153,47.655,-122.3035,60.0,9.783333333333333
2026-01-20T23:09:48+00:00,SAT-47621,54.10294684127235,34.362355801380474,910.4766768934226,5.453817362003949,-191015.7536419461,10.5,10499808984.246359,47.655,-122.3035,60.0,9.8
2026-01-20T23:09:49+00:00,SAT-47621,54.21151269538288,34.0716291911548,915.915873323706,5.474339587020316,-191734.52877094503,10.5,10499808265.47123,47.655,-122.3035,60.0,9.816666666666666
2026-01-20T23:09:50+00:00,SAT-47621,54.318125212013605,33.78389168428089,921.3755369617521,5.494492926911246,-192440.38398246857,10.5,10499807559.616018,47.655,-122.3035,60.0,9.833333333333334
2026-01-20T23:09:51+00:00,SAT-47621,54.42283784712125,33.499104867990816,926.8552999113666,5.514284696872522,-193133.5754856164,10.5,10499806866.424515,47.655,-122.3035,60.0,9.85
2026-01-20T23:09:52+00:00,SAT-47621,54.5257021485635,33.21723058447904,932.354801571938,5.533722021917998,-193814.35282851238,10.5,10499806185.647171,47.655,-122.3035,60.0,9.866666666666667
2026-01-20T23:09:53+00:00,SAT-47621,54.62676783831821,32.93823095136118,937.8736884487686,5.552811954788608,-194482.96302797712,10.5,10499805517.036972,47.655,-122.3035,60.0,9.883333333333333
2026-01-20T23:09:54+00:00,SAT-47621,54.726082892864966,32.66206837461146,943.4116140809945,5.5715613805123825,-195139.64722681584,10.5,10499804860.352774,47.655,-122.3035,60.0,9.9
2026-01-20T23:09:55+00:00,SAT-47621,54.823693617539746,32.388705565029674,948.9682388743213,5.589977047159488,-195784.6417709902,10.5,10499804215.358229,47.655,-122.3035,60.0,9.916666666666666
2026-01-20T23:09:56+00:00,SAT-47621,54.91964471775194,32.11810555180481,954.543229964434,5.608065575877042,-196418.17856107955,10.5,10499803581.82144,47.655,-122.3035,60.0,9.933333333333334
2026-01-20T23:09:57+00:00,SAT-47621,55.013979366756644,31.850231694380103,960.1362610904151,5.625833492743039,-197040.4861679406,10.5,10499802959.513832,47.655,-122.3035,60.0,9.95
2026-01-20T23:09:58+00:00,SAT-47621,55.10673927061677,31.58504769172644,965.7470124999294,5.643287142057972,-197651.78679581295,10.5,10499802348.213203,47.655,-122.3035,60.0,9.966666666666667
2026-01-20T23:09:59+00:00,SAT-47621,55.197964728365335,31.32251759469656,971.3751707679328,5.660432756651187,-198252.29874474517,10.5,10499801747.701256,47.655,-122.3035,60.0,9.983333333333333
2026-01-20T23:10:00+00:00,SAT-47621,55.28769469047439,31.062605813999216,977.0204286855032,5.677276478329109,-198842.23712677803,10.5,10499801157.762873,47.655,-122.3035,60.0,10.0
2026-01-20T23:10:01+00:00,SAT-47621,55.375966814736955,30.80527712640266,982.6824851690582,5.693824292434446,-199421.8115739312,10.5,10499800578.188427,47.655,-122.3035,60.0,10.016666666666667
2026-01-20T23:10:02+00:00,SAT-47621,55.46281751835656,30.550496683112957,988.3610451043121,5.710082077208817,-199991.22796709108,10.5,10499800008.772034,47.655,-122.3035,60.0,10.033333333333333
2026-01-20T23:10:03+00:00,SAT-47621,55.54828202830222,30.298230015085164,994.0558192394634,5.726055567707115,-200550.6871721393,10.5,10499799449.312828,47.655,-122.3035,60.0,10.05
2026-01-20T23:10:04+00:00,SAT-47621,55.632394428698284,30.04844303921114,999.766524042389,5.741750429893915,-201100.38763512223,10.5,10499798899.612366,47.655,-122.3035,60.0,10.066666666666666
