DopplerPredictor/satellites_20260205_234138/SAT-59490.csv

timestamp,satellite,azimuth_deg,elevation_deg,distance_km,relative_velocity_kms,doppler_shift_hz,tx_freq_ghz,rx_freq_hz,ue_lat,ue_lon,ue_alt_m,time_minutes
2026-01-20T23:00:45+00:00,SAT-59490,217.95134888714233,30.08140154917903,883.9796402223383,-3.982478712790224,139483.2503901661,10.5,10500139483.250391,47.655,-122.3035,60.0,0.75
2026-01-20T23:00:46+00:00,SAT-59490,217.55174762930017,30.272817722392904,880.0078379853953,-3.944369700621087,138148.51158304128,10.5,10500138148.511583,47.655,-122.3035,60.0,0.7666666666666667
2026-01-20T23:00:47+00:00,SAT-59490,217.14692750484696,30.464302320296696,876.0740425956185,-3.9057405537503964,136795.55545850043,10.5,10500136795.555458,47.655,-122.3035,60.0,0.7833333333333333
2026-01-20T23:00:48+00:00,SAT-59490,216.73682747813675,30.655808396176106,872.1787727933005,-3.8665870791442414,135424.2351587595,10.5,10500135424.235159,47.655,-122.3035,60.0,0.8
2026-01-20T23:00:49+00:00,SAT-59490,216.3213870947353,30.847287206824976,868.3225515005262,-3.826905264386457,134034.4101520319,10.5,10500134034.410152,47.655,-122.3035,60.0,0.8166666666666667
2026-01-20T23:00:50+00:00,SAT-59490,215.90054657730715,31.038688185325718,864.5059056410408,-3.786691227725837,132625.94448297058,10.5,10500132625.944483,47.655,-122.3035,60.0,0.8333333333333334
2026-01-20T23:00:51+00:00,SAT-59490,215.47424693313124,31.229958912623317,860.729366009933,-3.7459412297358337,131198.70718104005,10.5,10500131198.707182,47.655,-122.3035,60.0,0.85
2026-01-20T23:00:52+00:00,SAT-59490,215.0424300672016,31.421045091008054,856.9934671316943,-3.7046517468173628,129752.57483489565,10.5,10500129752.574835,47.655,-122.3035,60.0,0.8666666666666667
2026-01-20T23:00:53+00:00,SAT-59490,214.60503889357915,31.611890522921346,853.298747044968,-3.6628193864689225,128287.42862478444,10.5,10500128287.428625,47.655,-122.3035,60.0,0.8833333333333333
2026-01-20T23:00:54+00:00,SAT-59490,214.16201746345058,31.802437087231162,849.6457471718056,-3.620441004905282,126803.15844204948,10.5,10500126803.158442,47.655,-122.3035,60.0,0.9
2026-01-20T23:00:55+00:00,SAT-59490,213.71331108625608,31.992624723531794,846.0350120696136,-3.577513584520108,125299.65859735248,10.5,10500125299.658598,47.655,-122.3035,60.0,0.9166666666666666
2026-01-20T23:00:56+00:00,SAT-59490,213.25886647297338,32.18239141227531,842.4670893053164,-3.534034420108745,123776.83434298343,10.5,10500123776.834343,47.655,-122.3035,60.0,0.9333333333333333
2026-01-20T23:00:57+00:00,SAT-59490,212.798631863349,32.37167316709681,838.9425291437913,-3.490000947122964,122234.59585761532,10.5,10500122234.595858,47.655,-122.3035,60.0,0.95
2026-01-20T23:00:58+00:00,SAT-59490,212.33255718212015,32.56040402075389,835.4618844075876,-3.445410879996821,120672.8630910609,10.5,10500120672.86309,47.655,-122.3035,60.0,0.9666666666666667
2026-01-20T23:00:59+00:00,SAT-59490,211.86059418504624,32.748516021274106,832.0257101986934,-3.400262167970677,119091.5642170428,10.5,10500119091.564217,47.655,-122.3035,60.0,0.9833333333333333
2026-01-20T23:01:00+00:00,SAT-59490,211.38269661787388,32.93593922891279,828.6345636643587,-3.3545530454187924,117490.63739587912,10.5,10500117490.637396,47.655,-122.3035,60.0,1.0
2026-01-20T23:01:01+00:00,SAT-59490,210.8988203757438,33.122601719266,825.2890037127263,-3.3082819766614993,115870.02884157193,10.5,10500115870.028841,47.655,-122.3035,60.0,1.0166666666666666
2026-01-20T23:01:02+00:00,SAT-59490,210.40892367779256,33.308429586985376,821.9895907835016,-3.2614477352054223,114229.69559713519,10.5,10500114229.695597,47.655,-122.3035,60.0,1.0333333333333334
2026-01-20T23:01:03+00:00,SAT-59490,209.91296723785962,33.49334695778017,818.7368865395943,-3.2140494044626156,112569.60555978185,10.5,10500112569.60556,47.655,-122.3035,60.0,1.05
2026-01-20T23:01:04+00:00,SAT-59490,209.41091444169913,33.6772760047047,815.5314535580462,-3.166086333704168,110889.73593823284,10.5,10500110889.735939,47.655,-122.3035,60.0,1.0666666666666667
2026-01-20T23:01:05+00:00,SAT-59490,208.9027315382505,33.860136966379294,812.3738550648827,-3.1175582542621116,109190.07732259954,10.5,10500109190.077322,47.655,-122.3035,60.0,1.0833333333333333
2026-01-20T23:01:06+00:00,SAT-59490,208.38838781921737,34.04184817658439,809.2646545540777,-3.0684651348359546,107470.62861660625,10.5,10500107470.628616,47.655,-122.3035,60.0,1.1
2026-01-20T23:01:07+00:00,SAT-59490,207.86785582885835,34.222326090482944,806.2044155508197,-3.0188074016575466,105731.4047486953,10.5,10500105731.404749,47.655,-122.3035,60.0,1.1166666666666667
2026-01-20T23:01:08+00:00,SAT-59490,207.3411115432779,34.401485328910056,803.1937011552105,-2.968585734753397,103972.42953627162,10.5,10500103972.429537,47.655,-122.3035,60.0,1.1333333333333333
2026-01-20T23:01:09+00:00,SAT-59490,206.80813459002962,34.579238716278006,800.2330737891475,-2.9178012481168434,102193.74199609403,10.5,10500102193.741997,47.655,-122.3035,60.0,1.15
2026-01-20T23:01:10+00:00,SAT-59490,206.26890844205437,34.755497334847405,797.3230947635202,-2.866455389198445,100395.39282400382,10.5,10500100395.392824,47.655,-122.3035,60.0,1.1666666666666667
2026-01-20T23:01:11+00:00,SAT-59490,205.7234206342651,34.93017057907205,794.4643239456493,-2.8145500166650006,98577.44711837449,10.5,10500098577.447119,47.655,-122.3035,60.0,1.1833333333333333
2026-01-20T23:01:12+00:00,SAT-59490,205.17166297039944,35.103166220847086,791.6573193491713,-2.762087396512434,96739.9842439684,10.5,10500096739.984243,47.655,-122.3035,60.0,1.2
2026-01-20T23:01:13+00:00,SAT-59490,204.61363173382455,35.2743904810508,788.9026367278005,-2.709070168643991,94883.09666136399,10.5,10500094883.09666,47.655,-122.3035,60.0,1.2166666666666666
2026-01-20T23:01:14+00:00,SAT-59490,204.04932790832163,35.44374810568973,786.2008292024273,-2.6555014248688837,93006.89265879823,10.5,10500093006.892658,47.655,-122.3035,60.0,1.2333333333333334
2026-01-20T23:01:15+00:00,SAT-59490,203.47875738546506,35.6111424537325,783.5524468104192,-2.601384671803775,91111.49505281965,10.5,10500091111.495052,47.655,-122.3035,60.0,1.25
2026-01-20T23:01:16+00:00,SAT-59490,202.90193118069914,35.77647558970544,780.9580360919293,-2.5467238578695413,89197.04213382908,10.5,10500089197.042133,47.655,-122.3035,60.0,1.2666666666666666
2026-01-20T23:01:17+00:00,SAT-59490,202.31886564432202,35.939648385160446,778.4181396492748,-2.4915233717077823,87263.68761061932,10.5,10500087263.68761,47.655,-122.3035,60.0,1.2833333333333334
2026-01-20T23:01:18+00:00,SAT-59490,201.7295826722621,36.100560627340265,775.9332957078965,-2.4357880604880444,85311.6012515714,10.5,10500085311.601252,47.655,-122.3035,60.0,1.3
2026-01-20T23:01:19+00:00,SAT-59490,201.13410991116814,36.259111136405195,773.5040376590598,-2.3795232373813167,83340.96914640802,10.5,10500083340.969147,47.655,-122.3035,60.0,1.3166666666666667
2026-01-20T23:01:20+00:00,SAT-59490,200.5324809587156,36.41519789059424,771.1308935951038,-2.3227346815043832,81351.99370424464,10.5,10500081351.993704,47.655,-122.3035,60.0,1.3333333333333333
2026-01-20T23:01:21+00:00,SAT-59490,199.92473555989258,36.56871815885468,768.814385844743,-2.2654286350042923,79344.89355147509,10.5,10500079344.89355,47.655,-122.3035,60.0,1.35
2026-01-20T23:01:22+00:00,SAT-59490,199.31091979908481,36.71956864070202,766.55503051128,-2.2076118339900077,77319.90461512905,10.5,10500077319.904615,47.655,-122.3035,60.0,1.3666666666666667
2026-01-20T23:01:23+00:00,SAT-59490,198.69108627737145,36.8676456155043,764.3533369799665,-2.149291507674664,75277.28009283,10.5,10500075277.280092,47.655,-122.3035,60.0,1.3833333333333333
2026-01-20T23:01:24+00:00,SAT-59490,198.06529428124307,37.01284509902725,762.2098074262217,-2.0904753400174223,73217.28910933087,10.5,10500073217.28911,47.655,-122.3035,60.0,1.4
2026-01-20T23:01:25+00:00,SAT-59490,197.43360995326108,37.15506300449919,760.1249363621055,-2.031171534270813,71140.21897723502,10.5,10500071140.218977,47.655,-122.3035,60.0,1.4166666666666667
2026-01-20T23:01:26+00:00,SAT-59490,196.7961064329404,37.29419531495584,758.0992101184164,-1.9713887854461507,69046.37423261856,10.5,10500069046.374233,47.655,-122.3035,60.0,1.4333333333333333
2026-01-20T23:01:27+00:00,SAT-59490,196.15286399231405,37.43013826042898,756.1331063542523,-1.9111362716690972,66936.07633226557,10.5,10500066936.076332,47.655,-122.3035,60.0,1.45
2026-01-20T23:01:28+00:00,SAT-59490,195.50397016018647,37.56278850091356,754.2270935751907,-1.8504236606672126,64809.663880889675,10.5,10500064809.663881,47.655,-122.3035,60.0,1.4666666666666666
2026-01-20T23:01:29+00:00,SAT-59490,194.84951982878388,37.69204331578688,752.3816306449995,-1.7892611304735617,62667.49335626181,10.5,10500062667.493357,47.655,-122.3035,60.0,1.4833333333333334
2026-01-20T23:01:30+00:00,SAT-59490,194.18961533512,37.8178008002999,750.5971662766987,-1.727659337759663,60509.938000096256,10.5,10500060509.938,47.655,-122.3035,60.0,1.5
2026-01-20T23:01:31+00:00,SAT-59490,193.52436653381756,37.93996006502605,748.8741385552065,-1.6656294267020195,58337.388128593964,10.5,10500058337.388128,47.655,-122.3035,60.0,1.5166666666666666
2026-01-20T23:01:32+00:00,SAT-59490,192.85389084594064,38.058421440566335,747.2129744511404,-1.6031830217585386,56150.25087944226,10.5,10500056150.25088,47.655,-122.3035,60.0,1.5333333333333334
2026-01-20T23:01:33+00:00,SAT-59490,192.17831328792042,38.173086685814646,745.6140893418242,-1.5403322356300464,53948.95049066073,10.5,10500053948.95049,47.655,-122.3035,60.0,1.55
2026-01-20T23:01:34+00:00,SAT-59490,191.49776647221577,38.28385920025938,744.077886524352,-1.477089641588104,51733.92733140436,10.5,10500051733.927332,47.655,-122.3035,60.0,1.5666666666666667
2026-01-20T23:01:35+00:00,SAT-59490,190.81239059329286,38.39064423709821,742.6047567562548,-1.4134682820611264,49505.63820268563,10.5,10500049505.638203,47.655,-122.3035,60.0,1.5833333333333333
2026-01-20T23:01:36+00:00,SAT-59490,190.12233338206752,38.49334911903947,741.1950777875992,-1.34948164111644,47264.55537357988,10.5,10500047264.555374,47.655,-122.3035,60.0,1.6
2026-01-20T23:01:37+00:00,SAT-59490,189.42775004409572,38.59188345341848,739.8492139205342,-1.2851436587629883,45011.16708216648,10.5,10500045011.167082,47.655,-122.3035,60.0,1.6166666666666667
2026-01-20T23:01:38+00:00,SAT-59490,188.7288031597467,38.686159348876664,738.5675155545704,-1.2204687092345887,42745.97677491667,10.5,10500042745.976774,47.655,-122.3035,60.0,1.6333333333333333
2026-01-20T23:01:39+00:00,SAT-59490,188.02566256183374,38.776091630137074,737.3503187535207,-1.1554715686451777,40469.501973843406,10.5,10500040469.501974,47.655,-122.3035,60.0,1.65
2026-01-20T23:01:40+00:00,SAT-59490,187.3185051981289,38.861598049215964,736.1979448446958,-1.0901674431234754,38182.27526189631,10.5,10500038182.275263,47.655,-122.3035,60.0,1.6666666666666667
2026-01-20T23:01:41+00:00,SAT-59490,186.60751494192044,38.94259949662779,735.1106999900443,-1.024571902970318,35884.84197687301,10.5,10500035884.841976,47.655,-122.3035,60.0,1.6833333333333333
2026-01-20T23:01:42+00:00,SAT-59490,185.89288240631365,39.019020204733124,734.088874822955,-0.9587009216070982,33577.76157555815,10.5,10500033577.761576,47.655,-122.3035,60.0,1.7
2026-01-20T23:01:43+00:00,SAT-59490,185.1748046953008,39.09078795006927,733.1327440462179,-0.8925708036762615,31261.605115498758,10.5,10500031261.605116,47.655,-122.3035,60.0,1.7166666666666666
2026-01-20T23:01:44+00:00,SAT-59490,184.45348516541569,39.157834245490584,732.2425661016919,-0.8261982143847727,28936.956282736483,10.5,10500028936.956284,47.655,-122.3035,60.0,1.7333333333333334
2026-01-20T23:01:45+00:00,SAT-59490,183.72913312632804,39.22009452873805,731.4185828107044,-0.7596001302052731,26604.409665153642,10.5,10500026604.409666,47.655,-122.3035,60.0,1.75
2026-01-20T23:01:46+00:00,SAT-59490,183.00196353729686,39.27750834064954,730.6610190636233,-0.6927938262738829,24264.570311090913,10.5,10500024264.57031,47.655,-122.3035,60.0,1.7666666666666666
2026-01-20T23:01:47+00:00,SAT-59490,182.27219667440554,39.33001949484697,729.9700825219924,-0.6257968637291752,21918.053285904676,10.5,10500021918.053286,47.655,-122.3035,60.0,1.7833333333333334
2026-01-20T23:01:48+00:00,SAT-59490,181.54005776445717,39.37757623804254,729.3459633332947,-0.558627056117834,19565.482495351025,10.5,10500019565.482496,47.655,-122.3035,60.0,1.8
2026-01-20T23:01:49+00:00,SAT-59490,180.80577660806273,39.420131398540946,728.788833879224,-0.4913024558674948,17207.490211807446,10.5,10500017207.490211,47.655,-122.3035,60.0,1.8166666666666667
2026-01-20T23:01:50+00:00,SAT-59490,180.06958717101762,39.457642523659175,728.2988485374409,-0.42384132560955445,14844.716069876322,10.5,10500014844.71607,47.655,-122.3035,60.0,1.8333333333333333
2026-01-20T23:01:51+00:00,SAT-59490,179.331727161575,39.4900720041802,727.876143471935,-0.35626211371525196,12477.806209554965,10.5,10500012477.80621,47.655,-122.3035,60.0,1.85
2026-01-20T23:01:52+00:00,SAT-59490,178.59243759191818,39.51738718547342,727.5208364477827,-0.2885834345983389,10107.412586351851,10.5,10500010107.412586,47.655,-122.3035,60.0,1.8666666666666667
2026-01-20T23:01:53+00:00,SAT-59490,177.85196231508309,39.53956046502212,727.233026665548,-0.22082403935547865,7734.191942989192,10.5,10500007734.191942,47.655,-122.3035,60.0,1.8833333333333333
2026-01-20T23:01:54+00:00,SAT-59490,177.11054755311267,39.55656937508785,727.0127946249683,-0.15300279034534742,5358.804919055528,10.5,10500005358.804918,47.655,-122.3035,60.0,1.9
2026-01-20T23:01:55+00:00,SAT-59490,176.3684414156714,39.568396650322086,726.8602020139895,-0.08513863653019202,2981.9151873627725,10.5,10500002981.915188,47.655,-122.3035,60.0,1.9166666666666667
2026-01-20T23:01:56+00:00,SAT-59490,175.62589340711907,39.57503028001931,726.7752916223948,-0.017250587304290906,604.1885373082151,10.5,10500000604.188538,47.655,-122.3035,60.0,1.9333333333333333
2026-01-20T23:01:57+00:00,SAT-59490,174.88315391975752,39.57646354458325,726.7580872815344,0.050642315405024334,-1773.7081022657198,10.5,10499998226.291897,47.655,-122.3035,60.0,1.95
2026-01-20T23:01:58+00:00,SAT-59490,174.14047373766275,39.57269503585867,726.8085938318806,0.11852102259295358,-4151.1075546337215,10.5,10499995848.892445,47.655,-122.3035,60.0,1.9666666666666666
2026-01-20T23:01:59+00:00,SAT-59490,173.39810352224345,39.563728661416945,726.9267971159676,0.18636650471011182,-6527.343324481412,10.5,10499993472.656675,47.655,-122.3035,60.0,1.9833333333333334
2026-01-20T23:02:00+00:00,SAT-59490,172.6562933115774,39.5495736326659,727.1126639977973,0.2541597794997587,-8901.750572882878,10.5,10499991098.249428,47.655,-122.3035,60.0,2.0
2026-01-20T23:02:01+00:00,SAT-59490,171.91529201217762,39.53024443676715,727.3661424100021,0.32188193644926794,-11273.666973694559,10.5,10499988726.333027,47.655,-122.3035,60.0,2.0166666666666666
2026-01-20T23:02:02+00:00,SAT-59490,171.1753469059255,39.50576079278125,727.6871614253998,0.3895141641343839,-13642.433671266775,10.5,10499986357.566328,47.655,-122.3035,60.0,2.033333333333333
2026-01-20T23:02:03+00:00,SAT-59490,170.43670315890805,39.476147592065125,728.0756313558131,0.4570377772758254,-16007.396228080452,10.5,10499983992.603771,47.655,-122.3035,60.0,2.05
2026-01-20T23:02:04+00:00,SAT-59490,169.69960334064774,39.44143482329122,728.5314438778793,0.5244342381287315,-18367.905373895966,10.5,10499981632.094625,47.655,-122.3035,60.0,2.066666666666667
2026-01-20T23:02:05+00:00,SAT-59490,168.96428696265085,39.401657482946824,729.0544721801875,0.5916851884681076,-20723.318126018796,10.5,10499979276.681873,47.655,-122.3035,60.0,2.0833333333333335
2026-01-20T23:02:06+00:00,SAT-59490,168.23099002114643,39.3568554710104,729.6445711423181,0.6587724615120419,-23072.99820690099,10.5,10499976927.001793,47.655,-122.3035,60.0,2.1
2026-01-20T23:02:07+00:00,SAT-59490,167.49994457335973,39.30707347391539,730.3015775257712,0.725678125624668,-25416.31757480375,10.5,10499974583.682425,47.655,-122.3035,60.0,2.1166666666666667
2026-01-20T23:02:08+00:00,SAT-59490,166.77137830870186,39.2523608330339,731.0253102084846,0.7923844807426165,-27752.65629863668,10.5,10499972247.343702,47.655,-122.3035,60.0,2.1333333333333333
2026-01-20T23:02:09+00:00,SAT-59490,166.04551417032073,39.192771402982366,731.8155704157836,0.8588741144242868,-30081.404521040393,10.5,10499969918.595478,47.655,-122.3035,60.0,2.15
2026-01-20T23:02:10+00:00,SAT-59490,165.32256996490383,39.128363396002115,732.6721420072317,0.9251298810710271,-32401.961730624276,10.5,10499967598.038269,47.655,-122.3035,60.0,2.1666666666666665
2026-01-20T23:02:11+00:00,SAT-59490,164.60275803491325,39.05919921902651,733.5947917427596,0.9911349669429286,-34713.739039094675,10.5,10499965286.260962,47.655,-122.3035,60.0,2.183333333333333
2026-01-20T23:02:12+00:00,SAT-59490,163.88628491678415,38.98534529783208,734.5832696136326,1.056872875584351,-37016.158670795136,10.5,10499962983.84133,47.655,-122.3035,60.0,2.2
2026-01-20T23:02:13+00:00,SAT-59490,163.17335105359197,38.9068718951365,735.6373091588862,1.122327462187331,-39308.6551662583,10.5,10499960691.344833,47.655,-122.3035,60.0,2.216666666666667
2026-01-20T23:02:14+00:00,SAT-59490,162.46415052094758,38.82385291988258,736.7566278160284,1.1874829563984508,-41590.67618099897,10.5,10499958409.323818,47.655,-122.3035,60.0,2.2333333333333334
2026-01-20T23:02:15+00:00,SAT-59490,161.75887077771242,38.7363657294997,737.9409272944936,1.2523239539564652,-43861.68219262836,10.5,10499956138.317808,47.655,-122.3035,60.0,2.25
2026-01-20T23:02:16+00:00,SAT-59490,161.05769245911628,38.644490928385935,739.1898939407503,1.3168354695230153,-46121.14835120922,10.5,10499953878.851648,47.655,-122.3035,60.0,2.2666666666666666
2026-01-20T23:02:17+00:00,SAT-59490,160.36078917507825,38.548312159007274,740.5031991561028,1.3810029100453067,-48368.563546304154,10.5,10499951631.436453,47.655,-122.3035,60.0,2.283333333333333
2026-01-20T23:02:18+00:00,SAT-59490,159.6683273594729,38.44791589240127,741.8804997879247,1.4448121208474487,-50603.43202128925,10.5,10499949396.567978,47.655,-122.3035,60.0,2.3
2026-01-20T23:02:19+00:00,SAT-59490,158.9804661282157,38.343391213639094,743.3214385668601,1.508249388978862,-52825.27349062948,10.5,10499947174.72651,47.655,-122.3035,60.0,2.316666666666667
2026-01-20T23:02:20+00:00,SAT-59490,158.2973571700713,38.23482960628201,744.8256445473655,1.5713014358356874,-55033.62288144927,10.5,10499944966.37712,47.655,-122.3035,60.0,2.3333333333333335
2026-01-20T23:02:21+00:00,SAT-59490,157.61914467176143,38.12232473743667,746.3927335408913,1.6339554496663986,-57228.031472016504,10.5,10499942771.968529,47.655,-122.3035,60.0,2.35
2026-01-20T23:02:22+00:00,SAT-59490,156.94596525794597,38.00597224135309,748.0223085814832,1.6961990855860283,-59408.06689224082,10.5,10499940591.933107,47.655,-122.3035,60.0,2.3666666666666667
2026-01-20T23:02:23+00:00,SAT-59490,156.27794796037378,37.8858695047073,749.7139603913962,1.7580204777918687,-61573.3135515191,10.5,10499938426.68645,47.655,-122.3035,60.0,2.3833333333333333
2026-01-20T23:02:24+00:00,SAT-59490,155.6152142091891,37.762115453430745,751.467267858894,1.8194082236127391,-63723.37208007335,10.5,10499936276.62792,47.655,-122.3035,60.0,2.4
2026-01-20T23:02:25+00:00,SAT-59490,154.95787785535236,37.63481034377073,753.2817985001377,1.8803514171770208,-65857.86050814767,10.5,10499934142.139492,47.655,-122.3035,60.0,2.4166666666666665
2026-01-20T23:02:26+00:00,SAT-59490,154.30604520372694,37.50405555472487,755.1571089546536,1.9408396482302828,-67976.41422459656,10.5,10499932023.585775,47.655,-122.3035,60.0,2.433333333333333
2026-01-20T23:02:27+00:00,SAT-59490,153.65981506944402,37.36995338492438,757.092745479623,2.0008629856640083,-70078.68539999124,10.5,10499929921.3146,47.655,-122.3035,60.0,2.45
2026-01-20T23:02:28+00:00,SAT-59490,153.01927886015878,37.232606855561926,759.0882444277413,2.0604119940911807,-72164.34356716671,10.5,10499927835.656433,47.655,-122.3035,60.0,2.466666666666667
2026-01-20T23:02:29+00:00,SAT-59490,152.38452067090086,37.09211951753394,761.1431327416135,2.1194777341321576,-74233.07563123437,10.5,10499925766.924368,47.655,-122.3035,60.0,2.4833333333333334
2026-01-20T23:02:30+00:00,SAT-59490,151.75561739600747,36.948595264389425,763.2569284484284,2.178051764779417,-76284.5859524054,10.5,10499923715.414047,47.655,-122.3035,60.0,2.5
2026-01-20T23:02:31+00:00,SAT-59490,151.13263885578897,36.80213815132805,765.4291411569975,2.2361261266513375,-78318.59575946718,10.5,10499921681.40424,47.655,-122.3035,60.0,2.5166666666666666
2026-01-20T23:02:32+00:00,SAT-59490,150.51564794168152,36.65285222185465,767.6592725380887,2.2936933550298098,-80334.84360641589,10.5,10499919665.156393,47.655,-122.3035,60.0,2.533333333333333
2026-01-20T23:02:33+00:00,SAT-59490,149.9047007694415,36.500841340354114,769.9468168177632,2.3507464779828755,-82333.08530670307,10.5,10499917666.914694,47.655,-122.3035,60.0,2.55
2026-01-20T23:02:34+00:00,SAT-59490,149.2998468436353,36.34620903183397,772.2912612688419,2.4072789915223107,-84313.09306314925,10.5,10499915686.906937,47.655,-122.3035,60.0,2.566666666666667
2026-01-20T23:02:35+00:00,SAT-59490,148.70112923750045,36.18905833051507,774.6920866775923,2.4632848881456244,-86274.65646760551,10.5,10499913725.343533,47.655,-122.3035,60.0,2.5833333333333335
2026-01-20T23:02:36+00:00,SAT-59490,148.10858477295935,36.02949163387944,777.1487678388862,2.5187586080487456,-88217.58079221536,10.5,10499911782.419209,47.655,-122.3035,60.0,2.6
2026-01-20T23:02:37+00:00,SAT-59490,147.5222442188024,35.86761056732243,779.6607740026952,2.573695078824972,-90141.6883798398,10.5,10499909858.31162,47.655,-122.3035,60.0,2.6166666666666667
2026-01-20T23:02:38+00:00,SAT-59490,146.94213248391588,35.70351585368155,782.2275693601841,2.628089674703331,-92046.81721641235,10.5,10499907953.182783,47.655,-122.3035,60.0,2.6333333333333333
2026-01-20T23:02:39+00:00,SAT-59490,146.36826882375894,35.53730719286958,784.848613489146,2.6819382235158904,-93932.82117496381,10.5,10499906067.178825,47.655,-122.3035,60.0,2.65
2026-01-20T23:02:40+00:00,SAT-59490,145.80066704734563,35.36908314847224,787.5233618063921,2.7352369965101144,-95799.56965880776,10.5,10499904200.430342,47.655,-122.3035,60.0,2.6666666666666665
2026-01-20T23:02:41+00:00,SAT-59490,145.23933572766938,35.19894104235443,790.2512660099773,2.787982689986246,-97646.94695840408,10.5,10499902353.053041,47.655,-122.3035,60.0,2.683333333333333
2026-01-20T23:02:42+00:00,SAT-59490,144.68427841604785,35.026976857662994,793.0317745031132,2.8401724423271175,-99474.85284781492,10.5,10499900525.147152,47.655,-122.3035,60.0,2.7
2026-01-20T23:02:43+00:00,SAT-59490,144.1354938522098,34.85328514790531,795.8643328350664,2.891803777244613,-101283.20059695576,10.5,10499898716.799402,47.655,-122.3035,60.0,2.716666666666667
2026-01-20T23:02:44+00:00,SAT-59490,143.59297618387606,34.67795895649278,798.7483840854532,2.94287465991483,-103071.91893768628,10.5,10499896928.081062,47.655,-122.3035,60.0,2.7333333333333334
2026-01-20T23:02:45+00:00,SAT-59490,143.05671517293305,34.50108973964089,801.6833693045213,2.9933834084934574,-104840.94896470445,10.5,10499895159.051035,47.655,-122.3035,60.0,2.75
2026-01-20T23:02:46+00:00,SAT-59490,142.52669641502416,34.322767301242585,804.6687278651837,3.0433287648323994,-106590.24661234205,10.5,10499893409.753387,47.655,-122.3035,60.0,2.7666666666666666
2026-01-20T23:02:47+00:00,SAT-59490,142.00290154212388,34.14307972985242,807.7038978855771,3.09270980354617,-108319.77946968496,10.5,10499891680.22053,47.655,-122.3035,60.0,2.783333333333333
2026-01-20T23:02:48+00:00,SAT-59490,141.48530843685373,33.962113347263625,810.7883165609338,3.141525988568625,-110029.52876142922,10.5,10499889970.47124,47.655,-122.3035,60.0,2.8
2026-01-20T23:02:49+00:00,SAT-59490,140.97389143169084,33.77995265962077,813.9214205518576,3.189777118880674,-111719.48744703604,10.5,10499888280.512552,47.655,-122.3035,60.0,2.816666666666667
2026-01-20T23:02:50+00:00,SAT-59490,140.46862151200048,33.596680317404605,817.1026463184718,3.2374633368063437,-113389.66051129482,10.5,10499886610.339489,47.655,-122.3035,60.0,2.8333333333333335
2026-01-20T23:02:51+00:00,SAT-59490,139.96946651162187,33.41237708031871,820.3314304628423,3.284585098418496,-115040.06392780638,10.5,10499884959.936071,47.655,-122.3035,60.0,2.85
2026-01-20T23:02:52+00:00,SAT-59490,139.47639130679326,33.227121789007896,823.6072100418845,3.3311431934721005,-116670.72535713042,10.5,10499883329.274643,47.655,-122.3035,60.0,2.8666666666666667
2026-01-20T23:02:53+00:00,SAT-59490,138.98935800047198,33.04099134052176,826.9294229001531,3.3771386933690097,-118281.68232429183,10.5,10499881718.317677,47.655,-122.3035,60.0,2.8833333333333333
2026-01-20T23:02:54+00:00,SAT-59490,138.50832610769714,32.85406067131654,830.29750795073,3.4225729682111483,-119872.98281605555,10.5,10499880127.017183,47.655,-122.3035,60.0,2.9
2026-01-20T23:02:55+00:00,SAT-59490,138.03325273127385,32.666402743619535,833.7109054731286,3.4674476747465515,-121444.68485874581,10.5,10499878555.315142,47.655,-122.3035,60.0,2.9166666666666665
2026-01-20T23:02:56+00:00,SAT-59490,137.56409273220768,32.47808853654708,837.1690573991668,3.511764718775338,-122996.85520154428,10.5,10499877003.144798,47.655,-122.3035,60.0,2.933333333333333
2026-01-20T23:02:57+00:00,SAT-59490,137.1007988980479,32.289187043075955,840.6714075613546,3.555526275128715,-124529.57001623939,10.5,10499875470.429983,47.655,-122.3035,60.0,2.95
2026-01-20T23:02:58+00:00,SAT-59490,136.64332210113554,32.09976526946192,844.2174019612024,3.598734749931883,-126042.91357551354,10.5,10499873957.086424,47.655,-122.3035,60.0,2.966666666666667
2026-01-20T23:02:59+00:00,SAT-59490,136.19161145454987,31.909888239974265,847.8064889998951,3.641392783113625,-127536.97834083959,10.5,10499872463.02166,47.655,-122.3035,60.0,2.9833333333333334
2026-01-20T23:03:00+00:00,SAT-59490,135.74561446029483,31.719619004515867,851.4381197114694,3.68350325436658,-129011.86517123488,10.5,10499870988.134829,47.655,-122.3035,60.0,3.0
2026-01-20T23:03:01+00:00,SAT-59490,135.30527714960886,31.52901864874421,855.1117480019343,3.725069226683392,-130467.68134565819,10.5,10499869532.318655,47.655,-122.3035,60.0,3.0166666666666666
2026-01-20T23:03:02+00:00,SAT-59490,134.87054422295756,31.33814630969794,858.8268308320806,3.7660939677279868,-131904.54131152245,10.5,10499868095.458689,47.655,-122.3035,60.0,3.033333333333333
2026-01-20T23:03:03+00:00,SAT-59490,134.44135918011074,31.147059192606385,862.5828284216024,3.8065809349442237,-133322.5661631366,10.5,10499866677.433836,47.655,-122.3035,60.0,3.05
2026-01-20T23:03:04+00:00,SAT-59490,134.01766444499063,30.955812590575512,866.3792044383681,3.846533772671623,-134721.88354068613,10.5,10499865278.116459,47.655,-122.3035,60.0,3.066666666666667
2026-01-20T23:03:05+00:00,SAT-59490,133.59940148402882,30.764459906335947,870.2154261848169,3.885956274715613,-136102.626319285,10.5,10499863897.37368,47.655,-122.3035,60.0,3.0833333333333335
2026-01-20T23:03:06+00:00,SAT-59490,133.18651092187463,30.573052677553516,874.0909647470219,3.924852391428305,-137464.93285697402,10.5,10499862535.067142,47.655,-122.3035,60.0,3.1
2026-01-20T23:03:07+00:00,SAT-59490,132.77893264956563,30.38164060325736,878.0052951508184,3.963226231892563,-138808.94707121656,10.5,10499861191.052929,47.655,-122.3035,60.0,3.1166666666666667
2026-01-20T23:03:08+00:00,SAT-59490,132.37660592608344,30.19027157148944,881.9578965201085,4.001082042482631,-140134.81768800077,10.5,10499859865.182312,47.655,-122.3035,60.0,3.1333333333333333
