DopplerPredictor/satellites_20260205_234138/SAT-57468.csv

timestamp,satellite,azimuth_deg,elevation_deg,distance_km,relative_velocity_kms,doppler_shift_hz,tx_freq_ghz,rx_freq_hz,ue_lat,ue_lon,ue_alt_m,time_minutes
2026-01-20T23:04:28+00:00,SAT-57468,231.26673265891662,30.080715131237888,1010.41191066857,-3.662289213219159,128268.8597149471,10.5,10500128268.859715,47.655,-122.3035,60.0,4.466666666666667
2026-01-20T23:04:29+00:00,SAT-57468,230.9010858731964,30.239018721817096,1006.7594395473359,-3.6277182094939264,127058.03692928869,10.5,10500127058.03693,47.655,-122.3035,60.0,4.483333333333333
2026-01-20T23:04:30+00:00,SAT-57468,230.53157143214008,30.397080116150693,1003.1414467497364,-3.592767862470816,125833.92793671804,10.5,10500125833.927937,47.655,-122.3035,60.0,4.5
2026-01-20T23:04:31+00:00,SAT-57468,230.1581592635883,30.554864694316166,999.5583106021027,-3.5574363824927917,124596.4700558755,10.5,10500124596.470057,47.655,-122.3035,60.0,4.516666666666667
2026-01-20T23:04:32+00:00,SAT-57468,229.78081999276054,30.712336908350093,996.0104112156251,-3.5217221066365663,123345.6050441534,10.5,10500123345.605043,47.655,-122.3035,60.0,4.533333333333333
2026-01-20T23:04:33+00:00,SAT-57468,229.3995249948061,30.869460278495215,992.4981303599592,-3.4856234906507075,122081.2788153344,10.5,10500122081.278816,47.655,-122.3035,60.0,4.55
2026-01-20T23:04:34+00:00,SAT-57468,229.0142464502633,31.026197390003443,989.0218513448709,-3.449139090264209,120803.4407849386,10.5,10500120803.440784,47.655,-122.3035,60.0,4.566666666666666
2026-01-20T23:04:35+00:00,SAT-57468,228.6249574048728,31.18250989004946,985.581958920526,-3.412267583932876,119512.0446668982,10.5,10500119512.044666,47.655,-122.3035,60.0,4.583333333333333
2026-01-20T23:04:36+00:00,SAT-57468,228.23163182930696,31.338358486658365,982.1788391550928,-3.3750077623659402,118207.04810673515,10.5,10500118207.048107,47.655,-122.3035,60.0,4.6
2026-01-20T23:04:37+00:00,SAT-57468,227.8342446824147,31.493702948237758,978.8128793227869,-3.3373585453244967,116888.41326991361,10.5,10500116888.413269,47.655,-122.3035,60.0,4.616666666666666
2026-01-20T23:04:38+00:00,SAT-57468,227.43277197495655,31.648502105008337,975.4844677751669,-3.2993190079214956,115556.10776297683,10.5,10500115556.107763,47.655,-122.3035,60.0,4.633333333333334
2026-01-20T23:04:39+00:00,SAT-57468,227.02719083245844,31.802713852881983,972.1939937861995,-3.2608883099227843,114210.1021573706,10.5,10500114210.102158,47.655,-122.3035,60.0,4.65
2026-01-20T23:04:40+00:00,SAT-57468,226.61747956881862,31.95629515533622,968.941847467833,-3.2220658083871574,112850.37393457427,10.5,10500112850.373934,47.655,-122.3035,60.0,4.666666666666667
2026-01-20T23:04:41+00:00,SAT-57468,226.20361774866592,32.109202051891124,965.7284195732329,-3.182850956092791,111476.90392856482,10.5,10500111476.903929,47.655,-122.3035,60.0,4.683333333333334
2026-01-20T23:04:42+00:00,SAT-57468,225.7855862642986,32.26138966326142,962.5541014013202,-3.1432433963724487,110089.67964734693,10.5,10500110089.679647,47.655,-122.3035,60.0,4.7
2026-01-20T23:04:43+00:00,SAT-57468,225.36336740299262,32.41281220248591,959.4192846067258,-3.103242907448554,108688.69332333175,10.5,10500108688.693323,47.655,-122.3035,60.0,4.716666666666667
2026-01-20T23:04:44+00:00,SAT-57468,224.93694492336553,32.56342298499976,956.3243610652645,-3.062849428568007,107273.94282868874,10.5,10500107273.94283,47.655,-122.3035,60.0,4.733333333333333
2026-01-20T23:04:45+00:00,SAT-57468,224.5063041305322,32.713174441591946,953.2697227133414,-3.022063060083374,105845.43167818927,10.5,10500105845.431679,47.655,-122.3035,60.0,4.75
2026-01-20T23:04:46+00:00,SAT-57468,224.0714319531525,32.86201813308182,950.2557613872773,-2.980884086754131,104403.16984531471,10.5,10500104403.169846,47.655,-122.3035,60.0,4.766666666666667
2026-01-20T23:04:47+00:00,SAT-57468,223.63231701909638,33.009904767931694,947.2828686393979,-2.939312952825596,102947.17288941525,10.5,10500102947.17289,47.655,-122.3035,60.0,4.783333333333333
2026-01-20T23:04:48+00:00,SAT-57468,223.18894973623566,33.156784220501066,944.3514355789732,-2.8973503012341455,101477.46332884242,10.5,10500101477.46333,47.655,-122.3035,60.0,4.8
2026-01-20T23:04:49+00:00,SAT-57468,222.74132236924314,33.3026055531655,941.4618526740628,-2.8549969210835946,99994.06880134971,10.5,10500099994.068802,47.655,-122.3035,60.0,4.816666666666666
2026-01-20T23:04:50+00:00,SAT-57468,222.28942912565006,33.44731703779707,938.6145096057347,-2.8122538292293293,98497.02492151406,10.5,10500098497.024921,47.655,-122.3035,60.0,4.833333333333333
2026-01-20T23:04:51+00:00,SAT-57468,221.83326623098037,33.59086618339221,935.8097950409307,-2.7691222237305904,96986.37365043786,10.5,10500096986.37365,47.655,-122.3035,60.0,4.85
2026-01-20T23:04:52+00:00,SAT-57468,221.3728320118167,33.73319976349139,933.0480964517432,-2.7256034798937256,95462.16315716696,10.5,10500095462.163157,47.655,-122.3035,60.0,4.866666666666666
2026-01-20T23:04:53+00:00,SAT-57468,220.90812698078807,33.8742638455366,930.3297999386457,-2.681699201657402,93924.44961841808,10.5,10500093924.44962,47.655,-122.3035,60.0,4.883333333333334
2026-01-20T23:04:54+00:00,SAT-57468,220.43915391391175,34.01400382508754,927.6552900024734,-2.6374111779195006,92373.29568896211,10.5,10500092373.295689,47.655,-122.3035,60.0,4.9
2026-01-20T23:04:55+00:00,SAT-57468,219.96591793555012,34.152364460062834,925.0249493599591,-2.592741414314831,90808.77161461388,10.5,10500090808.771614,47.655,-122.3035,60.0,4.916666666666667
2026-01-20T23:04:56+00:00,SAT-57468,219.48842659844007,34.28928990892779,922.4391587275777,-2.5476921334726708,89230.9552412524,10.5,10500089230.955242,47.655,-122.3035,60.0,4.933333333333334
2026-01-20T23:04:57+00:00,SAT-57468,219.00668996351587,34.424723771253106,919.8982966051336,-2.5022657699007693,87639.93183563702,10.5,10500087639.931835,47.655,-122.3035,60.0,4.95
2026-01-20T23:04:58+00:00,SAT-57468,218.52072068043248,34.55860913038174,917.4027390644493,-2.4564649731669315,86035.79419683994,10.5,10500086035.794197,47.655,-122.3035,60.0,4.966666666666667
2026-01-20T23:04:59+00:00,SAT-57468,218.03053406707267,34.69088859864876,914.952859534883,-2.4102926207485944,84418.6431062927,10.5,10500084418.643106,47.655,-122.3035,60.0,4.983333333333333
2026-01-20T23:05:00+00:00,SAT-57468,217.53614818583222,34.8215043657077,912.5490285760304,-2.363751824171103,82788.58754277462,10.5,10500082788.587543,47.655,-122.3035,60.0,5.0
2026-01-20T23:05:01+00:00,SAT-57468,217.0375839173428,34.950398249615944,910.1916136443019,-2.3168458985229106,81145.74361470614,10.5,10500081145.743614,47.655,-122.3035,60.0,5.016666666666667
2026-01-20T23:05:02+00:00,SAT-57468,216.53486503906302,35.077511748682625,907.8809788899085,-2.269578427479884,79490.23683757508,10.5,10500079490.236837,47.655,-122.3035,60.0,5.033333333333333
2026-01-20T23:05:03+00:00,SAT-57468,216.0280182885311,35.20278609927174,905.6174848889906,-2.221953197236607,77822.19981993134,10.5,10500077822.19982,47.655,-122.3035,60.0,5.05
2026-01-20T23:05:04+00:00,SAT-57468,215.5170734382172,35.32616233239718,903.4014884416462,-2.173974228067464,76141.77336878958,10.5,10500076141.773369,47.655,-122.3035,60.0,5.066666666666666
2026-01-20T23:05:05+00:00,SAT-57468,215.002063361536,35.447581334381766,901.2333423384758,-2.125645814901886,74449.10791074604,10.5,10500074449.10791,47.655,-122.3035,60.0,5.083333333333333
2026-01-20T23:05:06+00:00,SAT-57468,214.48302408626114,35.56698391213016,899.1133950866646,-2.0769724478384037,72744.36070804436,10.5,10500072744.360708,47.655,-122.3035,60.0,5.1
2026-01-20T23:05:07+00:00,SAT-57468,213.95999486280832,35.68431085624246,897.0419907153369,-2.0279588699629,71027.69788361537,10.5,10500071027.697884,47.655,-122.3035,60.0,5.116666666666666
2026-01-20T23:05:08+00:00,SAT-57468,213.4330182158421,35.79950300955584,895.019468523246,-1.9786100911203508,69299.29490342176,10.5,10500069299.294903,47.655,-122.3035,60.0,5.133333333333334
2026-01-20T23:05:09+00:00,SAT-57468,212.90213998738014,35.91250133864327,893.0461628127316,-1.9289313212043746,67559.33423997588,10.5,10500067559.33424,47.655,-122.3035,60.0,5.15
2026-01-20T23:05:10+00:00,SAT-57468,212.3674093924232,36.023247003579534,891.1224026902067,-1.8789280414204412,65808.00786827877,10.5,10500065808.007868,47.655,-122.3035,60.0,5.166666666666667
2026-01-20T23:05:11+00:00,SAT-57468,211.82887905127464,36.13168143372508,889.2485117955733,-1.8286059554063137,64045.51555385123,10.5,10500064045.515554,47.655,-122.3035,60.0,5.183333333333334
2026-01-20T23:05:12+00:00,SAT-57468,211.2866050292093,36.237746402573976,887.424808080386,-1.7779710251850367,62272.06611195965,10.5,10500062272.066113,47.655,-122.3035,60.0,5.2
2026-01-20T23:05:13+00:00,SAT-57468,210.7406468602011,36.34138410641749,885.6516035501594,-1.727029439546555,60487.876300206415,10.5,10500060487.8763,47.655,-122.3035,60.0,5.216666666666667
2026-01-20T23:05:14+00:00,SAT-57468,210.19106757323567,36.442537242781,883.9292040382101,-1.675787619171328,58693.170997980684,10.5,10500058693.170998,47.655,-122.3035,60.0,5.233333333333333
2026-01-20T23:05:15+00:00,SAT-57468,209.63793371068203,36.54114909061661,882.2579089743871,-1.6242522491852374,56888.184346668895,10.5,10500056888.184347,47.655,-122.3035,60.0,5.25
2026-01-20T23:05:16+00:00,SAT-57468,209.08131532893842,36.637163593715464,880.6380111213351,-1.5724302101077685,55073.15733116798,10.5,10500055073.157331,47.655,-122.3035,60.0,5.266666666666667
2026-01-20T23:05:17+00:00,SAT-57468,208.521286013435,36.73052544121023,879.0697963796252,-1.5203286501042155,53248.34031046326,10.5,10500053248.340311,47.655,-122.3035,60.0,5.283333333333333
2026-01-20T23:05:18+00:00,SAT-57468,207.95792286199676,36.821180153290356,877.5535435208266,-1.4679549283466222,51413.99103388896,10.5,10500051413.991034,47.655,-122.3035,60.0,5.3
2026-01-20T23:05:19+00:00,SAT-57468,207.39130647813374,36.909074164360625,876.0895239770653,-1.4153166297346207,49570.375156714304,10.5,10500049570.375156,47.655,-122.3035,60.0,5.316666666666666
2026-01-20T23:05:20+00:00,SAT-57468,206.82152095096887,36.994154907635284,874.678001615901,-1.3624215720481172,47717.76649066078,10.5,10500047717.76649,47.655,-122.3035,60.0,5.333333333333333
2026-01-20T23:05:21+00:00,SAT-57468,206.24865382247168,37.076370900540034,873.3192325080736,-1.3092777722524487,45856.445823766226,10.5,10500045856.445824,47.655,-122.3035,60.0,5.35
2026-01-20T23:05:22+00:00,SAT-57468,205.67279605842606,37.15567182823814,872.0134647288482,-1.2558934847254022,43986.70225925671,10.5,10500043986.70226,47.655,-122.3035,60.0,5.366666666666666
2026-01-20T23:05:23+00:00,SAT-57468,205.09404199345002,37.23200862939445,870.7609381212419,-1.2022771539366193,42108.83155817917,10.5,10500042108.831558,47.655,-122.3035,60.0,5.383333333333334
2026-01-20T23:05:24+00:00,SAT-57468,204.51248928511424,37.30533357877601,869.5618841064406,-1.1484374410071605,40223.137069629636,10.5,10500040223.13707,47.655,-122.3035,60.0,5.4
2026-01-20T23:05:25+00:00,SAT-57468,203.92823884564527,37.375600370928126,868.4165254677284,-1.0943831901053789,38329.928553794634,10.5,10500038329.928555,47.655,-122.3035,60.0,5.416666666666667
2026-01-20T23:05:26+00:00,SAT-57468,203.34139477796694,37.44276420101278,867.3250761679311,-1.0401234482793071,36429.52287656525,10.5,10500036429.522877,47.655,-122.3035,60.0,5.433333333333334
2026-01-20T23:05:27+00:00,SAT-57468,202.75206429089548,37.50678184583875,866.2877411470796,-0.9856674517382827,34522.24352906159,10.5,10500034522.243528,47.655,-122.3035,60.0,5.45
2026-01-20T23:05:28+00:00,SAT-57468,202.16035760816473,37.56761174277817,865.3047161337574,-0.9310246026300969,32608.419814270368,10.5,10500032608.419815,47.655,-122.3035,60.0,5.466666666666667
2026-01-20T23:05:29+00:00,SAT-57468,201.5663878781394,37.62521406573336,864.3761874796055,-0.8762044814705283,30688.38728237969,10.5,10500030688.387283,47.655,-122.3035,60.0,5.483333333333333
2026-01-20T23:05:30+00:00,SAT-57468,200.9702710647038,37.67955080008756,863.5023319814335,-0.8212168290758745,28762.4870979799,10.5,10500028762.487099,47.655,-122.3035,60.0,5.5
2026-01-20T23:05:31+00:00,SAT-57468,200.37212583558994,37.730585814532596,862.6833167213485,-0.7660715484595018,26831.066106488805,10.5,10500026831.066107,47.655,-122.3035,60.0,5.516666666666667
2026-01-20T23:05:32+00:00,SAT-57468,199.77207343621387,37.77828493074358,861.9192989049926,-0.7107786845256697,24894.476122943466,10.5,10500024894.476124,47.655,-122.3035,60.0,5.533333333333333
2026-01-20T23:05:33+00:00,SAT-57468,199.1702375634668,37.82261598930191,861.2104257200325,-0.6553484240109595,22953.073929948816,10.5,10500022953.07393,47.655,-122.3035,60.0,5.55
2026-01-20T23:05:34+00:00,SAT-57468,198.56674422617706,37.86354891287288,860.5568341947085,-0.5997910788797172,21007.22069611581,10.5,10500021007.220695,47.655,-122.3035,60.0,5.566666666666666
2026-01-20T23:05:35+00:00,SAT-57468,197.9617216046353,37.901055765398404,859.9586510729398,-0.5441170904210673,19057.28211955621,10.5,10500019057.28212,47.655,-122.3035,60.0,5.583333333333333
2026-01-20T23:05:36+00:00,SAT-57468,197.35529989189297,37.935110808373224,859.4159926853501,-0.48833700408352176,17103.627546484102,10.5,10500017103.627546,47.655,-122.3035,60.0,5.6
2026-01-20T23:05:37+00:00,SAT-57468,196.74761114209934,37.96569055216821,858.9289648453839,-0.4324614724183348,15146.630074304656,10.5,10500015146.630074,47.655,-122.3035,60.0,5.616666666666666
2026-01-20T23:05:38+00:00,SAT-57468,196.1387891013547,37.99277380397324,858.4976627424937,-0.3765012369826865,13186.665917787059,10.5,10500013186.665918,47.655,-122.3035,60.0,5.633333333333334
2026-01-20T23:05:39+00:00,SAT-57468,195.52896904106643,38.01634171085932,858.1221708533701,-0.3204671216732365,11224.114175577368,10.5,10500011224.114176,47.655,-122.3035,60.0,5.65
2026-01-20T23:05:40+00:00,SAT-57468,194.91828758353648,38.03637779850968,857.8025628598259,-0.26437002488327677,9259.35655550883,10.5,10500009259.356556,47.655,-122.3035,60.0,5.666666666666667
2026-01-20T23:05:41+00:00,SAT-57468,194.30688251785458,38.05286800539937,857.538901574496,-0.2082209033668814,7292.7768094561425,10.5,10500007292.77681,47.655,-122.3035,60.0,5.683333333333334
2026-01-20T23:05:42+00:00,SAT-57468,193.69489262161724,38.06580071177294,857.3312388826367,-0.15203076597115894,5324.760513812422,10.5,10500005324.760513,47.655,-122.3035,60.0,5.7
2026-01-20T23:05:43+00:00,SAT-57468,193.08245747175107,38.07516676392193,857.1796156901688,-0.09581066187604681,3355.6946575970615,10.5,10500003355.694658,47.655,-122.3035,60.0,5.716666666666667
2026-01-20T23:05:44+00:00,SAT-57468,192.4697172548205,38.08095949332647,857.0840618834554,-0.03957166875469677,1385.9672277823481,10.5,10500001385.967228,47.655,-122.3035,60.0,5.733333333333333
2026-01-20T23:05:45+00:00,SAT-57468,191.85681257783878,38.08317473057814,857.0445963008837,0.016675115995476136,-584.0330978322992,10.5,10499999415.966902,47.655,-122.3035,60.0,5.75
2026-01-20T23:05:46+00:00,SAT-57468,191.2438842718078,38.081810814221946,857.0612267131945,0.07291858824644831,-2553.9174057130795,10.5,10499997446.082594,47.655,-122.3035,60.0,5.766666666666667
2026-01-20T23:05:47+00:00,SAT-57468,190.63107320031398,38.076868594219285,857.1339498167687,0.1291476468995672,-4523.296888427579,10.5,10499995476.703112,47.655,-122.3035,60.0,5.783333333333333
2026-01-20T23:05:48+00:00,SAT-57468,190.0185200644771,38.06835143021794,857.262751236649,0.18535120464100613,-6491.783221346296,10.5,10499993508.216778,47.655,-122.3035,60.0,5.8
2026-01-20T23:05:49+00:00,SAT-57468,189.40636521176637,38.05626518457729,857.447605540289,0.24151819958431703,-8458.988970414088,10.5,10499991541.01103,47.655,-122.3035,60.0,5.816666666666666
2026-01-20T23:05:50+00:00,SAT-57468,188.79474844066877,38.04061821011657,857.6884762629096,0.29763760549072965,-10424.527950108275,10.5,10499989575.47205,47.655,-122.3035,60.0,5.833333333333333
2026-01-20T23:05:51+00:00,SAT-57468,188.183808812686,38.02142133272758,857.9853159430542,0.35369844334970185,-12388.015629038506,10.5,10499987611.984371,47.655,-122.3035,60.0,5.85
2026-01-20T23:05:52+00:00,SAT-57468,187.5736844623336,37.998687828829816,858.3380661696877,0.4096897882055811,-14349.069369045306,10.5,10499985650.930632,47.655,-122.3035,60.0,5.866666666666666
2026-01-20T23:05:53+00:00,SAT-57468,186.96451241917262,37.97243339806849,858.7466576361082,0.46560078766938284,-16307.309073560882,10.5,10499983692.690926,47.655,-122.3035,60.0,5.883333333333334
2026-01-20T23:05:54+00:00,SAT-57468,186.35642841670366,37.94267613060349,859.2110102123187,0.5214206628725917,-18262.357221015256,10.5,10499981737.642778,47.655,-122.3035,60.0,5.9
2026-01-20T23:05:55+00:00,SAT-57468,185.74956672452208,37.909436470248345,859.7310330183502,0.5771387268257117,-20213.83950783035,10.5,10499979786.160492,47.655,-122.3035,60.0,5.916666666666667
2026-01-20T23:05:56+00:00,SAT-57468,185.1440599708227,37.872737172481806,860.3066245158947,0.6327443854723126,-22161.384885337182,10.5,10499977838.615114,47.655,-122.3035,60.0,5.933333333333334
2026-01-20T23:05:57+00:00,SAT-57468,184.54003898265995,37.83260325860179,860.9376726009881,0.688227158329108,-24104.626282678644,10.5,10499975895.373718,47.655,-122.3035,60.0,5.95
2026-01-20T23:05:58+00:00,SAT-57468,183.93763261869663,37.78906196494519,861.6240547172813,0.7435766800046403,-26043.200660000333,10.5,10499973956.79934,47.655,-122.3035,60.0,5.966666666666667
2026-01-20T23:05:59+00:00,SAT-57468,183.33696761875873,37.74214268857763,862.3656379708204,0.798782708092824,-27976.749284915808,10.5,10499972023.250715,47.655,-122.3035,60.0,5.983333333333333
2026-01-20T23:06:00+00:00,SAT-57468,182.73816845911216,37.69187692924997,863.1622792527048,0.8538351411127238,-29904.91836083348,10.5,10499970095.081638,47.655,-122.3035,60.0,6.0
2026-01-20T23:06:01+00:00,SAT-57468,182.14135720799845,37.638298227197964,864.0138253796335,0.9087240187812117,-31827.35903650626,10.5,10499968172.640963,47.655,-122.3035,60.0,6.016666666666667
2026-01-20T23:06:02+00:00,SAT-57468,181.5466533957755,37.581442098125294,864.920113234724,0.9634395347758926,-33743.727853043165,10.5,10499966256.272146,47.655,-122.3035,60.0,6.033333333333333
2026-01-20T23:06:03+00:00,SAT-57468,180.95417388939754,37.521345964809996,865.8809699210622,1.0179720400586068,-35653.686860312446,10.5,10499964346.313139,47.655,-122.3035,60.0,6.05
2026-01-20T23:06:04+00:00,SAT-57468,180.36403277779615,37.45804908616389,866.8962129185613,1.0723120577362824,-37556.90413743152,10.5,10499962443.095863,47.655,-122.3035,60.0,6.066666666666666
2026-01-20T23:06:05+00:00,SAT-57468,179.77634126129664,37.391592483269804,867.9656502556498,1.1264502889026704,-39453.05399736921,10.5,10499960546.946003,47.655,-122.3035,60.0,6.083333333333333
2026-01-20T23:06:06+00:00,SAT-57468,179.19120755054274,37.32201886320751,869.0890806867783,1.1803776060344082,-41341.81675564796,10.5,10499958658.183245,47.655,-122.3035,60.0,6.1
2026-01-20T23:06:07+00:00,SAT-57468,178.60873678167314,37.249372541680046,870.2662938633431,1.2340850816316173,-43222.87973345874,10.5,10499956777.120266,47.655,-122.3035,60.0,6.116666666666666
2026-01-20T23:06:08+00:00,SAT-57468,178.0290309273297,37.17369936251484,871.4970705331743,1.2875639823020995,-45095.93705046458,10.5,10499954904.06295,47.655,-122.3035,60.0,6.133333333333334
2026-01-20T23:06:09+00:00,SAT-57468,177.45218872402828,37.09504661642888,872.7811827341238,1.3408057694987627,-46960.689650628265,10.5,10499953039.310349,47.655,-122.3035,60.0,6.15
2026-01-20T23:06:10+00:00,SAT-57468,176.87830560985023,37.01346295888126,874.1183939883858,1.3938021212146336,-48816.84606206355,10.5,10499951183.153938,47.655,-122.3035,60.0,6.166666666666667
2026-01-20T23:06:11+00:00,SAT-57468,176.30747366337062,36.928998325985816,875.508459518458,1.4465449122023095,-50664.12170423663,10.5,10499949335.878296,47.655,-122.3035,60.0,6.183333333333334
2026-01-20T23:06:12+00:00,SAT-57468,175.73978156218982,36.841703851244525,876.951126443374,1.4990262549298643,-52502.24032241524,10.5,10499947497.759678,47.655,-122.3035,60.0,6.2
2026-01-20T23:06:13+00:00,SAT-57468,175.17531453443905,36.75163177965712,878.4461340157801,1.551238463496102,-54330.93272382813,10.5,10499945669.067276,47.655,-122.3035,60.0,6.216666666666667
2026-01-20T23:06:14+00:00,SAT-57468,174.61415433548177,36.6588353840913,879.9932138230266,1.6031740792067157,-56149.93767345046,10.5,10499943850.062326,47.655,-122.3035,60.0,6.233333333333333
2026-01-20T23:06:15+00:00,SAT-57468,174.05637922335418,36.563368880403935,881.592090013765,1.654825890532714,-57959.0025930322,10.5,10499942040.997408,47.655,-122.3035,60.0,6.25
2026-01-20T23:06:16+00:00,SAT-57468,173.5020639367242,36.46528734189609,883.2424795444513,1.7061868812410024,-59757.88174441174,10.5,10499940242.118256,47.655,-122.3035,60.0,6.266666666666667
2026-01-20T23:06:17+00:00,SAT-57468,172.95127970012066,36.364646617556325,884.9440923741173,1.7572503105971806,-61546.339038557126,10.5,10499938453.660961,47.655,-122.3035,60.0,6.283333333333333
2026-01-20T23:06:18+00:00,SAT-57468,172.4040942093759,36.261503246459334,886.6966317391325,1.8080096350078387,-63324.145291147746,10.5,10499936675.85471,47.655,-122.3035,60.0,6.3
2026-01-20T23:06:19+00:00,SAT-57468,171.8605716518543,36.15591437787663,888.499794349814,1.8584585795312696,-65091.080727182045,10.5,10499934908.919273,47.655,-122.3035,60.0,6.316666666666666
2026-01-20T23:06:20+00:00,SAT-57468,171.32077271029664,36.047937688434594,890.3532706583609,1.9085910854828065,-66846.93314589479,10.5,10499933153.066854,47.655,-122.3035,60.0,6.333333333333333
2026-01-20T23:06:21+00:00,SAT-57468,170.78475459075193,35.93763130376142,892.2567450745291,1.9584013467600854,-68591.49919302137,10.5,10499931408.500807,47.655,-122.3035,60.0,6.35
2026-01-20T23:06:22+00:00,SAT-57468,170.25257104540393,35.82505371956994,894.2098962175379,2.007883789717414,-70324.58365591321,10.5,10499929675.416344,47.655,-122.3035,60.0,6.366666666666666
2026-01-20T23:06:23+00:00,SAT-57468,169.7242724078245,35.71026372560751,896.2123971479031,2.0570331027599202,-72046.00050004982,10.5,10499927953.9995,47.655,-122.3035,60.0,6.383333333333334
2026-01-20T23:06:24+00:00,SAT-57468,169.19990562556038,35.59332032973224,898.2639156287851,2.1058441845051328,-73755.57105343822,10.5,10499926244.428947,47.655,-122.3035,60.0,6.4
2026-01-20T23:06:25+00:00,SAT-57468,168.67951431222863,35.47428268688779,900.3641143356385,2.1543121951274076,-75453.12580491194,10.5,10499924546.874195,47.655,-122.3035,60.0,6.416666666666667
2026-01-20T23:06:26+00:00,SAT-57468,168.16313879008956,35.353210027167286,902.512651117066,2.202432525747599,-77138.50333202776,10.5,10499922861.496668,47.655,-122.3035,60.0,6.433333333333334
2026-01-20T23:06:27+00:00,SAT-57468,167.65081614546833,35.230161587743545,904.7091792251473,2.2502008221772147,-78811.55113268647,10.5,10499921188.448868,47.655,-122.3035,60.0,6.45
2026-01-20T23:06:28+00:00,SAT-57468,167.142580281999,35.10519654566669,906.953347569448,2.2976129451039697,-80472.12423066254,10.5,10499919527.875769,47.655,-122.3035,60.0,6.466666666666667
2026-01-20T23:06:29+00:00,SAT-57468,166.63846198711832,34.97837395513871,909.2448009313166,2.3446650069054455,-82120.0864649743,10.5,10499917879.913534,47.655,-122.3035,60.0,6.483333333333333
2026-01-20T23:06:30+00:00,SAT-57468,166.13848899252554,34.849752685044756,911.5831802149025,2.391353350148603,-83755.30973684578,10.5,10499916244.690264,47.655,-122.3035,60.0,6.5
2026-01-20T23:06:31+00:00,SAT-57468,165.64268604274372,34.71939136004158,913.9681226767262,2.437674547734749,-85377.67401478413,10.5,10499914622.325985,47.655,-122.3035,60.0,6.516666666666667
2026-01-20T23:06:32+00:00,SAT-57468,165.1510749656386,34.58734830401653,916.3992621553975,2.4836254105612054,-86987.0676029237,10.5,10499913012.932398,47.655,-122.3035,60.0,6.533333333333333
2026-01-20T23:06:33+00:00,SAT-57468,164.6636747434214,34.45368148554366,918.8762293089734,2.529202966474149,-88583.38640386531,10.5,10499911416.613596,47.655,-122.3035,60.0,6.55
2026-01-20T23:06:34+00:00,SAT-57468,164.18050158954492,34.31844846690342,921.3986518313241,2.574404464653657,-90166.5340722594,10.5,10499909833.465927,47.655,-122.3035,60.0,6.566666666666666
2026-01-20T23:06:35+00:00,SAT-57468,163.7015690258129,34.18170635527221,923.9661546728762,2.6192273976737503,-91736.42278744176,10.5,10499908263.577213,47.655,-122.3035,60.0,6.583333333333333
2026-01-20T23:06:36+00:00,SAT-57468,163.22688795619177,34.04351175517412,926.5783602833503,2.6636694446667795,-93292.97126281004,10.5,10499906707.028738,47.655,-122.3035,60.0,6.6
2026-01-20T23:06:37+00:00,SAT-57468,162.75646675226852,33.90392072635268,929.2348887978221,2.7077285212856204,-94836.10649571117,10.5,10499905163.893505,47.655,-122.3035,60.0,6.616666666666666
2026-01-20T23:06:38+00:00,SAT-57468,162.2903113292846,33.76298874137442,931.9353582726087,2.75140275413628,-96365.76287196304,10.5,10499903634.237127,47.655,-122.3035,60.0,6.633333333333334
2026-01-20T23:06:39+00:00,SAT-57468,161.82842522735655,33.62077064696106,934.6793848956547,2.7946904579174108,-97881.88136518368,10.5,10499902118.118635,47.655,-122.3035,60.0,6.65
2026-01-20T23:06:40+00:00,SAT-57468,161.3708096962361,33.477320628816685,937.466583174122,2.8375901660970886,-99384.41061122168,10.5,10499900615.589388,47.655,-122.3035,60.0,6.666666666666667
2026-01-20T23:06:41+00:00,SAT-57468,160.91746377426784,33.33269217714509,940.2965661525714,2.88010059854684,-100873.30577456295,10.5,10499899126.694225,47.655,-122.3035,60.0,6.683333333333334
2026-01-20T23:06:42+00:00,SAT-57468,160.46838437221734,33.186938056076585,943.1689455988671,2.922220694417741,-102348.52969979079,10.5,10499897651.4703,47.655,-122.3035,60.0,6.7
2026-01-20T23:06:43+00:00,SAT-57468,160.0235663508349,33.04011027361664,946.0833322228696,2.9639495658335937,-103810.05128972502,10.5,10499896189.94871,47.655,-122.3035,60.0,6.716666666666667
2026-01-20T23:06:44+00:00,SAT-57468,159.58300260500923,32.892260056087714,949.0393358489422,3.0052864739113376,-105257.8446655554,10.5,10499894742.155334,47.655,-122.3035,60.0,6.733333333333333
2026-01-20T23:06:45+00:00,SAT-57468,159.14668414982066,32.74343782579633,952.0365655645465,3.0462309401381735,-106691.89306773961,10.5,10499893308.106932,47.655,-122.3035,60.0,6.75
2026-01-20T23:06:46+00:00,SAT-57468,158.71460018834992,32.593693175189294,955.074629979914,3.0867825926514767,-108112.18347207556,10.5,10499891887.816528,47.655,-122.3035,60.0,6.766666666666667
2026-01-20T23:06:47+00:00,SAT-57468,158.28673820137755,32.44307485060697,958.1531373344109,3.1269412675039967,-109518.710136437,10.5,10499890481.289864,47.655,-122.3035,60.0,6.783333333333333
2026-01-20T23:06:48+00:00,SAT-57468,157.86308401992105,32.2916307328897,961.2716957038945,3.1667069606257825,-110911.47291827707,10.5,10499889088.527082,47.655,-122.3035,60.0,6.8
2026-01-20T23:06:49+00:00,SAT-57468,157.44362190329963,32.13940782218163,964.4299131601642,3.206079806711716,-112290.47653518028,10.5,10499887709.523464,47.655,-122.3035,60.0,6.816666666666666
2026-01-20T23:06:50+00:00,SAT-57468,157.02833461788063,31.98645222547555,967.6273979093531,3.245060147592956,-113655.73295951975,10.5,10499886344.26704,47.655,-122.3035,60.0,6.833333333333333
2026-01-20T23:06:51+00:00,SAT-57468,156.61720350467613,31.83280914255804,970.8637584985087,3.283648416988699,-115007.25738197636,10.5,10499884992.742619,47.655,-122.3035,60.0,6.85
2026-01-20T23:06:52+00:00,SAT-57468,156.21020856021784,31.678522859065335,974.138603907235,3.321845254197612,-116345.07219349369,10.5,10499883654.927807,47.655,-122.3035,60.0,6.866666666666666
2026-01-20T23:06:53+00:00,SAT-57468,155.8073285003229,31.523636735660414,977.4515437527208,3.3596513819721143,-117669.2027079187,10.5,10499882330.797293,47.655,-122.3035,60.0,6.883333333333334
2026-01-20T23:06:54+00:00,SAT-57468,155.40854083732088,31.368193204425026,980.8021883729699,3.397067723642706,-118979.68126419115,10.5,10499881020.318735,47.655,-122.3035,60.0,6.9
2026-01-20T23:06:55+00:00,SAT-57468,155.0138219402857,31.212233761156874,984.190149026841,3.4340952778780025,-120276.54283991034,10.5,10499879723.45716,47.655,-122.3035,60.0,6.916666666666667
2026-01-20T23:06:56+00:00,SAT-57468,154.6231471084546,31.055798964798072,987.6150379691842,3.47073521786357,-121559.8285249974,10.5,10499878440.171474,47.655,-122.3035,60.0,6.933333333333334
2026-01-20T23:06:57+00:00,SAT-57468,154.23649063025923,30.898928433523,991.07646862489,3.5069888081468825,-122829.58260925385,10.5,10499877170.41739,47.655,-122.3035,60.0,6.95
2026-01-20T23:06:58+00:00,SAT-57468,153.853825849903,30.741660845807377,994.574055680007,3.542857452354959,-124085.85425363526,10.5,10499875914.145746,47.655,-122.3035,60.0,6.966666666666667
2026-01-20T23:06:59+00:00,SAT-57468,153.47512522601522,30.584033940421744,998.1074152204463,3.578342640804664,-125328.69565534224,10.5,10499874671.304344,47.655,-122.3035,60.0,6.983333333333333
2026-01-20T23:07:00+00:00,SAT-57468,153.10036039378966,30.42608451980462,1001.6761648184421,3.613446006631382,-126558.16401368412,10.5,10499873441.835987,47.655,-122.3035,60.0,7.0
2026-01-20T23:07:01+00:00,SAT-57468,152.72950221857923,30.267848451898136,1005.2799236749858,3.6481692784536808,-127774.3198721952,10.5,10499872225.680128,47.655,-122.3035,60.0,7.016666666666667
2026-01-20T23:07:02+00:00,SAT-57468,152.362520852484,30.109360675003305,1008.9183127150509,3.6825142664543247,-128977.22663113294,10.5,10499871022.773369,47.655,-122.3035,60.0,7.033333333333333
