DopplerPredictor/satellites_20260205_234138/SAT-48360.csv

timestamp,satellite,azimuth_deg,elevation_deg,distance_km,relative_velocity_kms,doppler_shift_hz,tx_freq_ghz,rx_freq_hz,ue_lat,ue_lon,ue_alt_m,time_minutes
2026-01-20T23:01:19+00:00,SAT-48360,292.288492141118,30.187362187470782,995.1733382203607,-5.753320148931688,201505.6081356881,10.5,10500201505.608135,47.655,-122.3035,60.0,1.3166666666666667
2026-01-20T23:01:20+00:00,SAT-48360,292.2214419154459,30.44026956586169,989.4354419287902,-5.7373596356953245,200946.60344924658,10.5,10500200946.603449,47.655,-122.3035,60.0,1.3333333333333333
2026-01-20T23:01:21+00:00,SAT-48360,292.15320111279726,30.69572987500493,983.7134633625224,-5.721112395419476,200377.5563690281,10.5,10500200377.55637,47.655,-122.3035,60.0,1.35
2026-01-20T23:01:22+00:00,SAT-48360,292.08373931633906,30.953779179137115,978.0076884799216,-5.70457254093869,199798.26070159592,10.5,10500199798.260702,47.655,-122.3035,60.0,1.3666666666666667
2026-01-20T23:01:23+00:00,SAT-48360,292.01302507145715,31.214453985775798,972.3184091107339,-5.687734091557168,199208.50697768474,10.5,10500199208.506977,47.655,-122.3035,60.0,1.3833333333333333
2026-01-20T23:01:24+00:00,SAT-48360,291.9410258411534,31.477791243797412,966.6459230493691,-5.67059092529147,198608.08077953858,10.5,10500198608.08078,47.655,-122.3035,60.0,1.4
2026-01-20T23:01:25+00:00,SAT-48360,291.86770795961996,31.743828338709967,960.9905341958068,-5.653136788126978,197996.7630651111,10.5,10500197996.763065,47.655,-122.3035,60.0,1.4166666666666667
2026-01-20T23:01:26+00:00,SAT-48360,291.7930365833379,32.01260308760353,955.352552687276,-5.635365286581253,197374.3299076028,10.5,10500197374.329908,47.655,-122.3035,60.0,1.4333333333333333
2026-01-20T23:01:27+00:00,SAT-48360,291.71697563967535,32.284153732950195,949.7322950373476,-5.617269939599993,196740.5543130772,10.5,10500196740.554314,47.655,-122.3035,60.0,1.45
2026-01-20T23:01:28+00:00,SAT-48360,291.63948777213835,32.55851893809267,944.1300842232722,-5.598844079331196,196095.20274515232,10.5,10500196095.202745,47.655,-122.3035,60.0,1.4666666666666666
2026-01-20T23:01:29+00:00,SAT-48360,291.56053428391954,32.835737777064345,938.5462498722775,-5.580080942278446,195438.03831757396,10.5,10500195438.038317,47.655,-122.3035,60.0,1.4833333333333334
2026-01-20T23:01:30+00:00,SAT-48360,291.48007507729693,33.11584972783734,932.981128356954,-5.56097360827133,194768.81865670203,10.5,10500194768.818657,47.655,-122.3035,60.0,1.5
2026-01-20T23:01:31+00:00,SAT-48360,291.398068590482,33.398894661572534,927.4350629515122,-5.541515024432584,194087.29674094115,10.5,10500194087.296741,47.655,-122.3035,60.0,1.5166666666666666
2026-01-20T23:01:32+00:00,SAT-48360,291.3144717307624,33.68491283191527,921.908403964131,-5.521698007394057,193393.22097835294,10.5,10500193393.220978,47.655,-122.3035,60.0,1.5333333333333334
2026-01-20T23:01:33+00:00,SAT-48360,291.22923980389527,33.97394486323947,916.4015088671001,-5.501515194601882,192686.33350115753,10.5,10500192686.333502,47.655,-122.3035,60.0,1.55
2026-01-20T23:01:34+00:00,SAT-48360,291.1423264402814,34.266031735045246,910.9147424755262,-5.480959138185055,191966.3734534078,10.5,10500191966.373453,47.655,-122.3035,60.0,1.5666666666666667
2026-01-20T23:01:35+00:00,SAT-48360,291.0536835156768,34.561214769902044,905.4484770324182,-5.46002221359899,191233.07379130065,10.5,10500191233.073792,47.655,-122.3035,60.0,1.5833333333333333
2026-01-20T23:01:36+00:00,SAT-48360,290.96326106875784,34.859535615152474,900.0030923848906,-5.438696646468546,190486.16222333294,10.5,10500190486.162224,47.655,-122.3035,60.0,1.6
2026-01-20T23:01:37+00:00,SAT-48360,290.87100721359036,35.16103622438425,894.5789761335911,-5.4169745172725365,189725.36137437331,10.5,10500189725.361374,47.655,-122.3035,60.0,1.6166666666666667
2026-01-20T23:01:38+00:00,SAT-48360,290.7768680470555,35.465758837457486,889.176523777457,-5.39484781139792,188950.39053877117,10.5,10500188950.39054,47.655,-122.3035,60.0,1.6333333333333333
2026-01-20T23:01:39+00:00,SAT-48360,290.68078755009685,35.773745961598934,883.7961388085523,-5.372308283300788,188160.9609227003,10.5,10500188160.960922,47.655,-122.3035,60.0,1.65
2026-01-20T23:01:40+00:00,SAT-48360,290.58270748541963,36.085040342903824,878.4382329423806,-5.349347590833414,187356.78034886002,10.5,10500187356.78035,47.655,-122.3035,60.0,1.6666666666666667
2026-01-20T23:01:41+00:00,SAT-48360,290.4825672869654,36.39968494330118,873.1032262142282,-5.325957244850847,186537.55149148512,10.5,10500186537.55149,47.655,-122.3035,60.0,1.6833333333333333
2026-01-20T23:01:42+00:00,SAT-48360,290.3803039437197,36.71772291255084,867.7915471257686,-5.302128598499278,185702.97150117907,10.5,10500185702.9715,47.655,-122.3035,60.0,1.7
2026-01-20T23:01:43+00:00,SAT-48360,290.275851876698,37.039197557239774,862.5036328023484,-5.2778528488600145,184852.73206249287,10.5,10500184852.732063,47.655,-122.3035,60.0,1.7166666666666666
2026-01-20T23:01:44+00:00,SAT-48360,290.16914280856474,37.36415230732117,857.2399291486323,-5.2531210548940726,183986.52002242085,10.5,10500183986.520023,47.655,-122.3035,60.0,1.7333333333333334
2026-01-20T23:01:45+00:00,SAT-48360,290.0601056249601,37.692630681058304,852.0008909863558,-5.227924139077388,183104.01744767232,10.5,10500183104.017448,47.655,-122.3035,60.0,1.75
2026-01-20T23:01:46+00:00,SAT-48360,289.9486662273391,38.02467624727457,846.7869821904416,-5.202252868269762,182204.9009546214,10.5,10500182204.900955,47.655,-122.3035,60.0,1.7666666666666666
2026-01-20T23:01:47+00:00,SAT-48360,289.8347473769795,38.36033258338309,841.5986758442009,-5.17609784871335,181288.84153413284,10.5,10500181288.841534,47.655,-122.3035,60.0,1.7833333333333334
2026-01-20T23:01:48+00:00,SAT-48360,289.7182685294974,38.69964322978284,836.4364543995183,-5.149449588779248,180355.50674921286,10.5,10500180355.50675,47.655,-122.3035,60.0,1.8
2026-01-20T23:01:49+00:00,SAT-48360,289.5991456575772,39.0426516449217,831.3008097744623,-5.122298416508712,179404.55784695383,10.5,10500179404.557846,47.655,-122.3035,60.0,1.8166666666666667
2026-01-20T23:01:50+00:00,SAT-48360,289.4772910641882,39.38940115134757,826.1922435331311,-5.094634526432393,178435.65139834213,10.5,10500178435.651398,47.655,-122.3035,60.0,1.8333333333333333
2026-01-20T23:01:51+00:00,SAT-48360,289.35261318283693,39.739934880840565,821.1112670188048,-5.06644800603728,177448.44022524223,10.5,10500177448.440226,47.655,-122.3035,60.0,1.85
2026-01-20T23:01:52+00:00,SAT-48360,289.22501636438847,40.0942957172874,816.0584014607019,-5.037728778632764,176442.5713993246,10.5,10500176442.5714,47.655,-122.3035,60.0,1.8666666666666667
2026-01-20T23:01:53+00:00,SAT-48360,289.09440065111346,40.45252623123116,811.0341781377181,-5.008466654273617,175417.68802560394,10.5,10500175417.688026,47.655,-122.3035,60.0,1.8833333333333333
2026-01-20T23:01:54+00:00,SAT-48360,288.96066153485475,40.81466861320997,806.039138491376,-4.978651331637487,174373.429308197,10.5,10500174373.429308,47.655,-122.3035,60.0,1.9
2026-01-20T23:01:55+00:00,SAT-48360,288.8236896989383,41.18076460233793,801.0738342369048,-4.948272360814829,173309.42924706833,10.5,10500173309.429247,47.655,-122.3035,60.0,1.9166666666666667
2026-01-20T23:01:56+00:00,SAT-48360,288.6833707437845,41.55085540686883,796.1388275114276,-4.9173192123491525,172225.31905611214,10.5,10500172225.319056,47.655,-122.3035,60.0,1.9333333333333333
2026-01-20T23:01:57+00:00,SAT-48360,288.539584892113,41.924981624176304,791.2346909532966,-4.885781207219594,171120.72471084556,10.5,10500171120.72471,47.655,-122.3035,60.0,1.95
2026-01-20T23:01:58+00:00,SAT-48360,288.39220667593304,42.30318314953728,786.362007851256,-4.853647636730717,169995.2711474567,10.5,10500169995.271147,47.655,-122.3035,60.0,1.9666666666666666
2026-01-20T23:01:59+00:00,SAT-48360,288.24110459854637,42.6854990877195,781.5213721740358,-4.820907601376356,168848.57661913478,10.5,10500168848.576618,47.655,-122.3035,60.0,1.9833333333333334
2026-01-20T23:02:00+00:00,SAT-48360,288.08614077762314,43.071967645354704,776.7133887606535,-4.787550187649272,167680.2588886921,10.5,10500167680.258888,47.655,-122.3035,60.0,2.0
2026-01-20T23:02:01+00:00,SAT-48360,287.92717055809135,43.46262602983667,771.9386733343752,-4.753564387776858,166489.93241736924,10.5,10500166489.932417,47.655,-122.3035,60.0,2.0166666666666666
2026-01-20T23:02:02+00:00,SAT-48360,287.7640420998428,43.85751033445165,767.1978525967303,-4.718939117212038,165277.20897744,10.5,10500165277.208977,47.655,-122.3035,60.0,2.033333333333333
2026-01-20T23:02:03+00:00,SAT-48360,287.59659593533814,44.25665541670946,762.4915643040778,-4.68366324233238,164041.69862235157,10.5,10500164041.698622,47.655,-122.3035,60.0,2.05
2026-01-20T23:02:04+00:00,SAT-48360,287.42466449436034,44.660094770344514,757.8204573165527,-4.647725566211219,162783.00918836924,10.5,10500162783.009188,47.655,-122.3035,60.0,2.066666666666667
2026-01-20T23:02:05+00:00,SAT-48360,287.2480715944481,45.06786038693287,753.1851916611985,-4.611114881408852,161500.7481435472,10.5,10500161500.748144,47.655,-122.3035,60.0,2.0833333333333335
2026-01-20T23:02:06+00:00,SAT-48360,287.066631891907,45.47998261230375,748.5864385424525,-4.573819949684159,160194.52187714365,10.5,10500160194.521877,47.655,-122.3035,60.0,2.1
2026-01-20T23:02:07+00:00,SAT-48360,286.880150292523,45.896489990916976,744.0248803728663,-4.5358294933206835,158863.93539582368,10.5,10500158863.935396,47.655,-122.3035,60.0,2.1166666666666667
2026-01-20T23:02:08+00:00,SAT-48360,286.68842131836516,46.31740909822997,739.5012108124726,-4.497132299586632,157508.59598228993,10.5,10500157508.595982,47.655,-122.3035,60.0,2.1333333333333333
2026-01-20T23:02:09+00:00,SAT-48360,286.4912284222891,46.74276437090245,735.0161347039768,-4.457717149979375,156128.1107171263,10.5,10500156128.110718,47.655,-122.3035,60.0,2.15
2026-01-20T23:02:10+00:00,SAT-48360,286.28834325254775,47.17257791813682,730.5703680785118,-4.41757281799157,154722.08640055745,10.5,10500154722.086401,47.655,-122.3035,60.0,2.1666666666666665
2026-01-20T23:02:11+00:00,SAT-48360,286.079524860567,47.60686931908719,726.1646381636201,-4.376688211712798,153290.13454696172,10.5,10500153290.134546,47.655,-122.3035,60.0,2.183333333333333
2026-01-20T23:02:12+00:00,SAT-48360,285.8645188405382,48.04565541981238,721.7996832490201,-4.3350522787045405,151831.86805319056,10.5,10500151831.868053,47.655,-122.3035,60.0,2.2
2026-01-20T23:02:13+00:00,SAT-48360,285.64305640486634,48.48895010603272,717.4762526472374,-4.2926540586643345,150346.90304308958,10.5,10500150346.903044,47.655,-122.3035,60.0,2.216666666666667
2026-01-20T23:02:14+00:00,SAT-48360,285.41485338348997,48.93676406465647,713.1951066017183,-4.249482692859851,148834.85919792028,10.5,10500148834.859198,47.655,-122.3035,60.0,2.2333333333333334
2026-01-20T23:02:15+00:00,SAT-48360,285.1796091419352,49.38910452878789,708.9570161855291,-4.205527502830663,147295.36251282867,10.5,10500147295.362513,47.655,-122.3035,60.0,2.25
2026-01-20T23:02:16+00:00,SAT-48360,284.93700540717765,49.845975012440704,704.7627631215707,-4.160777942337852,145728.0436139172,10.5,10500145728.043613,47.655,-122.3035,60.0,2.2666666666666666
2026-01-20T23:02:17+00:00,SAT-48360,284.6867049992053,50.30737502033437,700.613139650709,-4.115223663940027,144132.54009001883,10.5,10500144132.54009,47.655,-122.3035,60.0,2.283333333333333
2026-01-20T23:02:18+00:00,SAT-48360,284.42835045365,50.77329974335464,696.5089483335111,-4.068854518249933,142508.49646665994,10.5,10500142508.496468,47.655,-122.3035,60.0,2.3
2026-01-20T23:02:19+00:00,SAT-48360,284.1615625287447,51.24373973092166,692.4510018527226,-4.021660618786846,140855.56647746582,10.5,10500140855.566477,47.655,-122.3035,60.0,2.316666666666667
2026-01-20T23:02:20+00:00,SAT-48360,283.8859385820815,51.718680545953106,688.4401227510655,-3.973632336371167,139173.41286783558,10.5,10500139173.412868,47.655,-122.3035,60.0,2.3333333333333335
2026-01-20T23:02:21+00:00,SAT-48360,283.6010508086686,52.19810239260254,684.4771431746269,-3.924760330331273,137461.7084879379,10.5,10500137461.708488,47.655,-122.3035,60.0,2.35
2026-01-20T23:02:22+00:00,SAT-48360,283.30644432517914,52.68197971872087,680.5629045851242,-3.875035609924163,135720.13844392213,10.5,10500135720.138443,47.655,-122.3035,60.0,2.3666666666666667
2026-01-20T23:02:23+00:00,SAT-48360,283.0016350831819,53.17028079459645,676.6982574109156,-3.8244495356335806,133948.40014338383,10.5,10500133948.400143,47.655,-122.3035,60.0,2.3833333333333333
2026-01-20T23:02:24+00:00,SAT-48360,282.6861075991233,53.662967258227496,672.8840606967129,-3.772993855122495,132146.20455457288,10.5,10500132146.204556,47.655,-122.3035,60.0,2.4
2026-01-20T23:02:25+00:00,SAT-48360,282.35931248078066,54.159993628333595,669.1211817174428,-3.720660752390404,130313.27792808998,10.5,10500130313.277927,47.655,-122.3035,60.0,2.4166666666666665
2026-01-20T23:02:26+00:00,SAT-48360,282.02066372954056,54.66130678382415,665.4104955430784,-3.667442884447363,128449.36308136648,10.5,10500128449.363081,47.655,-122.3035,60.0,2.433333333333333
2026-01-20T23:02:27+00:00,SAT-48360,281.6695357971682,55.1668454048153,661.752884566897,-3.6133333866023922,126554.21958388666,10.5,10500126554.219584,47.655,-122.3035,60.0,2.45
2026-01-20T23:02:28+00:00,SAT-48360,281.30526037642255,55.67653936686099,658.149238028464,-3.5583259536769933,124627.62660162861,10.5,10500124627.626602,47.655,-122.3035,60.0,2.466666666666667
2026-01-20T23:02:29+00:00,SAT-48360,280.9271228924704,56.190309094427164,654.60045145562,-3.502414841238987,122669.3829402785,10.5,10500122669.38294,47.655,-122.3035,60.0,2.4833333333333334
2026-01-20T23:02:30+00:00,SAT-48360,280.53435867389044,56.70806485775877,651.1074261052371,-3.44559493658721,120679.30953141491,10.5,10500120679.309532,47.655,-122.3035,60.0,2.5
2026-01-20T23:02:31+00:00,SAT-48360,280.12614876507,57.22970601745746,647.6710683331828,-3.3878617517122973,118657.2491859656,10.5,10500118657.249186,47.655,-122.3035,60.0,2.5166666666666666
2026-01-20T23:02:32+00:00,SAT-48360,279.70161535481793,57.75512019914937,644.2922889713019,-3.3292115255273758,116603.07017475885,10.5,10500116603.070175,47.655,-122.3035,60.0,2.533333333333333
2026-01-20T23:02:33+00:00,SAT-48360,279.2598167722888,58.28418240760192,640.972002602443,-3.269641207784045,114516.6656651932,10.5,10500114516.665665,47.655,-122.3035,60.0,2.55
2026-01-20T23:02:34+00:00,SAT-48360,278.79974202417634,58.816754054645386,637.7111268515266,-3.209148532303169,112397.95628608933,10.5,10500112397.956285,47.655,-122.3035,60.0,2.566666666666667
2026-01-20T23:02:35+00:00,SAT-48360,278.3203048210114,59.352681905537,634.5105816035762,-3.147732052514934,110246.89137245345,10.5,10500110246.891373,47.655,-122.3035,60.0,2.5833333333333335
2026-01-20T23:02:36+00:00,SAT-48360,277.820337052531,59.89179692820445,631.371288186307,-3.085391182657561,108063.45040843019,10.5,10500108063.450409,47.655,-122.3035,60.0,2.6
2026-01-20T23:02:37+00:00,SAT-48360,277.29858166448616,60.43391303493867,628.294168511626,-3.0221262139995475,105847.64359547447,10.5,10500105847.643595,47.655,-122.3035,60.0,2.6166666666666667
2026-01-20T23:02:38+00:00,SAT-48360,276.75368489439586,60.97882569933887,625.2801442009529,-2.9579383884033428,103599.51442886231,10.5,10500103599.51443,47.655,-122.3035,60.0,2.6333333333333333
2026-01-20T23:02:39+00:00,SAT-48360,276.1841878087986,61.526310444151314,622.3301356371734,-2.892829940877313,101319.14118804078,10.5,10500101319.141188,47.655,-122.3035,60.0,2.65
2026-01-20T23:02:40+00:00,SAT-48360,275.5885171001936,62.076121179100824,619.4450609741568,-2.826804089981825,99006.63660060843,10.5,10500099006.6366,47.655,-122.3035,60.0,2.6666666666666665
2026-01-20T23:02:41+00:00,SAT-48360,274.964975110831,62.62798836058854,616.6258351558414,-2.7598651295291186,96662.15105403266,10.5,10500096662.151054,47.655,-122.3035,60.0,2.683333333333333
2026-01-20T23:02:42+00:00,SAT-48360,274.3117290301385,63.181616971986436,613.8733688438631,-2.6920184318941,94285.87271160788,10.5,10500094285.872711,47.655,-122.3035,60.0,2.7
2026-01-20T23:02:43+00:00,SAT-48360,273.6267992567307,63.73668428577451,611.1885673418863,-2.6232705147223863,91878.02984885317,10.5,10500091878.029848,47.655,-122.3035,60.0,2.716666666666667
2026-01-20T23:02:44+00:00,SAT-48360,272.90804690526153,64.29283739521668,608.5723294534027,-2.5536290135404296,89438.88989420311,10.5,10500089438.889894,47.655,-122.3035,60.0,2.7333333333333334
2026-01-20T23:02:45+00:00,SAT-48360,272.15316049896825,64.84969046907608,606.0255463668466,-2.4831027882093926,86968.76315747283,10.5,10500086968.763157,47.655,-122.3035,60.0,2.75
2026-01-20T23:02:46+00:00,SAT-48360,271.3596418681821,65.40682172790113,603.5491004345441,-2.41170190064975,84468.00204967924,10.5,10500084468.00205,47.655,-122.3035,60.0,2.7666666666666666
2026-01-20T23:02:47+00:00,SAT-48360,270.5247913908334,65.96377008374303,601.1438639738752,-2.339437656306049,81937.00253531232,10.5,10500081937.002535,47.655,-122.3035,60.0,2.783333333333333
2026-01-20T23:02:48+00:00,SAT-48360,269.64569273099863,66.52003142343504,598.8106980270833,-2.266322613581498,79376.20446277448,10.5,10500079376.204462,47.655,-122.3035,60.0,2.8
2026-01-20T23:02:49+00:00,SAT-48360,268.7191973494036,67.07505449466073,596.5504511116762,-2.192370635094732,76786.09335960908,10.5,10500076786.093359,47.655,-122.3035,60.0,2.816666666666667
2026-01-20T23:02:50+00:00,SAT-48360,267.74190915587104,67.62823637179186,594.3639579197071,-2.1175968665712808,74167.19969319057,10.5,10500074167.199694,47.655,-122.3035,60.0,2.8333333333333335
2026-01-20T23:02:51+00:00,SAT-48360,266.7101698777244,68.17891745381935,592.2520380381065,-2.042017781936766,71520.10045007884,10.5,10500071520.10045,47.655,-122.3035,60.0,2.85
2026-01-20T23:02:52+00:00,SAT-48360,265.6200458738183,68.72637598572985,590.2154946240448,-1.96565116415562,68845.41846491018,10.5,10500068845.418465,47.655,-122.3035,60.0,2.8666666666666667
2026-01-20T23:02:53+00:00,SAT-48360,264.46731744569496,69.26982207234978,588.2551130994004,-1.8885161265211734,66143.82316606617,10.5,10500066143.823166,47.655,-122.3035,60.0,2.8833333333333333
2026-01-20T23:02:54+00:00,SAT-48360,263.24747199146503,69.80839119578347,586.3716598239992,-1.810633122062548,63416.0309051429,10.5,10500063416.030905,47.655,-122.3035,60.0,2.9
2026-01-20T23:02:55+00:00,SAT-48360,261.9557027899566,70.34113725862436,584.5658807594695,-1.73202389646788,60662.803308123046,10.5,10500060662.803308,47.655,-122.3035,60.0,2.9166666666666665
2026-01-20T23:02:56+00:00,SAT-48360,260.5869157530978,70.86702519542972,582.8385001800488,-1.6527115409600113,57884.949127306325,10.5,10500057884.949127,47.655,-122.3035,60.0,2.933333333333333
2026-01-20T23:02:57+00:00,SAT-48360,259.13574699346594,71.38492328898622,581.1902193306559,-1.572720428922376,55083.3220216799,10.5,10500055083.322021,47.655,-122.3035,60.0,2.95
2026-01-20T23:02:58+00:00,SAT-48360,257.59659489746554,71.89359533114911,579.621715148168,-1.4920762104563452,52258.82036629362,10.5,10500052258.820366,47.655,-122.3035,60.0,2.966666666666667
2026-01-20T23:02:59+00:00,SAT-48360,255.96367105420128,72.3916929060874,578.1336389881252,-1.4108057974668853,49412.386729896636,10.5,10500049412.38673,47.655,-122.3035,60.0,2.9833333333333334
2026-01-20T23:03:00+00:00,SAT-48360,254.23107520498658,72.87774816893678,576.7266153663102,-1.3289373356043772,46545.00689222129,10.5,10500046545.006893,47.655,-122.3035,60.0,3.0
2026-01-20T23:03:01+00:00,SAT-48360,252.39290007793446,73.35016763375901,575.4012407283092,-1.2465001460584622,43657.70780535731,10.5,10500043657.707806,47.655,-122.3035,60.0,3.0166666666666666
2026-01-20T23:03:02+00:00,SAT-48360,250.44337244766123,73.80722764976024,574.1580822771253,-1.1635247181088106,40751.557332848286,10.5,10500040751.557333,47.655,-122.3035,60.0,3.033333333333333
2026-01-20T23:03:03+00:00,SAT-48360,248.3770366128369,74.24707247126382,572.9976768082194,-1.08004263406284,37827.661620693,10.5,10500037827.661621,47.655,-122.3035,60.0,3.05
2026-01-20T23:03:04+00:00,SAT-48360,246.1889857713777,74.66771599738098,571.9205296194125,-0.9960865483319256,34887.16436450586,10.5,10500034887.164364,47.655,-122.3035,60.0,3.066666666666667
2026-01-20T23:03:05+00:00,SAT-48360,243.87514450501197,75.06704850576796,570.9271134416567,-0.9116901043389315,31931.243899267076,10.5,10500031931.243898,47.655,-122.3035,60.0,3.0833333333333335
2026-01-20T23:03:06+00:00,SAT-48360,241.4326019806524,75.44284982134405,570.0178674526743,-0.8268879033664336,28961.112108255744,10.5,10500028961.112108,47.655,-122.3035,60.0,3.1
2026-01-20T23:03:07+00:00,SAT-48360,238.85998937649873,75.79281046544675,569.1931963216662,-0.7417154095022799,25978.011093841254,10.5,10500025978.011093,47.655,-122.3035,60.0,3.1166666666666667
2026-01-20T23:03:08+00:00,SAT-48360,236.1578871117275,76.11456217591231,568.4534693488199,-0.6562089061450632,22983.211654120947,10.5,10500022983.211655,47.655,-122.3035,60.0,3.1333333333333333
2026-01-20T23:03:09+00:00,SAT-48360,233.32923700799614,76.40571887639315,567.7990196481954,-0.570405416266219,19978.010490161494,10.5,10500019978.01049,47.655,-122.3035,60.0,3.15
2026-01-20T23:03:10+00:00,SAT-48360,230.37972354479987,76.66392845596492,567.2301434101344,-0.4843426167342074,16963.72720526938,10.5,10500016963.727205,47.655,-122.3035,60.0,3.1666666666666665
2026-01-20T23:03:11+00:00,SAT-48360,227.31807817421955,76.88693469003901,566.7470992491162,-0.3980587724413571,13941.701997834281,10.5,10500013941.701998,47.655,-122.3035,60.0,3.183333333333333
2026-01-20T23:03:12+00:00,SAT-48360,224.15625425321943,77.07264727829241,566.3501076173117,-0.31159264275108517,10913.29238471501,10.5,10500010913.292385,47.655,-122.3035,60.0,3.2
2026-01-20T23:03:13+00:00,SAT-48360,220.90942140347846,77.21921639859212,566.039350311436,-0.22498340465367214,7879.870509829696,10.5,10500007879.87051,47.655,-122.3035,60.0,3.216666666666667
2026-01-20T23:03:14+00:00,SAT-48360,217.59573907445397,77.32510670882243,565.8149700562425,-0.13827055616175146,4842.819760657189,10.5,10500004842.819761,47.655,-122.3035,60.0,3.2333333333333334
2026-01-20T23:03:15+00:00,SAT-48360,214.23589172198675,77.38916463825926,565.6770701843606,-0.05149383605942225,1803.5319575115318,10.5,10500001803.531958,47.655,-122.3035,60.0,3.25
2026-01-20T23:03:16+00:00,SAT-48360,210.8523991224066,77.41067252346714,565.6257143961694,0.03530687267284724,-1236.5960289264383,10.5,10499998763.40397,47.655,-122.3035,60.0,3.2666666666666666
2026-01-20T23:03:17+00:00,SAT-48360,207.46875056309923,77.3893838424794,565.6609266159888,0.12209163220045988,-4276.165406752256,10.5,10499995723.834593,47.655,-122.3035,60.0,3.283333333333333
2026-01-20T23:03:18+00:00,SAT-48360,204.10844176744624,77.3255355685624,565.7826909373721,0.20882054108859824,-7313.778658935715,10.5,10499992686.22134,47.655,-122.3035,60.0,3.3
2026-01-20T23:03:19+00:00,SAT-48360,200.79401111291088,77.2198362029027,565.9909516594073,0.2954538263455259,-10348.042767066616,10.5,10499989651.957233,47.655,-122.3035,60.0,3.316666666666667
2026-01-20T23:03:20+00:00,SAT-48360,197.5461719868265,77.07343088435464,566.285613414817,0.3819519338035013,-13377.572376876684,10.5,10499986622.427624,47.655,-122.3035,60.0,3.3333333333333335
2026-01-20T23:03:21+00:00,SAT-48360,194.38312044550338,76.88784752609203,566.6665413881952,0.4682756182739793,-16400.992955856087,10.5,10499983599.007044,47.655,-122.3035,60.0,3.35
2026-01-20T23:03:22+00:00,SAT-48360,191.32006723283789,76.6649296983931,567.1335616241588,0.5543860298127071,-19416.943814621998,10.5,10499980583.056185,47.655,-122.3035,60.0,3.3666666666666667
2026-01-20T23:03:23+00:00,SAT-48360,188.36900831740252,76.40676270835047,567.6864614215307,0.6402448011050648,-22424.081167522832,10.5,10499977575.918833,47.655,-122.3035,60.0,3.3833333333333333
2026-01-20T23:03:24+00:00,SAT-48360,185.53871655255972,76.11559903472457,568.3249898146779,0.7258141322662808,-25421.08110270055,10.5,10499974578.918898,47.655,-122.3035,60.0,3.4
2026-01-20T23:03:25+00:00,SAT-48360,182.8349145843569,75.7937882136812,569.0488581394178,0.8110568639991605,-28406.642144383717,10.5,10499971593.357855,47.655,-122.3035,60.0,3.4166666666666665
2026-01-20T23:03:26+00:00,SAT-48360,180.2605778082843,75.44371479161869,569.8577406718904,0.895936570216503,-31379.48849691636,10.5,10499968620.511503,47.655,-122.3035,60.0,3.433333333333333
2026-01-20T23:03:27+00:00,SAT-48360,177.81631490978575,75.06774639170845,570.7512753598014,0.9804176068688234,-34338.37175491135,10.5,10499965661.628244,47.655,-122.3035,60.0,3.45
2026-01-20T23:03:28+00:00,SAT-48360,175.50077994452843,74.66819259717185,571.7290646023637,1.0644652109268238,-37282.07437003519,10.5,10499962717.92563,47.655,-122.3035,60.0,3.466666666666667
2026-01-20T23:03:29+00:00,SAT-48360,173.3110797321529,74.247274267421,572.7906761289564,1.1480455337690176,-40209.41082038389,10.5,10499959790.58918,47.655,-122.3035,60.0,3.4833333333333334
2026-01-20T23:03:30+00:00,SAT-48360,171.24315186168178,73.80710226570365,573.9356439110796,1.231125732613261,-43119.230812801965,10.5,10499956880.769188,47.655,-122.3035,60.0,3.5
2026-01-20T23:03:31+00:00,SAT-48360,169.29209846940572,73.34966416247876,575.1634691654992,1.313674005119531,-46010.42049481804,10.5,10499953989.579506,47.655,-122.3035,60.0,3.5166666666666666
2026-01-20T23:03:32+00:00,SAT-48360,167.45246944175773,72.87681741331122,576.4736213918978,1.3956596442034612,-48881.90437444675,10.5,10499951118.095625,47.655,-122.3035,60.0,3.533333333333333
2026-01-20T23:03:33+00:00,SAT-48360,165.71849442527898,72.39028753743268,577.8655394651963,1.4770530931122445,-51732.647249179856,10.5,10499948267.35275,47.655,-122.3035,60.0,3.55
2026-01-20T23:03:34+00:00,SAT-48360,164.08426691043854,71.89166999080419,579.3386327827991,1.5578259754653754,-54561.6552581401,10.5,10499945438.344742,47.655,-122.3035,60.0,3.566666666666667
2026-01-20T23:03:35+00:00,SAT-48360,162.5438857939565,71.38243464001245,580.8922824418042,1.6379511358639538,-57367.97730439075,10.5,10499942632.022696,47.655,-122.3035,60.0,3.5833333333333335
2026-01-20T23:03:36+00:00,SAT-48360,161.09156065492456,70.86393194277477,582.5258424567104,1.7174026695586453,-60150.70609403315,10.5,10499939849.293905,47.655,-122.3035,60.0,3.6
2026-01-20T23:03:37+00:00,SAT-48360,159.72168706010405,70.33740014657454,584.2386410067134,1.7961559486458722,-62908.979053708084,10.5,10499937091.020947,47.655,-122.3035,60.0,3.6166666666666667
2026-01-20T23:03:38+00:00,SAT-48360,158.4288977676685,69.80397298662197,586.0299817091304,1.8741876350430444,-65641.97878504323,10.5,10499934358.021215,47.655,-122.3035,60.0,3.6333333333333333
2026-01-20T23:03:39+00:00,SAT-48360,157.20809501079643,69.26468751015227,587.8991449057618,1.95147571011218,-68348.93410219776,10.5,10499931651.065897,47.655,-122.3035,60.0,3.65
2026-01-20T23:03:40+00:00,SAT-48360,156.05446824501493,68.72049175926996,589.8453889787987,2.027999470114137,-71029.11987265016,10.5,10499928970.880127,47.655,-122.3035,60.0,3.6666666666666665
2026-01-20T23:03:41+00:00,SAT-48360,154.9635010076146,68.17225214781855,591.8679516621974,2.103739540463792,-73681.85751647501,10.5,10499926318.142483,47.655,-122.3035,60.0,3.683333333333333
2026-01-20T23:03:42+00:00,SAT-48360,153.9309697964862,67.62076041832144,593.9660513672695,2.178677866262418,-76306.51467474672,10.5,10499923693.485325,47.655,-122.3035,60.0,3.7
2026-01-20T23:03:43+00:00,SAT-48360,152.95293728994426,67.06674012587158,596.1388884988299,2.2527977281316525,-78902.50576411215,10.5,10499921097.494236,47.655,-122.3035,60.0,3.716666666666667
2026-01-20T23:03:44+00:00,SAT-48360,152.02574168661076,66.51085261722854,598.3856467871384,2.326083705137591,-81469.2906782355,10.5,10499918530.709322,47.655,-122.3035,60.0,3.7333333333333334
2026-01-20T23:03:45+00:00,SAT-48360,151.14598355887878,65.95370251752497,600.705494582862,2.39852170089893,-84006.37570221587,10.5,10499915993.624298,47.655,-122.3035,60.0,3.75
2026-01-20T23:03:46+00:00,SAT-48360,150.3105112190918,65.39584272331642,603.0975861780769,2.470098885000279,-86513.31146063365,10.5,10499913486.68854,47.655,-122.3035,60.0,3.7666666666666666
2026-01-20T23:03:47+00:00,SAT-48360,149.51640539345968,64.83777894731189,605.5610630688401,2.540803718398195,-88989.69380737739,10.5,10499911010.306192,47.655,-122.3035,60.0,3.783333333333333
2026-01-20T23:03:48+00:00,SAT-48360,148.76096371899865,64.27997382495573,608.0950552431004,2.610625878579595,-91435.16120437474,10.5,10499908564.838795,47.655,-122.3035,60.0,3.8
2026-01-20T23:03:49+00:00,SAT-48360,148.04168548773404,63.72285063892604,610.6986823939658,2.679556287402926,-93849.39569670803,10.5,10499906150.604303,47.655,-122.3035,60.0,3.816666666666667
2026-01-20T23:03:50+00:00,SAT-48360,147.35625686815771,63.16679667205137,613.371055160741,2.747587063473142,-96232.12124458446,10.5,10499903767.878756,47.655,-122.3035,60.0,3.8333333333333335
2026-01-20T23:03:51+00:00,SAT-48360,146.702536803158,62.61216623879073,616.111276322464,2.814711472264765,-98583.10197643476,10.5,10499901416.898024,47.655,-122.3035,60.0,3.85
2026-01-20T23:03:52+00:00,SAT-48360,146.0785436868,62.059283426374584,618.9184419417016,2.8809239117000023,-100902.14168379789,10.5,10499899097.858316,47.655,-122.3035,60.0,3.8666666666666667
2026-01-20T23:03:53+00:00,SAT-48360,145.48244286418173,61.50844456753867,621.7916424939621,2.9462198880372776,-103189.08297683531,10.5,10499896810.917023,47.655,-122.3035,60.0,3.8833333333333333
2026-01-20T23:03:54+00:00,SAT-48360,144.91253497763077,60.95992047445899,624.7299639730577,3.0105959585460758,-105443.80527656169,10.5,10499894556.194723,47.655,-122.3035,60.0,3.9
2026-01-20T23:03:55+00:00,SAT-48360,144.36724515908634,60.41395846484505,627.7324889393011,3.074049708365406,-107666.22400433023,10.5,10499892333.775995,47.655,-122.3035,60.0,3.9166666666666665
2026-01-20T23:03:56+00:00,SAT-48360,143.84511303690047,59.87078419586721,630.7982975446175,3.136579697009735,-109856.28870824433,10.5,10499890143.711292,47.655,-122.3035,60.0,3.933333333333333
2026-01-20T23:03:57+00:00,SAT-48360,143.3447835275213,59.330603331686106,633.9264685043074,3.198185442149789,-112013.9824950926,10.5,10499887986.017506,47.655,-122.3035,60.0,3.95
2026-01-20T23:03:58+00:00,SAT-48360,142.8649983629245,58.793603055898835,637.1160800526363,3.2588673729678868,-114139.32039665524,10.5,10499885860.679604,47.655,-122.3035,60.0,3.966666666666667
2026-01-20T23:03:59+00:00,SAT-48360,142.40458831356398,58.259953450641824,640.3662108519011,3.3186267472572597,-116232.34646617172,10.5,10499883767.653534,47.655,-122.3035,60.0,3.9833333333333334
2026-01-20T23:04:00+00:00,SAT-48360,141.96246606352778,57.72980876208146,643.6759408188194,3.377465691450459,-118293.1351803047,10.5,10499881706.86482,47.655,-122.3035,60.0,4.0
2026-01-20T23:04:01+00:00,SAT-48360,141.53761967182948,57.20330854496439,647.0443519908413,3.435387090041021,-120321.7875662193,10.5,10499879678.212433,47.655,-122.3035,60.0,4.016666666666667
2026-01-20T23:04:02+00:00,SAT-48360,141.12910659676638,56.68057872226728,650.4705292821773,3.492394575862242,-122318.43086110438,10.5,10499877681.56914,47.655,-122.3035,60.0,4.033333333333333
2026-01-20T23:04:03+00:00,SAT-48360,140.7360482230264,56.161732553294684,653.9535612301323,3.5484924834041434,-124283.2168771354,10.5,10499875716.783123,47.655,-122.3035,60.0,4.05
2026-01-20T23:04:04+00:00,SAT-48360,140.35762485557626,55.646871525174255,657.4925406948804,3.6036858063052106,-126216.32051265516,10.5,10499873783.679487,47.655,-122.3035,60.0,4.066666666666666
2026-01-20T23:04:05+00:00,SAT-48360,139.9930711397964,55.13608617484358,661.0865655168475,3.6579801787456985,-128117.93910048876,10.5,10499871882.0609,47.655,-122.3035,60.0,4.083333333333333
2026-01-20T23:04:06+00:00,SAT-48360,139.64167186917436,54.62945684516173,664.7347391555352,3.7113817747665045,-129988.28888166459,10.5,10499870011.711119,47.655,-122.3035,60.0,4.1
2026-01-20T23:04:07+00:00,SAT-48360,139.3027581548431,54.12705439274704,668.4361712279342,3.763897359841659,-131827.60681170112,10.5,10499868172.393188,47.655,-122.3035,60.0,4.116666666666666
2026-01-20T23:04:08+00:00,SAT-48360,138.97570391005442,53.62894083178346,672.189978098372,3.8155341954769613,-133636.14721924756,10.5,10499866363.852781,47.655,-122.3035,60.0,4.133333333333334
2026-01-20T23:04:09+00:00,SAT-48360,138.65992263652288,53.13516993936309,675.9952833732146,3.8662999910490408,-135414.18011928417,10.5,10499864585.819881,47.655,-122.3035,60.0,4.15
2026-01-20T23:04:10+00:00,SAT-48360,138.35486448087278,52.645787819575425,679.8512183475369,3.9162029110190293,-137161.99146577533,10.5,10499862838.008533,47.655,-122.3035,60.0,4.166666666666667
2026-01-20T23:04:11+00:00,SAT-48360,138.06001353231653,52.1608334232269,683.7569224589876,3.965251524246787,-138879.88137643965,10.5,10499861120.118624,47.655,-122.3035,60.0,4.183333333333334
2026-01-20T23:04:12+00:00,SAT-48360,137.7748853457023,51.680339034420264,687.7115436911024,4.013454757745826,-140568.16251305153,10.5,10499859431.837486,47.655,-122.3035,60.0,4.2
2026-01-20T23:04:13+00:00,SAT-48360,137.4990246690351,51.204330726249054,691.7142389304998,4.0608218734386075,-142227.15926731343,10.5,10499857772.840733,47.655,-122.3035,60.0,4.216666666666667
2026-01-20T23:04:14+00:00,SAT-48360,137.2320033558309,50.732828785505696,695.7641743008891,4.1073624555701,-143857.20732002554,10.5,10499856142.79268,47.655,-122.3035,60.0,4.233333333333333
2026-01-20T23:04:15+00:00,SAT-48360,136.97341844518337,50.26584810789131,699.8605254845316,4.153086327531767,-145458.65072790976,10.5,10499854541.349272,47.655,-122.3035,60.0,4.25
2026-01-20T23:04:16+00:00,SAT-48360,136.72289039992378,49.80339857404196,704.0024779607453,4.1980035979930586,-147031.84353932986,10.5,10499852968.15646,47.655,-122.3035,60.0,4.266666666666667
2026-01-20T23:04:17+00:00,SAT-48360,136.48006147994084,49.34548539360349,708.1892272904166,4.242124557402332,-148577.14616931582,10.5,10499851422.85383,47.655,-122.3035,60.0,4.283333333333333
2026-01-20T23:04:18+00:00,SAT-48360,136.2445942493617,48.89210943620068,712.4199792972937,4.285459729332412,-150094.92719790275,10.5,10499849905.072802,47.655,-122.3035,60.0,4.3
2026-01-20T23:04:19+00:00,SAT-48360,136.01617019548488,48.44326753377322,716.6939503004853,4.328019771201773,-151585.55989296638,10.5,10499848414.440107,47.655,-122.3035,60.0,4.316666666666666
2026-01-20T23:04:20+00:00,SAT-48360,135.79448845985,47.99895277224602,721.0103672479472,4.369815487684678,-153049.4226799032,10.5,10499846950.57732,47.655,-122.3035,60.0,4.333333333333333
2026-01-20T23:04:21+00:00,SAT-48360,135.5792646644409,47.55915476164002,725.368467863344,4.41085782654124,-154486.8989955812,10.5,10499845513.101004,47.655,-122.3035,60.0,4.35
2026-01-20T23:04:22+00:00,SAT-48360,135.37022982667713,47.12385988814855,729.7675007887508,4.451157805106594,-155898.37471368024,10.5,10499844101.625286,47.655,-122.3035,60.0,4.366666666666666
2026-01-20T23:04:23+00:00,SAT-48360,135.1671293591166,46.693051556241144,734.2067256540416,4.490726542344594,-157284.2392673475,10.5,10499842715.760733,47.655,-122.3035,60.0,4.383333333333334
2026-01-20T23:04:24+00:00,SAT-48360,134.9697221414022,46.26671041125677,738.6854131782463,4.529575217871174,-158644.8842140229,10.5,10499841355.115786,47.655,-122.3035,60.0,4.4
2026-01-20T23:04:25+00:00,SAT-48360,134.777779662174,45.844814550898,743.2028452300395,4.567715041288129,-159980.7021613778,10.5,10499840019.297838,47.655,-122.3035,60.0,4.416666666666667
2026-01-20T23:04:26+00:00,SAT-48360,134.5910852247758,45.42733972533388,747.7583148576468,4.605157228036447,-161292.0859215968,10.5,10499838707.914078,47.655,-122.3035,60.0,4.433333333333334
2026-01-20T23:04:27+00:00,SAT-48360,134.40943321084515,45.01425952601877,752.3511262946668,4.6419130572638565,-162579.43053814417,10.5,10499837420.569462,47.655,-122.3035,60.0,4.45
2026-01-20T23:04:28+00:00,SAT-48360,134.23262839402045,44.605545556818285,756.980595023608,4.677993767755275,-163843.1296408077,10.5,10499836156.87036,47.655,-122.3035,60.0,4.466666666666667
2026-01-20T23:04:29+00:00,SAT-48360,134.06048530649514,44.201167602854184,761.6460477356351,4.71341056642173,-165083.5757430167,10.5,10499834916.424257,47.655,-122.3035,60.0,4.483333333333333
2026-01-20T23:04:30+00:00,SAT-48360,133.89282764939227,43.80109378730348,766.3468222987788,4.748174647397087,-166301.16091069047,10.5,10499833698.839088,47.655,-122.3035,60.0,4.5
2026-01-20T23:04:31+00:00,SAT-48360,133.7294877432244,43.40529071615655,771.0822677451944,4.782297160061771,-167496.27564229316,10.5,10499832503.724358,47.655,-122.3035,60.0,4.516666666666667
2026-01-20T23:04:32+00:00,SAT-48360,133.57030601739487,43.0137236160316,775.8517442265272,4.815789211659573,-168669.30896048597,10.5,10499831330.69104,47.655,-122.3035,60.0,4.533333333333333
2026-01-20T23:04:33+00:00,SAT-48360,133.4151305341723,42.62635646263012,780.654622971889,4.848661780339857,-169820.64536649716,10.5,10499830179.354633,47.655,-122.3035,60.0,4.55
2026-01-20T23:04:34+00:00,SAT-48360,133.2638165480486,42.24315210749654,785.4902861591113,4.88092587292854,-170950.67036592917,10.5,10499829049.329634,47.655,-122.3035,60.0,4.566666666666666
2026-01-20T23:04:35+00:00,SAT-48360,133.11622608879276,41.86407238402176,790.3581269433423,4.912592303691263,-172059.76272010908,10.5,10499827940.23728,47.655,-122.3035,60.0,4.583333333333333
2026-01-20T23:04:36+00:00,SAT-48360,132.97222757983323,41.489078223397364,795.2575492650049,4.943671886584799,-173148.301179546,10.5,10499826851.69882,47.655,-122.3035,60.0,4.6
2026-01-20T23:04:37+00:00,SAT-48360,132.83169547514635,41.118129748237045,800.1879678494888,4.9741752469574285,-174216.65788888192,10.5,10499825783.342112,47.655,-122.3035,60.0,4.616666666666666
2026-01-20T23:04:38+00:00,SAT-48360,132.69450992594273,40.75118637391674,805.1488080190451,5.004112998187971,-175265.20457353763,10.5,10499824734.795427,47.655,-122.3035,60.0,4.633333333333334
2026-01-20T23:04:39+00:00,SAT-48360,132.5605564630777,40.388206890187554,810.1395056808526,5.033495559127392,-176294.30614574574,10.5,10499823705.693853,47.655,-122.3035,60.0,4.65
2026-01-20T23:04:40+00:00,SAT-48360,132.42972570563632,40.029149550393846,815.1595071330081,5.0623332833347785,-177304.32523094083,10.5,10499822695.674768,47.655,-122.3035,60.0,4.666666666666667
2026-01-20T23:04:41+00:00,SAT-48360,132.3019130837745,39.673972145477656,820.2082689994123,5.090636379529376,-178295.61938165384,10.5,10499821704.38062,47.655,-122.3035,60.0,4.683333333333334
2026-01-20T23:04:42+00:00,SAT-48360,132.1770185815299,39.32263207848392,825.2852580853162,5.118414934006258,-179268.54186260316,10.5,10499820731.458138,47.655,-122.3035,60.0,4.7
2026-01-20T23:04:43+00:00,SAT-48360,132.0549464948641,38.975086432407934,830.3899512552256,5.145678901910451,-180223.44134507794,10.5,10499819776.558655,47.655,-122.3035,60.0,4.716666666666667
2026-01-20T23:04:44+00:00,SAT-48360,131.93560520492244,38.63129203394791,835.5218353021038,5.1724381049860275,-181160.66182810138,10.5,10499818839.338171,47.655,-122.3035,60.0,4.733333333333333
2026-01-20T23:04:45+00:00,SAT-48360,131.8189069651236,38.291205512981804,840.680406814327,5.19870222669719,-182080.542467551,10.5,10499817919.457533,47.655,-122.3035,60.0,4.75
2026-01-20T23:04:46+00:00,SAT-48360,131.7047677014834,37.95478335819571,845.8651720377751,5.224480812052179,-182983.41756999065,10.5,10499817016.58243,47.655,-122.3035,60.0,4.766666666666667
2026-01-20T23:04:47+00:00,SAT-48360,131.5931068247062,37.6219819688041,851.0756467377487,5.249783267556902,-183869.61659104668,10.5,10499816130.38341,47.655,-122.3035,60.0,4.783333333333333
2026-01-20T23:04:48+00:00,SAT-48360,131.48384705374576,37.292757702600525,856.3113560608351,5.274618839537442,-184739.46337617052,10.5,10499815260.536623,47.655,-122.3035,60.0,4.8
2026-01-20T23:04:49+00:00,SAT-48360,131.37691425004485,36.96706692189332,861.5718343751611,5.298996655123547,-185593.27759605364,10.5,10499814406.722404,47.655,-122.3035,60.0,4.816666666666666
2026-01-20T23:04:50+00:00,SAT-48360,131.2722372608081,36.64486603362203,866.8566251515141,5.322925678311754,-186431.37320777235,10.5,10499813568.626793,47.655,-122.3035,60.0,4.833333333333333
2026-01-20T23:04:51+00:00,SAT-48360,131.16974777220105,36.326111529180544,872.1652808006459,5.346414730297231,-187254.05916689514,10.5,10499812745.940834,47.655,-122.3035,60.0,4.85
2026-01-20T23:04:52+00:00,SAT-48360,131.06938017068165,36.01076002007861,877.4973625308565,5.369472489509607,-188061.6394287373,10.5,10499811938.36057,47.655,-122.3035,60.0,4.866666666666666
2026-01-20T23:04:53+00:00,SAT-48360,130.97107141224714,35.69876827094018,882.852440205609,5.392107464242285,-188854.41198972386,10.5,10499811145.58801,47.655,-122.3035,60.0,4.883333333333334
2026-01-20T23:04:54+00:00,SAT-48360,130.87476089961496,35.39009323154582,888.2300921738505,5.414328069990409,-189632.67159609232,10.5,10499810367.328403,47.655,-122.3035,60.0,4.9
2026-01-20T23:04:55+00:00,SAT-48360,130.78039036484603,35.08469206206992,893.6299051774624,5.436142482300526,-190396.70459006517,10.5,10499809603.29541,47.655,-122.3035,60.0,4.916666666666667
2026-01-20T23:04:56+00:00,SAT-48360,130.68790376143647,34.782522164481726,899.0514741119555,5.457558850513216,-191146.79639602132,10.5,10499808853.203604,47.655,-122.3035,60.0,4.933333333333334
2026-01-20T23:04:57+00:00,SAT-48360,130.5972471581681,34.48354119979458,904.4944020003337,5.478585061068112,-191883.2232304362,10.5,10499808116.77677,47.655,-122.3035,60.0,4.95
2026-01-20T23:04:58+00:00,SAT-48360,130.50836864341898,34.18770711662966,909.9582997308978,5.499228929115464,-192606.25881292974,10.5,10499807393.741186,47.655,-122.3035,60.0,4.966666666666667
2026-01-20T23:04:59+00:00,SAT-48360,130.4212182310423,33.89497816728169,915.4427859861482,5.519498101904831,-193316.17098252926,10.5,10499806683.829018,47.655,-122.3035,60.0,4.983333333333333
2026-01-20T23:05:00+00:00,SAT-48360,130.3357477731434,33.60531292745705,920.9474870753326,5.539400068438587,-194013.22203577636,10.5,10499805986.777964,47.655,-122.3035,60.0,5.0
2026-01-20T23:05:01+00:00,SAT-48360,130.2519108773949,33.31867031381103,926.4720367766248,5.5589421987923755,-194697.67010389548,10.5,10499805302.329897,47.655,-122.3035,60.0,5.016666666666667
2026-01-20T23:05:02+00:00,SAT-48360,130.16966282803688,33.035009597942064,932.0160762185161,5.578131716873261,-195369.7681986691,10.5,10499804630.231802,47.655,-122.3035,60.0,5.033333333333333
2026-01-20T23:05:03+00:00,SAT-48360,130.0889605115888,32.75429042045188,937.5792537340386,5.596975711999646,-196029.76461801547,10.5,10499803970.235382,47.655,-122.3035,60.0,5.05
2026-01-20T23:05:04+00:00,SAT-48360,130.0097623462101,32.476472803119584,943.1612247265372,5.615481081256438,-196677.90092702265,10.5,10499803322.099073,47.655,-122.3035,60.0,5.066666666666666
2026-01-20T23:05:05+00:00,SAT-48360,129.9320282158005,32.2015171626776,948.761651477951,5.633654672352454,-197314.41696141922,10.5,10499802685.583038,47.655,-122.3035,60.0,5.083333333333333
2026-01-20T23:05:06+00:00,SAT-48360,129.85571940503436,31.929384316401844,954.3802030995712,5.6515031538141,-197939.54628120782,10.5,10499802060.453718,47.655,-122.3035,60.0,5.1
2026-01-20T23:05:07+00:00,SAT-48360,129.78079854000637,31.660035493129108,960.0165553533375,5.669033022453795,-198553.51643224075,10.5,10499801446.483568,47.655,-122.3035,60.0,5.116666666666666
2026-01-20T23:05:08+00:00,SAT-48360,129.70722953163133,31.393432342779388,965.6703904805847,5.686250715266866,-199156.5528653229,10.5,10499800843.447134,47.655,-122.3035,60.0,5.133333333333334
2026-01-20T23:05:09+00:00,SAT-48360,129.63497752029835,31.129536939668373,971.3413971423864,5.703162496546297,-199748.87498249245,10.5,10499800251.125017,47.655,-122.3035,60.0,5.15
2026-01-20T23:05:10+00:00,SAT-48360,129.5640088249483,30.868311790376858,977.0292702473159,5.719774511514506,-200330.69801543278,10.5,10499799669.301985,47.655,-122.3035,60.0,5.166666666666667
2026-01-20T23:05:11+00:00,SAT-48360,129.4942908939694,30.60971983827037,982.733710832694,5.736092780001235,-200902.23280404528,10.5,10499799097.767197,47.655,-122.3035,60.0,5.183333333333334
2026-01-20T23:05:12+00:00,SAT-48360,129.42579225855178,30.353724467608128,988.4544259395329,5.752123191919624,-201463.68563800247,10.5,10499798536.314362,47.655,-122.3035,60.0,5.2
2026-01-20T23:05:13+00:00,SAT-48360,129.35848248848814,30.100289507178278,994.1911284829681,5.767871540952293,-202015.2594365769,10.5,10499797984.740564,47.655,-122.3035,60.0,5.216666666666667
