DopplerPredictor/satellites_20260205_234138/SAT-45228.csv

timestamp,satellite,azimuth_deg,elevation_deg,distance_km,relative_velocity_kms,doppler_shift_hz,tx_freq_ghz,rx_freq_hz,ue_lat,ue_lon,ue_alt_m,time_minutes
2026-01-20T23:02:35+00:00,SAT-45228,292.3406492544152,30.026496589449525,850.5694046201464,-5.883969535653636,206081.50230504858,10.5,10500206081.502306,47.655,-122.3035,60.0,2.5833333333333335
2026-01-20T23:02:36+00:00,SAT-45228,292.26572303471596,30.31750778534686,844.7012091948302,-5.86535529217955,205429.55276041426,10.5,10500205429.552761,47.655,-122.3035,60.0,2.6
2026-01-20T23:02:37+00:00,SAT-45228,292.1892302135013,30.61210286496993,838.8515781107701,-5.846341854898027,204763.6217600554,10.5,10500204763.62176,47.655,-122.3035,60.0,2.6166666666666667
2026-01-20T23:02:38+00:00,SAT-45228,292.11112336275477,30.910343481982903,833.02090949159,-5.82691933758068,204083.3630464351,10.5,10500204083.363047,47.655,-122.3035,60.0,2.6333333333333333
2026-01-20T23:02:39+00:00,SAT-45228,292.03135313230104,31.212292262184267,827.2096113206384,-5.807077594980587,203388.42129009188,10.5,10500203388.42129,47.655,-122.3035,60.0,2.65
2026-01-20T23:02:40+00:00,SAT-45228,291.94986815225184,31.518012800158935,821.4181016993131,-5.786806213949265,202678.4317785182,10.5,10500202678.431778,47.655,-122.3035,60.0,2.6666666666666665
2026-01-20T23:02:41+00:00,SAT-45228,291.8666149293852,31.82756965380932,815.6468091142444,-5.766094492965687,201953.01969918038,10.5,10500201953.0197,47.655,-122.3035,60.0,2.683333333333333
2026-01-20T23:02:42+00:00,SAT-45228,291.7815377375056,32.14102833594633,809.8961727248932,-5.744931521222911,201211.8029094667,10.5,10500201211.80291,47.655,-122.3035,60.0,2.7
2026-01-20T23:02:43+00:00,SAT-45228,291.69457849970564,32.45845530818689,804.1666425722782,-5.723306053124098,200454.3875410069,10.5,10500200454.38754,47.655,-122.3035,60.0,2.716666666666667
2026-01-20T23:02:44+00:00,SAT-45228,291.60567666488663,32.779917965912254,798.4586799128664,-5.701206572890835,199680.37026252932,10.5,10500199680.370262,47.655,-122.3035,60.0,2.7333333333333334
2026-01-20T23:02:45+00:00,SAT-45228,291.51476907555127,33.10548462424542,792.7727574880306,-5.678621302032826,198889.33854148083,10.5,10500198889.338541,47.655,-122.3035,60.0,2.75
2026-01-20T23:02:46+00:00,SAT-45228,291.42178982681867,33.435224501902454,787.1093597860589,-5.655538148037763,198080.86884692914,10.5,10500198080.868847,47.655,-122.3035,60.0,2.7666666666666666
2026-01-20T23:02:47+00:00,SAT-45228,291.3266701170444,33.7692076992769,781.4689833553317,-5.63194474237652,197254.52798066544,10.5,10500197254.52798,47.655,-122.3035,60.0,2.783333333333333
2026-01-20T23:02:48+00:00,SAT-45228,291.2293380879805,34.10750517555177,775.8521370796012,-5.607828403882861,196409.8717946068,10.5,10500196409.871794,47.655,-122.3035,60.0,2.8
2026-01-20T23:02:49+00:00,SAT-45228,291.12971865489493,34.450188720266475,770.2593424897887,-5.5831761521969945,195546.44566164652,10.5,10500195546.445662,47.655,-122.3035,60.0,2.816666666666667
2026-01-20T23:02:50+00:00,SAT-45228,291.02773332497173,34.79733092192415,764.6911340623774,-5.557974692249634,194663.78393222005,10.5,10500194663.783932,47.655,-122.3035,60.0,2.8333333333333335
2026-01-20T23:02:51+00:00,SAT-45228,290.9233000037445,35.149005131582186,759.1480595332771,-5.532210465776285,193761.41173855346,10.5,10500193761.41174,47.655,-122.3035,60.0,2.85
2026-01-20T23:02:52+00:00,SAT-45228,290.816332787275,35.50528542533615,753.6306801603147,-5.5058694897276395,192838.83933511167,10.5,10500192838.839334,47.655,-122.3035,60.0,2.8666666666666667
2026-01-20T23:02:53+00:00,SAT-45228,290.70674174280555,35.8662465516516,748.139571146879,-5.478937634730033,191895.5718514618,10.5,10500191895.571852,47.655,-122.3035,60.0,2.8833333333333333
2026-01-20T23:02:54+00:00,SAT-45228,290.5944326690785,36.23196389146814,742.6753217878543,-5.451400286627482,190931.0974380435,10.5,10500190931.097439,47.655,-122.3035,60.0,2.9
2026-01-20T23:02:55+00:00,SAT-45228,290.47930684586646,36.60251339067445,737.2385359531017,-5.423242634087691,189944.89733934787,10.5,10500189944.897339,47.655,-122.3035,60.0,2.9166666666666665
2026-01-20T23:02:56+00:00,SAT-45228,290.36126076026164,36.977971505340534,731.8298322841086,-5.394449450369563,188936.43825049265,10.5,10500188936.43825,47.655,-122.3035,60.0,2.933333333333333
2026-01-20T23:02:57+00:00,SAT-45228,290.24018581742223,37.35841512571921,726.4498446082815,-5.365005313465959,187905.18002755282,10.5,10500187905.180027,47.655,-122.3035,60.0,2.95
2026-01-20T23:02:58+00:00,SAT-45228,290.1159680257856,37.74392150831828,721.0992221336902,-5.334894341683695,186850.5664264536,10.5,10500186850.566427,47.655,-122.3035,60.0,2.966666666666667
2026-01-20T23:02:59+00:00,SAT-45228,289.9884876645561,38.134568181689936,715.778629907521,-5.304100445821163,185772.03393529737,10.5,10500185772.033936,47.655,-122.3035,60.0,2.9833333333333334
2026-01-20T23:03:00+00:00,SAT-45228,289.85761892108286,38.53043286171071,710.4887490230294,-5.272607150586265,184669.00551966447,10.5,10500184669.00552,47.655,-122.3035,60.0,3.0
2026-01-20T23:03:01+00:00,SAT-45228,289.7232295048661,38.93159334503802,705.230277004594,-5.240397740805902,183540.89574348787,10.5,10500183540.895744,47.655,-122.3035,60.0,3.0166666666666666
2026-01-20T23:03:02+00:00,SAT-45228,289.5851802287742,39.33812740366547,700.0039280469563,-5.207455123756098,182387.1059472718,10.5,10500182387.105947,47.655,-122.3035,60.0,3.033333333333333
2026-01-20T23:03:03+00:00,SAT-45228,289.4433245613614,39.75011265861814,694.8104333917584,-5.173761941210234,181207.02817249476,10.5,10500181207.028173,47.655,-122.3035,60.0,3.05
2026-01-20T23:03:04+00:00,SAT-45228,289.2975081416153,40.16762645080123,689.6505415923332,-5.139300540974158,180000.04416464895,10.5,10500180000.044165,47.655,-122.3035,60.0,3.066666666666667
2026-01-20T23:03:05+00:00,SAT-45228,289.1475682562391,40.59074569760744,684.525018806886,-5.104052988456833,178765.5257784929,10.5,10500178765.525778,47.655,-122.3035,60.0,3.0833333333333335
2026-01-20T23:03:06+00:00,SAT-45228,288.99333327498164,41.01954673735686,679.4346490801317,-5.0680010516608265,177502.8344523553,10.5,10500177502.834452,47.655,-122.3035,60.0,3.1
2026-01-20T23:03:07+00:00,SAT-45228,288.8346220410523,41.454105158320644,674.3802346399063,-5.031126245502499,176211.3227604153,10.5,10500176211.32276,47.655,-122.3035,60.0,3.1166666666666667
2026-01-20T23:03:08+00:00,SAT-45228,288.6712432105757,41.89449561618367,669.3625961495724,-4.993409837112617,174890.33459835232,10.5,10500174890.334599,47.655,-122.3035,60.0,3.1333333333333333
2026-01-20T23:03:09+00:00,SAT-45228,288.50299453756276,42.340791635696746,664.3825729551428,-4.954832863389625,173539.20579813607,10.5,10500173539.205797,47.655,-122.3035,60.0,3.15
2026-01-20T23:03:10+00:00,SAT-45228,288.32966209869454,42.79306539632578,659.441023314893,-4.9153760897310566,172157.2626826259,10.5,10500172157.262682,47.655,-122.3035,60.0,3.1666666666666665
2026-01-20T23:03:11+00:00,SAT-45228,288.15101945419997,43.25138749508607,654.5388246701361,-4.875020170403934,170743.82768242055,10.5,10500170743.827682,47.655,-122.3035,60.0,3.183333333333333
2026-01-20T23:03:12+00:00,SAT-45228,287.9668267317795,43.715826703737896,649.6768737560565,-4.833745473214155,169298.2131950385,10.5,10500169298.213196,47.655,-122.3035,60.0,3.2
2026-01-20T23:03:13+00:00,SAT-45228,287.7768296374555,44.18644968782743,644.8560868873992,-4.791532293671329,167819.72908587632,10.5,10500167819.729086,47.655,-122.3035,60.0,3.216666666666667
2026-01-20T23:03:14+00:00,SAT-45228,287.58075837246383,44.663320722242474,640.0774000305757,-4.748360719942068,166307.67795830176,10.5,10500166307.677958,47.655,-122.3035,60.0,3.2333333333333334
2026-01-20T23:03:15+00:00,SAT-45228,287.3783264593081,45.14650136846844,635.34176901045,-4.70421080683941,164761.36124749944,10.5,10500164761.361248,47.655,-122.3035,60.0,3.25
2026-01-20T23:03:16+00:00,SAT-45228,287.1692294559611,45.63605014166786,630.6501695436024,-4.659062474124106,163180.07565855145,10.5,10500163180.075659,47.655,-122.3035,60.0,3.2666666666666666
2026-01-20T23:03:17+00:00,SAT-45228,286.95314355765765,46.13202213820527,626.003597373021,-4.612895647550595,161563.11810646436,10.5,10500161563.118107,47.655,-122.3035,60.0,3.283333333333333
2026-01-20T23:03:18+00:00,SAT-45228,286.72972406443034,46.634468645932536,621.4030682621219,-4.5656901775686185,159909.78286875546,10.5,10500159909.78287,47.655,-122.3035,60.0,3.3
2026-01-20T23:03:19+00:00,SAT-45228,286.49860370991644,47.14343671158707,616.8496180698539,-4.5174260583377235,158219.36925626762,10.5,10500158219.369257,47.655,-122.3035,60.0,3.316666666666667
2026-01-20T23:03:20+00:00,SAT-45228,286.2593908227356,47.65896869523796,612.3443026073738,-4.468083249468429,156491.17536979035,10.5,10500156491.17537,47.655,-122.3035,60.0,3.3333333333333335
2026-01-20T23:03:21+00:00,SAT-45228,286.01166732124244,48.18110176528309,607.888197672502,-4.417641914959454,154724.5064686526,10.5,10500154724.506468,47.655,-122.3035,60.0,3.35
2026-01-20T23:03:22+00:00,SAT-45228,285.75498650287847,48.70986737716157,603.4823988458819,-4.366082343515213,152918.67217990436,10.5,10500152918.67218,47.655,-122.3035,60.0,3.3666666666666667
2026-01-20T23:03:23+00:00,SAT-45228,285.4888706216404,49.24529069660669,599.1280213666101,-4.313385073407034,151072.99087148433,10.5,10500151072.990871,47.655,-122.3035,60.0,3.3833333333333333
2026-01-20T23:03:24+00:00,SAT-45228,285.2128082189654,49.787389987037535,594.8261998833378,-4.259530948863684,149186.79162725527,10.5,10500149186.791628,47.655,-122.3035,60.0,3.4
2026-01-20T23:03:25+00:00,SAT-45228,284.92625118372314,50.336175949499996,590.5780881491326,-4.204501082190718,147259.41292026278,10.5,10500147259.41292,47.655,-122.3035,60.0,3.4166666666666665
2026-01-20T23:03:26+00:00,SAT-45228,284.6286115163587,50.8916509979513,586.3848587541221,-4.148277097171526,145290.21113766986,10.5,10500145290.211138,47.655,-122.3035,60.0,3.433333333333333
2026-01-20T23:03:27+00:00,SAT-45228,284.3192577449872,51.45380850103934,582.2477026153857,-4.090841008460559,143278.55635659743,10.5,10500143278.556356,47.655,-122.3035,60.0,3.45
2026-01-20T23:03:28+00:00,SAT-45228,283.99751097652467,52.0226319376517,578.1678285871328,-4.032175445101306,141223.8401726694,10.5,10500141223.840172,47.655,-122.3035,60.0,3.466666666666667
2026-01-20T23:03:29+00:00,SAT-45228,283.662640516463,52.598094004923574,574.1464628479597,-3.97226360263878,139125.47402278942,10.5,10500139125.474022,47.655,-122.3035,60.0,3.4833333333333334
2026-01-20T23:03:30+00:00,SAT-45228,283.3138590253127,53.18015563501572,570.1848483358673,-3.9110894481592546,136982.89636649957,10.5,10500136982.896366,47.655,-122.3035,60.0,3.5
2026-01-20T23:03:31+00:00,SAT-45228,282.9503171367111,53.7687649478041,566.2842439787881,-3.848637673244427,134795.57103823635,10.5,10500134795.571037,47.655,-122.3035,60.0,3.5166666666666666
2026-01-20T23:03:32+00:00,SAT-45228,282.5710974925108,54.36385609415892,562.4459239720337,-3.7848939006690343,132562.99448675543,10.5,10500132562.994486,47.655,-122.3035,60.0,3.533333333333333
2026-01-20T23:03:33+00:00,SAT-45228,282.1752081024157,54.965348016426226,558.6711768495969,-3.7198446793398094,130284.69559787257,10.5,10500130284.695599,47.655,-122.3035,60.0,3.55
2026-01-20T23:03:34+00:00,SAT-45228,281.76157496408405,55.5731430825708,554.9613045605038,-3.6534776467823007,127960.24138543925,10.5,10500127960.241385,47.655,-122.3035,60.0,3.566666666666667
2026-01-20T23:03:35+00:00,SAT-45228,281.3290338378215,56.18712560576942,551.3176213831127,-3.585781583974923,125589.23891186311,10.5,10500125589.238913,47.655,-122.3035,60.0,3.5833333333333335
2026-01-20T23:03:36+00:00,SAT-45228,280.8763210817573,56.80716021698158,547.7414527847264,-3.516746533711438,123171.33943366281,10.5,10500123171.339434,47.655,-122.3035,60.0,3.6
2026-01-20T23:03:37+00:00,SAT-45228,280.4020634264535,57.4330900822907,544.2341341631608,-3.4463638934842806,120706.24165463477,10.5,10500120706.241655,47.655,-122.3035,60.0,3.6166666666666667
2026-01-20T23:03:38+00:00,SAT-45228,279.9047665610729,58.06473493985363,540.7970094956767,-3.3746265310299086,118193.69577274035,10.5,10500118193.695772,47.655,-122.3035,60.0,3.6333333333333333
2026-01-20T23:03:39+00:00,SAT-45228,279.3828023849189,58.701888936039,537.4314298726781,-3.301528886132273,115633.50704569383,10.5,10500115633.507046,47.655,-122.3035,60.0,3.65
2026-01-20T23:03:40+00:00,SAT-45228,278.83439476476747,59.34431823018168,534.1387519298786,-3.2270670451512826,113025.53840126446,10.5,10500113025.5384,47.655,-122.3035,60.0,3.6666666666666665
2026-01-20T23:03:41+00:00,SAT-45228,278.2576036277659,59.991758329368636,530.9203362061401,-3.1512389139824366,110369.71649505467,10.5,10500110369.716496,47.655,-122.3035,60.0,3.683333333333333
2026-01-20T23:03:42+00:00,SAT-45228,277.6503071820422,60.64391113431272,527.777545328815,-3.0740442495812577,107666.03281461871,10.5,10500107666.032814,47.655,-122.3035,60.0,3.7
2026-01-20T23:03:43+00:00,SAT-45228,277.0101820819867,61.30044162410248,524.7117421676486,-2.9954848326590318,104914.54972799827,10.5,10500104914.549728,47.655,-122.3035,60.0,3.716666666666667
2026-01-20T23:03:44+00:00,SAT-45228,276.33468129725713,61.96097415633594,521.7242878164492,-2.9155645128424603,102115.4020654043,10.5,10500102115.402065,47.655,-122.3035,60.0,3.7333333333333334
2026-01-20T23:03:45+00:00,SAT-45228,275.62100948615716,62.625088296390665,518.8165395297177,-2.83428934426364,99268.80186815182,10.5,10500099268.801868,47.655,-122.3035,60.0,3.75
2026-01-20T23:03:46+00:00,SAT-45228,274.86609563814625,63.292314125076096,515.9898485240541,-2.751667690852911,96375.04207646067,10.5,10500096375.042076,47.655,-122.3035,60.0,3.7666666666666666
2026-01-20T23:03:47+00:00,SAT-45228,274.06656278939965,63.96212693885454,513.2455576745502,-2.667710269346952,93434.49803578113,10.5,10500093434.498035,47.655,-122.3035,60.0,3.783333333333333
2026-01-20T23:03:48+00:00,SAT-45228,273.2186946700857,64.63394123529741,510.58499916829135,-2.5824303081056814,90447.63305923346,10.5,10500090447.633059,47.655,-122.3035,60.0,3.8
2026-01-20T23:03:49+00:00,SAT-45228,272.3183991680534,65.30710390680649,508.0094919994663,-2.4958435501143725,87414.99853275466,10.5,10500087414.998533,47.655,-122.3035,60.0,3.816666666666667
2026-01-20T23:03:50+00:00,SAT-45228,271.3611686916082,65.98088648627115,505.52033946148333,-2.4079684203457643,84337.23977682761,10.5,10500084337.239777,47.655,-122.3035,60.0,3.8333333333333335
2026-01-20T23:03:51+00:00,SAT-45228,270.3420376112784,66.65447635538877,503.1188264721729,-2.3188259763568353,81215.09431617112,10.5,10500081215.094316,47.655,-122.3035,60.0,3.85
2026-01-20T23:03:52+00:00,SAT-45228,269.2555373778357,67.32696671573804,500.80621694826067,-2.228440081908693,78049.39796064275,10.5,10500078049.39796,47.655,-122.3035,60.0,3.8666666666666667
2026-01-20T23:03:53+00:00,SAT-45228,268.0956501871912,67.99734523262705,498.5837510066868,-2.136837361197311,74841.08320220573,10.5,10500074841.083202,47.655,-122.3035,60.0,3.8833333333333333
2026-01-20T23:03:54+00:00,SAT-45228,266.85576284716933,68.66448114039251,496.45264221157134,-2.044047295662536,71591.18260558986,10.5,10500071591.182606,47.655,-122.3035,60.0,3.9
2026-01-20T23:03:55+00:00,SAT-45228,265.52862323146996,69.32711071046354,494.41407472462976,-1.950102201869093,68300.82803359075,10.5,10500068300.828033,47.655,-122.3035,60.0,3.9166666666666665
2026-01-20T23:03:56+00:00,SAT-45228,264.1063030345765,69.98382093976022,492.46920047764985,-1.8550372678507154,64971.25191999497,10.5,10500064971.25192,47.655,-122.3035,60.0,3.933333333333333
2026-01-20T23:03:57+00:00,SAT-45228,262.58017210744373,70.63303143215815,490.619136308719,-1.758890543027128,61603.78691643018,10.5,10500061603.786917,47.655,-122.3035,60.0,3.95
2026-01-20T23:03:58+00:00,SAT-45228,260.94089189865775,71.27297452270581,488.8649611085109,-1.6617029122256946,58199.8649824933,10.5,10500058199.864983,47.655,-122.3035,60.0,3.966666666666667
2026-01-20T23:03:59+00:00,SAT-45228,259.17843834950287,71.9016738779473,487.20771299247787,-1.5635180594372164,54761.016116325285,10.5,10500054761.016117,47.655,-122.3035,60.0,3.9833333333333334
2026-01-20T23:04:00+00:00,SAT-45228,257.28216811062913,72.5169220763533,485.64838650919256,-1.4643824351726598,51288.86721130565,10.5,10500051288.86721,47.655,-122.3035,60.0,4.0
2026-01-20T23:04:01+00:00,SAT-45228,255.24094607213613,73.11625807370721,484.1879298812438,-1.3643451667677036,47785.1389145383,10.5,10500047785.138914,47.655,-122.3035,60.0,4.016666666666667
2026-01-20T23:04:02+00:00,SAT-45228,253.04335674953816,73.69694598951094,482.8272423355885,-1.263457989910733,44251.643228672205,10.5,10500044251.643229,47.655,-122.3035,60.0,4.033333333333333
2026-01-20T23:04:03+00:00,SAT-45228,250.6780261236432,74.25595742644053,481.5671715021915,-1.1617751385513218,40690.279656030834,10.5,10500040690.279655,47.655,-122.3035,60.0,4.05
2026-01-20T23:04:04+00:00,SAT-45228,248.13408310333378,74.78996045774447,480.4085109224617,-1.0593532505933831,37103.03189558732,10.5,10500037103.031895,47.655,-122.3035,60.0,4.066666666666666
2026-01-20T23:04:05+00:00,SAT-45228,245.40178841505602,75.29531955591406,479.35199765174235,-0.9562512030697157,33491.96207007988,10.5,10500033491.96207,47.655,-122.3035,60.0,4.083333333333333
2026-01-20T23:04:06+00:00,SAT-45228,242.47335073891193,75.7681118590307,478.3983100261854,-0.8525299991143722,29859.206767306026,10.5,10500029859.206768,47.655,-122.3035,60.0,4.1
2026-01-20T23:04:07+00:00,SAT-45228,239.34393076975627,76.2041661880872,477.54806554234943,-0.7482525807592723,26206.970483468132,10.5,10500026206.970484,47.655,-122.3035,60.0,4.116666666666666
2026-01-20T23:04:08+00:00,SAT-45228,236.01280085207733,76.59913150838615,476.8018189235003,-0.6434836672528494,22537.519960408477,10.5,10500022537.51996,47.655,-122.3035,60.0,4.133333333333334
2026-01-20T23:04:09+00:00,SAT-45228,232.48457842001443,76.94858070018617,476.1600603471587,-0.5382895635979739,18853.177479797458,10.5,10500018853.17748,47.655,-122.3035,60.0,4.15
2026-01-20T23:04:10+00:00,SAT-45228,228.77039050316017,77.24815272687823,475.6232138635966,-0.43273795510728674,15156.313667592367,10.5,10500015156.313667,47.655,-122.3035,60.0,4.166666666666667
2026-01-20T23:04:11+00:00,SAT-45228,224.88876638346778,77.49373118946112,475.1916360192292,-0.3268977055615598,11449.34042468933,10.5,10500011449.340425,47.655,-122.3035,60.0,4.183333333333334
2026-01-20T23:04:12+00:00,SAT-45228,220.8660190921452,77.68164991280746,474.8656146813044,-0.2208386282159049,7734.702906592138,10.5,10500007734.702906,47.655,-122.3035,60.0,4.2
2026-01-20T23:04:13+00:00,SAT-45228,216.73589287180587,77.80890771700422,474.64536809097496,-0.11463126604370377,4014.8718266251035,10.5,10500004014.871826,47.655,-122.3035,60.0,4.216666666666667
2026-01-20T23:04:14+00:00,SAT-45228,212.53834376719365,77.87336723843211,474.53104413553643,-0.008346655177903103,292.3351706465631,10.5,10500000292.33517,47.655,-122.3035,60.0,4.233333333333333
2026-01-20T23:04:15+00:00,SAT-45228,208.31748237882346,77.87390945920885,474.52271985658916,0.097943910083009,-3430.410033435846,10.5,10499996569.589966,47.655,-122.3035,60.0,4.25
2026-01-20T23:04:16+00:00,SAT-45228,204.11890224507562,77.81051892905893,474.62040119256545,0.20416911507274782,-7150.866044348094,10.5,10499992849.133955,47.655,-122.3035,60.0,4.266666666666667
2026-01-20T23:04:17+00:00,SAT-45228,199.98677893139399,77.68428484348667,474.82402295841615,0.31025786676043204,-10866.542883425493,10.5,10499989133.457117,47.655,-122.3035,60.0,4.283333333333333
2026-01-20T23:04:18+00:00,SAT-45228,195.96118841780628,77.4973177902563,475.1334490666513,0.4161395230085208,-14574.966364195421,10.5,10499985425.033636,47.655,-122.3035,60.0,4.3
2026-01-20T23:04:19+00:00,SAT-45228,192.07603279401027,77.25259669283146,475.54847297702594,0.5217441381082053,-18273.686692065337,10.5,10499981726.313309,47.655,-122.3035,60.0,4.316666666666666
2026-01-20T23:04:20+00:00,SAT-45228,188.3578007228662,76.95377078727076,476.0688183911004,0.6270026748007547,-21960.285890207164,10.5,10499978039.71411,47.655,-122.3035,60.0,4.333333333333333
2026-01-20T23:04:21+00:00,SAT-45228,184.82519627092663,76.60494498312104,476.6941401582564,0.7318472441618843,-25632.3862013226,10.5,10499974367.613798,47.655,-122.3035,60.0,4.35
2026-01-20T23:04:22+00:00,SAT-45228,181.48950598376283,76.21047386400225,477.42402542095164,0.8362112948699124,-29287.656716614532,10.5,10499970712.343283,47.655,-122.3035,60.0,4.366666666666666
2026-01-20T23:04:23+00:00,SAT-45228,178.35548270755473,75.77478238417726,478.25799494873723,0.9400298435729512,-32923.82144422054,10.5,10499967076.178556,47.655,-122.3035,60.0,4.383333333333334
2026-01-20T23:04:24+00:00,SAT-45228,175.42250631414714,75.3022227905221,479.19550470202364,1.0432396368898655,-36538.66498317175,10.5,10499963461.335016,47.655,-122.3035,60.0,4.4
2026-01-20T23:04:25+00:00,SAT-45228,172.68581747005902,74.7969699629135,480.2359475574139,1.145779346839388,-40130.03936814705,10.5,10499959869.960632,47.655,-122.3035,60.0,4.416666666666667
2026-01-20T23:04:26+00:00,SAT-45228,170.13768001816763,74.26295214828352,481.37865522794203,1.2475897349027982,-43695.869815642196,10.5,10499956304.130184,47.655,-122.3035,60.0,4.433333333333334
2026-01-20T23:04:27+00:00,SAT-45228,167.76838911137546,73.70381129693669,482.6229003469329,1.3486137918447103,-47234.15962108512,10.5,10499952765.84038,47.655,-122.3035,60.0,4.45
2026-01-20T23:04:28+00:00,SAT-45228,165.56709167793846,73.12288629194627,483.9678986913104,1.4487968799874817,-50742.99514188765,10.5,10499949257.004858,47.655,-122.3035,60.0,4.466666666666667
2026-01-20T23:04:29+00:00,SAT-45228,163.52241940995907,72.52321266675648,485.41281154679666,1.5480868449616894,-54220.54971141982,10.5,10499945779.450289,47.655,-122.3035,60.0,4.483333333333333
2026-01-20T23:04:30+00:00,SAT-45228,161.62295372510297,71.90753337224687,486.9567481845629,1.646434121829151,-57665.087355887,10.5,10499942334.912643,47.655,-122.3035,60.0,4.5
2026-01-20T23:04:31+00:00,SAT-45228,159.85755044913896,71.27831630337042,488.5987684437193,1.743791827158369,-61074.96601920144,10.5,10499938925.033981,47.655,-122.3035,60.0,4.516666666666667
2026-01-20T23:04:32+00:00,SAT-45228,158.2155533820595,70.6377754162053,490.33788540563233,1.840115815354661,-64448.639535901675,10.5,10499935551.360464,47.655,-122.3035,60.0,4.533333333333333
2026-01-20T23:04:33+00:00,SAT-45228,156.68692348497677,69.98789322535579,492.17306812442206,1.9353647323020537,-67784.65950991857,10.5,10499932215.34049,47.655,-122.3035,60.0,4.55
2026-01-20T23:04:34+00:00,SAT-45228,155.2623062692245,69.33044320889765,494.10324441095713,2.029500072268397,-71081.67730763316,10.5,10499928918.322693,47.655,-122.3035,60.0,4.566666666666666
2026-01-20T23:04:35+00:00,SAT-45228,153.93305549178106,68.66701120674277,496.1273036736028,2.1224861751400153,-74338.44396102239,10.5,10499925661.55604,47.655,-122.3035,60.0,4.583333333333333
2026-01-20T23:04:36+00:00,SAT-45228,152.69122715000984,67.99901531721217,498.24409975621023,2.2142902471758124,-77553.8108945557,10.5,10499922446.189106,47.655,-122.3035,60.0,4.6
2026-01-20T23:04:37+00:00,SAT-45228,151.52955415903676,67.32772403865745,500.4524537968054,2.3048823549346182,-80726.72971250495,10.5,10499919273.270287,47.655,-122.3035,60.0,4.616666666666666
2026-01-20T23:04:38+00:00,SAT-45228,150.44140929205147,66.65427259815935,502.75115708022025,2.394235381919468,-83856.25068044379,10.5,10499916143.74932,47.655,-122.3035,60.0,4.633333333333334
2026-01-20T23:04:39+00:00,SAT-45228,149.42076175183,65.97967752067652,505.1389738474853,2.4823250562133223,-86941.52369316737,10.5,10499913058.476307,47.655,-122.3035,60.0,4.65
2026-01-20T23:04:40+00:00,SAT-45228,148.4621310315149,65.30484952450273,507.61464413278367,2.5691298137178267,-89981.7934847353,10.5,10499910018.206514,47.655,-122.3035,60.0,4.666666666666667
2026-01-20T23:04:41+00:00,SAT-45228,147.5605406070721,64.63060492814414,510.1768864640107,2.6546308397697147,-92976.40108605401,10.5,10499907023.598913,47.655,-122.3035,60.0,4.683333333333334
2026-01-20T23:04:42+00:00,SAT-45228,146.71147296918664,63.95767566892133,512.8244006048383,2.7388119356512926,-95924.7791495094,10.5,10499904075.22085,47.655,-122.3035,60.0,4.7
2026-01-20T23:04:43+00:00,SAT-45228,145.91082703250711,63.28671813205564,515.5558701636462,2.821659478830567,-98826.45055640777,10.5,10499901173.549444,47.655,-122.3035,60.0,4.716666666666667
2026-01-20T23:04:44+00:00,SAT-45228,145.15487841352768,62.618320907118125,518.3699651628029,2.903162325275749,-101681.02499561668,10.5,10499898318.975004,47.655,-122.3035,60.0,4.733333333333333
2026-01-20T23:04:45+00:00,SAT-45228,144.44024283510126,61.95301161839133,521.2653445105211,2.98331174551886,-104488.1967242419,10.5,10499895511.803276,47.655,-122.3035,60.0,4.75
2026-01-20T23:04:46+00:00,SAT-45228,143.76384269017265,61.29126293931386,524.2406584089472,3.0621013074779735,-107247.7404635667,10.5,10499892752.259537,47.655,-122.3035,60.0,4.766666666666667
2026-01-20T23:04:47+00:00,SAT-45228,143.1228766962162,60.633497908578335,527.2945506453899,3.1395268005316628,-109959.5087398178,10.5,10499890040.49126,47.655,-122.3035,60.0,4.783333333333333
2026-01-20T23:04:48+00:00,SAT-45228,142.51479247282413,59.98009463051567,530.425660807824,3.2155861217655026,-112623.4279000367,10.5,10499887376.5721,47.655,-122.3035,60.0,4.8
2026-01-20T23:04:49+00:00,SAT-45228,141.93726185138456,59.33139044871175,533.6326263869477,3.2902791623482948,-115239.49413249448,10.5,10499884760.505867,47.655,-122.3035,60.0,4.816666666666666
2026-01-20T23:04:50+00:00,SAT-45228,141.38815869845806,58.687685661933855,536.9140847649204,3.363607756297355,-117807.77167223542,10.5,10499882192.228329,47.655,-122.3035,60.0,4.833333333333333
2026-01-20T23:04:51+00:00,SAT-45228,140.86553901830413,58.04924683050698,540.268675153001,3.435575488320808,-120328.38607090137,10.5,10499879671.61393,47.655,-122.3035,60.0,4.85
2026-01-20T23:04:52+00:00,SAT-45228,140.36762314374528,57.41630975266687,543.695040337547,3.5061876707727446,-122801.52338960381,10.5,10499877198.47661,47.655,-122.3035,60.0,4.866666666666666
2026-01-20T23:04:53+00:00,SAT-45228,139.8927797782711,56.7890821223306,547.1918284030284,3.5754511727115315,-125227.42421182283,10.5,10499874772.575788,47.655,-122.3035,60.0,4.883333333333334
2026-01-20T23:04:54+00:00,SAT-45228,139.4395117228864,56.167745935083495,550.7576942845579,3.6433743782022203,-127606.3821829811,10.5,10499872393.617817,47.655,-122.3035,60.0,4.9
2026-01-20T23:04:55+00:00,SAT-45228,139.0064430914119,55.552459651427775,554.391301278838,3.7099669990582798,-129938.73745186724,10.5,10499870061.262548,47.655,-122.3035,60.0,4.916666666666667
2026-01-20T23:04:56+00:00,SAT-45228,138.59230787410522,54.94336017140149,558.0913223683473,3.775240075713946,-132224.87670118915,10.5,10499867775.123299,47.655,-122.3035,60.0,4.933333333333334
2026-01-20T23:04:57+00:00,SAT-45228,138.1959396800044,54.34056461257055,561.8564415464014,3.839205776366629,-134465.2261126916,10.5,10499865534.773888,47.655,-122.3035,60.0,4.95
2026-01-20T23:04:58+00:00,SAT-45228,137.81626255392544,53.74417194662724,565.6853549418919,3.901877376931448,-136660.2506650791,10.5,10499863339.749334,47.655,-122.3035,60.0,4.966666666666667
2026-01-20T23:04:59+00:00,SAT-45228,137.45228272973205,53.15426448270354,569.5767719240348,3.9632691101208066,-138810.44884814435,10.5,10499861189.551151,47.655,-122.3035,60.0,4.983333333333333
2026-01-20T23:05:00+00:00,SAT-45228,137.10308123165788,52.57090923446148,573.5294160566026,4.023396122513406,-140916.35115914344,10.5,10499859083.64884,47.655,-122.3035,60.0,5.0
2026-01-20T23:05:01+00:00,SAT-45228,136.7678072201112,51.99415916777146,577.5420260093402,4.0822743477168935,-142978.51566041526,10.5,10499857021.484339,47.655,-122.3035,60.0,5.016666666666667
2026-01-20T23:05:02+00:00,SAT-45228,136.44567200892283,51.424054353791384,581.6133563428848,4.139920459081757,-144997.52632322203,10.5,10499855002.473677,47.655,-122.3035,60.0,5.033333333333333
2026-01-20T23:05:03+00:00,SAT-45228,136.13594367402575,50.86062302615724,585.7421782465248,4.196351727532244,-146973.988048387,10.5,10499853026.011951,47.655,-122.3035,60.0,5.05
2026-01-20T23:05:04+00:00,SAT-45228,135.83794219757303,50.303882564813556,589.927280134172,4.2515860449779534,-148908.5274862669,10.5,10499851091.472513,47.655,-122.3035,60.0,5.066666666666666
2026-01-20T23:05:05+00:00,SAT-45228,135.55103507723553,49.75384039191732,594.167468263682,4.305641744393107,-150801.78673516738,10.5,10499849198.213264,47.655,-122.3035,60.0,5.083333333333333
2026-01-20T23:05:06+00:00,SAT-45228,135.2746333665546,49.21049481461235,598.4615671767372,4.358537599542368,-152654.42333173993,10.5,10499847345.576668,47.655,-122.3035,60.0,5.1
2026-01-20T23:05:07+00:00,SAT-45228,135.00818808769236,48.67383579673931,602.8084201384536,4.410292728950936,-154467.10688760833,10.5,10499845532.893112,47.655,-122.3035,60.0,5.116666666666666
2026-01-20T23:05:08+00:00,SAT-45228,134.75118698426377,48.143845678021066,607.2068894812185,4.460926574126437,-156240.5183266071,10.5,10499843759.481674,47.655,-122.3035,60.0,5.133333333333334
2026-01-20T23:05:09+00:00,SAT-45228,134.50315157448603,47.62049983651552,611.6558569268076,4.510458761156712,-157975.34503735072,10.5,10499842024.654963,47.655,-122.3035,60.0,5.15
2026-01-20T23:05:10+00:00,SAT-45228,134.26363448057407,47.103767312838954,616.1542237704688,4.558909154130314,-159672.28274424534,10.5,10499840327.717257,47.655,-122.3035,60.0,5.166666666666667
2026-01-20T23:05:11+00:00,SAT-45228,134.03221699509166,46.59361137752369,620.7009111182864,4.60629769635125,-161332.02994615736,10.5,10499838667.970055,47.655,-122.3035,60.0,5.183333333333334
2026-01-20T23:05:12+00:00,SAT-45228,133.80850687253078,46.08999007013191,625.2948599661829,4.65264448121569,-162955.29039881565,10.5,10499837044.7096,47.655,-122.3035,60.0,5.2
2026-01-20T23:05:13+00:00,SAT-45228,133.59213631109623,45.59285668728052,629.9350313496093,4.6979695630102585,-164542.76648816734,10.5,10499835457.233511,47.655,-122.3035,60.0,5.216666666666667
2026-01-20T23:05:14+00:00,SAT-45228,133.3827601194436,45.10216025154352,634.620406304541,4.742293074431509,-166095.16334640695,10.5,10499833904.836653,47.655,-122.3035,60.0,5.233333333333333
2026-01-20T23:05:15+00:00,SAT-45228,133.18005403505143,44.61784593062806,639.3499859456763,4.785635042171891,-167613.18239301688,10.5,10499832386.817608,47.655,-122.3035,60.0,5.25
2026-01-20T23:05:16+00:00,SAT-45228,132.98371319400087,44.13985544178916,644.1227913607177,4.828015494710251,-169097.52511004673,10.5,10499830902.47489,47.655,-122.3035,60.0,5.266666666666667
2026-01-20T23:05:17+00:00,SAT-45228,132.7934507242406,43.66812741328546,648.9378636121528,4.869454303791855,-170548.88749007313,10.5,10499829451.11251,47.655,-122.3035,60.0,5.283333333333333
2026-01-20T23:05:18+00:00,SAT-45228,132.6089964626275,43.202597732403156,653.794263580941,4.909971231171649,-171967.9616733464,10.5,10499828032.038326,47.655,-122.3035,60.0,5.3
2026-01-20T23:05:19+00:00,SAT-45228,132.43009577513322,42.74319986117922,658.691071856818,4.94958588847074,-173355.43454179482,10.5,10499826644.565458,47.655,-122.3035,60.0,5.316666666666666
2026-01-20T23:05:20+00:00,SAT-45228,132.25650847429762,42.28986513065807,663.6273885885644,4.9883177032775095,-174711.98653174206,10.5,10499825288.013468,47.655,-122.3035,60.0,5.333333333333333
2026-01-20T23:05:21+00:00,SAT-45228,132.08800782514456,41.842523014645884,668.6023333004673,5.0261859262150335,-176038.29188143837,10.5,10499823961.708118,47.655,-122.3035,60.0,5.35
2026-01-20T23:05:22+00:00,SAT-45228,131.9243796293664,41.40110138087621,673.6150447158279,5.063209511723661,-177335.01445556193,10.5,10499822664.985544,47.655,-122.3035,60.0,5.366666666666666
2026-01-20T23:05:23+00:00,SAT-45228,131.76542138603045,40.965526732176535,678.6646804615735,5.099407294241998,-178602.8139158223,10.5,10499821397.186085,47.655,-122.3035,60.0,5.383333333333334
2026-01-20T23:05:24+00:00,SAT-45228,131.61094151084825,40.53572441316805,683.7504169485778,5.134797755275942,-179842.33756273278,10.5,10499820157.662437,47.655,-122.3035,60.0,5.4
2026-01-20T23:05:25+00:00,SAT-45228,131.46075862376816,40.11161881957159,688.871449019674,5.169399185949723,-181054.2260288352,10.5,10499818945.773972,47.655,-122.3035,60.0,5.416666666666667
2026-01-20T23:05:26+00:00,SAT-45228,131.31470088501138,39.69313357705016,694.0269897597832,5.2032295465905,-182239.10836075887,10.5,10499817760.89164,47.655,-122.3035,60.0,5.433333333333334
2026-01-20T23:05:27+00:00,SAT-45228,131.17260538566555,39.28019171656069,699.2162701660052,5.236306569567523,-183397.60562108268,10.5,10499816602.394379,47.655,-122.3035,60.0,5.45
2026-01-20T23:05:28+00:00,SAT-45228,131.0343175803637,38.87271582707338,704.43853892027,5.268647632768021,-184530.3264569258,10.5,10499815469.673544,47.655,-122.3035,60.0,5.466666666666667
2026-01-20T23:05:29+00:00,SAT-45228,130.89969076561323,38.47062820520988,709.6930620358079,5.3002698539135205,-185637.87040330403,10.5,10499814362.129597,47.655,-122.3035,60.0,5.483333333333333
2026-01-20T23:05:30+00:00,SAT-45228,130.76858559322315,38.07385098510191,714.9791225976802,5.331190058535901,-186720.82676151567,10.5,10499813279.173239,47.655,-122.3035,60.0,5.5
2026-01-20T23:05:31+00:00,SAT-45228,130.64086961993132,37.68230625957618,720.2960204713734,5.361424708385236,-187779.77209168143,10.5,10499812220.22791,47.655,-122.3035,60.0,5.516666666666667
2026-01-20T23:05:32+00:00,SAT-45228,130.51641689103633,37.295916196004335,725.6430719399922,5.390990000873921,-188815.2736956984,10.5,10499811184.726305,47.655,-122.3035,60.0,5.533333333333333
2026-01-20T23:05:33+00:00,SAT-45228,130.39510755079598,36.91460313497052,731.0196094406303,5.419901789924997,-189827.8868450135,10.5,10499810172.113155,47.655,-122.3035,60.0,5.55
2026-01-20T23:05:34+00:00,SAT-45228,130.27682748222756,36.53828968570668,736.4249812218031,5.4481756294461645,-190818.1563032674,10.5,10499809181.843697,47.655,-122.3035,60.0,5.566666666666666
2026-01-20T23:05:35+00:00,SAT-45228,130.16146797075874,36.16689880997052,741.8585510442348,5.475826742072869,-191786.61523154503,10.5,10499808213.384768,47.655,-122.3035,60.0,5.583333333333333
2026-01-20T23:05:36+00:00,SAT-45228,130.04892539162392,35.800353900344156,747.3196978504765,5.502870039585517,-192733.785903473,10.5,10499807266.214096,47.655,-122.3035,60.0,5.6
2026-01-20T23:05:37+00:00,SAT-45228,129.9391009182249,35.43857884990022,752.8078154548818,5.529320088496777,-193660.17849994134,10.5,10499806339.8215,47.655,-122.3035,60.0,5.616666666666666
2026-01-20T23:05:38+00:00,SAT-45228,129.83190025072386,35.08149811745445,758.3223121992676,5.555191198808224,-194566.2942177363,10.5,10499805433.705782,47.655,-122.3035,60.0,5.633333333333334
2026-01-20T23:05:39+00:00,SAT-45228,129.7272333608392,34.72903678089579,763.862610697088,5.580497309865446,-195452.62127170383,10.5,10499804547.378729,47.655,-122.3035,60.0,5.65
2026-01-20T23:05:40+00:00,SAT-45228,129.62501425601283,34.38112059227261,769.4281474637744,5.605252051648586,-196319.63704140333,10.5,10499803680.362959,47.655,-122.3035,60.0,5.666666666666667
2026-01-20T23:05:41+00:00,SAT-45228,129.5251607577345,34.03767602353545,775.0183726081973,5.629468783283593,-197167.8094199345,10.5,10499802832.19058,47.655,-122.3035,60.0,5.683333333333334
2026-01-20T23:05:42+00:00,SAT-45228,129.42759429327072,33.698630305163626,780.6327495625397,5.6531605177822275,-197997.5941780143,10.5,10499802002.405823,47.655,-122.3035,60.0,5.7
2026-01-20T23:05:43+00:00,SAT-45228,129.3322397025868,33.36391146498579,786.27075473711,5.676340004314599,-198809.43784550877,10.5,10499801190.562155,47.655,-122.3035,60.0,5.716666666666667
2026-01-20T23:05:44+00:00,SAT-45228,129.2390250556542,33.03344835790365,791.9318772572078,5.699019614364627,-199603.7737241161,10.5,10499800396.226276,47.655,-122.3035,60.0,5.733333333333333
2026-01-20T23:05:45+00:00,SAT-45228,129.1478814837504,32.707170698531506,797.615618586451,5.721211540659961,-200381.02885473386,10.5,10499799618.971146,47.655,-122.3035,60.0,5.75
2026-01-20T23:05:46+00:00,SAT-45228,129.05874301726982,32.38500907881293,803.3214923484978,5.742927572900576,-201141.6161625255,10.5,10499798858.383837,47.655,-122.3035,60.0,5.766666666666667
2026-01-20T23:05:47+00:00,SAT-45228,128.97154643804322,32.06689499543025,809.0490239250995,5.7641793015326614,-201885.94159394412,10.5,10499798114.058407,47.655,-122.3035,60.0,5.783333333333333
2026-01-20T23:05:48+00:00,SAT-45228,128.88623113683803,31.75276086266934,814.7977502573813,5.784977957765736,-202614.398513455,10.5,10499797385.601486,47.655,-122.3035,60.0,5.8
2026-01-20T23:05:49+00:00,SAT-45228,128.80273898243945,31.442540031590386,820.5672194875694,5.8053345687243985,-203327.37313760634,10.5,10499796672.626862,47.655,-122.3035,60.0,5.816666666666666
2026-01-20T23:05:50+00:00,SAT-45228,128.72101419594404,31.136166798244467,826.356990755451,5.825259825457421,-204025.2399121492,10.5,10499795974.760088,47.655,-122.3035,60.0,5.833333333333333
2026-01-20T23:05:51+00:00,SAT-45228,128.6410032348815,30.833576416834745,832.1666338632025,5.8447642170255705,-204708.36620836036,10.5,10499795291.633791,47.655,-122.3035,60.0,5.85
2026-01-20T23:05:52+00:00,SAT-45228,128.5626546818678,30.53470510373724,837.9957290739395,5.86385789555541,-205377.1075966554,10.5,10499794622.892403,47.655,-122.3035,60.0,5.866666666666666
2026-01-20T23:05:53+00:00,SAT-45228,128.48591914218588,30.239490046739334,843.8438667756894,5.882550826610721,-206031.8131132324,10.5,10499793968.186886,47.655,-122.3035,60.0,5.883333333333334
