DopplerPredictor/satellites_20260205_234138/SAT-64419.csv

timestamp,satellite,azimuth_deg,elevation_deg,distance_km,relative_velocity_kms,doppler_shift_hz,tx_freq_ghz,rx_freq_hz,ue_lat,ue_lon,ue_alt_m,time_minutes
2026-01-20T23:06:09+00:00,SAT-64419,356.3816221035414,30.20485279596272,1034.5299210273974,-5.073037104280137,177679.218317565,10.5,10500177679.218317,47.655,-122.3035,60.0,6.15
2026-01-20T23:06:10+00:00,SAT-64419,356.62356937724013,30.420811251435854,1029.4704840355148,-5.0496083768295374,176858.64517882615,10.5,10500176858.64518,47.655,-122.3035,60.0,6.166666666666667
2026-01-20T23:06:11+00:00,SAT-64419,356.86893887033955,30.638109739304156,1024.4344129618976,-5.025825981005155,176025.6850776217,10.5,10500176025.685078,47.655,-122.3035,60.0,6.183333333333334
2026-01-20T23:06:12+00:00,SAT-64419,357.11779655691646,30.856746303514683,1019.4220605267832,-5.001684672441844,175180.15433410055,10.5,10500175180.154335,47.655,-122.3035,60.0,6.2
2026-01-20T23:06:13+00:00,SAT-64419,357.37020983294667,31.076718254452658,1014.4337846807159,-4.977179105687761,174321.865727928,10.5,10500174321.865728,47.655,-122.3035,60.0,6.216666666666667
2026-01-20T23:06:14+00:00,SAT-64419,357.6262475393889,31.29802212999272,1009.4699487053596,-4.952303907924199,173450.63108026583,10.5,10500173450.63108,47.655,-122.3035,60.0,6.233333333333333
2026-01-20T23:06:15+00:00,SAT-64419,357.88597998874576,31.520653658298087,1004.5309212407946,-4.927053647565469,172566.26015400767,10.5,10500172566.260155,47.655,-122.3035,60.0,6.25
2026-01-20T23:06:16+00:00,SAT-64419,358.14947898962384,31.74460771777688,999.6170763441247,-4.901422910518172,171668.56332470113,10.5,10500171668.563324,47.655,-122.3035,60.0,6.266666666666667
2026-01-20T23:06:17+00:00,SAT-64419,358.4168178751999,31.969878299010436,994.7287934720338,-4.875406162425436,170757.3467557582,10.5,10500170757.346756,47.655,-122.3035,60.0,6.283333333333333
2026-01-20T23:06:18+00:00,SAT-64419,358.688071523192,32.19645845888611,989.8664576007235,-4.8489978993540745,169832.41767615709,10.5,10500169832.417677,47.655,-122.3035,60.0,6.3
2026-01-20T23:06:19+00:00,SAT-64419,358.9633163838719,32.42434028002493,985.0304591955758,-4.822192543834424,168893.58073931752,10.5,10500168893.58074,47.655,-122.3035,60.0,6.316666666666666
2026-01-20T23:06:20+00:00,SAT-64419,359.2426305012915,32.65351482383695,980.2211942844889,-4.794984517005316,167940.64054992277,10.5,10500167940.64055,47.655,-122.3035,60.0,6.333333333333333
2026-01-20T23:06:21+00:00,SAT-64419,359.5260935377489,32.88397208529326,975.439064459266,-4.7673682010078435,166973.40034679044,10.5,10500166973.400347,47.655,-122.3035,60.0,6.35
2026-01-20T23:06:22+00:00,SAT-64419,359.81378679518207,33.115700944276945,970.6844769145081,-4.7393379426254905,165991.66213036503,10.5,10500165991.66213,47.655,-122.3035,60.0,6.366666666666666
2026-01-20T23:06:23+00:00,SAT-64419,0.10579323525788938,33.348689115370064,965.9578444828782,-4.710888092569517,164995.22803865842,10.5,10500164995.228039,47.655,-122.3035,60.0,6.383333333333334
2026-01-20T23:06:24+00:00,SAT-64419,0.40219750088658257,33.58292309782893,961.2595856311824,-4.682012973172698,163983.89921574786,10.5,10500163983.899216,47.655,-122.3035,60.0,6.4
2026-01-20T23:06:25+00:00,SAT-64419,0.7030859338539144,33.81838812224721,956.5901244886728,-4.65270688277399,162957.47596534566,10.5,10500162957.475965,47.655,-122.3035,60.0,6.416666666666667
2026-01-20T23:06:26+00:00,SAT-64419,1.0085465912396,34.05506809562137,951.9498908709782,-4.622964138778728,161915.7592589492,10.5,10500161915.759258,47.655,-122.3035,60.0,6.433333333333334
2026-01-20T23:06:27+00:00,SAT-64419,1.3186692625561336,34.29294554679388,947.3393202610862,-4.5927790237348445,160858.5488472024,10.5,10500160858.548847,47.655,-122.3035,60.0,6.45
2026-01-20T23:06:28+00:00,SAT-64419,1.633545481269536,34.53200156735546,942.7588538441104,-4.562145851822508,159785.64558864365,10.5,10500159785.645588,47.655,-122.3035,60.0,6.466666666666667
2026-01-20T23:06:29+00:00,SAT-64419,1.9532685383161759,34.772215754120346,938.2089384757405,-4.531058919846108,158696.84973323825,10.5,10500158696.849733,47.655,-122.3035,60.0,6.483333333333333
2026-01-20T23:06:30+00:00,SAT-64419,2.2779334897756143,35.013566147246884,933.6900266995724,-4.49951253948969,157591.9620520999,10.5,10500157591.962051,47.655,-122.3035,60.0,6.5
2026-01-20T23:06:31+00:00,SAT-64419,2.6076371635517983,35.256029168178436,929.2025767322688,-4.467501035187904,156470.7837629224,10.5,10500156470.783762,47.655,-122.3035,60.0,6.516666666666667
2026-01-20T23:06:32+00:00,SAT-64419,2.9424781629066983,35.49957955563961,924.7470524508407,-4.435018786746697,155333.11802273663,10.5,10500155333.118023,47.655,-122.3035,60.0,6.533333333333333
2026-01-20T23:06:33+00:00,SAT-64419,3.282556869748808,35.74419030214969,920.3239233374287,-4.402060168138422,154178.7677842564,10.5,10500154178.767784,47.655,-122.3035,60.0,6.55
2026-01-20T23:06:34+00:00,SAT-64419,3.627975439281257,35.98983258541107,915.9336644851167,-4.368619569771639,153007.53657586078,10.5,10500153007.536575,47.655,-122.3035,60.0,6.566666666666666
2026-01-20T23:06:35+00:00,SAT-64419,3.978837791744332,36.23647569904407,911.5767565815422,-4.334691470519834,151819.23102434503,10.5,10500151819.231024,47.655,-122.3035,60.0,6.583333333333333
2026-01-20T23:06:36+00:00,SAT-64419,4.335249605857676,36.484086985619925,907.2536858206673,-4.3002703890025815,150613.6591485804,10.5,10500150613.65915,47.655,-122.3035,60.0,6.6
2026-01-20T23:06:37+00:00,SAT-64419,4.697318303020538,36.732631765332705,902.9649438631404,-4.265350837971422,149390.6287619148,10.5,10500149390.628761,47.655,-122.3035,60.0,6.616666666666666
2026-01-20T23:06:38+00:00,SAT-64419,5.065153021876717,36.98207326029244,898.7110278421475,-4.229927488912341,148149.9532372478,10.5,10500148149.953238,47.655,-122.3035,60.0,6.633333333333334
2026-01-20T23:06:39+00:00,SAT-64419,5.4388646015850926,37.232372526750744,894.4924402051028,-4.193995001447817,146891.4455319689,10.5,10500146891.445532,47.655,-122.3035,60.0,6.65
2026-01-20T23:06:40+00:00,SAT-64419,5.818565543281609,37.483488375922086,890.3096887254825,-4.157548162789795,145614.92307219034,10.5,10500145614.923073,47.655,-122.3035,60.0,6.666666666666667
2026-01-20T23:06:41+00:00,SAT-64419,6.2043699772464285,37.735377301512315,886.1632863755757,-4.120581818668549,144320.20533358367,10.5,10500144320.205334,47.655,-122.3035,60.0,6.683333333333334
2026-01-20T23:06:42+00:00,SAT-64419,6.596393616065013,37.98799340184848,882.0537512681224,-4.083090920454945,143007.11549180106,10.5,10500143007.115492,47.655,-122.3035,60.0,6.7
2026-01-20T23:06:43+00:00,SAT-64419,6.994753704257758,38.24128830359833,877.9816065509586,-4.045070533807424,141675.48072532882,10.5,10500141675.480726,47.655,-122.3035,60.0,6.716666666666667
2026-01-20T23:06:44+00:00,SAT-64419,7.3995689599758485,38.4952110849768,873.9473802930328,-4.006515814290533,140325.13136154547,10.5,10500140325.131361,47.655,-122.3035,60.0,6.733333333333333
2026-01-20T23:06:45+00:00,SAT-64419,7.810959504721334,38.749708196490644,869.951605394741,-3.967422073741067,138955.9032011446,10.5,10500138955.903202,47.655,-122.3035,60.0,6.75
2026-01-20T23:06:46+00:00,SAT-64419,8.229046790248397,39.004723385077334,865.9948194320755,-3.9277847045167595,137567.63486500375,10.5,10500137567.634865,47.655,-122.3035,60.0,6.766666666666667
2026-01-20T23:06:47+00:00,SAT-64419,8.653953505912511,39.26019761284363,862.0775645763171,-3.8875993076613082,136160.17228306568,10.5,10500136160.172283,47.655,-122.3035,60.0,6.783333333333333
2026-01-20T23:06:48+00:00,SAT-64419,9.085803489248809,39.516068983649326,858.2003873859109,-3.846861592118423,134733.36516438794,10.5,10500134733.365164,47.655,-122.3035,60.0,6.8
2026-01-20T23:06:49+00:00,SAT-64419,9.524721612551218,39.77227266308127,854.363838698854,-3.805567435147466,133287.06911315426,10.5,10500133287.069113,47.655,-122.3035,60.0,6.816666666666666
2026-01-20T23:06:50+00:00,SAT-64419,9.970833663219482,40.02874080239894,850.568473464832,-3.7637129180487654,131821.14687992597,10.5,10500131821.14688,47.655,-122.3035,60.0,6.833333333333333
2026-01-20T23:06:51+00:00,SAT-64419,10.424266214644437,40.28540246531003,846.8148505417241,-3.7212942834891556,130335.46686700215,10.5,10500130335.466867,47.655,-122.3035,60.0,6.85
2026-01-20T23:06:52+00:00,SAT-64419,10.885146477150276,40.54218355259029,843.1035325346703,-3.6783079641209806,128829.90413077803,10.5,10500128829.90413,47.655,-122.3035,60.0,6.866666666666666
2026-01-20T23:06:53+00:00,SAT-64419,11.353602136389386,40.79900672959406,839.4350856065945,-3.6347506396295097,127304.34237978679,10.5,10500127304.34238,47.655,-122.3035,60.0,6.883333333333334
2026-01-20T23:06:54+00:00,SAT-64419,11.829761183013034,41.055791359128435,835.8100792318345,-3.5906191755547097,125758.67183197936,10.5,10500125758.671831,47.655,-122.3035,60.0,6.9
2026-01-20T23:06:55+00:00,SAT-64419,12.313751716603306,41.312453431861215,832.229086010784,-3.545910705064571,124192.79207877202,10.5,10500124192.792078,47.655,-122.3035,60.0,6.916666666666667
2026-01-20T23:06:56+00:00,SAT-64419,12.80570174243825,41.56890550466003,828.692681402984,-3.5006225616346605,122606.6097271998,10.5,10500122606.609728,47.655,-122.3035,60.0,6.933333333333334
2026-01-20T23:06:57+00:00,SAT-64419,13.30573893913275,41.82505663676418,825.2014435273511,-3.4547523940328504,121000.04242716783,10.5,10500121000.042427,47.655,-122.3035,60.0,6.95
2026-01-20T23:06:58+00:00,SAT-64419,13.81399042308282,42.08081233737484,821.7559528477309,-3.408298088595232,119373.01614922527,10.5,10500119373.01615,47.655,-122.3035,60.0,6.966666666666667
2026-01-20T23:06:59+00:00,SAT-64419,14.330582480123633,42.336074511299636,818.356791935966,-3.3612578313735155,117725.46736123,10.5,10500117725.467361,47.655,-122.3035,60.0,6.983333333333333
2026-01-20T23:07:00+00:00,SAT-64419,14.855640284652996,42.590741413318334,815.0045451729846,-3.3136300875535305,116057.3423074975,10.5,10500116057.342308,47.655,-122.3035,60.0,7.0
2026-01-20T23:07:01+00:00,SAT-64419,15.389287592438949,42.84470760578861,811.699798470415,-3.26541365890159,114368.59902081557,10.5,10500114368.59902,47.655,-122.3035,60.0,7.016666666666667
2026-01-20T23:07:02+00:00,SAT-64419,15.931646419091935,43.097863926008365,808.4431389349057,-3.2166076604458445,112659.2065057266,10.5,10500112659.206505,47.655,-122.3035,60.0,7.033333333333333
2026-01-20T23:07:03+00:00,SAT-64419,16.482836690445463,43.350097457886086,805.2351545557058,-3.167211537233304,110929.14532542942,10.5,10500110929.145325,47.655,-122.3035,60.0,7.05
2026-01-20T23:07:04+00:00,SAT-64419,17.04297587026852,43.601291511608224,802.0764338755287,-3.1172251032223723,109178.40896396035,10.5,10500109178.408964,47.655,-122.3035,60.0,7.066666666666666
2026-01-20T23:07:05+00:00,SAT-64419,17.612178569471656,43.85132561382533,798.9675656226311,-3.0666485179365,107407.00300850548,10.5,10500107407.003008,47.655,-122.3035,60.0,7.083333333333333
2026-01-20T23:07:06+00:00,SAT-64419,18.1905561244815,44.10007550420823,795.9091383661737,-3.0154823253230525,105614.94651040237,10.5,10500105614.94651,47.655,-122.3035,60.0,7.1
2026-01-20T23:07:07+00:00,SAT-64419,18.778216156305355,44.34741314406713,792.9017401328283,-2.963727465716035,103802.27240412554,10.5,10500103802.272404,47.655,-122.3035,60.0,7.116666666666666
2026-01-20T23:07:08+00:00,SAT-64419,19.37526210520993,44.59320673576229,789.9459580114535,-2.911385261759684,101969.02701427093,10.5,10500101969.027014,47.655,-122.3035,60.0,7.133333333333334
2026-01-20T23:07:09+00:00,SAT-64419,19.981792735199484,44.837320751550166,787.0423777718092,-2.8584574810779277,100115.27225050553,10.5,10500100115.272251,47.655,-122.3035,60.0,7.15
2026-01-20T23:07:10+00:00,SAT-64419,20.597901625061372,45.07961597908775,784.1915834207708,-2.804946276924869,98241.08352889627,10.5,10500098241.083529,47.655,-122.3035,60.0,7.166666666666667
2026-01-20T23:07:11+00:00,SAT-64419,21.223676619536757,45.31994957427868,781.3941568177319,-2.750854273195592,96346.55274934806,10.5,10500096346.55275,47.655,-122.3035,60.0,7.183333333333334
2026-01-20T23:07:12+00:00,SAT-64419,21.859199273348185,45.55817513444477,778.6506772052247,-2.6961845260638277,94431.7869519926,10.5,10500094431.786951,47.655,-122.3035,60.0,7.2
2026-01-20T23:07:13+00:00,SAT-64419,22.504544261363307,45.79414278232906,775.9617207778019,-2.6409405621473576,92496.90965390214,10.5,10500092496.909655,47.655,-122.3035,60.0,7.216666666666667
2026-01-20T23:07:14+00:00,SAT-64419,23.159778773616722,46.027699268283136,773.3278602128519,-2.585126367076366,90542.06044870496,10.5,10500090542.06045,47.655,-122.3035,60.0,7.233333333333333
2026-01-20T23:07:15+00:00,SAT-64419,23.824961884257355,46.25868808722608,770.7496642128184,-2.528746406143556,88567.39572983967,10.5,10500088567.39573,47.655,-122.3035,60.0,7.25
2026-01-20T23:07:16+00:00,SAT-64419,24.500143904777847,46.48694961398661,768.2276970268226,-2.471805643522227,86573.08936365365,10.5,10500086573.089363,47.655,-122.3035,60.0,7.266666666666667
2026-01-20T23:07:17+00:00,SAT-64419,25.185365723458172,46.71232125778091,765.7625179531216,-2.4143095322436703,84559.33233836903,10.5,10500084559.332338,47.655,-122.3035,60.0,7.283333333333333
2026-01-20T23:07:18+00:00,SAT-64419,25.88065812524915,46.9346376339421,763.354680851559,-2.3562640338600658,82526.33345276047,10.5,10500082526.333452,47.655,-122.3035,60.0,7.3
2026-01-20T23:07:19+00:00,SAT-64419,26.586041103784563,47.15373075628201,761.0047336364094,-2.2976756143448,80474.31917256702,10.5,10500080474.319172,47.655,-122.3035,60.0,7.316666666666666
2026-01-20T23:07:20+00:00,SAT-64419,27.301523161228193,47.36943024855817,758.7132177733074,-2.238551270444676,78403.53455345797,10.5,10500078403.534554,47.655,-122.3035,60.0,7.333333333333333
2026-01-20T23:07:21+00:00,SAT-64419,28.027100610266775,47.58156357844552,756.4806677498984,-2.1788985113005324,76314.24259730907,10.5,10500076314.242598,47.655,-122.3035,60.0,7.35
2026-01-20T23:07:22+00:00,SAT-64419,28.762756867065093,47.78995631031092,754.3076105648191,-2.1187253734140534,74206.72477640369,10.5,10500074206.724777,47.655,-122.3035,60.0,7.366666666666666
2026-01-20T23:07:23+00:00,SAT-64419,29.508461751826427,47.99443238024986,752.194565201747,-2.058040431965703,72081.28142983463,10.5,10500072081.28143,47.655,-122.3035,60.0,7.383333333333334
2026-01-20T23:07:24+00:00,SAT-64419,30.26417080005381,48.194814393317365,750.1420420921697,-1.9968527925552577,69938.23147422276,10.5,10500069938.231474,47.655,-122.3035,60.0,7.4
2026-01-20T23:07:25+00:00,SAT-64419,31.029824584868116,48.390923941198444,748.1505425863855,-1.935172094410077,67777.91251608408,10.5,10500067777.912516,47.655,-122.3035,60.0,7.416666666666667
2026-01-20T23:07:26+00:00,SAT-64419,31.805348058238508,48.58258194132303,746.2205584213069,-1.873008507840317,65600.6807627006,10.5,10500065600.680763,47.655,-122.3035,60.0,7.433333333333334
2026-01-20T23:07:27+00:00,SAT-64419,32.5906499174014,48.76960899665208,744.352571190801,-1.8103727424602742,63406.91131006664,10.5,10500063406.91131,47.655,-122.3035,60.0,7.45
2026-01-20T23:07:28+00:00,SAT-64419,33.38562200601926,48.951825776811205,742.5470518078318,-1.747276038441798,61196.99783654624,10.5,10500061196.997837,47.655,-122.3035,60.0,7.466666666666667
2026-01-20T23:07:29+00:00,SAT-64419,34.19013875235256,49.129053418293466,740.8044599753251,-1.6837301608721593,58971.35240526188,10.5,10500058971.352406,47.655,-122.3035,60.0,7.483333333333333
2026-01-20T23:07:30+00:00,SAT-64419,35.00405665026552,49.30111394322258,739.1252436626595,-1.6197473995702043,56730.40545765546,10.5,10500056730.405458,47.655,-122.3035,60.0,7.5
2026-01-20T23:07:31+00:00,SAT-64419,35.82721379585219,49.46783069619548,737.5098385823422,-1.5553405710423651,54474.60588199599,10.5,10500054474.605883,47.655,-122.3035,60.0,7.516666666666667
2026-01-20T23:07:32+00:00,SAT-64419,36.65942948780634,49.62902879822919,735.9586676647339,-1.4905229855134259,52204.419858657595,10.5,10500052204.419859,47.655,-122.3035,60.0,7.533333333333333
2026-01-20T23:07:33+00:00,SAT-64419,37.50050388061831,49.78453561270139,734.4721405656525,-1.4253084705772923,49920.33168846952,10.5,10500049920.331688,47.655,-122.3035,60.0,7.55
2026-01-20T23:07:34+00:00,SAT-64419,38.350217729255874,49.934181227429555,733.0506531503925,-1.3597113338986158,47622.842486369234,10.5,10500047622.842485,47.655,-122.3035,60.0,7.566666666666666
2026-01-20T23:07:35+00:00,SAT-64419,39.208332199139456,50.07779894464264,731.6945870149398,-1.293746377176514,45312.47067047096,10.5,10500045312.47067,47.655,-122.3035,60.0,7.583333333333333
2026-01-20T23:07:36+00:00,SAT-64419,40.07458877943808,50.215225782011736,730.4043089932633,-1.2274288579381316,42989.75062391457,10.5,10500042989.750624,47.655,-122.3035,60.0,7.6
2026-01-20T23:07:37+00:00,SAT-64419,40.94870927229646,50.346302976875,729.1801707027082,-1.1607744930539974,40655.232817988275,10.5,10500040655.232819,47.655,-122.3035,60.0,7.616666666666666
2026-01-20T23:07:38+00:00,SAT-64419,41.830395893048035,50.47087649544771,728.0225080858833,-1.093799441985702,38309.48322539145,10.5,10500038309.483225,47.655,-122.3035,60.0,7.633333333333334
2026-01-20T23:07:39+00:00,SAT-64419,42.71933147471843,50.588797542105915,726.931640969257,-1.0265202837056073,35953.082511865185,10.5,10500035953.082512,47.655,-122.3035,60.0,7.65
2026-01-20T23:07:40+00:00,SAT-64419,43.61517977375981,50.69992306508489,725.9078726447725,-0.9589540065133915,33586.62567952464,10.5,10500033586.625679,47.655,-122.3035,60.0,7.666666666666667
2026-01-20T23:07:41+00:00,SAT-64419,44.51758589593602,50.804116256879325,724.9514894616146,-0.8911179783536003,31210.721027254138,10.5,10500031210.721027,47.655,-122.3035,60.0,7.683333333333334
2026-01-20T23:07:42+00:00,SAT-64419,45.42617682246918,50.90124704400136,724.062760447587,-0.8230299425580363,28825.990001587634,10.5,10500028825.990002,47.655,-122.3035,60.0,7.7
2026-01-20T23:07:43+00:00,SAT-64419,46.34056207060168,50.991192565557185,723.2419369347268,-0.7547079816597495,26433.06592932158,10.5,10500026433.06593,47.655,-122.3035,60.0,7.716666666666667
2026-01-20T23:07:44+00:00,SAT-64419,47.26033444894904,51.07383763381114,722.489252221016,-0.6861705045969525,24032.593569341898,10.5,10500024032.593569,47.655,-122.3035,60.0,7.733333333333333
2026-01-20T23:07:45+00:00,SAT-64419,48.185070940436525,51.149075175917886,721.8049212448504,-0.617436216774556,21625.228064052357,10.5,10500021625.228064,47.655,-122.3035,60.0,7.75
2026-01-20T23:07:46+00:00,SAT-64419,49.11433368272162,51.21680665162809,721.1891402893668,-0.5485241044123984,19211.63439118333,10.5,10500019211.634392,47.655,-122.3035,60.0,7.766666666666667
2026-01-20T23:07:47+00:00,SAT-64419,50.047671071748525,51.27694244526425,720.6420867023824,-0.4794534012113645,16792.486196298265,10.5,10500016792.486197,47.655,-122.3035,60.0,7.783333333333333
2026-01-20T23:07:48+00:00,SAT-64419,50.984618950112726,51.329402226929965,720.1639186495746,-0.4102435658384875,14368.465004226753,10.5,10500014368.465004,47.655,-122.3035,60.0,7.8
2026-01-20T23:07:49+00:00,SAT-64419,51.92470189926875,51.37411528113357,719.7547748901228,-0.34091425459514463,11940.259261789097,10.5,10500011940.259262,47.655,-122.3035,60.0,7.816666666666666
2026-01-20T23:07:50+00:00,SAT-64419,52.86743460770218,51.41102079960737,719.4147745795982,-0.2714852959679515,9508.563446460987,10.5,10500009508.563446,47.655,-122.3035,60.0,7.833333333333333
2026-01-20T23:07:51+00:00,SAT-64419,53.81232333227138,51.440068135958924,719.1440170982437,-0.2019766601055915,7074.076997322964,10.5,10500007074.076998,47.655,-122.3035,60.0,7.85
2026-01-20T23:07:52+00:00,SAT-64419,54.758867411141225,51.46121701945867,718.9425819096911,-0.13240843150340054,4637.503358359021,10.5,10500004637.503359,47.655,-122.3035,60.0,7.866666666666666
2026-01-20T23:07:53+00:00,SAT-64419,55.70656083265503,51.47443772641577,718.81052844692,-0.0628007809949947,2199.5489974849347,10.5,10500002199.548998,47.655,-122.3035,60.0,7.883333333333334
2026-01-20T23:07:54+00:00,SAT-64419,56.6548938583569,51.479711207516615,718.7478960261526,0.006826064469780757,-239.0776519558005,10.5,10499999760.922348,47.655,-122.3035,60.0,7.9
2026-01-20T23:07:55+00:00,SAT-64419,57.603354664081465,51.47702916979366,718.7547037908855,0.07645185100644927,-2677.6672132549693,10.5,10499997322.332787,47.655,-122.3035,60.0,7.916666666666667
2026-01-20T23:07:56+00:00,SAT-64419,58.55143100754386,51.46639411256464,718.8309506850297,0.14605632531701992,-5115.510330245563,10.5,10499994884.48967,47.655,-122.3035,60.0,7.933333333333334
2026-01-20T23:07:57+00:00,SAT-64419,59.498611886520784,51.44781931724336,718.9766154534943,0.21561926698849707,-7551.898798532214,10.5,10499992448.101202,47.655,-122.3035,60.0,7.95
2026-01-20T23:07:58+00:00,SAT-64419,60.44438920302551,51.4213287905325,719.1916566749834,0.28512051516488934,-9986.126499657768,10.5,10499990013.8735,47.655,-122.3035,60.0,7.966666666666667
2026-01-20T23:07:59+00:00,SAT-64419,61.38825939187819,51.38695716219358,719.4760128213937,0.3545399992661722,-12417.490477011292,10.5,10499987582.509523,47.655,-122.3035,60.0,7.983333333333333
2026-01-20T23:08:00+00:00,SAT-64419,62.32972501845732,51.34474953783352,719.8296023478485,0.4238577658085695,-14845.291875187799,10.5,10499985154.708124,47.655,-122.3035,60.0,8.0
2026-01-20T23:08:01+00:00,SAT-64419,63.26829632343794,51.29476130847535,720.2523238094794,0.49305400811686045,-17268.836980638902,10.5,10499982731.16302,47.655,-122.3035,60.0,8.016666666666667
2026-01-20T23:08:02+00:00,SAT-64419,64.20349271079482,51.23705791826132,720.744056007842,0.5621090954275845,-19687.438240990163,10.5,10499980312.56176,47.655,-122.3035,60.0,8.033333333333333
2026-01-20T23:08:03+00:00,SAT-64419,65.1348441642112,51.171714592392526,721.3046581663557,0.6310035987372256,-22100.41517035384,10.5,10499977899.58483,47.655,-122.3035,60.0,8.05
2026-01-20T23:08:04+00:00,SAT-64419,66.06189257965863,51.09881602802617,721.9339701315233,0.6997183116946182,-24507.09508106935,10.5,10499975492.904919,47.655,-122.3035,60.0,8.066666666666666
2026-01-20T23:08:05+00:00,SAT-64419,66.9841930031395,51.018456051298564,722.6318125949854,0.7682342908595777,-26906.814493730748,10.5,10499973093.185507,47.655,-122.3035,60.0,8.083333333333334
2026-01-20T23:08:06+00:00,SAT-64419,67.90131478659774,50.93073724111125,723.3979873557273,0.8365328659655079,-29298.919496626673,10.5,10499970701.080503,47.655,-122.3035,60.0,8.1
2026-01-20T23:08:07+00:00,SAT-64419,68.81284262212647,50.83577052615787,724.232277592521,0.9045956678318474,-31682.76672335232,10.5,10499968317.233276,47.655,-122.3035,60.0,8.116666666666667
2026-01-20T23:08:08+00:00,SAT-64419,69.71837747545727,50.733674756342715,725.1344481642014,0.9724046614947902,-34057.72451318738,10.5,10499965942.275486,47.655,-122.3035,60.0,8.133333333333333
2026-01-20T23:08:09+00:00,SAT-64419,70.61753741374531,50.624576251310245,726.1042459429907,1.0399421570967817,-36423.17329249226,10.5,10499963576.826708,47.655,-122.3035,60.0,8.15
2026-01-20T23:08:10+00:00,SAT-64419,71.50995830992017,50.50860833195063,727.1414001586763,1.107190824101681,-38778.50607258322,10.5,10499961221.493927,47.655,-122.3035,60.0,8.166666666666666
2026-01-20T23:08:11+00:00,SAT-64419,72.3952944279791,50.385910837822365,728.245622756971,1.174133741827308,-41123.13021959589,10.5,10499958876.86978,47.655,-122.3035,60.0,8.183333333333334
2026-01-20T23:08:12+00:00,SAT-64419,73.27321891707605,50.2566296298186,729.4166088082667,1.2407543730942447,-43456.46653155488,10.5,10499956543.533468,47.655,-122.3035,60.0,8.2
2026-01-20T23:08:13+00:00,SAT-64419,74.14342415933352,50.12091608987383,730.654036890111,1.30703663071801,-45777.95156721089,10.5,10499954222.048433,47.655,-122.3035,60.0,8.216666666666667
2026-01-20T23:08:14+00:00,SAT-64419,75.00562204247923,49.97892661061225,731.957569535993,1.3729648509068018,-48087.03671431727,10.5,10499951912.963285,47.655,-122.3035,60.0,8.233333333333333
2026-01-20T23:08:15+00:00,SAT-64419,75.85954409669544,49.830822088237056,733.3268536576037,1.438523827376004,-50383.18938446424,10.5,10499949616.810616,47.655,-122.3035,60.0,8.25
2026-01-20T23:08:16+00:00,SAT-64419,76.7049415444763,49.67676741484318,734.7615210011149,1.5036988421558333,-52665.89409209304,10.5,10499947334.105907,47.655,-122.3035,60.0,8.266666666666667
2026-01-20T23:08:17+00:00,SAT-64419,77.54158526028361,49.51693097331331,736.2611886341854,1.5684756351455449,-54934.651388155406,10.5,10499945065.348612,47.655,-122.3035,60.0,8.283333333333333
2026-01-20T23:08:18+00:00,SAT-64419,78.36926561887721,49.35148414382695,737.8254594026029,1.6328404587267287,-57188.97977290226,10.5,10499942811.020227,47.655,-122.3035,60.0,8.3
2026-01-20T23:08:19+00:00,SAT-64419,79.18779228082188,49.180600815174785,739.4539224413918,1.6967800579664976,-59428.41500251558,10.5,10499940571.584997,47.655,-122.3035,60.0,8.316666666666666
2026-01-20T23:08:20+00:00,SAT-64419,79.99699388636812,49.00445691088525,741.1461536661785,1.760281687142887,-61652.51066789783,10.5,10499938347.489332,47.655,-122.3035,60.0,8.333333333333334
2026-01-20T23:08:21+00:00,SAT-64419,80.79671768324701,48.82322992809989,742.901716281037,1.8233331354677669,-63860.8390955971,10.5,10499936139.160904,47.655,-122.3035,60.0,8.35
2026-01-20T23:08:22+00:00,SAT-64419,81.58682909844218,48.637098489923545,744.7201613119884,1.8859226939159688,-66052.99018602287,10.5,10499933947.009813,47.655,-122.3035,60.0,8.366666666666667
2026-01-20T23:08:23+00:00,SAT-64419,82.36721123776803,48.44624191866215,746.6010281074196,1.9480391973622977,-68228.57288926236,10.5,10499931771.42711,47.655,-122.3035,60.0,8.383333333333333
2026-01-20T23:08:24+00:00,SAT-64419,83.13776435253446,48.25083982333646,748.543844880523,2.0096720124486724,-70387.21478013654,10.5,10499929612.78522,47.655,-122.3035,60.0,8.4
2026-01-20T23:08:25+00:00,SAT-64419,83.89840525681385,48.05107170800077,750.5481292396411,2.0708110338036088,-72528.56192579032,10.5,10499927471.438074,47.655,-122.3035,60.0,8.416666666666666
2026-01-20T23:08:26+00:00,SAT-64419,84.64906670830183,47.84711660066197,752.6133887148349,2.131446681091745,-74652.27878235457,10.5,10499925347.721218,47.655,-122.3035,60.0,8.433333333333334
2026-01-20T23:08:27+00:00,SAT-64419,85.38969675949026,47.63915270318664,754.7391212815143,2.1915699364292394,-76758.04950539155,10.5,10499923241.950495,47.655,-122.3035,60.0,8.45
2026-01-20T23:08:28+00:00,SAT-64419,86.12025809876297,47.42735705862393,756.9248159213807,2.2511722932553373,-78845.57615916088,10.5,10499921154.423841,47.655,-122.3035,60.0,8.466666666666667
2026-01-20T23:08:29+00:00,SAT-64419,86.8407273580446,47.21190524475269,759.1699531323794,2.3102457716230473,-80914.57925216384,10.5,10499919085.420748,47.655,-122.3035,60.0,8.483333333333333
2026-01-20T23:08:30+00:00,SAT-64419,87.5510944164301,46.992971087261736,761.4740054539029,2.3687829330141343,-82964.79825602687,10.5,10499917035.201744,47.655,-122.3035,60.0,8.5
2026-01-20T23:08:31+00:00,SAT-64419,88.25136170247812,46.770726392554735,763.8364380067654,2.4267768573032917,-84995.99079868969,10.5,10499915004.009201,47.655,-122.3035,60.0,8.516666666666667
2026-01-20T23:08:32+00:00,SAT-64419,88.94154348960109,46.54534070351369,766.2567090102098,2.484221140217683,-87007.93257542748,10.5,10499912992.067425,47.655,-122.3035,60.0,8.533333333333333
2026-01-20T23:08:33+00:00,SAT-64419,89.62166519493826,46.31698107580575,768.734270296373,2.541109882107819,-89000.41695555963,10.5,10499910999.583044,47.655,-122.3035,60.0,8.55
2026-01-20T23:08:34+00:00,SAT-64419,90.29176268435617,46.08581187503619,771.2685678135603,2.597437695038754,-90973.25523081343,10.5,10499909026.74477,47.655,-122.3035,60.0,8.566666666666666
2026-01-20T23:08:35+00:00,SAT-64419,90.95188159021559,45.851994592469524,773.8590421365849,2.6531996812200944,-92926.27585985165,10.5,10499907073.72414,47.655,-122.3035,60.0,8.583333333333334
2026-01-20T23:08:36+00:00,SAT-64419,91.60207663927308,45.61568768127841,776.5051289556011,2.7083914451876416,-94859.32489492527,10.5,10499905140.675104,47.655,-122.3035,60.0,8.6
2026-01-20T23:08:37+00:00,SAT-64419,92.24241100037914,45.37704640954759,779.2062595770825,2.76300903256317,-96772.26383698182,10.5,10499903227.736162,47.655,-122.3035,60.0,8.616666666666667
2026-01-20T23:08:38+00:00,SAT-64419,92.87295563869493,45.136222735735174,781.9618613637247,2.8170490091853835,-98664.97240716619,10.5,10499901335.027594,47.655,-122.3035,60.0,8.633333333333333
2026-01-20T23:08:39+00:00,SAT-64419,93.49378870854655,44.89336519341137,784.7713582532689,2.870508348624239,-100537.34460709651,10.5,10499899462.655394,47.655,-122.3035,60.0,8.65
2026-01-20T23:08:40+00:00,SAT-64419,94.10499494571575,44.64861880124216,787.6341711651407,2.923384517868957,-102389.29172002069,10.5,10499897610.70828,47.655,-122.3035,60.0,8.666666666666666
2026-01-20T23:08:41+00:00,SAT-64419,94.70666510169536,44.40212498007844,790.5497184925446,2.975675369316459,-104220.73852779451,10.5,10499895779.261473,47.655,-122.3035,60.0,8.683333333333334
2026-01-20T23:08:42+00:00,SAT-64419,95.2988953823136,44.154021492955664,793.5174164868389,3.0273792285222423,-106031.62638428864,10.5,10499893968.373615,47.655,-122.3035,60.0,8.7
2026-01-20T23:08:43+00:00,SAT-64419,95.88178692868627,43.90444239045788,796.536679729428,3.0784947940663456,-107821.909708271,10.5,10499892178.090292,47.655,-122.3035,60.0,8.716666666666667
2026-01-20T23:08:44+00:00,SAT-64419,96.4554453066371,43.65351797643698,799.6069215037836,3.1290212039650975,-109591.55830942726,10.5,10499890408.44169,47.655,-122.3035,60.0,8.733333333333333
2026-01-20T23:08:45+00:00,SAT-64419,97.01998003409209,43.40137477932379,802.7275542337057,3.1789579387060867,-111340.55399223522,10.5,10499888659.446009,47.655,-122.3035,60.0,8.75
2026-01-20T23:08:46+00:00,SAT-64419,97.57550411877172,43.148135541612184,805.8979898248743,3.2283048814847826,-113068.89266570614,10.5,10499886931.107334,47.655,-122.3035,60.0,8.766666666666667
2026-01-20T23:08:47+00:00,SAT-64419,98.12213363256187,42.89391921386982,809.1176400664781,3.2770622711388113,-114776.58269494398,10.5,10499885223.417305,47.655,-122.3035,60.0,8.783333333333333
2026-01-20T23:08:48+00:00,SAT-64419,98.6599873042944,42.638840961209276,812.3859169859027,3.3252307111672046,-116463.6452170376,10.5,10499883536.354782,47.655,-122.3035,60.0,8.8
2026-01-20T23:08:49+00:00,SAT-64419,99.18918613929705,42.38301217696976,815.7022332124149,3.3728111076329315,-118130.11196614486,10.5,10499881869.888033,47.655,-122.3035,60.0,8.816666666666666
2026-01-20T23:08:50+00:00,SAT-64419,99.70985305520853,42.126540508354196,819.0660022789161,3.4198047165338115,-119776.02693262225,10.5,10499880223.973068,47.655,-122.3035,60.0,8.833333333333334
2026-01-20T23:08:51+00:00,SAT-64419,100.22211254915746,41.869529884827074,822.4766389709381,3.466213084936177,-121401.44430127679,10.5,10499878598.555698,47.655,-122.3035,60.0,8.85
2026-01-20T23:08:52+00:00,SAT-64419,100.72609038040184,41.612080556818675,825.933559616931,3.512038078365256,-123006.42941069313,10.5,10499876993.57059,47.655,-122.3035,60.0,8.866666666666667
2026-01-20T23:08:53+00:00,SAT-64419,101.22191327965677,41.35428913750365,829.4361824058693,3.55728182071796,-124591.05664872522,10.5,10499875408.943352,47.655,-122.3035,60.0,8.883333333333333
2026-01-20T23:08:54+00:00,SAT-64419,101.70970867268586,41.09624865358216,832.9839276449312,3.6019467329473103,-126155.41080738849,10.5,10499873844.589193,47.655,-122.3035,60.0,8.9
2026-01-20T23:08:55+00:00,SAT-64419,102.18960443003363,40.838048597180524,836.5762180557559,3.6460354672049027,-127699.58477625037,10.5,10499872300.415224,47.655,-122.3035,60.0,8.916666666666666
2026-01-20T23:08:56+00:00,SAT-64419,102.66172862926653,40.57977498597561,840.212479005026,3.6895509477801682,-129223.6809762965,10.5,10499870776.319023,47.655,-122.3035,60.0,8.933333333333334
2026-01-20T23:08:57+00:00,SAT-64419,103.12620934142228,40.32151042328702,843.8921387758736,3.7324963054684948,-130727.8090612246,10.5,10499869272.190939,47.655,-122.3035,60.0,8.95
2026-01-20T23:08:58+00:00,SAT-64419,103.58317442846547,40.06333416530264,847.6146287738314,3.774874918568041,-132212.08735332638,10.5,10499867787.912647,47.655,-122.3035,60.0,8.966666666666667
2026-01-20T23:08:59+00:00,SAT-64419,104.03275136310327,39.805322187429276,851.3793837736754,3.816690350298194,-133676.6406516172,10.5,10499866323.359348,47.655,-122.3035,60.0,8.983333333333333
2026-01-20T23:09:00+00:00,SAT-64419,104.4750670584572,39.54754725661132,855.185842103848,3.857946371889262,-135121.60104053468,10.5,10499864878.39896,47.655,-122.3035,60.0,9.0
2026-01-20T23:09:01+00:00,SAT-64419,104.91024771605034,39.2900790032623,859.0334458539107,3.898646948683039,-136547.10740312192,10.5,10499863452.892597,47.655,-122.3035,60.0,9.016666666666667
2026-01-20T23:09:02+00:00,SAT-64419,105.33841868762802,39.03298399506959,862.9216410681374,3.938796197391916,-137953.30392406043,10.5,10499862046.696075,47.655,-122.3035,60.0,9.033333333333333
2026-01-20T23:09:03+00:00,SAT-64419,105.75970434635946,38.77632581419855,866.8498778964781,3.9783984319139942,-139340.34169430952,10.5,10499860659.658306,47.655,-122.3035,60.0,9.05
2026-01-20T23:09:04+00:00,SAT-64419,106.17422797629159,38.52016513175225,870.817610791215,4.017458062714844,-140708.37518702977,10.5,10499859291.624813,47.655,-122.3035,60.0,9.066666666666666
2026-01-20T23:09:05+00:00,SAT-64419,106.58211166437927,38.264559788778676,874.8242986032732,4.0559797117220295,-142057.56628167516,10.5,10499857942.433718,47.655,-122.3035,60.0,9.083333333333334
2026-01-20T23:09:06+00:00,SAT-64419,106.9834762154906,38.009564869628534,878.8694047931133,4.093968084775404,-143388.079796663,10.5,10499856611.920204,47.655,-122.3035,60.0,9.1
2026-01-20T23:09:07+00:00,SAT-64419,107.3784410659373,37.75523278305797,882.9523975144209,4.131428014227745,-144700.08498142846,10.5,10499855299.915018,47.655,-122.3035,60.0,9.116666666666667
2026-01-20T23:09:08+00:00,SAT-64419,107.76712421201745,37.50161333988455,887.0727497402798,4.168364468044054,-145993.7558351203,10.5,10499854006.244165,47.655,-122.3035,60.0,9.133333333333333
2026-01-20T23:09:09+00:00,SAT-64419,108.1496421483349,37.24875382929273,891.2299393984191,4.204782490796726,-147269.26904000243,10.5,10499852730.73096,47.655,-122.3035,60.0,9.15
2026-01-20T23:09:10+00:00,SAT-64419,108.52610981027031,36.99669909777558,895.4234494476182,4.240687232485296,-148526.80497084293,10.5,10499851473.195028,47.655,-122.3035,60.0,9.166666666666666
2026-01-20T23:09:11+00:00,SAT-64419,108.89664052715163,36.74549162514589,899.6527679828482,4.276083939204896,-149766.54736808426,10.5,10499850233.452631,47.655,-122.3035,60.0,9.183333333333334
2026-01-20T23:09:12+00:00,SAT-64419,109.26134598241778,36.49517159988643,903.9173883311115,4.310977908331677,-150988.6817682472,10.5,10499849011.318232,47.655,-122.3035,60.0,9.2
2026-01-20T23:09:13+00:00,SAT-64419,109.62033617727113,36.24577699576193,908.2168091025858,4.345374532341911,-152193.39703866086,10.5,10499847806.60296,47.655,-122.3035,60.0,9.216666666666667
2026-01-20T23:09:14+00:00,SAT-64419,109.97371940454155,35.99734364438109,912.5505342854684,4.379279257577573,-153380.88393325932,10.5,10499846619.116066,47.655,-122.3035,60.0,9.233333333333333
2026-01-20T23:09:15+00:00,SAT-64419,110.32160222537959,35.749905308637544,916.9180732996969,4.4126975608954275,-154551.33427473344,10.5,10499845448.665726,47.655,-122.3035,60.0,9.25
2026-01-20T23:09:16+00:00,SAT-64419,110.66408945002523,35.50349375580646,921.3189410273837,4.445634996970714,-155704.94261130644,10.5,10499844295.057388,47.655,-122.3035,60.0,9.266666666666667
2026-01-20T23:09:17+00:00,SAT-64419,111.00128412717115,35.258138826291244,925.7526578904253,4.478097160792453,-156841.90490316055,10.5,10499843158.095097,47.655,-122.3035,60.0,9.283333333333333
2026-01-20T23:09:18+00:00,SAT-64419,111.33328753531065,35.013868502802225,930.218749890707,4.510089648772037,-157962.41716029556,10.5,10499842037.58284,47.655,-122.3035,60.0,9.3
2026-01-20T23:09:19+00:00,SAT-64419,111.66019917597598,34.77070897986707,934.7167486115231,4.54161811308477,-159066.67734579928,10.5,10499840933.322655,47.655,-122.3035,60.0,9.316666666666666
2026-01-20T23:09:20+00:00,SAT-64419,111.98211677452093,34.528684728556186,939.2461912731899,4.572688209824073,-160154.88355998858,10.5,10499839845.11644,47.655,-122.3035,60.0,9.333333333333334
2026-01-20T23:09:21+00:00,SAT-64419,112.2991362813682,34.28781856222113,943.8066207369545,4.603305644070544,-161227.23561891844,10.5,10499838772.764381,47.655,-122.3035,60.0,9.35
2026-01-20T23:09:22+00:00,SAT-64419,112.6113518791701,34.04813169801696,948.3975855538498,4.633476078100226,-162283.93183944732,10.5,10499837716.068161,47.655,-122.3035,60.0,9.366666666666667
2026-01-20T23:09:23+00:00,SAT-64419,112.91885598744435,33.80964382141153,953.0186399220042,4.6632052282326155,-163325.17243126399,10.5,10499836674.827568,47.655,-122.3035,60.0,9.383333333333333
2026-01-20T23:09:24+00:00,SAT-64419,113.2217392758953,33.572373143775195,957.6693437405421,4.692498769914273,-164351.15617251408,10.5,10499835648.843828,47.655,-122.3035,60.0,9.4
2026-01-20T23:09:25+00:00,SAT-64419,113.52009067449735,33.336336463063105,962.3492625688191,4.721362427563937,-165362.0835565561,10.5,10499834637.916443,47.655,-122.3035,60.0,9.416666666666666
2026-01-20T23:09:26+00:00,SAT-64419,113.81399739111279,33.10154921809837,967.0579676752628,4.749801843079691,-166358.1521865262,10.5,10499833641.847813,47.655,-122.3035,60.0,9.433333333333334
2026-01-20T23:09:27+00:00,SAT-64419,114.10354492344877,32.868025547654774,971.7950359550738,4.777822724085137,-167339.56196754603,10.5,10499832660.438032,47.655,-122.3035,60.0,9.45
2026-01-20T23:09:28+00:00,SAT-64419,114.38881708134755,32.63577834034251,976.5600499957752,4.805430693979161,-168306.50985483156,10.5,10499831693.490145,47.655,-122.3035,60.0,9.466666666666667
2026-01-20T23:09:29+00:00,SAT-64419,114.66989600233742,32.40481929015397,981.3525979932133,4.83263139900016,-169259.19360353515,10.5,10499830740.806396,47.655,-122.3035,60.0,9.483333333333333
2026-01-20T23:09:30+00:00,SAT-64419,114.9468621742881,32.17515894498544,986.1722737743358,4.85943045579291,-170197.80993231508,10.5,10499829802.190067,47.655,-122.3035,60.0,9.5
2026-01-20T23:09:31+00:00,SAT-64419,115.2197944567394,31.946806756033148,991.0186767676784,4.885833438649174,-171122.55407644817,10.5,10499828877.445923,47.655,-122.3035,60.0,9.516666666666667
2026-01-20T23:09:32+00:00,SAT-64419,115.48877010236927,31.71977112607237,995.8914119611236,4.911845885982942,-172033.62001461987,10.5,10499827966.379986,47.655,-122.3035,60.0,9.533333333333333
2026-01-20T23:09:33+00:00,SAT-64419,115.75386478010402,31.494059455735773,1000.7900898661209,4.937473351170705,-172931.2022495656,10.5,10499827068.79775,47.655,-122.3035,60.0,9.55
2026-01-20T23:09:34+00:00,SAT-64419,116.01515260131343,31.269678185853614,1005.7143265326084,4.962721269692892,-173815.49115480206,10.5,10499826184.508844,47.655,-122.3035,60.0,9.566666666666666
2026-01-20T23:09:35+00:00,SAT-64419,116.27270614032955,31.04663284428628,1010.6637434314326,4.987595134383168,-174686.67911259885,10.5,10499825313.320887,47.655,-122.3035,60.0,9.583333333333334
2026-01-20T23:09:36+00:00,SAT-64419,116.52659646393657,30.82492808320937,1015.6379675115488,5.012100319185065,-175544.9543411902,10.5,10499824455.045658,47.655,-122.3035,60.0,9.6
2026-01-20T23:09:37+00:00,SAT-64419,116.77689315301365,30.604567722866385,1020.636631081448,5.036242190760716,-176390.504803785,10.5,10499823609.495195,47.655,-122.3035,60.0,9.616666666666667
2026-01-20T23:09:38+00:00,SAT-64419,117.02366432977051,30.385554788785807,1025.6593718018967,5.060026075559879,-177223.51705518467,10.5,10499822776.482944,47.655,-122.3035,60.0,9.633333333333333
2026-01-20T23:09:39+00:00,SAT-64419,117.26697668376386,30.16789154906338,1030.7058326458316,5.083457240287391,-178044.17555767065,10.5,10499821955.824442,47.655,-122.3035,60.0,9.65
