DopplerPredictor/satellites_20260205_234138/SAT-47366.csv

timestamp,satellite,azimuth_deg,elevation_deg,distance_km,relative_velocity_kms,doppler_shift_hz,tx_freq_ghz,rx_freq_hz,ue_lat,ue_lon,ue_alt_m,time_minutes
2026-01-20T23:11:05+00:00,SAT-47366,285.2227707128882,30.077663669686707,995.6422657112463,-4.905421563321951,171808.61306017407,10.5,10500171808.61306,47.655,-122.3035,60.0,11.083333333333334
2026-01-20T23:11:06+00:00,SAT-47366,285.4834693711464,30.29299328161067,990.7499949061875,-4.880769923213524,170945.2083472427,10.5,10500170945.208347,47.655,-122.3035,60.0,11.1
2026-01-20T23:11:07+00:00,SAT-47366,285.74786495158247,30.509588971188627,985.8823096535917,-4.85574614190073,170068.76967517866,10.5,10500170068.769674,47.655,-122.3035,60.0,11.116666666666667
2026-01-20T23:11:08+00:00,SAT-47366,286.01602712426484,30.727444839603162,981.0395810970044,-4.830344831345454,169179.10833209576,10.5,10500169179.108332,47.655,-122.3035,60.0,11.133333333333333
2026-01-20T23:11:09+00:00,SAT-47366,286.28802695780206,30.94655409905987,976.2221857535643,-4.804560457565762,168276.030494538,10.5,10500168276.030495,47.655,-122.3035,60.0,11.15
2026-01-20T23:11:10+00:00,SAT-47366,286.563936932145,31.166909026714006,971.430505659556,-4.778387573110742,167359.34536973175,10.5,10500167359.34537,47.655,-122.3035,60.0,11.166666666666666
2026-01-20T23:11:11+00:00,SAT-47366,286.84383096309926,31.388500927622314,966.6649282841112,-4.751820626741227,166428.8585297996,10.5,10500166428.85853,47.655,-122.3035,60.0,11.183333333333334
2026-01-20T23:11:12+00:00,SAT-47366,287.1277844155162,31.61132008758055,961.9258466327191,-4.724854067052489,165484.3755410656,10.5,10500165484.375542,47.655,-122.3035,60.0,11.2
2026-01-20T23:11:13+00:00,SAT-47366,287.41587412098966,31.83535572913879,957.2136592473904,-4.697482270479841,164525.69944250674,10.5,10500164525.699442,47.655,-122.3035,60.0,11.216666666666667
2026-01-20T23:11:14+00:00,SAT-47366,287.70817839011494,32.0605959626688,952.5287702786252,-4.669699652429521,163552.6346380267,10.5,10500163552.634638,47.655,-122.3035,60.0,11.233333333333333
2026-01-20T23:11:15+00:00,SAT-47366,288.00477702978736,32.28702774111241,947.8715894465452,-4.641500571905791,162564.98355609336,10.5,10500162564.983557,47.655,-122.3035,60.0,11.25
2026-01-20T23:11:16+00:00,SAT-47366,288.3057513533039,32.514636808615045,943.2425320971461,-4.612879383702189,161562.54847769713,10.5,10500161562.548477,47.655,-122.3035,60.0,11.266666666666667
2026-01-20T23:11:17+00:00,SAT-47366,288.61118419177444,32.743407650009914,938.6420192064938,-4.583830419231975,160545.1308649524,10.5,10500160545.130865,47.655,-122.3035,60.0,11.283333333333333
2026-01-20T23:11:18+00:00,SAT-47366,288.9211599023069,32.97332343772997,934.0704774040471,-4.554348009670321,159512.53217163443,10.5,10500159512.532171,47.655,-122.3035,60.0,11.3
2026-01-20T23:11:19+00:00,SAT-47366,289.23576437549,33.20436597820011,929.5283389728909,-4.524426495676019,158464.55418367533,10.5,10500158464.554184,47.655,-122.3035,60.0,11.316666666666666
2026-01-20T23:11:20+00:00,SAT-47366,289.5550850410961,33.436515657093864,925.0160418402788,-4.494060186443226,157400.9975849822,10.5,10500157400.997585,47.655,-122.3035,60.0,11.333333333333334
2026-01-20T23:11:21+00:00,SAT-47366,289.8792108684377,33.669751380828735,920.5340296090152,-4.463243445856001,156321.66497493413,10.5,10500156321.664974,47.655,-122.3035,60.0,11.35
2026-01-20T23:11:22+00:00,SAT-47366,290.2082323695864,33.90405052082407,916.0827515029099,-4.431970593513152,155226.3574018533,10.5,10500155226.357403,47.655,-122.3035,60.0,11.366666666666667
2026-01-20T23:11:23+00:00,SAT-47366,290.54224159264874,34.13938885099121,911.662662410946,-4.400236021508624,154114.87845314824,10.5,10500154114.878452,47.655,-122.3035,60.0,11.383333333333333
2026-01-20T23:11:24+00:00,SAT-47366,290.8813321197142,34.37574048967935,907.2742228149785,-4.368034073735398,152987.03002802585,10.5,10500152987.030027,47.655,-122.3035,60.0,11.4
2026-01-20T23:11:25+00:00,SAT-47366,291.2255990523805,34.613077833608195,902.9178988378061,-4.335359217324035,151842.61834199433,10.5,10500151842.618341,47.655,-122.3035,60.0,11.416666666666666
2026-01-20T23:11:26+00:00,SAT-47366,291.57513900572184,34.85137149940741,898.5941621202641,-4.302205868043133,150681.44781164872,10.5,10500150681.447811,47.655,-122.3035,60.0,11.433333333333334
2026-01-20T23:11:27+00:00,SAT-47366,291.93005008493725,35.09059025419126,894.3034898724488,-4.268568545208402,149503.32648024193,10.5,10500149503.32648,47.655,-122.3035,60.0,11.45
2026-01-20T23:11:28+00:00,SAT-47366,292.29043186882456,35.33070095304247,890.0463647704477,-4.234441753005594,148308.06186111172,10.5,10500148308.061861,47.655,-122.3035,60.0,11.466666666666667
2026-01-20T23:11:29+00:00,SAT-47366,292.65638537873554,35.57166846847837,885.8232749714288,-4.199820122045971,147095.46589555198,10.5,10500147095.465895,47.655,-122.3035,60.0,11.483333333333333
2026-01-20T23:11:30+00:00,SAT-47366,293.02801305339625,35.81345562645807,881.6347139875547,-4.164698312787277,145865.35157020667,10.5,10500145865.35157,47.655,-122.3035,60.0,11.5
2026-01-20T23:11:31+00:00,SAT-47366,293.405418709875,36.05602313568334,877.4811806562159,-4.129071027387191,144617.53333222782,10.5,10500144617.533333,47.655,-122.3035,60.0,11.516666666666667
2026-01-20T23:11:32+00:00,SAT-47366,293.78870749873795,36.29932951622785,873.3631790984413,-4.092933095803258,143351.83010485946,10.5,10500143351.830105,47.655,-122.3035,60.0,11.533333333333333
2026-01-20T23:11:33+00:00,SAT-47366,294.1779858596959,36.5433310320595,869.281218591443,-4.0562794340122705,142068.06382410342,10.5,10500142068.063824,47.655,-122.3035,60.0,11.55
2026-01-20T23:11:34+00:00,SAT-47366,294.5733614664657,36.78798162020025,865.235813482827,-4.019105009020222,140766.05821322007,10.5,10500140766.058212,47.655,-122.3035,60.0,11.566666666666666
2026-01-20T23:11:35+00:00,SAT-47366,294.9749431600235,37.033232816829056,861.2274831396992,-3.9814049316642572,139445.6420330451,10.5,10500139445.642033,47.655,-122.3035,60.0,11.583333333333334
2026-01-20T23:11:36+00:00,SAT-47366,295.3828408819915,37.27903368819019,857.256751805223,-3.9431744118247867,138106.64751332824,10.5,10500138106.647512,47.655,-122.3035,60.0,11.6
2026-01-20T23:11:37+00:00,SAT-47366,295.79716559458626,37.52533075825417,853.3241484998383,-3.9044088062150424,136748.91202652585,10.5,10500136748.912027,47.655,-122.3035,60.0,11.616666666666667
2026-01-20T23:11:38+00:00,SAT-47366,296.21802919576476,37.77206793892106,849.4302068748243,-3.86510358031021,135372.27675439787,10.5,10500135372.276754,47.655,-122.3035,60.0,11.633333333333333
2026-01-20T23:11:39+00:00,SAT-47366,296.64554441992703,38.019186457644985,845.5754651038287,-3.8252543466299707,133976.58802882457,10.5,10500133976.588028,47.655,-122.3035,60.0,11.65
2026-01-20T23:11:40+00:00,SAT-47366,297.079824731576,38.26662478742686,841.7604657362167,-3.784856897856645,132561.69849174382,10.5,10500132561.698492,47.655,-122.3035,60.0,11.666666666666666
2026-01-20T23:11:41+00:00,SAT-47366,297.5209842108448,38.51431857921754,837.985755517393,-3.7439071489905023,131127.46506918553,10.5,10500131127.465069,47.655,-122.3035,60.0,11.683333333333334
2026-01-20T23:11:42+00:00,SAT-47366,297.96913742033865,38.76220059106587,834.2518852668097,-3.7024012527582184,129673.75301336398,10.5,10500129673.753014,47.655,-122.3035,60.0,11.7
2026-01-20T23:11:43+00:00,SAT-47366,298.4243992718408,39.0102006256062,830.5594096408787,-3.6603354971645357,128200.43231450347,10.5,10500128200.432314,47.655,-122.3035,60.0,11.716666666666667
2026-01-20T23:11:44+00:00,SAT-47366,298.886884867681,39.258245461913155,826.9088869980558,-3.6177063825954194,126707.38040131719,10.5,10500126707.380402,47.655,-122.3035,60.0,11.733333333333333
2026-01-20T23:11:45+00:00,SAT-47366,299.3567093361458,39.50625879382009,823.3008791870286,-3.574510664668115,125194.4836417973,10.5,10500125194.483643,47.655,-122.3035,60.0,11.75
2026-01-20T23:11:46+00:00,SAT-47366,299.8339876575738,39.75416117304506,819.7359512921702,-3.5307452456813584,123661.63354134234,10.5,10500123661.633541,47.655,-122.3035,60.0,11.766666666666667
2026-01-20T23:11:47+00:00,SAT-47366,300.31883446049574,40.00186994699772,816.2146714872495,-3.4864073462658594,122108.73275468299,10.5,10500122108.732754,47.655,-122.3035,60.0,11.783333333333333
2026-01-20T23:11:48+00:00,SAT-47366,300.8113638231457,40.249299211010644,812.7376107179546,-3.4414943744253264,120535.69049914501,10.5,10500120535.690498,47.655,-122.3035,60.0,11.8
2026-01-20T23:11:49+00:00,SAT-47366,301.31168904057813,40.49635975450453,809.305342515021,-3.396004037102151,118942.42646215131,10.5,10500118942.426462,47.655,-122.3035,60.0,11.816666666666666
2026-01-20T23:11:50+00:00,SAT-47366,301.81992238850944,40.742959018441404,805.9184426960937,-3.3499342983399876,117328.86933589859,10.5,10500117328.869335,47.655,-122.3035,60.0,11.833333333333334
2026-01-20T23:11:51+00:00,SAT-47366,302.3361748627593,40.989001053822356,802.5774891093167,-3.3032834276232093,115694.95851040956,10.5,10500115694.958511,47.655,-122.3035,60.0,11.85
2026-01-20T23:11:52+00:00,SAT-47366,302.8605559062513,41.23438648817419,799.2830613287097,-3.2560499662913265,114040.64289722369,10.5,10500114040.642897,47.655,-122.3035,60.0,11.866666666666667
2026-01-20T23:11:53+00:00,SAT-47366,303.39317311088763,41.47901249460412,796.035740383043,-3.2082327987713293,112365.88342425531,10.5,10500112365.883425,47.655,-122.3035,60.0,11.883333333333333
2026-01-20T23:11:54+00:00,SAT-47366,303.9341319096958,41.72277277175052,792.8361084136694,-3.1598311279925495,110670.65217471807,10.5,10500110670.652174,47.655,-122.3035,60.0,11.9
2026-01-20T23:11:55+00:00,SAT-47366,304.4835352443327,41.96555752818108,789.6847483568739,-3.11084447471696,108954.93236366901,10.5,10500108954.932364,47.655,-122.3035,60.0,11.916666666666666
2026-01-20T23:11:56+00:00,SAT-47366,305.0414832106579,42.207253473527665,786.5822436268971,-3.061272757815406,107218.721149622,10.5,10500107218.72115,47.655,-122.3035,60.0,11.933333333333334
2026-01-20T23:11:57+00:00,SAT-47366,305.60807269611223,42.44774382333393,783.5291777188901,-3.0111162258186632,105462.02723717608,10.5,10500105462.027237,47.655,-122.3035,60.0,11.95
2026-01-20T23:11:58+00:00,SAT-47366,306.1833969836342,42.6869083068295,780.5261338801387,-2.96037551550107,103684.87292886213,10.5,10500103684.872929,47.655,-122.3035,60.0,11.966666666666667
2026-01-20T23:11:59+00:00,SAT-47366,306.7675453433025,42.924623188102174,777.5736947228628,-2.9090516577000294,101887.29432896644,10.5,10500101887.294329,47.655,-122.3035,60.0,11.983333333333333
2026-01-20T23:12:00+00:00,SAT-47366,307.36060260328566,43.16076129736596,774.6724418312078,-2.8571460980107166,100069.34206834692,10.5,10500100069.342068,47.655,-122.3035,60.0,12.0
2026-01-20T23:12:01+00:00,SAT-47366,307.96264870298967,43.39519207423907,771.8229553475995,-2.804660670093105,98231.0803695322,10.5,10500098231.08037,47.655,-122.3035,60.0,12.016666666666667
2026-01-20T23:12:02+00:00,SAT-47366,308.5737582193137,43.62778161988845,769.0258135857198,-2.751597669234237,96372.58962318355,10.5,10500096372.589622,47.655,-122.3035,60.0,12.033333333333333
2026-01-20T23:12:03+00:00,SAT-47366,309.19399988677355,43.858392766984686,766.2815925701165,-2.697959812441285,94493.9649903851,10.5,10500094493.96499,47.655,-122.3035,60.0,12.05
2026-01-20T23:12:04+00:00,SAT-47366,309.82343608958604,44.08688515894277,763.5908656156139,-2.6437502659314096,92595.31736545487,10.5,10500092595.317366,47.655,-122.3035,60.0,12.066666666666666
2026-01-20T23:12:05+00:00,SAT-47366,310.462122340032,44.313115344669725,760.9542028793078,-2.588972661828179,90676.77396072412,10.5,10500090676.77396,47.655,-122.3035,60.0,12.083333333333334
2026-01-20T23:12:06+00:00,SAT-47366,311.11010674280055,44.5369368886995,758.3721708959077,-2.5336311162934515,88738.47894159246,10.5,10500088738.478941,47.655,-122.3035,60.0,12.1
2026-01-20T23:12:07+00:00,SAT-47366,311.76742944730563,44.75820049758953,755.8453320949958,-2.477730189753337,86780.59203347281,10.5,10500086780.592033,47.655,-122.3035,60.0,12.116666666666667
2026-01-20T23:12:08+00:00,SAT-47366,312.434122075604,44.97675415816402,753.3742443579547,-2.4212749915932403,84803.2921886548,10.5,10500084803.292189,47.655,-122.3035,60.0,12.133333333333333
2026-01-20T23:12:09+00:00,SAT-47366,313.11020716399184,45.19244330086729,750.9594604704777,-2.36427106358039,82806.77350326836,10.5,10500082806.773502,47.655,-122.3035,60.0,12.15
2026-01-20T23:12:10+00:00,SAT-47366,313.7956975646814,45.40511096939997,748.6015276913495,-2.3067245102989378,80791.24978567289,10.5,10500080791.249786,47.655,-122.3035,60.0,12.166666666666666
2026-01-20T23:12:11+00:00,SAT-47366,314.49059587438916,45.61459801894516,746.3009871911347,-2.2486419143711602,78756.95158714493,10.5,10500078756.951588,47.655,-122.3035,60.0,12.183333333333334
2026-01-20T23:12:12+00:00,SAT-47366,315.194893836178,45.82074332435411,744.0583735754232,-2.1900303944361794,76704.1282325384,10.5,10500076704.128233,47.655,-122.3035,60.0,12.2
2026-01-20T23:12:13+00:00,SAT-47366,315.90857175640036,46.02338401139777,741.8742143502504,-2.130897573099977,74633.04669775834,10.5,10500074633.046698,47.655,-122.3035,60.0,12.216666666666667
2026-01-20T23:12:14+00:00,SAT-47366,316.6315979151638,46.222355703227315,739.74902941948,-2.0712516338812916,72543.99360424725,10.5,10500072543.993605,47.655,-122.3035,60.0,12.233333333333333
2026-01-20T23:12:15+00:00,SAT-47366,317.36392800192954,46.41749279042519,737.6833305253963,-2.0111012569127955,70437.2729669682,10.5,10500070437.272966,47.655,-122.3035,60.0,12.25
2026-01-20T23:12:16+00:00,SAT-47366,318.10550454212097,46.60862871345181,735.6776207534214,-1.9504556797239259,68313.20832327683,10.5,10500068313.208323,47.655,-122.3035,60.0,12.266666666666667
2026-01-20T23:12:17+00:00,SAT-47366,318.8562563601457,46.795596269063935,733.7323939762118,-1.8893246557336882,66172.14127916362,10.5,10500066172.14128,47.655,-122.3035,60.0,12.283333333333333
2026-01-20T23:12:18+00:00,SAT-47366,319.6160980498625,46.97822793092037,731.8481343391534,-1.8277184947017702,64014.43292602306,10.5,10500064014.432926,47.655,-122.3035,60.0,12.3
2026-01-20T23:12:19+00:00,SAT-47366,320.38492948693954,47.15635619179232,730.0253157055107,-1.7656480100120515,61840.461994299214,10.5,10500061840.461994,47.655,-122.3035,60.0,12.316666666666666
2026-01-20T23:12:20+00:00,SAT-47366,321.1626353537891,47.32981391790938,728.2644011541543,-1.7031245674835547,59650.62656305158,10.5,10500059650.626562,47.655,-122.3035,60.0,12.333333333333334
2026-01-20T23:12:21+00:00,SAT-47366,321.94908472194714,47.498434724562955,726.5658424286047,-1.640160052703983,57445.34291583753,10.5,10500057445.342916,47.655,-122.3035,60.0,12.35
2026-01-20T23:12:22+00:00,SAT-47366,322.7441306669385,47.662053364231724,724.9300794186601,-1.5767668717560943,55225.045566152934,10.5,10500055225.045567,47.655,-122.3035,60.0,12.366666666666667
2026-01-20T23:12:23+00:00,SAT-47366,323.54760993360645,47.820506129398545,723.3575396412931,-1.512957943093808,52990.18697289905,10.5,10500052990.186974,47.655,-122.3035,60.0,12.383333333333333
2026-01-20T23:12:24+00:00,SAT-47366,324.35934265533854,47.97363126796459,721.8486377296566,-1.4487466906085635,50741.237297537074,10.5,10500050741.237297,47.655,-122.3035,60.0,12.4
2026-01-20T23:12:25+00:00,SAT-47366,325.17913213283066,48.121269409958614,720.4037749289984,-1.3841470488975243,48478.68458860297,10.5,10500048478.68459,47.655,-122.3035,60.0,12.416666666666666
2026-01-20T23:12:26+00:00,SAT-47366,326.00676468639824,48.26326400519229,719.0233385873265,-1.3191734211692612,46203.03330738641,10.5,10500046203.033308,47.655,-122.3035,60.0,12.433333333333334
2026-01-20T23:12:27+00:00,SAT-47366,326.8420095612446,48.399461765241284,717.7077016880535,-1.2538407063322459,43914.80527668438,10.5,10500043914.805277,47.655,-122.3035,60.0,12.45
2026-01-20T23:12:28+00:00,SAT-47366,327.68461892980054,48.52971311483489,716.457222355625,-1.1881642489931425,41614.53792952989,10.5,10500041614.53793,47.655,-122.3035,60.0,12.466666666666667
2026-01-20T23:12:29+00:00,SAT-47366,328.534327951846,48.65387264262281,715.2722434110167,-1.1221598536816224,39302.78480740512,10.5,10500039302.784807,47.655,-122.3035,60.0,12.483333333333333
2026-01-20T23:12:30+00:00,SAT-47366,329.3908549357749,48.77179955562233,714.1530919130448,-1.0558437588598806,36980.11464994475,10.5,10500036980.11465,47.655,-122.3035,60.0,12.5
2026-01-20T23:12:31+00:00,SAT-47366,330.253901580854,48.8833581307784,713.1000787255958,-0.9892326065228326,34647.11033020631,10.5,10500034647.11033,47.655,-122.3035,60.0,12.516666666666667
2026-01-20T23:12:32+00:00,SAT-47366,331.12315329828965,48.988418160551916,712.113498115177,-0.9223434535584797,32304.369252558172,10.5,10500032304.369253,47.655,-122.3035,60.0,12.533333333333333
2026-01-20T23:12:33+00:00,SAT-47366,331.9982796461992,49.08685539431062,711.1936273371342,-0.8551937225940367,29952.501631103023,10.5,10500029952.50163,47.655,-122.3035,60.0,12.55
2026-01-20T23:12:34+00:00,SAT-47366,332.87893483395027,49.17855196637838,710.3407262708934,-0.7878012064255737,27592.130644822704,10.5,10500027592.130646,47.655,-122.3035,60.0,12.566666666666666
2026-01-20T23:12:35+00:00,SAT-47366,333.76475834039,49.263396813648214,709.5550370507858,-0.7201840205867562,25223.890776334807,10.5,10500025223.890776,47.655,-122.3035,60.0,12.583333333333334
2026-01-20T23:12:36+00:00,SAT-47366,334.65537559967953,49.34128607442213,708.8367837441727,-0.6523606076257674,22848.427961688612,10.5,10500022848.427961,47.655,-122.3035,60.0,12.6
2026-01-20T23:12:37+00:00,SAT-47366,335.55039880401813,49.41212347123409,708.18617202531,-0.5843496941073755,20466.398084395583,10.5,10500020466.398085,47.655,-122.3035,60.0,12.616666666666667
2026-01-20T23:12:38+00:00,SAT-47366,336.44942777469356,49.47582066984371,707.6033888920927,-0.516170272338748,18078.46633539011,10.5,10500018078.466335,47.655,-122.3035,60.0,12.633333333333333
2026-01-20T23:12:39+00:00,SAT-47366,337.3520509221797,49.53229761441055,707.0886024010223,-0.44784157654283824,15685.306378520709,10.5,10500015685.30638,47.655,-122.3035,60.0,12.65
2026-01-20T23:12:40+00:00,SAT-47366,338.25784628800847,49.581482835703426,706.6419614259443,-0.3793830539256888,13287.599337204581,10.5,10500013287.599337,47.655,-122.3035,60.0,12.666666666666666
2026-01-20T23:12:41+00:00,SAT-47366,339.1663826559181,49.6233137294359,706.2635954456309,-0.31081433959946986,10886.032916126374,10.5,10500010886.032917,47.655,-122.3035,60.0,12.683333333333334
2026-01-20T23:12:42+00:00,SAT-47366,340.0772207324167,49.657736802921995,705.9536143563838,-0.2421552287489345,8481.300426389686,10.5,10500008481.300426,47.655,-122.3035,60.0,12.7
2026-01-20T23:12:43+00:00,SAT-47366,340.98991438839937,49.68470788780664,705.7121083123855,-0.1734256421703065,6074.0995785431605,10.5,10500006074.099579,47.655,-122.3035,60.0,12.716666666666667
2026-01-20T23:12:44+00:00,SAT-47366,341.9040119297776,49.70419231637932,705.539147600429,-0.10464561179997706,3665.1319757342235,10.5,10500003665.131975,47.655,-122.3035,60.0,12.733333333333333
2026-01-20T23:12:45+00:00,SAT-47366,342.819057453645,49.71616506224988,705.4347825290731,-0.03583523614845868,1255.1015528176367,10.5,10500001255.101553,47.655,-122.3035,60.0,12.75
2026-01-20T23:12:46+00:00,SAT-47366,343.73459218542575,49.720610840878855,705.3990433622477,0.03298533830770029,-1155.286075378364,10.5,10499998844.713924,47.655,-122.3035,60.0,12.766666666666667
2026-01-20T23:12:47+00:00,SAT-47366,344.65015587406504,49.7175241719969,705.4319402714153,0.1017959514067366,-3565.3248147114305,10.5,10499996434.675186,47.655,-122.3035,60.0,12.783333333333333
2026-01-20T23:12:48+00:00,SAT-47366,345.5652881847813,49.706909401656944,705.533463321924,0.17057645679331224,-5974.309054598627,10.5,10499994025.690945,47.655,-122.3035,60.0,12.8
2026-01-20T23:12:49+00:00,SAT-47366,346.4795300864407,49.688780684469194,705.7035824867762,0.2393067525545104,-8381.534741018599,10.5,10499991618.46526,47.655,-122.3035,60.0,12.816666666666666
2026-01-20T23:12:50+00:00,SAT-47366,347.3924252443805,49.66316192584284,705.9422476909513,0.3079668085652354,-10786.300334263151,10.5,10499989213.699665,47.655,-122.3035,60.0,12.833333333333334
2026-01-20T23:12:51+00:00,SAT-47366,348.3035213777404,49.6300866850627,706.2493888830023,0.37653669798043143,-13187.90791192796,10.5,10499986812.092089,47.655,-122.3035,60.0,12.85
2026-01-20T23:12:52+00:00,SAT-47366,349.21237159836807,49.58959803956761,706.6249161380573,0.44499662356506,-15585.66409109975,10.5,10499984414.335909,47.655,-122.3035,60.0,12.866666666666667
2026-01-20T23:12:53+00:00,SAT-47366,350.11853570156114,49.54174841211559,707.0687197870841,0.5133269471697024,-17978.881060716594,10.5,10499982021.118938,47.655,-122.3035,60.0,12.883333333333333
2026-01-20T23:12:54+00:00,SAT-47366,351.0215814109946,49.486599361925116,707.5806705755477,0.5815082178075425,-20366.877564942595,10.5,10499979633.122435,47.655,-122.3035,60.0,12.9
2026-01-20T23:12:55+00:00,SAT-47366,351.92108556708604,49.42422134163684,708.1606198500713,0.6495211947889111,-22748.979713437508,10.5,10499977251.020287,47.655,-122.3035,60.0,12.916666666666666
2026-01-20T23:12:56+00:00,SAT-47366,352.81663524260256,49.35469342258341,708.8083997681708,0.7173468803535699,-25124.522124277333,10.5,10499974875.477877,47.655,-122.3035,60.0,12.933333333333334
2026-01-20T23:12:57+00:00,SAT-47366,353.70782879802005,49.27810298951463,709.5238235405321,0.7849665416066194,-27492.848692242627,10.5,10499972507.151308,47.655,-122.3035,60.0,12.95
2026-01-20T23:12:58+00:00,SAT-47366,354.59427685065117,49.194545408295575,710.3066856951658,0.8523617350265082,-29853.313447192642,10.5,10499970146.686552,47.655,-122.3035,60.0,12.966666666666667
2026-01-20T23:12:59+00:00,SAT-47366,355.47560316166755,49.10412366881597,711.1567623660069,0.9195143291949083,-32205.28135016171,10.5,10499967794.718649,47.655,-122.3035,60.0,12.983333333333333
2026-01-20T23:13:00+00:00,SAT-47366,356.3514454351706,49.006948005940295,712.0738116041781,0.9864065316867494,-34548.12923516198,10.5,10499965451.870766,47.655,-122.3035,60.0,13.0
2026-01-20T23:13:01+00:00,SAT-47366,357.2214560322257,48.90313550079124,713.0575737160774,1.0530209033309934,-36881.246308656075,10.5,10499963118.75369,47.655,-122.3035,60.0,13.016666666666667
2026-01-20T23:13:02+00:00,SAT-47366,358.08530258510456,48.79280966648149,714.1077716156834,1.1193403917741027,-39204.035325091725,10.5,10499960795.964674,47.655,-122.3035,60.0,13.033333333333333
2026-01-20T23:13:03+00:00,SAT-47366,358.94266853119643,48.67610001906833,715.224111210336,1.1853483351379521,-41515.91271501732,10.5,10499958484.087284,47.655,-122.3035,60.0,13.05
2026-01-20T23:13:04+00:00,SAT-47366,359.7932535399198,48.55314163965926,716.4062817901655,1.2510284867017758,-43816.309449548084,10.5,10499956183.69055,47.655,-122.3035,60.0,13.066666666666666
2026-01-20T23:13:05+00:00,SAT-47366,0.636773854809699,48.424074728194874,717.6539564421363,1.3163650419000728,-46104.6719859469,10.5,10499953895.328014,47.655,-122.3035,60.0,13.083333333333334
2026-01-20T23:13:06+00:00,SAT-47366,1.4729625521967036,48.28904415137329,718.9667924910173,1.381342635751395,-48380.46217756968,10.5,10499951619.537823,47.655,-122.3035,60.0,13.1
2026-01-20T23:13:07+00:00,SAT-47366,2.301569699510572,48.14819899033367,720.3444319377876,1.4459463652953608,-50643.15805970438,10.5,10499949356.84194,47.655,-122.3035,60.0,13.116666666666667
2026-01-20T23:13:08+00:00,SAT-47366,3.1223624361387174,48.00169208797019,721.7865019204182,1.5101618168055377,-52892.254802681346,10.5,10499947107.745197,47.655,-122.3035,60.0,13.133333333333333
2026-01-20T23:13:09+00:00,SAT-47366,3.9351249819746683,47.84967959772896,723.2926152017951,1.5739750406513664,-55127.263831431505,10.5,10499944872.736168,47.655,-122.3035,60.0,13.15
2026-01-20T23:13:10+00:00,SAT-47366,4.739658548566524,47.69232054134899,724.862370632571,1.6373726129964234,-57347.71498642052,10.5,10499942652.285013,47.655,-122.3035,60.0,13.166666666666666
2026-01-20T23:13:11+00:00,SAT-47366,5.535781208657738,47.52977636877263,726.4953536755494,1.7003415921395457,-59553.15499453035,10.5,10499940446.845005,47.655,-122.3035,60.0,13.183333333333334
2026-01-20T23:13:12+00:00,SAT-47366,6.323327670441736,47.36221053263357,728.1911368865275,1.7628695669799412,-61743.14916651233,10.5,10499938256.850834,47.655,-122.3035,60.0,13.2
2026-01-20T23:13:13+00:00,SAT-47366,7.102149013317977,47.18978806972215,729.9492804434743,1.8249446422062645,-63917.280878246034,10.5,10499936082.719122,47.655,-122.3035,60.0,13.216666666666667
2026-01-20T23:13:14+00:00,SAT-47366,7.872112357206634,47.01267519719176,731.7693326609374,1.8865554453895867,-66075.15181916504,10.5,10499933924.84818,47.655,-122.3035,60.0,13.233333333333333
2026-01-20T23:13:15+00:00,SAT-47366,8.633100483943615,46.83103892256081,733.6508305115224,1.9476911400201231,-68216.38244885832,10.5,10499931783.617552,47.655,-122.3035,60.0,13.25
2026-01-20T23:13:16+00:00,SAT-47366,9.385011418617319,46.64504666801008,735.5933001603775,2.0083414107015205,-70340.61147851146,10.5,10499929659.388521,47.655,-122.3035,60.0,13.266666666666667
2026-01-20T23:13:17+00:00,SAT-47366,10.12775796563281,46.45486591255215,737.5962574849078,2.0684964957260896,-72447.49701182924,10.5,10499927552.502989,47.655,-122.3035,60.0,13.283333333333333
2026-01-20T23:13:18+00:00,SAT-47366,10.861267223907857,46.26066384824288,739.6592086269815,2.12814715853268,-74536.71554536953,10.5,10499925463.284454,47.655,-122.3035,60.0,13.3
2026-01-20T23:13:19+00:00,SAT-47366,11.585480062937966,46.06260705682195,741.7816505166664,2.187284675077795,-76607.96152622641,10.5,10499923392.038473,47.655,-122.3035,60.0,13.316666666666666
2026-01-20T23:13:20+00:00,SAT-47366,12.300350573143612,45.86086120553044,743.9630713833756,2.245900884715,-78660.94913404227,10.5,10499921339.050865,47.655,-122.3035,60.0,13.333333333333334
2026-01-20T23:13:21+00:00,SAT-47366,13.00584551695671,45.655590756480166,746.2029513177529,2.303988135067182,-80695.41035020103,10.5,10499919304.58965,47.655,-122.3035,60.0,13.35
2026-01-20T23:13:22+00:00,SAT-47366,13.701943748232694,45.44695869953629,748.5007627785803,2.3615393092676324,-82711.0959119263,10.5,10499917288.904089,47.655,-122.3035,60.0,13.366666666666667
2026-01-20T23:13:23+00:00,SAT-47366,14.388635633481234,45.23512630099394,750.8559711268521,2.418547799707198,-84707.77439279536,10.5,10499915292.225607,47.655,-122.3035,60.0,13.383333333333333
2026-01-20T23:13:24+00:00,SAT-47366,15.065922461233978,45.02025287281922,753.2680351336677,2.4750075113945003,-86685.23232042833,10.5,10499913314.76768,47.655,-122.3035,60.0,13.4
2026-01-20T23:13:25+00:00,SAT-47366,15.733815853293713,44.80249555945237,755.7364074914753,2.5309128661521796,-88643.27432345842,10.5,10499911356.725677,47.655,-122.3035,60.0,13.416666666666666
2026-01-20T23:13:26+00:00,SAT-47366,16.392337180778817,44.582009141809614,758.2605353294991,2.586258776432776,-90581.72221445327,10.5,10499909418.277786,47.655,-122.3035,60.0,13.433333333333334
2026-01-20T23:13:27+00:00,SAT-47366,17.041516979793624,44.35894586070086,760.8398607030559,2.6410406517402163,-92500.41521482261,10.5,10499907499.584785,47.655,-122.3035,60.0,13.45
2026-01-20T23:13:28+00:00,SAT-47366,17.681394378771312,44.13345525627577,763.4738210892726,2.6952543629543073,-94399.20870531115,10.5,10499905600.791294,47.655,-122.3035,60.0,13.466666666666667
2026-01-20T23:13:29+00:00,SAT-47366,18.31201652923023,43.90568402654574,766.1618498472249,2.748896289054559,-96277.9758624644,10.5,10499903722.024137,47.655,-122.3035,60.0,13.483333333333333
2026-01-20T23:13:30+00:00,SAT-47366,18.933438062303708,43.67577589734093,768.9033767246761,2.8019632418501663,-98136.60502235431,10.5,10499901863.394978,47.655,-122.3035,60.0,13.5
2026-01-20T23:13:31+00:00,SAT-47366,19.545720543156275,43.443871513419936,771.6978282897456,2.854452488177905,-99975.00045804355,10.5,10499900024.999542,47.655,-122.3035,60.0,13.516666666666667
2026-01-20T23:13:32+00:00,SAT-47366,20.14893194901901,43.21010834170628,774.5446283847174,2.906361750003268,-101793.08238312758,10.5,10499898206.917618,47.655,-122.3035,60.0,13.533333333333333
2026-01-20T23:13:33+00:00,SAT-47366,20.743146166056167,42.97462058789968,777.4431985799467,2.957689155349053,-103590.78523304632,10.5,10499896409.214767,47.655,-122.3035,60.0,13.55
2026-01-20T23:13:34+00:00,SAT-47366,21.328442495624063,42.73753912972686,780.3929585788312,3.0084332845614012,-105368.0592855165,10.5,10499894631.940714,47.655,-122.3035,60.0,13.566666666666666
2026-01-20T23:13:35+00:00,SAT-47366,21.90490519121708,42.49899145833165,783.3933266689206,3.0585930690538703,-107124.86711412079,10.5,10499892875.132885,47.655,-122.3035,60.0,13.583333333333334
2026-01-20T23:13:36+00:00,SAT-47366,22.472622996404894,42.25910163892252,786.4437200720422,3.108167878006931,-108861.18662489094,10.5,10499891138.813375,47.655,-122.3035,60.0,13.6
2026-01-20T23:13:37+00:00,SAT-47366,23.031688722122222,42.017990274889826,789.5435553808951,3.1571574557671087,-110577.00886376081,10.5,10499889422.991137,47.655,-122.3035,60.0,13.616666666666667
2026-01-20T23:13:38+00:00,SAT-47366,23.582198833244977,41.77577448665139,792.6922489332112,3.2055618866729665,-112272.33678462368,10.5,10499887727.663216,47.655,-122.3035,60.0,13.633333333333333
2026-01-20T23:13:39+00:00,SAT-47366,24.124253051418915,41.53256790212452,795.8892171508334,3.253381632600473,-113947.18656432968,10.5,10499886052.813437,47.655,-122.3035,60.0,13.65
2026-01-20T23:13:40+00:00,SAT-47366,24.657953986788144,41.28848065256614,799.1338769162436,3.300617476665597,-115601.5856309126,10.5,10499884398.41437,47.655,-122.3035,60.0,13.666666666666666
2026-01-20T23:13:41+00:00,SAT-47366,25.183406781689733,41.04361938030876,802.4256458929393,3.3472705548063524,-117235.57376972672,10.5,10499882764.42623,47.655,-122.3035,60.0,13.683333333333334
2026-01-20T23:13:42+00:00,SAT-47366,25.700718781248852,40.79808725106552,805.7639428773115,3.393342303509725,-118849.20129262262,10.5,10499881150.798708,47.655,-122.3035,60.0,13.7
2026-01-20T23:13:43+00:00,SAT-47366,26.209999216354674,40.55198397645941,809.1481880983869,3.4388344459648463,-120442.52855297277,10.5,10499879557.471447,47.655,-122.3035,60.0,13.716666666666667
2026-01-20T23:13:44+00:00,SAT-47366,26.71135890558261,40.30540584320225,812.5778035037611,3.4837490225850227,-122015.62701468208,10.5,10499877984.372986,47.655,-122.3035,60.0,13.733333333333333
2026-01-20T23:13:45+00:00,SAT-47366,27.204909981794543,40.058445745190234,816.0522130759739,3.5280883256838287,-123568.5769642684,10.5,10499876431.423037,47.655,-122.3035,60.0,13.75
2026-01-20T23:13:46+00:00,SAT-47366,27.690765628390963,39.81119322488469,819.5708430837327,3.571854918796104,-125101.4681875656,10.5,10499874898.531813,47.655,-122.3035,60.0,13.766666666666667
2026-01-20T23:13:47+00:00,SAT-47366,28.16903983751846,39.563734517309435,823.1331223524077,3.6150516247366897,-126614.39955148986,10.5,10499873385.600449,47.655,-122.3035,60.0,13.783333333333333
2026-01-20T23:13:48+00:00,SAT-47366,28.639847184606243,39.31615259847417,826.7384825226153,3.6576814755157567,-128107.47724986279,10.5,10499871892.52275,47.655,-122.3035,60.0,13.8
2026-01-20T23:13:49+00:00,SAT-47366,29.103302613722686,39.06852724030025,830.3863582588552,3.6997477815124666,-129580.8172261655,10.5,10499870419.182774,47.655,-122.3035,60.0,13.816666666666666
2026-01-20T23:13:50+00:00,SAT-47366,29.559521248822783,38.820935063475616,834.0761875271307,3.7412539869192303,-131034.54011058515,10.5,10499868965.45989,47.655,-122.3035,60.0,13.833333333333334
2026-01-20T23:13:51+00:00,SAT-47366,30.00861820242628,38.5734496022969,837.807411728404,3.782203822799203,-132468.77658073584,10.5,10499867531.22342,47.655,-122.3035,60.0,13.85
2026-01-20T23:13:52+00:00,SAT-47366,30.45070841912902,38.32614136105399,841.5794759846983,3.8226011288066086,-133883.66111755016,10.5,10499866116.338882,47.655,-122.3035,60.0,13.866666666666667
2026-01-20T23:13:53+00:00,SAT-47366,30.88590651154661,38.07907788375613,845.3918292473975,3.862450000670964,-135279.33717080075,10.5,10499864720.662828,47.655,-122.3035,60.0,13.883333333333333
2026-01-20T23:13:54+00:00,SAT-47366,31.314326628061366,37.83232381527851,849.2439245526347,3.9017546284661817,-136655.95149459998,10.5,10499863344.048506,47.655,-122.3035,60.0,13.9
2026-01-20T23:13:55+00:00,SAT-47366,31.736082314666042,37.58594097386511,853.1352191153842,3.9405194075920402,-138013.65803444068,10.5,10499861986.341965,47.655,-122.3035,60.0,13.916666666666666
2026-01-20T23:13:56+00:00,SAT-47366,32.15128640224424,37.339988416984625,857.065174534236,3.978748855115498,-139352.61499711487,10.5,10499860647.385002,47.655,-122.3035,60.0,13.933333333333334
2026-01-20T23:13:57+00:00,SAT-47366,32.56005089608055,37.094522512834,861.0332569127384,4.016447643729044,-140672.98604007898,10.5,10499859327.01396,47.655,-122.3035,60.0,13.95
2026-01-20T23:13:58+00:00,SAT-47366,32.962486880264194,36.849597009738,865.0389370146044,4.053620529368138,-141974.93773631038,10.5,10499858025.062263,47.655,-122.3035,60.0,13.966666666666667
2026-01-20T23:13:59+00:00,SAT-47366,33.358704425056125,36.60526310981592,869.0816903467329,4.0902724491666245,-143258.64300512042,10.5,10499856741.356995,47.655,-122.3035,60.0,13.983333333333333
2026-01-20T23:14:00+00:00,SAT-47366,33.74881251408254,36.36156953630703,873.1609973399206,4.126408372729021,-144524.27590308065,10.5,10499855475.724096,47.655,-122.3035,60.0,14.0
2026-01-20T23:14:01+00:00,SAT-47366,34.13291896583704,36.11856260933822,877.2763433812468,4.1620334189391075,-145772.01571515395,10.5,10499854227.984285,47.655,-122.3035,60.0,14.016666666666667
2026-01-20T23:14:02+00:00,SAT-47366,34.51113037552433,35.876286313922066,881.4272189629503,4.197152769635249,-147002.04393123896,10.5,10499852997.956068,47.655,-122.3035,60.0,14.033333333333333
2026-01-20T23:14:03+00:00,SAT-47366,34.88355205651551,35.63478237225445,885.6131197452174,4.231771712092475,-148214.54573407245,10.5,10499851785.454266,47.655,-122.3035,60.0,14.05
2026-01-20T23:14:04+00:00,SAT-47366,35.25028799341997,35.394090312531965,889.833546661334,4.265895556722906,-149409.70711674984,10.5,10499850590.292883,47.655,-122.3035,60.0,14.066666666666666
2026-01-20T23:14:05+00:00,SAT-47366,35.61144079478931,35.15424754136502,894.0880059407631,4.299529721986692,-150587.7178566656,10.5,10499849412.282143,47.655,-122.3035,60.0,14.083333333333334
2026-01-20T23:14:06+00:00,SAT-47366,35.96711166009769,34.91528941011862,898.3760092169,4.332679666873239,-151748.7691507203,10.5,10499848251.23085,47.655,-122.3035,60.0,14.1
2026-01-20T23:14:07+00:00,SAT-47366,36.31740034670462,34.67724928381866,902.6970735674965,4.365350903299482,-152893.05404956036,10.5,10499847106.94595,47.655,-122.3035,60.0,14.116666666666667
2026-01-20T23:14:08+00:00,SAT-47366,36.66240514370758,34.440158607964364,907.0507215674423,4.397548989991686,-154020.76724329306,10.5,10499845979.232758,47.655,-122.3035,60.0,14.133333333333333
2026-01-20T23:14:09+00:00,SAT-47366,37.002222850471874,34.20404697425054,911.4364813354537,4.429279477135993,-155132.1031229142,10.5,10499844867.896877,47.655,-122.3035,60.0,14.15
2026-01-20T23:14:10+00:00,SAT-47366,37.33694875578396,33.96894218773861,915.853886525552,4.460548020919208,-156227.25979201146,10.5,10499843772.740208,47.655,-122.3035,60.0,14.166666666666666
2026-01-20T23:14:11+00:00,SAT-47366,37.66667663041619,33.73487032635925,920.3024764327828,4.491360232047045,-157306.43376123215,10.5,10499842693.566238,47.655,-122.3035,60.0,14.183333333333334
2026-01-20T23:14:12+00:00,SAT-47366,37.99149871206678,33.50185580693566,924.7817959478554,4.521721771784443,-158369.8233120216,10.5,10499841630.176687,47.655,-122.3035,60.0,14.2
2026-01-20T23:14:13+00:00,SAT-47366,38.31150570157301,33.269921444459804,929.2913956075672,4.551638306522117,-159417.62690535138,10.5,10499840582.373095,47.655,-122.3035,60.0,14.216666666666667
2026-01-20T23:14:14+00:00,SAT-47366,38.626786759190026,33.039088512160234,933.8308315999154,4.581115500018081,-160450.04290998488,10.5,10499839549.95709,47.655,-122.3035,60.0,14.233333333333333
2026-01-20T23:14:15+00:00,SAT-47366,38.93742950354417,32.809376800290586,938.3996657614722,4.610159057902824,-161467.27116123668,10.5,10499838532.728838,47.655,-122.3035,60.0,14.25
2026-01-20T23:14:16+00:00,SAT-47366,39.24352001663182,32.580804671049805,942.9974656191428,4.638774603255052,-162469.50860310852,10.5,10499837530.491396,47.655,-122.3035,60.0,14.266666666666667
2026-01-20T23:14:17+00:00,SAT-47366,39.54514284299739,32.35338911804719,947.6238043078373,4.666967830566859,-163456.95468080128,10.5,10499836543.045319,47.655,-122.3035,60.0,14.283333333333333
2026-01-20T23:14:18+00:00,SAT-47366,39.84238100186789,32.12714581643958,952.2782606416918,4.694744378436201,-164429.8068818666,10.5,10499835570.19312,47.655,-122.3035,60.0,14.3
2026-01-20T23:14:19+00:00,SAT-47366,40.13531599287913,31.902089177747914,956.9604190583242,4.722109894696148,-165388.263017309,10.5,10499834611.736982,47.655,-122.3035,60.0,14.316666666666666
2026-01-20T23:14:20+00:00,SAT-47366,40.42402780819875,31.6782323998316,961.6698696280438,4.74906998668063,-166332.51947968156,10.5,10499833667.48052,47.655,-122.3035,60.0,14.333333333333334
2026-01-20T23:14:21+00:00,SAT-47366,40.70859494323821,31.455587517640495,966.4062080134615,4.775630238782408,-167262.7718580408,10.5,10499832737.228142,47.655,-122.3035,60.0,14.35
2026-01-20T23:14:22+00:00,SAT-47366,40.989094410230024,31.234165451488956,971.1690354466107,4.8017962256429,-168179.21539990994,10.5,10499831820.7846,47.655,-122.3035,60.0,14.366666666666667
2026-01-20T23:14:23+00:00,SAT-47366,41.26560175402444,31.013976053150003,975.9579587192208,4.827573500422859,-169082.0446004683,10.5,10499830917.9554,47.655,-122.3035,60.0,14.383333333333333
2026-01-20T23:14:24+00:00,SAT-47366,41.538191068408,30.795028150966747,980.772590161294,4.8529675302212265,-169971.45094064667,10.5,10499830028.549059,47.655,-122.3035,60.0,14.4
2026-01-20T23:14:25+00:00,SAT-47366,41.8069350099618,30.577329596336533,985.6125475552761,4.877983813738555,-170847.6270081979,10.5,10499829152.372992,47.655,-122.3035,60.0,14.416666666666666
2026-01-20T23:14:26+00:00,SAT-47366,42.07190481973134,30.36088730333581,990.4774541675718,4.9026277742893845,-171710.76275053772,10.5,10499828289.23725,47.655,-122.3035,60.0,14.433333333333334
2026-01-20T23:14:27+00:00,SAT-47366,42.333170339631565,30.145707291730492,995.3669386733612,4.926904808282591,-172561.04717273172,10.5,10499827438.952827,47.655,-122.3035,60.0,14.45
