DopplerPredictor/satellites_20260205_234138/SAT-63998.csv

timestamp,satellite,azimuth_deg,elevation_deg,distance_km,relative_velocity_kms,doppler_shift_hz,tx_freq_ghz,rx_freq_hz,ue_lat,ue_lon,ue_alt_m,time_minutes
2026-01-20T23:02:50+00:00,SAT-63998,206.0712050673643,30.15699462673052,864.5599370303054,-3.3575377385083964,117595.17397311631,10.5,10500117595.173973,47.655,-122.3035,60.0,2.8333333333333335
2026-01-20T23:02:51+00:00,SAT-63998,205.61349653200506,30.321526666951314,861.2114003871336,-3.3130620914091544,116037.44867990016,10.5,10500116037.448679,47.655,-122.3035,60.0,2.85
2026-01-20T23:02:52+00:00,SAT-63998,205.1506589546939,30.48527990696539,857.9072201579891,-3.2680667640469125,114461.5219856284,10.5,10500114461.521986,47.655,-122.3035,60.0,2.8666666666666667
2026-01-20T23:02:53+00:00,SAT-63998,204.6826676347521,30.648193307043073,854.6479146299432,-3.22255092193561,112867.36466306937,10.5,10500112867.364662,47.655,-122.3035,60.0,2.8833333333333333
2026-01-20T23:02:54+00:00,SAT-63998,204.2095000826729,30.81020441390681,851.4340029223173,-3.1765140053751044,111254.95710915647,10.5,10500111254.95711,47.655,-122.3035,60.0,2.9
2026-01-20T23:02:55+00:00,SAT-63998,203.73113614439853,30.971249380397992,848.2660047126318,-3.129955700617572,109624.28833511383,10.5,10500109624.288336,47.655,-122.3035,60.0,2.9166666666666665
2026-01-20T23:02:56+00:00,SAT-63998,203.247558133902,31.13126298691561,845.1444399913136,-3.0828759857776733,107975.35757442426,10.5,10500107975.357574,47.655,-122.3035,60.0,2.933333333333333
2026-01-20T23:02:57+00:00,SAT-63998,202.75875096255737,31.290178668544506,842.0698287706169,-3.0352751464975327,106308.17483148324,10.5,10500106308.174831,47.655,-122.3035,60.0,2.95
2026-01-20T23:02:58+00:00,SAT-63998,202.26470226920355,31.447928546564434,839.0426907779195,-2.987153751689286,104622.76003200022,10.5,10500104622.760033,47.655,-122.3035,60.0,2.966666666666667
2026-01-20T23:02:59+00:00,SAT-63998,201.76540255716858,31.604443462404827,836.0635451732112,-2.9385126565004143,102919.14312685729,10.5,10500102919.143127,47.655,-122.3035,60.0,2.9833333333333334
2026-01-20T23:03:00+00:00,SAT-63998,201.26084533425,31.75965301554352,833.1329102636281,-2.889353079524396,101197.36679635268,10.5,10500101197.366796,47.655,-122.3035,60.0,3.0
2026-01-20T23:03:01+00:00,SAT-63998,200.75102724184381,31.913485609441814,830.2513031409791,-2.839676535379765,99457.48408883432,10.5,10500099457.484089,47.655,-122.3035,60.0,3.0166666666666666
2026-01-20T23:03:02+00:00,SAT-63998,200.23594819781644,32.06586849805879,827.4192393865154,-2.7894848868749316,97699.56024773238,10.5,10500097699.560247,47.655,-122.3035,60.0,3.033333333333333
2026-01-20T23:03:03+00:00,SAT-63998,199.71561153203643,32.21672783933962,824.6372327236733,-2.738780319725137,95923.6718260402,10.5,10500095923.671825,47.655,-122.3035,60.0,3.05
2026-01-20T23:03:04+00:00,SAT-63998,199.19002412809795,32.36598875167989,821.9057946960337,-2.687565407296098,94129.90895391046,10.5,10500094129.908955,47.655,-122.3035,60.0,3.066666666666667
2026-01-20T23:03:05+00:00,SAT-63998,198.6591965534597,32.51357537834557,819.2254342807107,-2.635843059418393,92318.37354591864,10.5,10500092318.373547,47.655,-122.3035,60.0,3.0833333333333335
2026-01-20T23:03:06+00:00,SAT-63998,198.12314319969317,32.659410953648994,816.5966575527879,-2.583616554652941,90489.1804311364,10.5,10500090489.180431,47.655,-122.3035,60.0,3.1
2026-01-20T23:03:07+00:00,SAT-63998,197.58188241642208,32.803417875470174,814.019967317579,-2.5308895510835585,88642.45773113267,10.5,10500088642.457731,47.655,-122.3035,60.0,3.1166666666666667
2026-01-20T23:03:08+00:00,SAT-63998,197.0354366422681,32.94551778303076,811.4958627321193,-2.4776660931198586,86778.34709823993,10.5,10500086778.347097,47.655,-122.3035,60.0,3.1333333333333333
2026-01-20T23:03:09+00:00,SAT-63998,196.48383253268864,33.085631639760635,809.0248389198772,-2.423950604919998,84897.00348519102,10.5,10500084897.003485,47.655,-122.3035,60.0,3.15
2026-01-20T23:03:10+00:00,SAT-63998,195.92710108727763,33.223679820502355,806.6073865920239,-2.369747917328107,82998.5960885818,10.5,10500082998.596088,47.655,-122.3035,60.0,3.1666666666666665
2026-01-20T23:03:11+00:00,SAT-63998,195.36527776807236,33.35958220495859,804.2439916418367,-2.3150632366638746,81083.30725575052,10.5,10500081083.307257,47.655,-122.3035,60.0,3.183333333333333
2026-01-20T23:03:12+00:00,SAT-63998,194.79840262186337,33.493258274041416,801.9351347702317,-2.2599022075443584,79151.33468506324,10.5,10500079151.334684,47.655,-122.3035,60.0,3.2
2026-01-20T23:03:13+00:00,SAT-63998,194.2265203828654,33.6246272144765,799.6812910486394,-2.2042708572168936,77202.88947621685,10.5,10500077202.889477,47.655,-122.3035,60.0,3.216666666666667
2026-01-20T23:03:14+00:00,SAT-63998,193.64968058383113,33.753608024787944,797.4829295374013,-2.148175629825049,75238.19733037785,10.5,10500075238.19733,47.655,-122.3035,60.0,3.2333333333333334
2026-01-20T23:03:15+00:00,SAT-63998,193.06793765293196,33.880119627720774,795.3405128699916,-2.0916233934760573,73257.49879771359,10.5,10500073257.498798,47.655,-122.3035,60.0,3.25
2026-01-20T23:03:16+00:00,SAT-63998,192.4813510016464,34.00408098745229,793.2544968301894,-2.0346214247572667,71261.04873509293,10.5,10500071261.048735,47.655,-122.3035,60.0,3.2666666666666666
2026-01-20T23:03:17+00:00,SAT-63998,191.8899851089992,34.125411230101015,791.2253299446942,-1.9771774292602131,69249.11702492609,10.5,10500069249.117025,47.655,-122.3035,60.0,3.283333333333333
2026-01-20T23:03:18+00:00,SAT-63998,191.2939095913701,34.24402976947305,789.2534530552712,-1.9192995122634555,67221.98754835347,10.5,10500067221.987549,47.655,-122.3035,60.0,3.3
2026-01-20T23:03:19+00:00,SAT-63998,190.6931992715384,34.359856434881294,787.3392989201371,-1.8609962249911194,65179.95980541563,10.5,10500065179.959805,47.655,-122.3035,60.0,3.316666666666667
2026-01-20T23:03:20+00:00,SAT-63998,190.08793422296995,34.47281160531485,785.4832917692078,-1.802276520734347,63123.34737824073,10.5,10500063123.347378,47.655,-122.3035,60.0,3.3333333333333335
2026-01-20T23:03:21+00:00,SAT-63998,189.47819981595364,34.58281634429874,783.6858469031113,-1.7431497687160398,61052.478416646554,10.5,10500061052.478416,47.655,-122.3035,60.0,3.35
2026-01-20T23:03:22+00:00,SAT-63998,188.86408674751345,34.6897925385931,781.9473702783706,-1.683625764586486,58967.69600574175,10.5,10500058967.696005,47.655,-122.3035,60.0,3.3666666666666667
2026-01-20T23:03:23+00:00,SAT-63998,188.24569105369548,34.79366304023834,780.2682580821186,-1.6237146978153452,56869.35702385523,10.5,10500056869.357023,47.655,-122.3035,60.0,3.3833333333333333
2026-01-20T23:03:24+00:00,SAT-63998,187.6231141193965,34.894351808940534,778.6488963393354,-1.5634271818738046,54757.83319964289,10.5,10500054757.8332,47.655,-122.3035,60.0,3.4
2026-01-20T23:03:25+00:00,SAT-63998,186.99646266151106,34.99178405827789,777.0896604899831,-1.5027742256066858,52633.510109417766,10.5,10500052633.510109,47.655,-122.3035,60.0,3.4166666666666665
2026-01-20T23:03:26+00:00,SAT-63998,186.36584870634104,35.08588640170063,775.5909149946928,-1.441767229641364,50496.787051375126,10.5,10500050496.787052,47.655,-122.3035,60.0,3.433333333333333
2026-01-20T23:03:27+00:00,SAT-63998,185.7313895515657,35.17658699942593,774.15301294403,-1.3804179813509285,48348.07686918111,10.5,10500048348.07687,47.655,-122.3035,60.0,3.45
2026-01-20T23:03:28+00:00,SAT-63998,185.09320771262483,35.26381570567837,772.7762956727895,-1.3187386625402457,46187.806221171115,10.5,10500046187.806221,47.655,-122.3035,60.0,3.466666666666667
2026-01-20T23:03:29+00:00,SAT-63998,184.45143084564688,35.347504216624394,771.4610923666174,-1.256741813408602,44016.41431816914,10.5,10500044016.414318,47.655,-122.3035,60.0,3.4833333333333334
2026-01-20T23:03:30+00:00,SAT-63998,183.80619166720103,35.42758621573387,770.2077197045803,-1.1944403339758967,41834.3529734391,10.5,10500041834.352974,47.655,-122.3035,60.0,3.5
2026-01-20T23:03:31+00:00,SAT-63998,183.15762785353945,35.503997518415105,769.016481500307,-1.1318474897226105,39642.086800220335,10.5,10500039642.0868,47.655,-122.3035,60.0,3.5166666666666666
2026-01-20T23:03:32+00:00,SAT-63998,182.5058819143096,35.57667621568814,767.8876683375095,-1.0689768759652503,37440.09196400507,10.5,10500037440.091965,47.655,-122.3035,60.0,3.533333333333333
2026-01-20T23:03:33+00:00,SAT-63998,181.8511010624785,35.64556281372956,766.82155724103,-1.0058424121033038,35228.85598104236,10.5,10500035228.855982,47.655,-122.3035,60.0,3.55
2026-01-20T23:03:34+00:00,SAT-63998,181.19343706581748,35.71060037064317,765.8184113536274,-0.9424583379622158,33008.87759025367,10.5,10500033008.87759,47.655,-122.3035,60.0,3.566666666666667
2026-01-20T23:03:35+00:00,SAT-63998,180.53304607561603,35.771734630058106,764.87847961641,-0.8788391930169814,30780.666025555267,10.5,10500030780.666025,47.655,-122.3035,60.0,3.5833333333333335
2026-01-20T23:03:36+00:00,SAT-63998,179.8700884434685,35.8289141499219,764.0019964699895,-0.8149997992598067,28544.74041581116,10.5,10500028544.740416,47.655,-122.3035,60.0,3.6
2026-01-20T23:03:37+00:00,SAT-63998,179.2047285238226,35.88209042616912,763.1891815727218,-0.7509552407919059,26301.62907005156,10.5,10500026301.62907,47.655,-122.3035,60.0,3.6166666666666667
2026-01-20T23:03:38+00:00,SAT-63998,178.53713446727392,35.9312180105308,762.4402395392987,-0.6867208682401867,24051.869632163864,10.5,10500024051.869633,47.655,-122.3035,60.0,3.6333333333333333
2026-01-20T23:03:39+00:00,SAT-63998,177.86747797997177,35.976254623592396,761.7553596749387,-0.6223122559726422,21796.007582394694,10.5,10500021796.007582,47.655,-122.3035,60.0,3.65
2026-01-20T23:03:40+00:00,SAT-63998,177.19593409204964,36.01716125952045,761.1347157522451,-0.5577451975833246,19534.596079214603,10.5,10500019534.596079,47.655,-122.3035,60.0,3.6666666666666665
2026-01-20T23:03:41+00:00,SAT-63998,176.5226809018093,36.053902284487265,760.5784657925678,-0.4930356893359454,17268.195379442892,10.5,10500017268.19538,47.655,-122.3035,60.0,3.683333333333333
2026-01-20T23:03:42+00:00,SAT-63998,175.84789930387728,36.086445527547255,760.086751863876,-0.42819990215639053,14997.371857307033,10.5,10500014997.371857,47.655,-122.3035,60.0,3.7
2026-01-20T23:03:43+00:00,SAT-63998,175.17177271685486,36.114762362808186,759.659699906566,-0.36325416917091735,12722.697567977619,10.5,10500012722.697569,47.655,-122.3035,60.0,3.716666666666667
2026-01-20T23:03:44+00:00,SAT-63998,174.4944867922413,36.13882778351504,759.2974195716935,-0.29821496227417504,10444.749426881306,10.5,10500010444.749428,47.655,-122.3035,60.0,3.7333333333333334
2026-01-20T23:03:45+00:00,SAT-63998,173.81622911864739,36.158620466989255,759.0000040825793,-0.23309887407050395,8164.108577208742,10.5,10500008164.108578,47.655,-122.3035,60.0,3.75
2026-01-20T23:03:46+00:00,SAT-63998,173.13718891224806,36.17412283044986,758.7675301144226,-0.16792259333543333,5881.359530472411,10.5,10500005881.359531,47.655,-122.3035,60.0,3.7666666666666666
2026-01-20T23:03:47+00:00,SAT-63998,172.45755670977775,36.18532107703501,758.6000576983869,-0.10270288720372231,3597.0895426564875,10.5,10500003597.089542,47.655,-122.3035,60.0,3.783333333333333
2026-01-20T23:03:48+00:00,SAT-63998,171.7775240478072,36.19220523223272,758.4976301434507,-0.037456578372907834,1311.8878157886556,10.5,10500001311.887815,47.655,-122.3035,60.0,3.8
2026-01-20T23:03:49+00:00,SAT-63998,171.0972831419005,36.19476917021511,758.4602739809953,0.027799476473292558,-973.6552577635954,10.5,10499999026.344742,47.655,-122.3035,60.0,3.816666666666667
2026-01-20T23:03:50+00:00,SAT-63998,170.41702655880383,36.1930106300334,758.4879989309086,0.09304840765229726,-3258.948830357571,10.5,10499996741.05117,47.655,-122.3035,60.0,3.8333333333333335
2026-01-20T23:03:51+00:00,SAT-63998,169.73694689698027,36.1869312216254,758.5807978886209,0.15827335540731088,-5543.402401993596,10.5,10499994456.597597,47.655,-122.3035,60.0,3.85
2026-01-20T23:03:52+00:00,SAT-63998,169.05723645094014,36.17653642148239,758.7386469350039,0.22345749069084453,-7826.4265482418095,10.5,10499992173.573452,47.655,-122.3035,60.0,3.8666666666666667
2026-01-20T23:03:53+00:00,SAT-63998,168.37808689173463,36.16183555813656,758.9615053669994,0.288584036248086,-10107.433658670969,10.5,10499989892.566341,47.655,-122.3035,60.0,3.8833333333333333
2026-01-20T23:03:54+00:00,SAT-63998,167.6996889444299,36.142841787519366,759.2493157492706,0.3536362889836515,-12385.838720226713,10.5,10499987614.16128,47.655,-122.3035,60.0,3.9
2026-01-20T23:03:55+00:00,SAT-63998,167.0222320682695,36.11957205823164,759.6020039881655,0.41859764199215077,-14661.060088835133,10.5,10499985338.93991,47.655,-122.3035,60.0,3.9166666666666665
2026-01-20T23:03:56+00:00,SAT-63998,166.3459041417386,36.09204706691385,760.019479427646,0.48345160152129185,-16932.520083522464,10.5,10499983067.479916,47.655,-122.3035,60.0,3.933333333333333
2026-01-20T23:03:57+00:00,SAT-63998,165.67089116043638,36.06029120426657,760.50163496214,0.5481818147859868,-19199.645960582708,10.5,10499980800.35404,47.655,-122.3035,60.0,3.95
2026-01-20T23:03:58+00:00,SAT-63998,164.99737693186023,36.02433249127736,761.0483471771296,0.6127720814942684,-21461.870317264013,10.5,10499978538.129683,47.655,-122.3035,60.0,3.966666666666667
2026-01-20T23:03:59+00:00,SAT-63998,164.32554279133043,35.98420250701547,761.6594765012361,0.677206378687801,-23718.631961788415,10.5,10499976281.368038,47.655,-122.3035,60.0,3.9833333333333334
2026-01-20T23:04:00+00:00,SAT-63998,163.65556732042307,35.939936307482554,762.3348673830772,0.7414688836773311,-25969.376716648345,10.5,10499974030.623283,47.655,-122.3035,60.0,4.0
2026-01-20T23:04:01+00:00,SAT-63998,162.98762607423984,35.8915723360093,763.0743484909998,0.8055439798338512,-28213.557621437685,10.5,10499971786.442379,47.655,-122.3035,60.0,4.016666666666667
2026-01-20T23:04:02+00:00,SAT-63998,162.3218913322963,35.83915232674753,763.8777329185888,0.8694162899160007,-30450.63610011833,10.5,10499969549.3639,47.655,-122.3035,60.0,4.033333333333333
2026-01-20T23:04:03+00:00,SAT-63998,161.65853184840157,35.78272119989596,764.7448184234113,0.9330706829100689,-32680.082200585988,10.5,10499967319.917799,47.655,-122.3035,60.0,4.05
2026-01-20T23:04:04+00:00,SAT-63998,160.99771262355304,35.72232695086471,765.6753876725843,0.9964922941359309,-34901.375298865176,10.5,10499965098.6247,47.655,-122.3035,60.0,4.066666666666666
2026-01-20T23:04:05+00:00,SAT-63998,160.33959469007047,35.658020533000325,766.6692085083954,1.059666543372198,-37114.00473392855,10.5,10499962885.995266,47.655,-122.3035,60.0,4.083333333333333
2026-01-20T23:04:06+00:00,SAT-63998,159.6843349092082,35.58985573452,767.7260342319989,1.1225791475567553,-39317.470252523606,10.5,10499960682.529747,47.655,-122.3035,60.0,4.1
2026-01-20T23:04:07+00:00,SAT-63998,159.03208578615693,35.51788905052659,768.845603899777,1.185216125655002,-41511.282179678856,10.5,10499958488.717821,47.655,-122.3035,60.0,4.116666666666666
2026-01-20T23:04:08+00:00,SAT-63998,158.38299530540124,35.44217955114104,770.027642624559,1.2475638423091922,-43694.96294748855,10.5,10499956305.037052,47.655,-122.3035,60.0,4.133333333333334
2026-01-20T23:04:09+00:00,SAT-63998,157.73720676577233,35.362788743807506,771.2718619203707,1.3096089781815254,-45868.04605640218,10.5,10499954131.953943,47.655,-122.3035,60.0,4.15
2026-01-20T23:04:10+00:00,SAT-63998,157.09485865465427,35.27978043501439,772.5779600176078,1.3713385796413973,-48030.077815482175,10.5,10499951969.922184,47.655,-122.3035,60.0,4.166666666666667
2026-01-20T23:04:11+00:00,SAT-63998,156.45608451827982,35.19322058688724,773.945622227762,1.4327400380930504,-50180.61661837079,10.5,10499949819.38338,47.655,-122.3035,60.0,4.183333333333334
2026-01-20T23:04:12+00:00,SAT-63998,155.82101286385904,35.1031771736857,775.3745212875308,1.493801129567801,-52319.234329977415,10.5,10499947680.76567,47.655,-122.3035,60.0,4.2
2026-01-20T23:04:13+00:00,SAT-63998,155.18976706395014,35.009720034896,776.8643177424151,1.5545100062541752,-54445.51598982801,10.5,10499945554.48401,47.655,-122.3035,60.0,4.216666666666667
2026-01-20T23:04:14+00:00,SAT-63998,154.5624652851751,34.91292072848947,778.414660321865,1.6148551955004007,-56559.05977712824,10.5,10499943440.940224,47.655,-122.3035,60.0,4.233333333333333
2026-01-20T23:04:15+00:00,SAT-63998,153.939220435578,34.8128523843423,780.0251863134359,1.6748256363648093,-58659.47829091317,10.5,10499941340.52171,47.655,-122.3035,60.0,4.25
2026-01-20T23:04:16+00:00,SAT-63998,153.32014011563962,34.7095895559691,781.6955219733959,1.7344106569455526,-60746.39775603795,10.5,10499939253.602243,47.655,-122.3035,60.0,4.266666666666667
2026-01-20T23:04:17+00:00,SAT-63998,152.70532659576455,34.60320807472524,783.4252829147189,1.7936000024325525,-62819.45900567585,10.5,10499937180.540995,47.655,-122.3035,60.0,4.283333333333333
2026-01-20T23:04:18+00:00,SAT-63998,152.09487679953193,34.49378490375192,785.2140745230615,1.8523838078617136,-64878.316527055504,10.5,10499935121.683474,47.655,-122.3035,60.0,4.3
2026-01-20T23:04:19+00:00,SAT-63998,151.48888231191287,34.381397995492954,787.0614923455637,1.9107526428042105,-66922.64002666876,10.5,10499933077.359974,47.655,-122.3035,60.0,4.316666666666666
2026-01-20T23:04:20+00:00,SAT-63998,150.887429386584,34.26612614874896,788.967122524216,1.968697495342322,-68952.11386903662,10.5,10499931047.886131,47.655,-122.3035,60.0,4.333333333333333
2026-01-20T23:04:21+00:00,SAT-63998,150.29059897305396,34.14804886937495,790.9305422132536,2.0262097462509727,-70966.43617243771,10.5,10499929033.563828,47.655,-122.3035,60.0,4.35
2026-01-20T23:04:22+00:00,SAT-63998,149.69846676360186,34.027246235477534,792.9513199707923,2.0832812246560595,-72965.32075829813,10.5,10499927034.679241,47.655,-122.3035,60.0,4.366666666666666
2026-01-20T23:04:23+00:00,SAT-63998,149.11110323512753,33.903798762542515,795.0290162059777,2.1399041657987192,-74948.49567191764,10.5,10499925051.504328,47.655,-122.3035,60.0,4.383333333333334
2026-01-20T23:04:24+00:00,SAT-63998,148.52857371453942,33.77778727463665,797.1631835840147,2.196071214341682,-76915.70329827198,10.5,10499923084.296701,47.655,-122.3035,60.0,4.4
2026-01-20T23:04:25+00:00,SAT-63998,147.95093845234243,33.64929277917738,799.3533674344884,2.251775468075405,-78866.70189278662,10.5,10499921133.298107,47.655,-122.3035,60.0,4.416666666666667
2026-01-20T23:04:26+00:00,SAT-63998,147.3782526937839,33.51839634313905,801.599106203279,2.3070103894575964,-80801.26248307675,10.5,10499919198.737516,47.655,-122.3035,60.0,4.433333333333334
2026-01-20T23:04:27+00:00,SAT-63998,146.81056678094345,33.38517897861544,803.89993181625,2.361769895348181,-82719.17201184528,10.5,10499917280.827988,47.655,-122.3035,60.0,4.45
2026-01-20T23:04:28+00:00,SAT-63998,146.2479262386606,33.249721527473355,806.255370132433,2.4160482927787084,-84620.23108725583,10.5,10499915379.768913,47.655,-122.3035,60.0,4.466666666666667
2026-01-20T23:04:29+00:00,SAT-63998,145.69037188308016,33.112104554211534,808.6649413331535,2.469840295624755,-86504.25456687082,10.5,10499913495.745434,47.655,-122.3035,60.0,4.483333333333333
2026-01-20T23:04:30+00:00,SAT-63998,145.1379399311211,32.972408242404946,811.1281603277836,2.5231410266306735,-88371.07162856669,10.5,10499911628.928371,47.655,-122.3035,60.0,4.5
2026-01-20T23:04:31+00:00,SAT-63998,144.59066211419372,32.83071229568215,813.6445371615154,2.5759459859366842,-90220.52466821959,10.5,10499909779.475332,47.655,-122.3035,60.0,4.516666666666667
2026-01-20T23:04:32+00:00,SAT-63998,144.0485658025097,32.68709584516134,816.2135773917443,2.6282510902760876,-92052.47067255748,10.5,10499907947.529327,47.655,-122.3035,60.0,4.533333333333333
2026-01-20T23:04:33+00:00,SAT-63998,143.51167412407455,32.54163735940635,818.8347825035461,2.680052609768863,-93866.77900540468,10.5,10499906133.220995,47.655,-122.3035,60.0,4.55
2026-01-20T23:04:34+00:00,SAT-63998,142.98000609917685,32.394414562631916,821.5076502621155,2.731347206547384,-95663.33276051772,10.5,10499904336.66724,47.655,-122.3035,60.0,4.566666666666666
2026-01-20T23:04:35+00:00,SAT-63998,142.45357676834507,32.245504355447366,824.231675103728,2.782131912045095,-97442.02796613883,10.5,10499902557.972034,47.655,-122.3035,60.0,4.583333333333333
2026-01-20T23:04:36+00:00,SAT-63998,141.93239732604764,32.094982741540065,827.0063485040507,2.8324041193038467,-99202.77331556616,10.5,10499900797.226685,47.655,-122.3035,60.0,4.6
2026-01-20T23:04:37+00:00,SAT-63998,141.4164752562146,31.94292475938765,829.8311593387829,2.882161572426039,-100945.48979772336,10.5,10499899054.510202,47.655,-122.3035,60.0,4.616666666666666
2026-01-20T23:04:38+00:00,SAT-63998,140.90581446948508,31.789404419086555,832.7055942337715,2.9314023515625833,-102670.11017137436,10.5,10499897329.889828,47.655,-122.3035,60.0,4.633333333333334
2026-01-20T23:04:39+00:00,SAT-63998,140.40041544232596,31.63449464442997,835.6291379001632,2.980124897679203,-104376.57983254413,10.5,10499895623.420168,47.655,-122.3035,60.0,4.65
2026-01-20T23:04:40+00:00,SAT-63998,139.9002753506727,31.478267218039296,838.6012734942487,3.028327961168311,-106064.85501468908,10.5,10499893935.144985,47.655,-122.3035,60.0,4.666666666666667
2026-01-20T23:04:41+00:00,SAT-63998,139.40538821093756,31.32079273347611,841.6214829260624,3.0760105997487814,-107734.90271513836,10.5,10499892265.097284,47.655,-122.3035,60.0,4.683333333333334
2026-01-20T23:04:42+00:00,SAT-63998,138.91574501883787,31.162140551557087,844.6892471658831,3.123172215413532,-109386.7019891544,10.5,10499890613.298012,47.655,-122.3035,60.0,4.7
2026-01-20T23:04:43+00:00,SAT-63998,138.4313338800441,31.002378758762706,847.8040465875848,3.169812492765314,-111020.2417901914,10.5,10499888979.75821,47.655,-122.3035,60.0,4.716666666666667
2026-01-20T23:04:44+00:00,SAT-63998,137.95214014808946,30.841574132726524,850.9653612504911,3.2159314000312444,-112635.52100542859,10.5,10499887364.478994,47.655,-122.3035,60.0,4.733333333333333
2026-01-20T23:04:45+00:00,SAT-63998,137.4781465587476,30.679792111351645,854.1726711822374,3.261529196675301,-114232.54872239199,10.5,10499885767.451277,47.655,-122.3035,60.0,4.75
2026-01-20T23:04:46+00:00,SAT-63998,137.0093333598879,30.517096765110573,857.4254566692274,3.3066064071731707,-115811.34331043877,10.5,10499884188.656689,47.655,-122.3035,60.0,4.766666666666667
2026-01-20T23:04:47+00:00,SAT-63998,136.54567844172917,30.35355077408904,860.7231985209348,3.3511638457790656,-117371.93328819562,10.5,10499882628.066711,47.655,-122.3035,60.0,4.783333333333333
2026-01-20T23:04:48+00:00,SAT-63998,136.08715745987706,30.189215407069728,864.0653783589039,3.395202517757024,-118914.35386426149,10.5,10499881085.646135,47.655,-122.3035,60.0,4.8
2026-01-20T23:04:49+00:00,SAT-63998,135.63374396801834,30.024150508577023,867.4514788072485,3.438723747934337,-120438.65143969211,10.5,10499879561.34856,47.655,-122.3035,60.0,4.816666666666666
