DopplerPredictor/satellites_20260205_234138/SAT-61006.csv

timestamp,satellite,azimuth_deg,elevation_deg,distance_km,relative_velocity_kms,doppler_shift_hz,tx_freq_ghz,rx_freq_hz,ue_lat,ue_lon,ue_alt_m,time_minutes
2026-01-20T23:09:32+00:00,SAT-61006,254.65203042950682,30.10242960837598,876.1417465910685,-5.79336516705728,202908.154060705,10.5,10500202908.15406,47.655,-122.3035,60.0,9.533333333333333
2026-01-20T23:09:33+00:00,SAT-61006,254.75825914191128,30.384093255919574,870.3639126365397,-5.774569085448581,202249.83577542202,10.5,10500202249.835775,47.655,-122.3035,60.0,9.55
2026-01-20T23:09:34+00:00,SAT-61006,254.86647330091319,30.66901590634215,864.6048243739186,-5.755388491001798,201578.05022406162,10.5,10500201578.050224,47.655,-122.3035,60.0,9.566666666666666
2026-01-20T23:09:35+00:00,SAT-61006,254.976730241296,30.95724861248702,858.8648652852174,-5.735814385651756,200892.4822563196,10.5,10500200892.482256,47.655,-122.3035,60.0,9.583333333333334
2026-01-20T23:09:36+00:00,SAT-61006,255.0890894987979,31.248843051624927,853.1444278263914,-5.7158375456496495,200192.8088174964,10.5,10500200192.808817,47.655,-122.3035,60.0,9.6
2026-01-20T23:09:37+00:00,SAT-61006,255.20361291509198,31.54385151115604,847.4439136524161,-5.695448509425868,199478.69852340186,10.5,10500199478.698523,47.655,-122.3035,60.0,9.616666666666667
2026-01-20T23:09:38+00:00,SAT-61006,255.32036474851188,31.842326871702877,841.7637338544721,-5.67463765094682,198749.81422962152,10.5,10500198749.81423,47.655,-122.3035,60.0,9.633333333333333
2026-01-20T23:09:39+00:00,SAT-61006,255.4394117925907,32.14432259195663,836.1043091239677,-5.653395030349013,198005.80780009026,10.5,10500198005.8078,47.655,-122.3035,60.0,9.65
2026-01-20T23:09:40+00:00,SAT-61006,255.56082349878537,32.44989268341622,830.4660700655265,-5.6317105655686825,197246.32611828804,10.5,10500197246.326118,47.655,-122.3035,60.0,9.666666666666666
2026-01-20T23:09:41+00:00,SAT-61006,255.68467210962982,32.75909169171547,824.8494573388081,-5.60957387928747,196471.00572662984,10.5,10500196471.005726,47.655,-122.3035,60.0,9.683333333333334
2026-01-20T23:09:42+00:00,SAT-61006,255.81103279686016,33.07197466714955,819.2549219529698,-5.586974396333884,195679.47623787713,10.5,10500195679.476238,47.655,-122.3035,60.0,9.7
2026-01-20T23:09:43+00:00,SAT-61006,255.93998380977067,33.38859713753924,813.6829254639899,-5.563901284138494,194871.35824962676,10.5,10500194871.35825,47.655,-122.3035,60.0,9.716666666666667
2026-01-20T23:09:44+00:00,SAT-61006,256.07160663126683,33.709015074745324,808.1339402313762,-5.540343472782565,194046.26404649892,10.5,10500194046.264046,47.655,-122.3035,60.0,9.733333333333333
2026-01-20T23:09:45+00:00,SAT-61006,256.20598614389564,34.03328485888643,802.6084496548764,-5.516289649472188,193203.79740659776,10.5,10500193203.797407,47.655,-122.3035,60.0,9.75
2026-01-20T23:09:46+00:00,SAT-61006,256.34321080584874,34.36146323861729,797.1069484167067,-5.491728263715502,192343.5537828399,10.5,10500192343.553783,47.655,-122.3035,60.0,9.766666666666667
2026-01-20T23:09:47+00:00,SAT-61006,256.48337283809127,34.69360728780687,791.6299427186075,-5.466647475636508,191465.1184926851,10.5,10500191465.118492,47.655,-122.3035,60.0,9.783333333333333
2026-01-20T23:09:48+00:00,SAT-61006,256.6265684218492,35.02977435482887,786.1779505704557,-5.441035275009525,190568.07088722696,10.5,10500190568.070887,47.655,-122.3035,60.0,9.8
2026-01-20T23:09:49+00:00,SAT-61006,256.7728979113786,35.370022014542236,780.7515019601559,-5.4148793132921815,189651.97846827723,10.5,10500189651.978468,47.655,-122.3035,60.0,9.816666666666666
2026-01-20T23:09:50+00:00,SAT-61006,256.92246605610933,35.71440800508281,775.3511391910491,-5.388167063371852,188716.40248336215,10.5,10500188716.402483,47.655,-122.3035,60.0,9.833333333333334
2026-01-20T23:09:51+00:00,SAT-61006,257.0753822410374,36.062990169225124,769.9774170600074,-5.360885697511591,187760.89365087266,10.5,10500187760.89365,47.655,-122.3035,60.0,9.85
2026-01-20T23:09:52+00:00,SAT-61006,257.231760739315,36.4158263824279,764.6309031572484,-5.333022157839838,186784.9946289119,10.5,10500186784.994629,47.655,-122.3035,60.0,9.866666666666667
2026-01-20T23:09:53+00:00,SAT-61006,257.39172098328044,36.7729744791872,759.3121780958566,-5.304563136850654,185788.2393323313,10.5,10500185788.239332,47.655,-122.3035,60.0,9.883333333333333
2026-01-20T23:09:54+00:00,SAT-61006,257.55538785252253,37.13449217161409,754.0218357607464,-5.275495054400818,184770.15212707114,10.5,10500184770.152126,47.655,-122.3035,60.0,9.9
2026-01-20T23:09:55+00:00,SAT-61006,257.7228919804273,37.50043695933211,748.7604835805679,-5.2458041286571655,183730.25031503706,10.5,10500183730.250315,47.655,-122.3035,60.0,9.916666666666666
2026-01-20T23:09:56+00:00,SAT-61006,257.8943700830549,37.870866036658235,743.5287427288587,-5.215476296101278,182668.04133232537,10.5,10500182668.041332,47.655,-122.3035,60.0,9.933333333333334
2026-01-20T23:09:57+00:00,SAT-61006,258.0699653078514,38.24583618616043,738.3272484049716,-5.184497230595609,181583.02341699967,10.5,10500181583.023417,47.655,-122.3035,60.0,9.95
2026-01-20T23:09:58+00:00,SAT-61006,258.2498276063165,38.6254036645801,733.1566500959907,-5.152852452625308,180474.68943520164,10.5,10500180474.689436,47.655,-122.3035,60.0,9.966666666666667
2026-01-20T23:09:59+00:00,SAT-61006,258.43411413565417,39.009624087393824,728.0176117296973,-5.120527157948255,179342.52087975034,10.5,10500179342.52088,47.655,-122.3035,60.0,9.983333333333333
2026-01-20T23:10:00+00:00,SAT-61006,258.62298968245585,39.39855229082744,722.9108119984267,-5.087506386291998,178185.9937786226,10.5,10500178185.993778,47.655,-122.3035,60.0,10.0
2026-01-20T23:10:01+00:00,SAT-61006,258.81662712134016,39.79224219546452,717.8369445146806,-5.053774880490229,177004.57376131657,10.5,10500177004.573761,47.655,-122.3035,60.0,10.016666666666667
2026-01-20T23:10:02+00:00,SAT-61006,259.0152079007272,40.19074664761557,712.7967181072239,-5.019317276130704,175797.7227011241,10.5,10500175797.722702,47.655,-122.3035,60.0,10.033333333333333
2026-01-20T23:10:03+00:00,SAT-61006,259.218922569636,40.59411726294957,707.7908569280447,-4.984117908537576,174564.89195483545,10.5,10500174564.891954,47.655,-122.3035,60.0,10.05
2026-01-20T23:10:04+00:00,SAT-61006,259.4279713347586,41.00240424175005,702.8201007518118,-4.948161006850221,173305.52916020094,10.5,10500173305.52916,47.655,-122.3035,60.0,10.066666666666666
2026-01-20T23:10:05+00:00,SAT-61006,259.64256466480816,41.41565618532666,697.8852050817748,-4.9114305240569,172019.0722829907,10.5,10500172019.072283,47.655,-122.3035,60.0,10.083333333333334
2026-01-20T23:10:06+00:00,SAT-61006,259.86292393165684,41.83391988329504,692.9869414251752,-4.873910344285902,170704.9568772073,10.5,10500170704.956877,47.655,-122.3035,60.0,10.1
2026-01-20T23:10:07+00:00,SAT-61006,260.0892821065489,42.25724010164269,688.1260973619229,-4.835584145941843,169362.6112915401,10.5,10500169362.611292,47.655,-122.3035,60.0,10.116666666666667
2026-01-20T23:10:08+00:00,SAT-61006,260.32188450163,42.685659341940664,683.3034767497655,-4.796435496743897,167991.4599980061,10.5,10500167991.459997,47.655,-122.3035,60.0,10.133333333333333
2026-01-20T23:10:09+00:00,SAT-61006,260.56098957037335,43.119217589795085,678.5198998346805,-4.75644779550707,166590.92155288387,10.5,10500166590.921553,47.655,-122.3035,60.0,10.15
2026-01-20T23:10:10+00:00,SAT-61006,260.80686976465927,43.55795203792645,673.7762034193232,-4.715604433454831,165160.4142465643,10.5,10500165160.414248,47.655,-122.3035,60.0,10.166666666666666
2026-01-20T23:10:11+00:00,SAT-61006,261.05981246387813,44.00189680232526,669.0732408706015,-4.673888656706541,163699.3512872785,10.5,10500163699.351288,47.655,-122.3035,60.0,10.183333333333334
2026-01-20T23:10:12+00:00,SAT-61006,261.3201209675261,44.4510826028612,664.4118822643869,-4.631283671764683,162207.14449570698,10.5,10500162207.144495,47.655,-122.3035,60.0,10.2
2026-01-20T23:10:13+00:00,SAT-61006,261.58811556837975,44.90553642864049,659.793014425029,-4.587772683828537,160683.2056468867,10.5,10500160683.205647,47.655,-122.3035,60.0,10.216666666666667
2026-01-20T23:10:14+00:00,SAT-61006,261.86413470981427,45.365281180666564,655.217540926653,-4.543338866168606,159126.94539757355,10.5,10500159126.945398,47.655,-122.3035,60.0,10.233333333333333
2026-01-20T23:10:15+00:00,SAT-61006,262.14853623085145,45.83033528301372,650.686382125004,-4.497965452425673,157537.77651894622,10.5,10500157537.77652,47.655,-122.3035,60.0,10.25
2026-01-20T23:10:16+00:00,SAT-61006,262.4416987126385,46.30071227257553,646.200475097237,-4.451635730496289,155915.1136824497,10.5,10500155915.113682,47.655,-122.3035,60.0,10.266666666666667
2026-01-20T23:10:17+00:00,SAT-61006,262.7440229299411,46.77642035554878,641.7607735878084,-4.404333060291739,154258.3740817898,10.5,10500154258.374083,47.655,-122.3035,60.0,10.283333333333333
2026-01-20T23:10:18+00:00,SAT-61006,263.0559334172266,47.25746193030741,637.3682479366535,-4.356040978558384,152566.9811041845,10.5,10500152566.981104,47.655,-122.3035,60.0,10.3
2026-01-20T23:10:19+00:00,SAT-61006,263.37788016507557,47.743833083648425,633.0238849028248,-4.30674318109796,150840.36370764396,10.5,10500150840.363708,47.655,-122.3035,60.0,10.316666666666666
2026-01-20T23:10:20+00:00,SAT-61006,263.71034044987044,48.235523044649646,628.7286875058649,-4.256423568807471,149077.95803348214,10.5,10500149077.958033,47.655,-122.3035,60.0,10.333333333333334
2026-01-20T23:10:21+00:00,SAT-61006,264.0538208120871,48.73251359967722,624.4836748212591,-4.2050663015592455,147279.20929342418,10.5,10500147279.209293,47.655,-122.3035,60.0,10.35
2026-01-20T23:10:22+00:00,SAT-61006,264.40885919608996,49.23477846629241,620.2898817221549,-4.1526558796265105,145443.57462147487,10.5,10500145443.574621,47.655,-122.3035,60.0,10.366666666666667
2026-01-20T23:10:23+00:00,SAT-61006,264.7760272676845,49.742282626054696,616.1483585398752,-4.099177129659834,143570.5225827538,10.5,10500143570.522583,47.655,-122.3035,60.0,10.383333333333333
2026-01-20T23:10:24+00:00,SAT-61006,265.1559329160355,50.25498160098524,612.0601707384136,-4.0446152936966016,141659.53629098408,10.5,10500141659.536291,47.655,-122.3035,60.0,10.4
2026-01-20T23:10:25+00:00,SAT-61006,265.54922296337116,50.772820681508776,608.0263985001626,-3.9889560985846044,139710.11584000004,10.5,10500139710.11584,47.655,-122.3035,60.0,10.416666666666666
2026-01-20T23:10:26+00:00,SAT-61006,265.9565860978713,51.29573409941797,604.0481362424024,-3.932185785046107,137721.7793216937,10.5,10500137721.779322,47.655,-122.3035,60.0,10.433333333333334
2026-01-20T23:10:27+00:00,SAT-61006,266.3787560437028,51.82364413563617,600.1264921048042,-3.8742911669794755,135694.06490300864,10.5,10500135694.064903,47.655,-122.3035,60.0,10.45
2026-01-20T23:10:28+00:00,SAT-61006,266.81651498861237,52.35646016083191,596.2625873777914,-3.815259743710564,133626.53475745852,10.5,10500133626.534758,47.655,-122.3035,60.0,10.466666666666667
2026-01-20T23:10:29+00:00,SAT-61006,267.2706972943723,52.89407761033716,592.4575558189479,-3.75507968041736,131518.77437951518,10.5,10500131518.77438,47.655,-122.3035,60.0,10.483333333333333
2026-01-20T23:10:30+00:00,SAT-61006,267.7421934956009,53.43637686863643,588.7125429889526,-3.6937399742342487,129370.39840228272,10.5,10500129370.398403,47.655,-122.3035,60.0,10.5
2026-01-20T23:10:31+00:00,SAT-61006,268.2319546272345,53.98322208186892,585.0287054218533,-3.6312304374994326,127181.05001075126,10.5,10500127181.05001,47.655,-122.3035,60.0,10.516666666666667
2026-01-20T23:10:32+00:00,SAT-61006,268.74099687997744,54.534459864748946,581.4072098120469,-3.56754183997516,124950.4059229508,10.5,10500124950.405924,47.655,-122.3035,60.0,10.533333333333333
2026-01-20T23:10:33+00:00,SAT-61006,269.2704066216163,55.08991791592072,577.8492320594239,-3.5026659151990662,122678.17661240228,10.5,10500122678.176613,47.655,-122.3035,60.0,10.55
2026-01-20T23:10:34+00:00,SAT-61006,269.82134578452735,55.649403512099035,574.3559563081757,-3.436595515320317,120364.11173113411,10.5,10500120364.11173,47.655,-122.3035,60.0,10.566666666666666
2026-01-20T23:10:35+00:00,SAT-61006,270.39505765470443,56.21270189322623,570.9285738311818,-3.3693246109339303,118008.00010387941,10.5,10500118008.000103,47.655,-122.3035,60.0,10.583333333333334
2026-01-20T23:10:36+00:00,SAT-61006,270.9928730510999,56.77957450317753,567.568281914563,-3.300848432898549,115609.67469513447,10.5,10500115609.674696,47.655,-122.3035,60.0,10.6
2026-01-20T23:10:37+00:00,SAT-61006,271.61621692186094,57.34975709610815,564.2762826007961,-3.231163486787096,113169.01311528162,10.5,10500113169.013115,47.655,-122.3035,60.0,10.616666666666667
2026-01-20T23:10:38+00:00,SAT-61006,272.26661533313904,57.92295767421083,561.0537814174163,-3.160267721383359,110685.94352205242,10.5,10500110685.943521,47.655,-122.3035,60.0,10.633333333333333
2026-01-20T23:10:39+00:00,SAT-61006,272.94570286339825,58.498854268898675,557.901985937677,-3.0881604942370706,108160.44341412098,10.5,10500108160.443415,47.655,-122.3035,60.0,10.65
2026-01-20T23:10:40+00:00,SAT-61006,273.6552303351839,59.07709251474982,554.822104375559,-3.0148427600747056,105592.54623004694,10.5,10500105592.54623,47.655,-122.3035,60.0,10.666666666666666
2026-01-20T23:10:41+00:00,SAT-61006,274.39707287642125,59.65728303981355,551.8153439928757,-2.9403170798786324,102982.34166626578,10.5,10500102982.341667,47.655,-122.3035,60.0,10.683333333333334
2026-01-20T23:10:42+00:00,SAT-61006,275.17323819838356,60.23899862391609,548.8829094973245,-2.8645877010944836,100329.97848629026,10.5,10500100329.978487,47.655,-122.3035,60.0,10.7
2026-01-20T23:10:43+00:00,SAT-61006,275.98587498976775,60.82177112072024,546.0260013605434,-2.787660677070811,97635.66870399228,10.5,10500097635.668703,47.655,-122.3035,60.0,10.716666666666667
2026-01-20T23:10:44+00:00,SAT-61006,276.83728128005345,61.40508813612016,543.2458140170507,-2.7095438888277195,94899.68834603256,10.5,10500094899.688347,47.655,-122.3035,60.0,10.733333333333333
2026-01-20T23:10:45+00:00,SAT-61006,277.7299125314421,61.98838942909847,540.5435340414718,-2.630247127295026,92122.38033218893,10.5,10500092122.380333,47.655,-122.3035,60.0,10.75
2026-01-20T23:10:46+00:00,SAT-61006,278.6663891834062,62.57106303479813,537.9203382437511,-2.5497821764036472,89304.15738556803,10.5,10500089304.157385,47.655,-122.3035,60.0,10.766666666666667
2026-01-20T23:10:47+00:00,SAT-61006,279.649503271813,63.152441103034754,535.3773916814923,-2.46816283829686,86445.50291561046,10.5,10500086445.502916,47.655,-122.3035,60.0,10.783333333333333
2026-01-20T23:10:48+00:00,SAT-61006,280.68222360817407,63.73179543835157,532.9158456471586,-2.3854050200015884,83546.97405368577,10.5,10500083546.974054,47.655,-122.3035,60.0,10.8
2026-01-20T23:10:49+00:00,SAT-61006,281.76769890666,64.3083327634645,530.5368355688296,-2.3015267586081616,80609.20253499405,10.5,10500080609.202536,47.655,-122.3035,60.0,10.816666666666666
2026-01-20T23:10:50+00:00,SAT-61006,282.909258035774,64.8811897138137,528.2414788858506,-2.216548264929428,77632.89622769295,10.5,10500077632.896227,47.655,-122.3035,60.0,10.833333333333334
2026-01-20T23:10:51+00:00,SAT-61006,284.11040639948226,65.44942760673096,526.0308728809358,-2.1304919633429096,74618.84052833827,10.5,10500074618.840528,47.655,-122.3035,60.0,10.85
2026-01-20T23:10:52+00:00,SAT-61006,285.3748172149194,66.01202704846835,523.9060924725386,-2.0433825267985593,71567.89958800389,10.5,10500071567.899588,47.655,-122.3035,60.0,10.866666666666667
2026-01-20T23:10:53+00:00,SAT-61006,286.70631619318743,66.5678824742812,521.8681879723077,-1.9552468574401571,68481.01563356089,10.5,10500068481.015633,47.655,-122.3035,60.0,10.883333333333333
2026-01-20T23:10:54+00:00,SAT-61006,288.1088578103478,67.1157967439996,519.9181828618683,-1.866114135882676,65359.210693579545,10.5,10500065359.210693,47.655,-122.3035,60.0,10.9
2026-01-20T23:10:55+00:00,SAT-61006,289.5864911330501,67.65447600049768,518.0570715204601,-1.776015797991787,62203.58578504921,10.5,10500062203.585785,47.655,-122.3035,60.0,10.916666666666666
2026-01-20T23:10:56+00:00,SAT-61006,291.1433128005406,68.18252502502325,516.2858169757326,-1.6849855196290036,59015.32037908885,10.5,10500059015.32038,47.655,-122.3035,60.0,10.933333333333334
2026-01-20T23:10:57+00:00,SAT-61006,292.7834045786208,68.69844342093305,514.6053486697537,-1.5930591923568127,55795.67155003791,10.5,10500055795.67155,47.655,-122.3035,60.0,10.95
2026-01-20T23:10:58+00:00,SAT-61006,294.5107527745915,69.20062304231915,513.0165602492494,-1.5002749151434438,52545.97368492225,10.5,10500052545.973684,47.655,-122.3035,60.0,10.966666666666667
2026-01-20T23:10:59+00:00,SAT-61006,296.32914690721014,69.68734719161131,511.5203073641155,-1.4066729152736464,49267.63571341507,10.5,10500049267.635714,47.655,-122.3035,60.0,10.983333333333333
2026-01-20T23:11:00+00:00,SAT-61006,298.24205530427616,70.15679218704737,510.1174055448069,-1.312295501860177,45962.13947961245,10.5,10500045962.139479,47.655,-122.3035,60.0,11.0
2026-01-20T23:11:01+00:00,SAT-61006,300.25247618405626,70.60703203236795,508.80862812609047,-1.2171870073271198,42631.037692531805,10.5,10500042631.037693,47.655,-122.3035,60.0,11.016666666666667
2026-01-20T23:11:02+00:00,SAT-61006,302.3627640931257,71.03604698976964,507.5947042291581,-1.121393700545028,39275.950883737016,10.5,10500039275.950884,47.655,-122.3035,60.0,11.033333333333333
2026-01-20T23:11:03+00:00,SAT-61006,304.5744335784012,71.44173689369244,506.47631683037173,-1.0249636917732436,35898.56407801646,10.5,10500035898.564077,47.655,-122.3035,60.0,11.05
2026-01-20T23:11:04+00:00,SAT-61006,306.8879447806674,71.82194002697405,505.45410092481114,-0.9279468396495822,32500.623535768245,10.5,10500032500.623535,47.655,-122.3035,60.0,11.066666666666666
2026-01-20T23:11:05+00:00,SAT-61006,309.3024792048947,72.17445826735796,504.5286417825821,-0.8303946193516437,29083.93213545172,10.5,10500029083.932135,47.655,-122.3035,60.0,11.083333333333334
2026-01-20T23:11:06+00:00,SAT-61006,311.81571791742607,72.49708895302662,503.7004733366104,-0.7323600305636776,25650.34615019773,10.5,10500025650.34615,47.655,-122.3035,60.0,11.1
2026-01-20T23:11:07+00:00,SAT-61006,314.4236388358832,72.78766355105077,502.97007666222305,-0.633897432475537,22201.76946877409,10.5,10500022201.769468,47.655,-122.3035,60.0,11.116666666666667
2026-01-20T23:11:08+00:00,SAT-61006,317.1203531735646,73.0440926167578,502.33787862128605,-0.5350624191895544,18740.1492318073,10.5,10500018740.149231,47.655,-122.3035,60.0,11.133333333333333
2026-01-20T23:11:09+00:00,SAT-61006,319.8980036037121,73.2644158839378,501.80425063060375,-0.43591166570454065,15267.470437490714,10.5,10500015267.470438,47.655,-122.3035,60.0,11.15
2026-01-20T23:11:10+00:00,SAT-61006,322.74674626433904,73.44685552692816,501.36950758391913,-0.3365027724296943,11785.750495803968,10.5,10500011785.750496,47.655,-122.3035,60.0,11.166666666666666
2026-01-20T23:11:11+00:00,SAT-61006,325.6548351759178,73.58986989216577,501.0339069289849,-0.23689409910028794,8297.033411537735,10.5,10500008297.033411,47.655,-122.3035,60.0,11.183333333333334
2026-01-20T23:11:12+00:00,SAT-61006,328.6088201670532,73.69220438858567,500.79764791027293,-0.1371445965532399,4803.383892362692,10.5,10500004803.383892,47.655,-122.3035,60.0,11.2
2026-01-20T23:11:13+00:00,SAT-61006,331.59385857387076,73.7529359188566,500.66087097945706,-0.03731363359525267,1306.881285019362,10.5,10500001306.881285,47.655,-122.3035,60.0,11.216666666666667
2026-01-20T23:11:14+00:00,SAT-61006,334.5941279418474,73.77150733482239,500.6236573785641,0.06253917608203816,-2190.3864868455116,10.5,10499997809.613514,47.655,-122.3035,60.0,11.233333333333333
2026-01-20T23:11:15+00:00,SAT-61006,337.5933140417662,73.74774897596083,500.6860288957455,0.16235415518462706,-5686.329271961152,10.5,10499994313.670729,47.655,-122.3035,60.0,11.25
2026-01-20T23:11:16+00:00,SAT-61006,340.5751379091873,73.68188535691216,500.8479478018449,0.26207173670340533,-9178.860781700374,10.5,10499990821.139217,47.655,-122.3035,60.0,11.266666666666667
2026-01-20T23:11:17+00:00,SAT-61006,343.5238800175257,73.57452639279938,501.109316960388,0.3616326448658094,-12665.90492777173,10.5,10499987334.095072,47.655,-122.3035,60.0,11.283333333333333
2026-01-20T23:11:18+00:00,SAT-61006,346.4248602550778,73.42664396162525,501.4699801180384,0.46097806779027384,-16145.401869308784,10.5,10499983854.598131,47.655,-122.3035,60.0,11.3
2026-01-20T23:11:19+00:00,SAT-61006,349.26483845770343,73.23953589514967,501.92972236724376,0.5600498284552994,-19615.31400093008,10.5,10499980384.685999,47.655,-122.3035,60.0,11.316666666666666
2026-01-20T23:11:20+00:00,SAT-61006,352.0323114913962,73.01478044488428,502.4882707793958,0.6587905559087198,-23073.631949211875,10.5,10499976926.368052,47.655,-122.3035,60.0,11.333333333333334
2026-01-20T23:11:21+00:00,SAT-61006,354.71769589318916,72.75418477914907,503.14529520873725,0.7571438441795746,-26518.380138454093,10.5,10499973481.619862,47.655,-122.3035,60.0,11.35
2026-01-20T23:11:22+00:00,SAT-61006,357.3133978852601,72.45973111409818,503.90040925475637,0.8550544057141024,-29947.622164657907,10.5,10499970052.377836,47.655,-122.3035,60.0,11.366666666666667
2026-01-20T23:11:23+00:00,SAT-61006,359.8137830980264,72.1335237205973,504.75317137760635,0.9524682296466864,-33359.466338843675,10.5,10499966640.53366,47.655,-122.3035,60.0,11.383333333333333
2026-01-20T23:11:24+00:00,SAT-61006,2.2150652783177582,71.77773941188102,505.7030861713698,1.0493327052124484,-36752.07000948206,10.5,10499963247.92999,47.655,-122.3035,60.0,11.4
2026-01-20T23:11:25+00:00,SAT-61006,4.515136286398789,71.39458336810442,506.74960576040746,1.1455967646959377,-40123.64456916173,10.5,10499959876.35543,47.655,-122.3035,60.0,11.416666666666666
2026-01-20T23:11:26+00:00,SAT-61006,6.71335974627209,70.98625136653735,507.8921313382696,1.2412110080571013,-43472.45981951808,10.5,10499956527.54018,47.655,-122.3035,60.0,11.433333333333334
2026-01-20T23:11:27+00:00,SAT-61006,8.810348099221107,70.5548988256026,509.1300148309011,1.33612778927185,-46796.84699524504,10.5,10499953203.153006,47.655,-122.3035,60.0,11.45
2026-01-20T23:11:28+00:00,SAT-61006,10.807739017530672,70.10261654491843,510.4625606459556,1.4303013493134786,-50095.20342166688,10.5,10499949904.796577,47.655,-122.3035,60.0,11.466666666666667
2026-01-20T23:11:29+00:00,SAT-61006,12.707983038353046,69.63141262024759,511.88902755473316,1.5236878788221992,-53365.994709690436,10.5,10499946634.005291,47.655,-122.3035,60.0,11.483333333333333
2026-01-20T23:11:30+00:00,SAT-61006,14.514150027829986,69.14319982801373,513.4086306366211,1.6162456060126127,-56607.75783469653,10.5,10499943392.242165,47.655,-122.3035,60.0,11.5
2026-01-20T23:11:31+00:00,SAT-61006,16.229758820754117,68.63978763715171,515.0205433112059,1.707934860174751,-59819.10336061518,10.5,10499940180.896639,47.655,-122.3035,60.0,11.516666666666667
2026-01-20T23:11:32+00:00,SAT-61006,17.8586315955079,68.12287801179228,516.7238994337155,1.7987181258482754,-62998.71733733505,10.5,10499937001.282663,47.655,-122.3035,60.0,11.533333333333333
2026-01-20T23:11:33+00:00,SAT-61006,19.404772639639013,67.594064212102,518.5177954444915,1.888560085219435,-66145.3627856244,10.5,10499933854.637215,47.655,-122.3035,60.0,11.55
2026-01-20T23:11:34+00:00,SAT-61006,20.872269890593472,67.0548318864886,520.4012925607436,1.9774276497588947,-69257.88080522158,10.5,10499930742.119194,47.655,-122.3035,60.0,11.566666666666666
2026-01-20T23:11:35+00:00,SAT-61006,22.2652169138203,66.50656184928492,522.3734189998584,2.0652899821349635,-72335.19134232894,10.5,10499927664.808659,47.655,-122.3035,60.0,11.583333333333334
2026-01-20T23:11:36+00:00,SAT-61006,23.587652656558436,65.95053404183749,524.4331722245613,2.152118496098165,-75376.29318557016,10.5,10499924623.706814,47.655,-122.3035,60.0,11.6
2026-01-20T23:11:37+00:00,SAT-61006,24.843516268056455,65.38793227626218,526.5795211879639,2.2378868819437447,-78380.26485779478,10.5,10499921619.735142,47.655,-122.3035,60.0,11.616666666666667
2026-01-20T23:11:38+00:00,SAT-61006,26.036614440491658,64.81984943623016,528.8114086040054,2.322571064207081,-81346.26313439262,10.5,10499918653.736866,47.655,-122.3035,60.0,11.633333333333333
2026-01-20T23:11:39+00:00,SAT-61006,27.170598907218793,64.24729290897409,531.1277531757042,2.4061491964223425,-84273.52285971981,10.5,10499915726.47714,47.655,-122.3035,60.0,11.65
2026-01-20T23:11:40+00:00,SAT-61006,28.24895208607901,63.671190056903335,533.5274518181794,2.488601653549958,-87161.35668187677,10.5,10499912838.643318,47.655,-122.3035,60.0,11.666666666666666
2026-01-20T23:11:41+00:00,SAT-61006,29.27497912110163,63.09239359928336,536.0093818741233,2.569910958279474,-90009.15247152241,10.5,10499909990.847528,47.655,-122.3035,60.0,11.683333333333334
2026-01-20T23:11:42+00:00,SAT-61006,30.251804833564123,62.511686828709784,538.5724032557713,2.6500617663437174,-92816.37280751416,10.5,10499907183.627192,47.655,-122.3035,60.0,11.7
2026-01-20T23:11:43+00:00,SAT-61006,31.18237441246431,61.92978858773907,541.2153605722277,2.7290408163946696,-95582.553221349,10.5,10499904417.44678,47.655,-122.3035,60.0,11.716666666666667
2026-01-20T23:11:44+00:00,SAT-61006,32.069456853308274,61.34735797774562,543.9370852068012,2.8068368553393115,-98307.2995821088,10.5,10499901692.700418,47.655,-122.3035,60.0,11.733333333333333
2026-01-20T23:11:45+00:00,SAT-61006,32.91565036117947,60.76499878568606,546.736397319875,2.8834405970102406,-100990.28664893073,10.5,10499899009.71335,47.655,-122.3035,60.0,11.75
2026-01-20T23:11:46+00:00,SAT-61006,33.723389115974456,60.18326361470657,549.6121078105593,2.958844659659846,-103631.25588178867,10.5,10499896368.744118,47.655,-122.3035,60.0,11.766666666666667
2026-01-20T23:11:47+00:00,SAT-61006,34.49495091347125,59.60265772580227,552.5630202160072,3.03304347728422,-106230.0123356816,10.5,10499893769.987665,47.655,-122.3035,60.0,11.783333333333333
2026-01-20T23:11:48+00:00,SAT-61006,35.2324653070671,59.02364260393846,555.5879325222888,3.1060332342846433,-108786.42237220242,10.5,10499891213.577627,47.655,-122.3035,60.0,11.8
2026-01-20T23:11:49+00:00,SAT-61006,35.93792197934439,58.446639256081504,558.6856389101049,3.1778118333460657,-111300.41253450642,10.5,10499888699.587465,47.655,-122.3035,60.0,11.816666666666666
2026-01-20T23:11:50+00:00,SAT-61006,36.61317914132662,57.872031250269046,561.8549314684637,3.2483787249592933,-113771.96357645722,10.5,10499886228.036423,47.655,-122.3035,60.0,11.833333333333334
2026-01-20T23:11:51+00:00,SAT-61006,37.25997177588652,57.300167537299224,565.0946017383377,3.3177349456540437,-116201.11180171004,10.5,10499883798.888199,47.655,-122.3035,60.0,11.85
2026-01-20T23:11:52+00:00,SAT-61006,37.87991966545645,56.73136503311255,568.4034422944497,3.3858829434328266,-118587.9429496678,10.5,10499881412.05705,47.655,-122.3035,60.0,11.866666666666667
2026-01-20T23:11:53+00:00,SAT-61006,38.4745350821179,56.16591101710007,571.780248152963,3.4528265433203766,-120932.59098887656,10.5,10499879067.409012,47.655,-122.3035,60.0,11.883333333333333
2026-01-20T23:11:54+00:00,SAT-61006,39.045230123798255,55.60406533666997,575.2238181448108,3.518570863610431,-123235.23518363335,10.5,10499876764.764816,47.655,-122.3035,60.0,11.9
2026-01-20T23:11:55+00:00,SAT-61006,39.593323657376786,55.046062442325024,578.7329562054987,3.5831222428907106,-125496.09753809238,10.5,10499874503.902462,47.655,-122.3035,60.0,11.916666666666666
2026-01-20T23:11:56+00:00,SAT-61006,40.1200478575973,54.492113265642054,582.306472592127,3.6464881355811407,-127715.43913757155,10.5,10499872284.560862,47.655,-122.3035,60.0,11.933333333333334
2026-01-20T23:11:57+00:00,SAT-61006,40.62655433531749,53.94240695825133,585.9431849962319,3.708677057681388,-129893.55824840187,10.5,10499870106.441751,47.655,-122.3035,60.0,11.95
2026-01-20T23:11:58+00:00,SAT-61006,41.113919869110006,53.39711249604586,589.641919602519,3.7696985253458988,-132030.78816656535,10.5,10499867969.211834,47.655,-122.3035,60.0,11.966666666666667
2026-01-20T23:11:59+00:00,SAT-61006,41.58315174982271,52.85638016154325,593.401512086337,3.82956293655585,-134127.49307334618,10.5,10499865872.506927,47.655,-122.3035,60.0,11.983333333333333
2026-01-20T23:12:00+00:00,SAT-61006,42.03519274594111,52.3203429228887,597.2208084931394,3.888281527169956,-136184.0664960442,10.5,10499863815.933504,47.655,-122.3035,60.0,12.0
2026-01-20T23:12:01+00:00,SAT-61006,42.470925718397105,51.78911770786775,601.0986660741181,3.9458663141326897,-138200.92931888648,10.5,10499861799.07068,47.655,-122.3035,60.0,12.016666666666667
2026-01-20T23:12:02+00:00,SAT-61006,42.8911779012123,51.262806583886594,605.033954065192,4.002329999319098,-140178.52641526604,10.5,10499859821.473585,47.655,-122.3035,60.0,12.033333333333333
2026-01-20T23:12:03+00:00,SAT-61006,43.296724863580586,50.74149785714589,609.0255543701044,4.057685919977409,-142117.3249120323,10.5,10499857882.675089,47.655,-122.3035,60.0,12.05
2026-01-20T23:12:04+00:00,SAT-61006,43.68829417896078,50.22526709165516,613.072362194091,4.111947986791269,-144017.8120201687,10.5,10499855982.18798,47.655,-122.3035,60.0,12.066666666666666
2026-01-20T23:12:05+00:00,SAT-61006,44.06656881925222,49.714178056472576,617.1732866157785,4.165130601881909,-145880.4921628817,10.5,10499854119.507837,47.655,-122.3035,60.0,12.083333333333334
2026-01-20T23:12:06+00:00,SAT-61006,44.432190291132436,49.20828360952683,621.3272510773047,4.217248655454922,-147705.88685815668,10.5,10499852294.113142,47.655,-122.3035,60.0,12.1
2026-01-20T23:12:07+00:00,SAT-61006,44.785761540582065,48.70762651377849,625.5331938710947,4.268317402738773,-149494.53040862395,10.5,10499850505.469591,47.655,-122.3035,60.0,12.116666666666667
2026-01-20T23:12:08+00:00,SAT-61006,45.12784963111223,48.212240205429715,629.7900685039045,4.318352448004346,-151246.9693418559,10.5,10499848753.030659,47.655,-122.3035,60.0,12.133333333333333
2026-01-20T23:12:09+00:00,SAT-61006,45.458988222830875,47.7221495053898,634.0968440449283,4.367369705529843,-152963.76104319256,10.5,10499847036.238956,47.655,-122.3035,60.0,12.15
2026-01-20T23:12:10+00:00,SAT-61006,45.779679864614636,47.23737128134725,638.4525054349746,4.415385339728062,-154645.4716587455,10.5,10499845354.528341,47.655,-122.3035,60.0,12.166666666666666
2026-01-20T23:12:11+00:00,SAT-61006,46.09039811221164,46.75791506662004,642.8560537359299,4.462415708720144,-156292.6741191118,10.5,10499843707.32588,47.655,-122.3035,60.0,12.183333333333334
2026-01-20T23:12:12+00:00,SAT-61006,46.39158948596638,46.28378363866942,647.3065063239484,4.508477319474508,-157905.94656814996,10.5,10499842094.053432,47.655,-122.3035,60.0,12.2
2026-01-20T23:12:13+00:00,SAT-61006,46.68367528175455,45.814973559066985,651.8028970378992,4.5535868374570585,-159485.8727009707,10.5,10499840514.127298,47.655,-122.3035,60.0,12.216666666666667
2026-01-20T23:12:14+00:00,SAT-61006,46.96705324985634,45.351475672339774,656.3442763374402,4.597761013923226,-161033.0392173971,10.5,10499838966.960783,47.655,-122.3035,60.0,12.233333333333333
2026-01-20T23:12:15+00:00,SAT-61006,47.24209914652321,44.89327557524164,660.9297113885759,4.641016639606066,-162548.0341999254,10.5,10499837451.9658,47.655,-122.3035,60.0,12.25
2026-01-20T23:12:16+00:00,SAT-61006,47.509168170114926,44.44035405584052,665.5582861030315,4.683370504236678,-164031.44569595918,10.5,10499835968.554304,47.655,-122.3035,60.0,12.266666666666667
2026-01-20T23:12:17+00:00,SAT-61006,47.76859629131237,43.99268750400527,670.2291011372515,4.724839438147331,-165483.86317492675,10.5,10499834516.136826,47.655,-122.3035,60.0,12.283333333333333
2026-01-20T23:12:18+00:00,SAT-61006,48.020701490234586,43.55024828774149,674.9412739328928,4.765440235489872,-166905.874839065,10.5,10499833094.12516,47.655,-122.3035,60.0,12.3
2026-01-20T23:12:19+00:00,SAT-61006,48.26578490077538,43.11300510902811,679.6939386807422,4.805189595645108,-168298.06557132813,10.5,10499831701.93443,47.655,-122.3035,60.0,12.316666666666666
2026-01-20T23:12:20+00:00,SAT-61006,48.50413187066532,42.6809233387354,684.4862462261974,4.844104144734726,-169661.017688826,10.5,10499830338.982311,47.655,-122.3035,60.0,12.333333333333334
2026-01-20T23:12:21+00:00,SAT-61006,48.73601294820468,42.25396532489371,689.3173639962064,4.8822004545751,-170995.31160666674,10.5,10499829004.688393,47.655,-122.3035,60.0,12.35
2026-01-20T23:12:22+00:00,SAT-61006,48.961684800550536,41.83209067673422,694.1864759451066,4.919494911122442,-172301.5212303494,10.5,10499827698.47877,47.655,-122.3035,60.0,12.366666666666667
2026-01-20T23:12:23+00:00,SAT-61006,49.181391061877086,41.41525653903143,699.0927823692624,4.9560038007630505,-173580.21697801357,10.5,10499826419.783022,47.655,-122.3035,60.0,12.383333333333333
2026-01-20T23:12:24+00:00,SAT-61006,49.39536312699493,41.00341783892151,704.0354998077642,4.991743222037708,-174831.9626886542,10.5,10499825168.037312,47.655,-122.3035,60.0,12.4
2026-01-20T23:12:25+00:00,SAT-61006,49.60382088658768,40.5965275217536,709.0138608550842,5.026729162453624,-176057.31831240084,10.5,10499823942.681688,47.655,-122.3035,60.0,12.416666666666666
2026-01-20T23:12:26+00:00,SAT-61006,49.806973415667265,40.19453676330734,714.0271140503418,5.060977359985791,-177256.83505970924,10.5,10499822743.16494,47.655,-122.3035,60.0,12.433333333333334
2026-01-20T23:12:27+00:00,SAT-61006,50.0050196095585,39.79739517721195,719.0745236284403,5.094503387385933,-178431.0583542175,10.5,10499821568.941647,47.655,-122.3035,60.0,12.45
2026-01-20T23:12:28+00:00,SAT-61006,50.19814878079131,39.40505100029812,724.1553693552862,5.1273226403246035,-179580.52741743202,10.5,10499820419.472582,47.655,-122.3035,60.0,12.466666666666667
2026-01-20T23:12:29+00:00,SAT-61006,50.386541215696624,39.0174512650677,729.2689463511825,5.159450239448847,-180705.7718383726,10.5,10499819294.22816,47.655,-122.3035,60.0,12.483333333333333
2026-01-20T23:12:30+00:00,SAT-61006,50.570368690266754,38.6345419665009,734.4145648165436,5.190901163775785,-181807.31624557995,10.5,10499818192.683754,47.655,-122.3035,60.0,12.5
2026-01-20T23:12:31+00:00,SAT-61006,50.749794957371755,38.25626820649804,739.5915498906435,5.221690067739597,-182885.67389932726,10.5,10499817114.326101,47.655,-122.3035,60.0,12.516666666666667
2026-01-20T23:12:32+00:00,SAT-61006,50.92497619537443,37.882574340536856,744.7992413279048,5.251831451304623,-183941.35264970057,10.5,10499816058.64735,47.655,-122.3035,60.0,12.533333333333333
2026-01-20T23:12:33+00:00,SAT-61006,51.096061433947405,37.51340410108747,750.0369933438412,5.281339558440079,-184974.85138075365,10.5,10499815025.148619,47.655,-122.3035,60.0,12.55
2026-01-20T23:12:34+00:00,SAT-61006,51.26319294884746,37.1487007186714,755.3041743597497,5.310228386807863,-185986.6603498163,10.5,10499814013.339651,47.655,-122.3035,60.0,12.566666666666666
2026-01-20T23:12:35+00:00,SAT-61006,51.426506631953934,36.78840703287504,760.6001667570641,5.338511643006192,-186977.25961993684,10.5,10499813022.74038,47.655,-122.3035,60.0,12.583333333333334
2026-01-20T23:12:36+00:00,SAT-61006,51.58613233648202,36.43246559767842,765.92436658707,5.366202866655893,-187947.1234059093,10.5,10499812052.876595,47.655,-122.3035,60.0,12.6
2026-01-20T23:12:37+00:00,SAT-61006,51.74219420448015,36.08081877037641,771.2761834043763,5.393315297905108,-188896.71543372728,10.5,10499811103.284567,47.655,-122.3035,60.0,12.616666666666667
2026-01-20T23:12:38+00:00,SAT-61006,51.894810969713795,35.733408802034475,776.6550399682453,5.419861930701134,-189826.49080638948,10.5,10499810173.509193,47.655,-122.3035,60.0,12.633333333333333
2026-01-20T23:12:39+00:00,SAT-61006,52.04409624355609,35.39017791729573,782.0603719970512,5.445855502203321,-190736.8956330945,10.5,10499809263.104366,47.655,-122.3035,60.0,12.65
2026-01-20T23:12:40+00:00,SAT-61006,52.19015878297507,35.05106838839276,787.4916279121813,5.471308525753572,-191628.36818400718,10.5,10499808371.631817,47.655,-122.3035,60.0,12.666666666666666
2026-01-20T23:12:41+00:00,SAT-61006,52.333102743155926,34.716022601089286,792.9482686148176,5.4962332266430876,-192501.33664053824,10.5,10499807498.663359,47.655,-122.3035,60.0,12.683333333333334
2026-01-20T23:12:42+00:00,SAT-61006,52.473027913053535,34.3849831190213,798.4297671986602,5.520641612109595,-193356.22154694347,10.5,10499806643.778454,47.655,-122.3035,60.0,12.7
2026-01-20T23:12:43+00:00,SAT-61006,52.6100299387309,34.05789273848614,803.9356087324562,5.544545421510344,-194193.43406517123,10.5,10499805806.565935,47.655,-122.3035,60.0,12.716666666666667
2026-01-20T23:12:44+00:00,SAT-61006,52.74420053204588,33.73469454145543,809.4652899928388,5.567956147075511,-195013.3767017343,10.5,10499804986.623299,47.655,-122.3035,60.0,12.733333333333333
2026-01-20T23:12:45+00:00,SAT-61006,52.87562766759612,33.41533194279827,815.0183192178621,5.590885058617591,-195816.44417313763,10.5,10499804183.555826,47.655,-122.3035,60.0,12.75
2026-01-20T23:12:46+00:00,SAT-61006,53.004395768668005,33.099748731948615,820.5942158851796,5.613343135848342,-196603.02103533104,10.5,10499803396.978964,47.655,-122.3035,60.0,12.766666666666667
2026-01-20T23:12:47+00:00,SAT-61006,53.130585880754396,32.7878891145502,826.1925104227217,5.635341159579205,-197373.48487793395,10.5,10499802626.515121,47.655,-122.3035,60.0,12.783333333333333
2026-01-20T23:12:48+00:00,SAT-61006,53.25427583720093,32.479697745318546,831.8127440103297,5.656889669119906,-198128.2048321543,10.5,10499801871.795168,47.655,-122.3035,60.0,12.8
2026-01-20T23:12:49+00:00,SAT-61006,53.37554041437565,32.17511976006656,837.4544683388971,5.6779989527246855,-198867.5412361748,10.5,10499801132.458763,47.655,-122.3035,60.0,12.816666666666666
2026-01-20T23:12:50+00:00,SAT-61006,53.494451477694255,31.874100805134557,843.1172453599935,5.698679044216834,-199591.8455169301,10.5,10499800408.154484,47.655,-122.3035,60.0,12.833333333333334
2026-01-20T23:12:51+00:00,SAT-61006,53.611078119479,31.576587064069866,848.8006470321103,5.718939809512342,-200301.46322053103,10.5,10499799698.53678,47.655,-122.3035,60.0,12.85
2026-01-20T23:12:52+00:00,SAT-61006,53.72548679081236,31.282525277149492,854.504255153207,5.7387908573704145,-200996.7308863699,10.5,10499799003.269114,47.655,-122.3035,60.0,12.866666666666667
2026-01-20T23:12:53+00:00,SAT-61006,53.83774142422859,30.99186276324915,860.2276611042421,5.758241573600846,-201677.9772452077,10.5,10499798322.022755,47.655,-122.3035,60.0,12.883333333333333
2026-01-20T23:12:54+00:00,SAT-61006,53.94790355026223,30.704547437619006,865.9704656268214,5.777301082697122,-202345.5218754028,10.5,10499797654.478125,47.655,-122.3035,60.0,12.9
2026-01-20T23:12:55+00:00,SAT-61006,54.05603240691575,30.42052782946325,871.7322785625832,5.795978401449394,-202999.68058308735,10.5,10499797000.319416,47.655,-122.3035,60.0,12.916666666666666
2026-01-20T23:12:56+00:00,SAT-61006,54.162185046140166,30.13975309004077,877.5127187457832,5.8142822292598675,-203640.75805812504,10.5,10499796359.241941,47.655,-122.3035,60.0,12.933333333333334
