DopplerPredictor/satellites_20260205_234138/SAT-48283.csv

timestamp,satellite,azimuth_deg,elevation_deg,distance_km,relative_velocity_kms,doppler_shift_hz,tx_freq_ghz,rx_freq_hz,ue_lat,ue_lon,ue_alt_m,time_minutes
2026-01-20T23:00:00+00:00,SAT-48283,213.68049932757404,32.47519057619907,939.5611316177389,-5.251702877379029,183936.8494469591,10.5,10500183936.849447,47.655,-122.3035,60.0,0.0
2026-01-20T23:00:01+00:00,SAT-48283,213.48219755023857,32.73660176391367,934.3235078310393,-5.228616232052013,183128.25747119405,10.5,10500183128.257471,47.655,-122.3035,60.0,0.016666666666666666
2026-01-20T23:00:02+00:00,SAT-48283,213.2804313395466,33.00025697879024,929.1089087975562,-5.2051328784270705,182305.77109276125,10.5,10500182305.771093,47.655,-122.3035,60.0,0.03333333333333333
2026-01-20T23:00:03+00:00,SAT-48283,213.07511526151848,33.266171028336956,923.917730162068,-5.181245716929166,181469.1416545117,10.5,10500181469.141655,47.655,-122.3035,60.0,0.05
2026-01-20T23:00:04+00:00,SAT-48283,212.8661612493652,33.534358123916334,918.7503746498937,-5.156947506439354,180618.11554183002,10.5,10500180618.115541,47.655,-122.3035,60.0,0.06666666666666667
2026-01-20T23:00:05+00:00,SAT-48283,212.6534785127442,33.80483182809727,913.6072522080608,-5.13223091696503,179752.43602736935,10.5,10500179752.436028,47.655,-122.3035,60.0,0.08333333333333333
2026-01-20T23:00:06+00:00,SAT-48283,212.43697344182954,34.07760500183142,908.4887800939362,-5.107088528402537,178871.8432277127,10.5,10500178871.843227,47.655,-122.3035,60.0,0.1
2026-01-20T23:00:07+00:00,SAT-48283,212.21654950781456,34.35268974863615,903.3953829651001,-5.081512831002192,177976.0741196599,10.5,10500177976.07412,47.655,-122.3035,60.0,0.11666666666666667
2026-01-20T23:00:08+00:00,SAT-48283,211.99210716006806,34.6300973557227,898.3274929687491,-5.055496240947254,177064.86308586912,10.5,10500177064.863087,47.655,-122.3035,60.0,0.13333333333333333
2026-01-20T23:00:09+00:00,SAT-48283,211.76354371887155,34.909838232761786,893.2855498155656,-5.029031011554712,176137.93880473296,10.5,10500176137.938805,47.655,-122.3035,60.0,0.15
2026-01-20T23:00:10+00:00,SAT-48283,211.53075326903414,35.191921842307025,888.2700009421463,-5.002109404773541,175195.03025697256,10.5,10500175195.030256,47.655,-122.3035,60.0,0.16666666666666666
2026-01-20T23:00:11+00:00,SAT-48283,211.2936265413705,35.4763566361265,883.2813015023961,-4.974723550694589,174235.8618050798,10.5,10500174235.861805,47.655,-122.3035,60.0,0.18333333333333332
2026-01-20T23:00:12+00:00,SAT-48283,211.0520507973296,35.76314998009255,878.3199144990289,-4.946865482388536,173260.1544134897,10.5,10500173260.154413,47.655,-122.3035,60.0,0.2
2026-01-20T23:00:13+00:00,SAT-48283,210.8059097082048,36.05230807698264,873.3863108803312,-4.918527197874141,172267.62781897097,10.5,10500172267.62782,47.655,-122.3035,60.0,0.21666666666666667
2026-01-20T23:00:14+00:00,SAT-48283,210.5550832272853,36.34383588881173,868.4809695751178,-4.889700584139648,171257.99786953384,10.5,10500171257.99787,47.655,-122.3035,60.0,0.23333333333333334
2026-01-20T23:00:15+00:00,SAT-48283,210.299447462064,36.6377370504997,863.6043776034659,-4.8603774881211335,170230.97901039227,10.5,10500170230.97901,47.655,-122.3035,60.0,0.25
2026-01-20T23:00:16+00:00,SAT-48283,210.03887453881978,36.93401378324378,858.7570301166583,-4.830549684078869,169186.28314134612,10.5,10500169186.283142,47.655,-122.3035,60.0,0.26666666666666666
2026-01-20T23:00:17+00:00,SAT-48283,209.77323246489726,37.2326668013446,853.9394304696665,-4.8002088534779075,168123.6189121143,10.5,10500168123.618912,47.655,-122.3035,60.0,0.2833333333333333
2026-01-20T23:00:18+00:00,SAT-48283,209.50238498858195,37.533695212860906,849.152090313696,-4.7693466937949,167042.6955332094,10.5,10500167042.695534,47.655,-122.3035,60.0,0.3
2026-01-20T23:00:19+00:00,SAT-48283,209.22619144841232,37.837096421983446,844.3955295802173,-4.73795478818081,165943.2182109748,10.5,10500165943.21821,47.655,-122.3035,60.0,0.31666666666666665
2026-01-20T23:00:20+00:00,SAT-48283,208.94450662662024,38.14286601803809,839.6702765949861,-4.706024698889226,164824.89141983978,10.5,10500164824.89142,47.655,-122.3035,60.0,0.3333333333333333
2026-01-20T23:00:21+00:00,SAT-48283,208.65718059318115,38.45099766478615,834.976868098883,-4.673547964262904,163687.4187967747,10.5,10500163687.418797,47.655,-122.3035,60.0,0.35
2026-01-20T23:00:22+00:00,SAT-48283,208.36405854645506,38.76148298391811,830.3158492717629,-4.640516095206563,162530.5030177541,10.5,10500162530.503017,47.655,-122.3035,60.0,0.36666666666666664
2026-01-20T23:00:23+00:00,SAT-48283,208.06498065027307,39.074311432424594,825.6877737598162,-4.60692056961072,161353.8456024553,10.5,10500161353.845602,47.655,-122.3035,60.0,0.38333333333333336
2026-01-20T23:00:24+00:00,SAT-48283,207.7597818684326,39.389470173418445,821.0932037084975,-4.5727528422216865,160157.1472599478,10.5,10500160157.14726,47.655,-122.3035,60.0,0.4
2026-01-20T23:00:25+00:00,SAT-48283,207.4482917954407,39.706943941159025,816.5327097856062,-4.538004391924816,158940.10954475237,10.5,10500158940.109545,47.655,-122.3035,60.0,0.4166666666666667
2026-01-20T23:00:26+00:00,SAT-48283,207.13033448119307,40.0267149027244,812.0068711572115,-4.50266669596887,157702.43395406942,10.5,10500157702.433954,47.655,-122.3035,60.0,0.43333333333333335
2026-01-20T23:00:27+00:00,SAT-48283,206.80572825488468,40.34876251112646,807.5162754892863,-4.466731243655547,156443.8224072443,10.5,10500156443.822407,47.655,-122.3035,60.0,0.45
2026-01-20T23:00:28+00:00,SAT-48283,206.47428554609544,40.67306335226781,803.0615189356862,-4.430189543745517,155163.9775051577,10.5,10500155163.977505,47.655,-122.3035,60.0,0.4666666666666667
2026-01-20T23:00:29+00:00,SAT-48283,206.13581270375957,40.99959098509147,798.6432061187414,-4.393033150614849,153862.60344633457,10.5,10500153862.603447,47.655,-122.3035,60.0,0.48333333333333334
2026-01-20T23:00:30+00:00,SAT-48283,205.79010981224303,41.32831577608118,794.261950083765,-4.355253679719107,152539.40656856226,10.5,10500152539.406569,47.655,-122.3035,60.0,0.5
2026-01-20T23:00:31+00:00,SAT-48283,205.4369705056808,41.65920472721297,789.918372238136,-4.316842793284437,151194.09484773158,10.5,10500151194.094849,47.655,-122.3035,60.0,0.5166666666666667
2026-01-20T23:00:32+00:00,SAT-48283,205.0761817841769,41.992221294870085,785.6131023046562,-4.277792218717437,149826.37854262863,10.5,10500149826.378542,47.655,-122.3035,60.0,0.5333333333333333
2026-01-20T23:00:33+00:00,SAT-48283,204.7075238298293,42.327325201888,781.3467782565417,-4.238093798235747,148435.97193320768,10.5,10500148435.971933,47.655,-122.3035,60.0,0.55
2026-01-20T23:00:34+00:00,SAT-48283,204.33076982082878,42.66447224510516,777.1200462029224,-4.197739470025033,147022.5926606294,10.5,10500147022.59266,47.655,-122.3035,60.0,0.5666666666666667
2026-01-20T23:00:35+00:00,SAT-48283,203.94568575071509,43.00361409297584,772.9335602931283,-4.156721287982309,145585.9624187552,10.5,10500145585.96242,47.655,-122.3035,60.0,0.5833333333333334
2026-01-20T23:00:36+00:00,SAT-48283,203.55203025061388,43.34469807601924,768.7879826012916,-4.115031436691275,144125.80747864707,10.5,10500144125.807478,47.655,-122.3035,60.0,0.6
2026-01-20T23:00:37+00:00,SAT-48283,203.1495544168528,43.6876669696184,764.6839829960078,-4.072662245865278,142641.85919442115,10.5,10500142641.859194,47.655,-122.3035,60.0,0.6166666666666667
2026-01-20T23:00:38+00:00,SAT-48283,202.73800164509703,44.03245876902615,760.6222389955961,-4.029606248116529,141133.85602657008,10.5,10500141133.856026,47.655,-122.3035,60.0,0.6333333333333333
2026-01-20T23:00:39+00:00,SAT-48283,202.31710746860242,44.37900646024459,756.6034355657451,-3.9858561112218482,139601.54116962277,10.5,10500139601.54117,47.655,-122.3035,60.0,0.65
2026-01-20T23:00:40+00:00,SAT-48283,201.88659941596032,44.72723777610156,752.6282649847095,-3.941404762587203,138044.66691141922,10.5,10500138044.666912,47.655,-122.3035,60.0,0.6666666666666666
2026-01-20T23:00:41+00:00,SAT-48283,201.44619687009776,45.07707495391766,748.6974265843768,-3.896245304051022,136462.99164916194,10.5,10500136462.99165,47.655,-122.3035,60.0,0.6833333333333333
2026-01-20T23:00:42+00:00,SAT-48283,200.9956109541078,45.42843447680458,744.8116265763043,-3.850371121779986,134856.28373843164,10.5,10500134856.28374,47.655,-122.3035,60.0,0.7
2026-01-20T23:00:43+00:00,SAT-48283,200.53454442532356,45.781226815720764,740.9715777681506,-3.803775837993224,133224.31980236425,10.5,10500133224.319803,47.655,-122.3035,60.0,0.7166666666666667
2026-01-20T23:00:44+00:00,SAT-48283,200.06269159876672,46.13535615853669,737.1779993282581,-3.756453381242641,131566.88719316525,10.5,10500131566.887194,47.655,-122.3035,60.0,0.7333333333333333
2026-01-20T23:00:45+00:00,SAT-48283,199.57973829000102,46.490720136990625,733.4316164801401,-3.7083979948150523,129883.78428638804,10.5,10500129883.784286,47.655,-122.3035,60.0,0.75
2026-01-20T23:00:46+00:00,SAT-48283,199.08536178843025,46.84720954641433,729.7331601885901,-3.6596042184459248,128174.81984047181,10.5,10500128174.819841,47.655,-122.3035,60.0,0.7666666666666667
2026-01-20T23:00:47+00:00,SAT-48283,198.5792308704272,47.20470805591575,726.0833668640286,-3.6100669751613155,126439.81603831345,10.5,10500126439.816038,47.655,-122.3035,60.0,0.7833333333333333
2026-01-20T23:00:48+00:00,SAT-48283,198.06100584226752,47.56309191967038,722.4829779802384,-3.5597815686125,124678.60839391513,10.5,10500124678.608395,47.655,-122.3035,60.0,0.8
2026-01-20T23:00:49+00:00,SAT-48283,197.5303386306552,47.92222968161209,718.9327396947613,-3.5087436833318684,122891.04576134673,10.5,10500122891.045761,47.655,-122.3035,60.0,0.8166666666666667
2026-01-20T23:00:50+00:00,SAT-48283,196.98687292743435,48.28198187437666,715.4334024690379,-3.456949451678681,121076.99267946943,10.5,10500121076.99268,47.655,-122.3035,60.0,0.8333333333333334
2026-01-20T23:00:51+00:00,SAT-48283,196.43024438459335,48.64220072021982,711.9857206217802,-3.404395445762691,119236.32908906687,10.5,10500119236.329088,47.655,-122.3035,60.0,0.85
2026-01-20T23:00:52+00:00,SAT-48283,195.86008087850942,49.00272982755571,708.590451890401,-3.3510787145967953,117368.95163408798,10.5,10500117368.951633,47.655,-122.3035,60.0,0.8666666666666667
2026-01-20T23:00:53+00:00,SAT-48283,195.27600284457608,49.36340388900182,705.2483569553891,-3.2969968319997878,115474.77533940421,10.5,10500115474.77534,47.655,-122.3035,60.0,0.8833333333333333
2026-01-20T23:00:54+00:00,SAT-48283,194.67762368784966,49.724048383817575,701.9601989169105,-3.2421478384068547,113553.73157276683,10.5,10500113553.731573,47.655,-122.3035,60.0,0.9
2026-01-20T23:00:55+00:00,SAT-48283,194.06455029963237,50.08447927494591,698.7267428294421,-3.1865304062087083,111605.7738356828,10.5,10500111605.773836,47.655,-122.3035,60.0,0.9166666666666666
2026-01-20T23:00:56+00:00,SAT-48283,193.436383646866,50.444502727113544,695.5487550715112,-3.1301437421956284,109630.87434659246,10.5,10500109630.874346,47.655,-122.3035,60.0,0.9333333333333333
2026-01-20T23:00:57+00:00,SAT-48283,192.79271949527626,50.80391481969036,692.4270028127285,-3.0729876669604463,107629.02682189786,10.5,10500107629.026821,47.655,-122.3035,60.0,0.95
2026-01-20T23:00:58+00:00,SAT-48283,192.1331492434113,51.162501276185886,689.362253401631,-3.0150626163877563,105600.24652812126,10.5,10500105600.246529,47.655,-122.3035,60.0,0.9666666666666667
2026-01-20T23:00:59+00:00,SAT-48283,191.4572608955903,51.52003720474641,686.3552737520391,-2.956369720886014,103544.57305694844,10.5,10500103544.573057,47.655,-122.3035,60.0,0.9833333333333333
2026-01-20T23:01:00+00:00,SAT-48283,190.76464016704955,51.87628686211423,683.4068296503958,-2.89691075756939,101462.06865043483,10.5,10500101462.068651,47.655,-122.3035,60.0,1.0
2026-01-20T23:01:01+00:00,SAT-48283,190.05487176444785,52.23100342980948,680.5176851107939,-2.836688216888815,99352.82053470658,10.5,10500099352.820536,47.655,-122.3035,60.0,1.0166666666666666
2026-01-20T23:01:02+00:00,SAT-48283,189.32754082745012,52.583928820019594,677.6886016635516,-2.7757053223671684,97216.94161117043,10.5,10500097216.94161,47.655,-122.3035,60.0,1.0333333333333334
2026-01-20T23:01:03+00:00,SAT-48283,188.58223455581327,52.93479351033622,674.9203376241064,-2.713966046639328,95054.5710183041,10.5,10500095054.571018,47.655,-122.3035,60.0,1.05
2026-01-20T23:01:04+00:00,SAT-48283,187.81854403510454,53.2833164117836,672.2136473459108,-2.6514751356856165,92865.87498041386,10.5,10500092865.87498,47.655,-122.3035,60.0,1.0666666666666667
2026-01-20T23:01:05+00:00,SAT-48283,187.03606627232537,53.62920477654496,669.5692804491601,-2.5882381298632025,90651.04754424353,10.5,10500090651.047544,47.655,-122.3035,60.0,1.0833333333333333
2026-01-20T23:01:06+00:00,SAT-48283,186.23440645357246,53.97215415087485,666.9879810285465,-2.5242613836884313,88410.31127183502,10.5,10500088410.311272,47.655,-122.3035,60.0,1.1
2026-01-20T23:01:07+00:00,SAT-48283,185.41318043516756,54.31184837936894,664.4704868412796,-2.4595520844741294,86143.91789328589,10.5,10500086143.917892,47.655,-122.3035,60.0,1.1166666666666667
2026-01-20T23:01:08+00:00,SAT-48283,184.57201747725193,54.64795966719251,662.0175284765259,-2.3941182711160804,83852.14896473094,10.5,10500083852.148964,47.655,-122.3035,60.0,1.1333333333333333
2026-01-20T23:01:09+00:00,SAT-48283,183.71056322772583,54.98014870750033,659.6298285061064,-2.3279688399234435,81535.31607254829,10.5,10500081535.316072,47.655,-122.3035,60.0,1.15
2026-01-20T23:01:10+00:00,SAT-48283,182.82848296485022,55.30806487978392,657.3081006293829,-2.2611135818705046,79193.7621380732,10.5,10500079193.762138,47.655,-122.3035,60.0,1.1666666666666667
2026-01-20T23:01:11+00:00,SAT-48283,181.92546508835835,55.63134653142182,655.053048780992,-2.1935631558946804,76827.86048238125,10.5,10500076827.860483,47.655,-122.3035,60.0,1.1833333333333333
2026-01-20T23:01:12+00:00,SAT-48283,181.00122488102252,55.94962134154903,652.8653662652064,-2.125329148041865,74438.01689780861,10.5,10500074438.016897,47.655,-122.3035,60.0,1.2
2026-01-20T23:01:13+00:00,SAT-48283,180.05550849826577,56.26250678767359,650.7457348313151,-2.0564240308839374,72024.66822658142,10.5,10500072024.668226,47.655,-122.3035,60.0,1.2166666666666666
2026-01-20T23:01:14+00:00,SAT-48283,179.08809721421537,56.569610709014846,648.6948237894715,-1.9868612070784082,69588.28388645883,10.5,10500069588.283886,47.655,-122.3035,60.0,1.2333333333333334
2026-01-20T23:01:15+00:00,SAT-48283,178.09881186836628,56.870531986849805,646.7132890831024,-1.9166549845088434,67129.36500004565,10.5,10500067129.365,47.655,-122.3035,60.0,1.25
2026-01-20T23:01:16+00:00,SAT-48283,177.08751751652142,57.16486133961538,644.8017723861085,-1.845820598847667,64648.44518503699,10.5,10500064648.445185,47.655,-122.3035,60.0,1.2666666666666666
2026-01-20T23:01:17+00:00,SAT-48283,176.0541282286295,57.452182247071754,642.9609001775633,-1.77437418936706,62146.08970701367,10.5,10500062146.089706,47.655,-122.3035,60.0,1.2833333333333334
2026-01-20T23:01:18+00:00,SAT-48283,174.99861201356902,57.73207200288748,641.1912828405342,-1.7023328178490522,59622.89614175366,10.5,10500059622.896141,47.655,-122.3035,60.0,1.3
2026-01-20T23:01:19+00:00,SAT-48283,173.92099579424547,58.00410290768569,639.4935137420481,-1.6297144532604122,57079.493838481845,10.5,10500057079.49384,47.655,-122.3035,60.0,1.3166666666666667
2026-01-20T23:01:20+00:00,SAT-48283,172.82137038723002,58.2678436013819,637.8681683283362,-1.5565379430153605,54516.54291336871,10.5,10500054516.542913,47.655,-122.3035,60.0,1.3333333333333333
2026-01-20T23:01:21+00:00,SAT-48283,171.69989542672528,58.52286053487361,636.3158032487437,-1.482823026315447,51934.734716749255,10.5,10500051934.734716,47.655,-122.3035,60.0,1.35
2026-01-20T23:01:22+00:00,SAT-48283,170.5568041201882,58.76871958825877,634.8369554663324,-1.4085903039022176,49334.79077373349,10.5,10500049334.790773,47.655,-122.3035,60.0,1.3666666666666667
2026-01-20T23:01:23+00:00,SAT-48283,169.39240777324017,59.004987826639905,633.4321413986494,-1.3338612216946981,46717.462211121834,10.5,10500046717.462212,47.655,-122.3035,60.0,1.3833333333333333
2026-01-20T23:01:24+00:00,SAT-48283,168.20709997424254,59.23123539113167,632.1018560748173,-1.258658048870637,44083.528989717575,10.5,10500044083.52899,47.655,-122.3035,60.0,1.4
2026-01-20T23:01:25+00:00,SAT-48283,167.00136033629474,59.447037516588445,630.8465723144809,-1.1830038525975641,41433.79901930162,10.5,10500041433.799019,47.655,-122.3035,60.0,1.4166666666666667
2026-01-20T23:01:26+00:00,SAT-48283,165.77575768679216,59.65197666479142,629.6667399319577,-1.1069224701082763,38769.10718059792,10.5,10500038769.107182,47.655,-122.3035,60.0,1.4333333333333333
2026-01-20T23:01:27+00:00,SAT-48283,164.53095259370235,59.84564475847982,628.5627849682363,-1.0304384800996231,36090.31432353793,10.5,10500036090.314323,47.655,-122.3035,60.0,1.45
2026-01-20T23:01:28+00:00,SAT-48283,163.2676991146279,60.02764549853987,627.5351089515015,-0.9535771561724649,33398.30563653099,10.5,10500033398.305637,47.655,-122.3035,60.0,1.4666666666666666
2026-01-20T23:01:29+00:00,SAT-48283,161.98684568369916,60.197596740056355,626.5840882040912,-0.8763644588463928,30693.990366786096,10.5,10500030693.990366,47.655,-122.3035,60.0,1.4833333333333334
2026-01-20T23:01:30+00:00,SAT-48283,160.6893349813242,60.35513290958629,625.7100731574207,-0.7988269615451468,27978.29922800807,10.5,10500027978.299229,47.655,-122.3035,60.0,1.5
2026-01-20T23:01:31+00:00,SAT-48283,159.37620279033953,60.499907424313996,624.9133877407212,-0.7209918329819691,25252.183783458207,10.5,10500025252.183783,47.655,-122.3035,60.0,1.5166666666666666
2026-01-20T23:01:32+00:00,SAT-48283,158.04857568670485,60.631595092702796,624.1943287873465,-0.6428867840924415,22516.614587317723,10.5,10500022516.614588,47.655,-122.3035,60.0,1.5333333333333334
2026-01-20T23:01:33+00:00,SAT-48283,156.70766756396122,60.7498944577469,623.5531654940039,-0.5645400203540685,19772.579514717876,10.5,10500019772.579515,47.655,-122.3035,60.0,1.55
2026-01-20T23:01:34+00:00,SAT-48283,155.3547749604577,60.854530049553,622.9901389275379,-0.4859802005141305,17021.082316214808,10.5,10500017021.082315,47.655,-122.3035,60.0,1.5666666666666667
2026-01-20T23:01:35+00:00,SAT-48283,153.9912711690509,60.94525451357167,622.5054615728762,-0.4072363736743651,14263.140414228945,10.5,10500014263.140413,47.655,-122.3035,60.0,1.5833333333333333
2026-01-20T23:01:36+00:00,SAT-48283,152.6185992179352,61.02185057562163,622.099316943721,-0.32833794063983496,11499.783549318867,10.5,10500011499.78355,47.655,-122.3035,60.0,1.6
2026-01-20T23:01:37+00:00,SAT-48283,151.23826371265116,61.08413281457708,621.7718592317894,-0.24931459131235306,8732.051587434222,10.5,10500008732.051588,47.655,-122.3035,60.0,1.6166666666666667
2026-01-20T23:01:38+00:00,SAT-48283,149.8518216967035,61.13194920668687,621.5232130184909,-0.17019625073291583,5960.992630093504,10.5,10500005960.99263,47.655,-122.3035,60.0,1.6333333333333333
2026-01-20T23:01:39+00:00,SAT-48283,148.46087264383493,61.1651824146471,621.3534730404191,-0.09101302652097956,3187.6611734851763,10.5,10500003187.661173,47.655,-122.3035,60.0,1.65
2026-01-20T23:01:40+00:00,SAT-48283,147.06704769504265,61.18375079736244,621.2627040072623,-0.01179514907071594,413.1160138875721,10.5,10500000413.116014,47.655,-122.3035,60.0,1.6666666666666667
2026-01-20T23:01:41+00:00,SAT-48283,145.67199836733087,61.18760911945916,621.2509404793587,0.06742708507331015,-2361.58173555439,10.5,10499997638.418264,47.655,-122.3035,60.0,1.6833333333333333
2026-01-20T23:01:42+00:00,SAT-48283,144.27738489600742,61.17674894725056,621.3181868017217,0.1466233715328343,-5135.370687326498,10.5,10499994864.629313,47.655,-122.3035,60.0,1.7
2026-01-20T23:01:43+00:00,SAT-48283,142.88486441687152,61.15119872297632,621.4644170962296,0.22576345416777965,-7907.191143419914,10.5,10499992092.808857,47.655,-122.3035,60.0,1.7166666666666666
2026-01-20T23:01:44+00:00,SAT-48283,141.49607921985867,61.11102351620336,621.6895753097323,0.3048171836601472,-10675.987147186823,10.5,10499989324.012854,47.655,-122.3035,60.0,1.7333333333333334
2026-01-20T23:01:45+00:00,SAT-48283,140.1126452485444,61.056324456874925,621.9935753205875,0.3837545771830823,-13440.708573203547,10.5,10499986559.291428,47.655,-122.3035,60.0,1.75
2026-01-20T23:01:46+00:00,SAT-48283,138.73614106098012,60.98723786096255,622.3763011047074,0.4625458698789632,-16200.312930250944,10.5,10499983799.687069,47.655,-122.3035,60.0,1.7666666666666666
2026-01-20T23:01:47+00:00,SAT-48283,137.36809745079324,60.90393406718111,622.8376069529406,0.5411615717777284,-18953.767354835014,10.5,10499981046.232645,47.655,-122.3035,60.0,1.7833333333333334
2026-01-20T23:01:48+00:00,SAT-48283,136.00998786944206,60.806616006026516,623.3773177452246,0.6195725233749004,-21700.05055776438,10.5,10499978299.949442,47.655,-122.3035,60.0,1.8
2026-01-20T23:01:49+00:00,SAT-48283,134.66321979149075,60.69551752805464,623.9952292801655,0.6977499521268212,-24438.15480285239,10.5,10499975561.845198,47.655,-122.3035,60.0,1.8166666666666667
2026-01-20T23:01:50+00:00,SAT-48283,133.32912713372698,60.57090152149901,624.6911086609603,0.7756655100284202,-27167.087223049526,10.5,10499972832.912777,47.655,-122.3035,60.0,1.8333333333333333
2026-01-20T23:01:51+00:00,SAT-48283,132.0089638343604,60.43305785545039,625.464694718798,0.8532913424797892,-29885.872232442176,10.5,10499970114.127768,47.655,-122.3035,60.0,1.85
2026-01-20T23:01:52+00:00,SAT-48283,130.70389858390593,60.28230117742838,626.3156985049428,0.9306001164233886,-32593.55251173657,10.5,10499967406.447489,47.655,-122.3035,60.0,1.8666666666666667
2026-01-20T23:01:53+00:00,SAT-48283,129.41501078992113,60.11896860760563,627.2438038108769,1.007565079849848,-35289.19109240368,10.5,10499964710.808908,47.655,-122.3035,60.0,1.8833333333333333
2026-01-20T23:01:54+00:00,SAT-48283,128.14328771371814,59.9434173587754,628.2486677477915,1.0841600894920052,-37971.87232664157,10.5,10499962028.127674,47.655,-122.3035,60.0,1.9
2026-01-20T23:01:55+00:00,SAT-48283,126.88962278156137,59.75602232109738,629.329921353698,1.1603596712028117,-40640.70400206507,10.5,10499959359.295998,47.655,-122.3035,60.0,1.9166666666666667
2026-01-20T23:01:56+00:00,SAT-48283,125.65481497009347,59.5571736374496,630.4871702607518,1.2361390392064444,-43294.81801596112,10.5,10499956705.181984,47.655,-122.3035,60.0,1.9333333333333333
2026-01-20T23:01:57+00:00,SAT-48283,124.43956923248672,59.34727430555575,631.7199953817812,1.3114741361269646,-45933.37177726175,10.5,10499954066.628223,47.655,-122.3035,60.0,1.95
2026-01-20T23:01:58+00:00,SAT-48283,123.24449784513118,59.12673782922101,633.0279536367327,1.386341670036903,-48555.54950414224,10.5,10499951444.450497,47.655,-122.3035,60.0,1.9666666666666666
2026-01-20T23:01:59+00:00,SAT-48283,122.07012257463953,58.895985941997594,634.4105787160674,1.4607191333561758,-51160.562885941064,10.5,10499948839.437115,47.655,-122.3035,60.0,1.9833333333333334
2026-01-20T23:02:00+00:00,SAT-48283,120.91687757023806,58.655446425560456,635.8673818630061,1.5345848421768582,-53747.65246047988,10.5,10499946252.34754,47.655,-122.3035,60.0,2.0
2026-01-20T23:02:01+00:00,SAT-48283,119.78511285032849,58.405551035148534,637.3978526949938,1.6079179484542347,-56316.088041045594,10.5,10499943683.911959,47.655,-122.3035,60.0,2.0166666666666666
2026-01-20T23:02:02+00:00,SAT-48283,118.67509829259131,58.14673354890975,639.0014600373211,1.680698458247059,-58865.16935524149,10.5,10499941134.830645,47.655,-122.3035,60.0,2.033333333333333
2026-01-20T23:02:03+00:00,SAT-48283,117.58702801126275,57.87942794906059,640.6776527749379,1.7529072644791808,-61394.2271924379,10.5,10499938605.772808,47.655,-122.3035,60.0,2.05
2026-01-20T23:02:04+00:00,SAT-48283,116.52102501092537,57.604066738565166,642.4258607369425,1.82452614119539,-63902.62320258768,10.5,10499936097.376797,47.655,-122.3035,60.0,2.066666666666667
2026-01-20T23:02:05+00:00,SAT-48283,115.47714604471787,57.32107940260942,644.2454955753376,1.8955377597435172,-66389.75046299174,10.5,10499933610.249537,47.655,-122.3035,60.0,2.0833333333333335
2026-01-20T23:02:06+00:00,SAT-48283,114.45538657513568,57.03089101198133,646.1359516599315,1.965925722900373,-68855.03467353378,10.5,10499931144.965326,47.655,-122.3035,60.0,2.1
2026-01-20T23:02:07+00:00,SAT-48283,113.45568575294129,56.73392096423536,648.0966070072665,2.0356745199085307,-71297.93258187827,10.5,10499928702.06742,47.655,-122.3035,60.0,2.1166666666666667
2026-01-20T23:02:08+00:00,SAT-48283,112.47793138697993,56.43058187142606,650.1268241647102,2.1047695836079745,-73717.93398446246,10.5,10499926282.066015,47.655,-122.3035,60.0,2.1333333333333333
2026-01-20T23:02:09+00:00,SAT-48283,111.52196479492059,56.12127857399623,652.2259511515228,2.173197233548146,-76114.55973403952,10.5,10499923885.440266,47.655,-122.3035,60.0,2.15
2026-01-20T23:02:10+00:00,SAT-48283,110.58758554227464,55.806407291996344,654.393322343189,2.240944741838224,-78487.364046034,10.5,10499921512.635954,47.655,-122.3035,60.0,2.1666666666666665
2026-01-20T23:02:11+00:00,SAT-48283,109.67455597497768,55.4863548885168,656.6282594214248,2.308000265231185,-80835.9321198382,10.5,10499919164.06788,47.655,-122.3035,60.0,2.183333333333333
2026-01-20T23:02:12+00:00,SAT-48283,108.7826055735991,55.16149825745263,658.9300722564489,2.3743528707905472,-83159.88103777028,10.5,10499916840.118961,47.655,-122.3035,60.0,2.2
2026-01-20T23:02:13+00:00,SAT-48283,107.91143506508205,54.832203813822694,661.2980598148534,2.439992513451706,-85458.85897917724,10.5,10499914541.141022,47.655,-122.3035,60.0,2.216666666666667
2026-01-20T23:02:14+00:00,SAT-48283,107.06072029661344,54.49882708543831,663.7315110450954,2.5049100521726553,-87732.5457861014,10.5,10499912267.454214,47.655,-122.3035,60.0,2.2333333333333334
2026-01-20T23:02:15+00:00,SAT-48283,106.23011584770249,54.16171239231934,666.229705779096,2.5690971784193257,-89980.65045853461,10.5,10499910019.34954,47.655,-122.3035,60.0,2.25
2026-01-20T23:02:16+00:00,SAT-48283,105.41925840470394,53.82119261758662,668.7919155625152,2.632546496558591,-92202.91397012131,10.5,10499907797.08603,47.655,-122.3035,60.0,2.2666666666666666
2026-01-20T23:02:17+00:00,SAT-48283,104.62776984844659,53.47758904135607,671.4174045652081,2.695251366534387,-94399.10375801071,10.5,10499905600.896242,47.655,-122.3035,60.0,2.283333333333333
2026-01-20T23:02:18+00:00,SAT-48283,103.8552601311761,53.13121126157159,674.1054303347735,2.757206050771688,-96569.01886805546,10.5,10499903430.981133,47.655,-122.3035,60.0,2.3
2026-01-20T23:02:19+00:00,SAT-48283,103.10132985800398,52.7823571542757,676.8552446966177,2.818405556704226,-98712.48443946635,10.5,10499901287.51556,47.655,-122.3035,60.0,2.316666666666667
2026-01-20T23:02:20+00:00,SAT-48283,102.36557267042714,52.43131290624742,679.6660944969641,2.8788456891932994,-100829.35354074065,10.5,10499899170.64646,47.655,-122.3035,60.0,2.3333333333333335
2026-01-20T23:02:21+00:00,SAT-48283,101.64757738092143,52.07835308605762,682.5372223981454,2.9385230270871485,-102919.50634867225,10.5,10499897080.49365,47.655,-122.3035,60.0,2.35
2026-01-20T23:02:22+00:00,SAT-48283,100.94692989335559,51.723740757537804,685.4678676505132,2.997434853824438,-104982.84771779214,10.5,10499895017.152283,47.655,-122.3035,60.0,2.3666666666666667
2026-01-20T23:02:23+00:00,SAT-48283,100.26321493069757,51.36772763541824,688.4572667951405,3.0555791854300502,-107019.30816089953,10.5,10499892980.69184,47.655,-122.3035,60.0,2.3833333333333333
2026-01-20T23:02:24+00:00,SAT-48283,99.59601755994807,51.0105542660489,691.5046543944442,3.1129547199093546,-109028.84207663497,10.5,10499890971.157923,47.655,-122.3035,60.0,2.4
2026-01-20T23:02:25+00:00,SAT-48283,98.94492454585044,50.65245023812445,694.6092637123373,3.169560819059025,-111011.42711241843,10.5,10499888988.572887,47.655,-122.3035,60.0,2.4166666666666665
2026-01-20T23:02:26+00:00,SAT-48283,98.30952553897272,50.293634415111846,697.7703273762398,3.22539747931822,-112967.06314353413,10.5,10499887032.936857,47.655,-122.3035,60.0,2.433333333333333
2026-01-20T23:02:27+00:00,SAT-48283,97.68941411296623,49.93431518680038,700.9870780100208,3.280465327454177,-114895.77212202203,10.5,10499885104.227879,47.655,-122.3035,60.0,2.45
2026-01-20T23:02:28+00:00,SAT-48283,97.0841886592746,49.574690733701054,704.258748862636,3.3347655363472777,-116797.59512711428,10.5,10499883202.404873,47.655,-122.3035,60.0,2.466666666666667
2026-01-20T23:02:29+00:00,SAT-48283,96.49345316527649,49.21494930998193,707.5845743527782,3.3882998871977805,-118672.59454397847,10.5,10499881327.405457,47.655,-122.3035,60.0,2.4833333333333334
2026-01-20T23:02:30+00:00,SAT-48283,95.91681786156262,48.85526952600193,710.9637906755638,3.4410706663964694,-120520.85045169125,10.5,10499879479.149548,47.655,-122.3035,60.0,2.5
2026-01-20T23:02:31+00:00,SAT-48283,95.35389977805188,48.495820646157796,714.3956363063714,3.4930806984144733,-122342.46177517905,10.5,10499877657.538225,47.655,-122.3035,60.0,2.5166666666666666
2026-01-20T23:02:32+00:00,SAT-48283,94.80432319626236,48.13676288505787,717.8793525374786,3.544333236371867,-124137.54245246758,10.5,10499875862.457548,47.655,-122.3035,60.0,2.533333333333333
2026-01-20T23:02:33+00:00,SAT-48283,94.26772002941438,47.778247715079466,721.4141839055616,3.594832069583576,-125906.22520139432,10.5,10499874093.7748,47.655,-122.3035,60.0,2.55
2026-01-20T23:02:34+00:00,SAT-48283,93.74373010664185,47.42041816122662,724.9993787264536,3.6445813429293072,-127648.65519317944,10.5,10499872351.344807,47.655,-122.3035,60.0,2.566666666666667
2026-01-20T23:02:35+00:00,SAT-48283,93.23200141222826,47.063409111358666,728.6341894497547,3.6935856744785975,-129364.9941721525,10.5,10499870635.005827,47.655,-122.3035,60.0,2.5833333333333335
2026-01-20T23:02:36+00:00,SAT-48283,92.73219024431715,46.707347610265145,732.3178731307547,3.7418500508299424,-131055.41679008615,10.5,10499868944.58321,47.655,-122.3035,60.0,2.6
2026-01-20T23:02:37+00:00,SAT-48283,92.24396133166438,46.352353159000906,736.0496917979734,3.7893797753418803,-132720.10879302956,10.5,10499867279.891207,47.655,-122.3035,60.0,2.6166666666666667
2026-01-20T23:02:38+00:00,SAT-48283,91.76698790649453,45.99853801279872,739.8289127690723,3.836180560006669,-134359.2702391133,10.5,10499865640.729761,47.655,-122.3035,60.0,2.6333333333333333
2026-01-20T23:02:39+00:00,SAT-48283,91.30095172149367,45.64600746342293,743.6548090583907,3.882258360479743,-135973.1097205831,10.5,10499864026.89028,47.655,-122.3035,60.0,2.65
2026-01-20T23:02:40+00:00,SAT-48283,90.84554304847165,45.29486012956186,747.5266596199575,3.9276194874779233,-137561.84826543633,10.5,10499862438.151735,47.655,-122.3035,60.0,2.6666666666666665
2026-01-20T23:02:41+00:00,SAT-48283,90.40046062949207,44.94518822889564,751.4437497016007,3.972270505669224,-139125.71579611537,10.5,10499860874.284204,47.655,-122.3035,60.0,2.683333333333333
2026-01-20T23:02:42+00:00,SAT-48283,89.96541161088287,44.59707785123205,755.4053710982176,4.016218193879116,-140664.94973576258,10.5,10499859335.050264,47.655,-122.3035,60.0,2.7
2026-01-20T23:02:43+00:00,SAT-48283,89.54011145517194,44.25060922636096,759.4108223653571,4.059469606596047,-142179.79716240393,10.5,10499857820.202837,47.655,-122.3035,60.0,2.716666666666667
2026-01-20T23:02:44+00:00,SAT-48283,89.12428382486235,43.90585697768093,763.4594090941447,4.102031989349422,-143670.51184512765,10.5,10499856329.488155,47.655,-122.3035,60.0,2.7333333333333334
2026-01-20T23:02:45+00:00,SAT-48283,88.71766045653696,43.56289037432366,767.550444101811,4.1439127747545,-145137.35410556008,10.5,10499854862.645895,47.655,-122.3035,60.0,2.75
2026-01-20T23:02:46+00:00,SAT-48283,88.31998101915174,43.22177357447458,771.6832476182765,4.185119610023234,-146580.5917814115,10.5,10499853419.408218,47.655,-122.3035,60.0,2.7666666666666666
2026-01-20T23:02:47+00:00,SAT-48283,87.9309929569618,42.88256585744909,775.8571475001717,4.225660210641944,-148000.49510164934,10.5,10499851999.504898,47.655,-122.3035,60.0,2.783333333333333
2026-01-20T23:02:48+00:00,SAT-48283,87.5504513346303,42.545321858690706,780.07147929893,4.265542534732884,-149397.34279337767,10.5,10499850602.657207,47.655,-122.3035,60.0,2.8
2026-01-20T23:02:49+00:00,SAT-48283,87.17811865800734,42.210091781600575,784.325586502772,4.304774581734035,-150771.41503075228,10.5,10499849228.584969,47.655,-122.3035,60.0,2.816666666666667
2026-01-20T23:02:50+00:00,SAT-48283,86.81376470544609,41.876921616759574,788.618820577911,4.343364519743348,-152122.99789511436,10.5,10499847877.002106,47.655,-122.3035,60.0,2.8333333333333335
2026-01-20T23:02:51+00:00,SAT-48283,86.45716634289701,41.54585334222748,792.9505411367616,4.381320564526869,-153452.3791373435,10.5,10499846547.620863,47.655,-122.3035,60.0,2.85
2026-01-20T23:02:52+00:00,SAT-48283,86.10810734484741,41.21692512472724,797.3201159854772,4.418651045884358,-154759.85050226236,10.5,10499845240.149498,47.655,-122.3035,60.0,2.8666666666666667
2026-01-20T23:02:53+00:00,SAT-48283,85.76637820719408,40.89017150724994,801.7269212376815,4.455364336211001,-156045.70522656548,10.5,10499843954.294773,47.655,-122.3035,60.0,2.8833333333333333
2026-01-20T23:02:54+00:00,SAT-48283,85.43177596388577,40.565623593852415,806.1703413569473,4.49146886555456,-157310.2385661846,10.5,10499842689.761435,47.655,-122.3035,60.0,2.9
2026-01-20T23:02:55+00:00,SAT-48283,85.10410400162111,40.243309225219484,810.6497692142959,4.526973108484116,-158553.74733637634,10.5,10499841446.252665,47.655,-122.3035,60.0,2.9166666666666665
2026-01-20T23:02:56+00:00,SAT-48283,84.78317187549426,39.923253147363845,815.1646061325982,4.561885578136284,-159776.52970319547,10.5,10499840223.470297,47.655,-122.3035,60.0,2.933333333333333
2026-01-20T23:02:57+00:00,SAT-48283,84.468795125967,39.60547717317526,819.7142619250399,4.596214798553943,-160978.8842146803,10.5,10499839021.115786,47.655,-122.3035,60.0,2.95
2026-01-20T23:02:58+00:00,SAT-48283,84.1607950989972,39.2900003385371,824.2981549059965,4.629969299304324,-162161.10961235524,10.5,10499837838.890388,47.655,-122.3035,60.0,2.966666666666667
2026-01-20T23:02:59+00:00,SAT-48283,83.85899876840756,38.976839051607804,828.915711896545,4.6631575963987855,-163323.50416296077,10.5,10499836676.495836,47.655,-122.3035,60.0,2.9833333333333334
2026-01-20T23:03:00+00:00,SAT-48283,83.56323856162952,38.6660072364318,833.5663682109438,4.695788254293333,-164466.3678299739,10.5,10499835533.63217,47.655,-122.3035,60.0,3.0
2026-01-20T23:03:01+00:00,SAT-48283,83.2733521845739,38.35751646574699,838.249567704946,4.727869736965499,-165589.99705769029,10.5,10499834410.002943,47.655,-122.3035,60.0,3.0166666666666666
2026-01-20T23:03:02+00:00,SAT-48283,82.98918245833045,38.05137609723988,842.9647626755927,4.759410544618338,-166694.6895591768,10.5,10499833305.31044,47.655,-122.3035,60.0,3.033333333333333
2026-01-20T23:03:03+00:00,SAT-48283,82.7105771510167,37.747593394447506,847.7114138973396,4.790419127500835,-167780.74129789742,10.5,10499832219.258701,47.655,-122.3035,60.0,3.05
2026-01-20T23:03:04+00:00,SAT-48283,82.43738881817356,37.44617364738387,852.4889905722373,4.820903858205371,-168848.44551745325,10.5,10499831151.554483,47.655,-122.3035,60.0,3.066666666666667
2026-01-20T23:03:05+00:00,SAT-48283,82.1694746481451,37.14712028900703,857.2969702524838,4.850873150386565,-169898.09689961892,10.5,10499830101.903101,47.655,-122.3035,60.0,3.0833333333333335
2026-01-20T23:03:06+00:00,SAT-48283,81.90669630485245,36.85043499871943,862.1348388813745,4.8803352695958,-170929.984938967,10.5,10499829070.01506,47.655,-122.3035,60.0,3.1
2026-01-20T23:03:07+00:00,SAT-48283,81.64891978453318,36.55611781231359,867.002090645599,4.909298472601273,-171944.39882244595,10.5,10499828055.601177,47.655,-122.3035,60.0,3.1166666666666667
2026-01-20T23:03:08+00:00,SAT-48283,81.39601526882736,36.26416721806854,871.8982279664782,4.937770962471162,-172941.62585620215,10.5,10499827058.374144,47.655,-122.3035,60.0,3.1333333333333333
2026-01-20T23:03:09+00:00,SAT-48283,81.14785698438011,35.974580250793416,876.8227614464114,4.965760826782089,-173921.9493013795,10.5,10499826078.0507,47.655,-122.3035,60.0,3.15
2026-01-20T23:03:10+00:00,SAT-48283,80.90432306924221,35.687352584745256,881.7752097536919,4.9932761461207615,-174885.6521743052,10.5,10499825114.347826,47.655,-122.3035,60.0,3.1666666666666665
2026-01-20T23:03:11+00:00,SAT-48283,80.66529543808782,35.40247861564632,886.7550996155366,5.020324859496049,-175833.01253265186,10.5,10499824166.987467,47.655,-122.3035,60.0,3.183333333333333
2026-01-20T23:03:12+00:00,SAT-48283,80.43065965761643,35.11995154620246,891.7619656768894,5.046914874485841,-176764.3073332463,10.5,10499823235.692667,47.655,-122.3035,60.0,3.2
2026-01-20T23:03:13+00:00,SAT-48283,80.20030482078822,34.83976346109572,896.795350469071,5.073054002487696,-177679.81016427308,10.5,10499822320.189837,47.655,-122.3035,60.0,3.216666666666667
2026-01-20T23:03:14+00:00,SAT-48283,79.97412342786517,34.56190540175812,901.8548043138595,5.098749934033201,-178579.79038067933,10.5,10499821420.20962,47.655,-122.3035,60.0,3.2333333333333334
2026-01-20T23:03:15+00:00,SAT-48283,79.75201127220564,34.286367438611215,906.939885202947,5.124010345407396,-179464.5168384378,10.5,10499820535.483162,47.655,-122.3035,60.0,3.25
2026-01-20T23:03:16+00:00,SAT-48283,79.53386732528182,34.01313873389345,912.0501587837317,5.148842752186325,-180334.25276481244,10.5,10499819665.747234,47.655,-122.3035,60.0,3.2666666666666666
2026-01-20T23:03:17+00:00,SAT-48283,79.31959363155845,33.742207608991635,917.1851981990397,5.173254598319569,-181189.25887840538,10.5,10499818810.741121,47.655,-122.3035,60.0,3.283333333333333
2026-01-20T23:03:18+00:00,SAT-48283,79.10909520311026,33.473561603583356,922.3445840156904,5.197253251386268,-182029.793223003,10.5,10499817970.206778,47.655,-122.3035,60.0,3.3
2026-01-20T23:03:19+00:00,SAT-48283,78.90227991808165,33.20718753195666,927.5279041483308,5.220845963999902,-182856.10981580787,10.5,10499817143.890184,47.655,-122.3035,60.0,3.316666666666667
2026-01-20T23:03:20+00:00,SAT-48283,78.69905842401192,32.94307153833634,932.7347537447777,5.244039900956112,-183668.45959827042,10.5,10499816331.540401,47.655,-122.3035,60.0,3.3333333333333335
2026-01-20T23:03:21+00:00,SAT-48283,78.49934404350584,32.6811991479243,937.9647350984367,5.266842104116628,-184467.08920617538,10.5,10499815532.910793,47.655,-122.3035,60.0,3.35
2026-01-20T23:03:22+00:00,SAT-48283,78.3030526843231,32.42155531696353,943.2174575256967,5.289259566767147,-185252.24357396958,10.5,10499814747.756426,47.655,-122.3035,60.0,3.3666666666666667
2026-01-20T23:03:23+00:00,SAT-48283,78.11010275007467,32.16412447651443,948.4925373174831,5.311299116567729,-186024.16183518915,10.5,10499813975.838165,47.655,-122.3035,60.0,3.3833333333333333
2026-01-20T23:03:24+00:00,SAT-48283,77.92041505803574,31.90889057953327,953.7895975740787,5.332967535688818,-186783.08153013172,10.5,10499813216.91847,47.655,-122.3035,60.0,3.4
2026-01-20T23:03:25+00:00,SAT-48283,77.73391275578983,31.6558371396854,959.1082681597535,5.3542714670923495,-187529.2353234239,10.5,10499812470.764677,47.655,-122.3035,60.0,3.4166666666666665
2026-01-20T23:03:26+00:00,SAT-48283,77.55052124393366,31.4049472724823,964.4481855639319,5.375217470816207,-188262.85297534126,10.5,10499811737.147024,47.655,-122.3035,60.0,3.433333333333333
2026-01-20T23:03:27+00:00,SAT-48283,77.37016809971031,31.15620373155792,969.8089928184888,5.39581200427624,-188984.1606519018,10.5,10499811015.839348,47.655,-122.3035,60.0,3.45
2026-01-20T23:03:28+00:00,SAT-48283,77.19278300398028,30.909588943878823,975.1903393954038,5.416061399823681,-189693.3801388314,10.5,10499810306.619862,47.655,-122.3035,60.0,3.466666666666667
2026-01-20T23:03:29+00:00,SAT-48283,77.01829767152763,30.66508504402388,980.591881082031,5.435971929522566,-190390.7311103435,10.5,10499809609.26889,47.655,-122.3035,60.0,3.4833333333333334
2026-01-20T23:03:30+00:00,SAT-48283,76.84664578186232,30.422673903687627,986.0132799209748,5.455549740957654,-191076.42888086053,10.5,10499808923.57112,47.655,-122.3035,60.0,3.5
2026-01-20T23:03:31+00:00,SAT-48283,76.6777629145206,30.18233716238368,991.4542040859429,5.4748008651791595,-191750.68468327238,10.5,10499808249.315317,47.655,-122.3035,60.0,3.5166666666666666
