DopplerPredictor/satellites_20260205_234138/SAT-60032.csv

timestamp,satellite,azimuth_deg,elevation_deg,distance_km,relative_velocity_kms,doppler_shift_hz,tx_freq_ghz,rx_freq_hz,ue_lat,ue_lon,ue_alt_m,time_minutes
2026-01-20T23:00:30+00:00,SAT-60032,206.7863907413825,30.168111565654222,872.2216059137476,-5.217433604871093,182736.59456485222,10.5,10500182736.594564,47.655,-122.3035,60.0,0.5
2026-01-20T23:00:31+00:00,SAT-60032,206.5251959274144,30.423270157988497,867.0181595283653,-5.190809316700007,181804.09937247343,10.5,10500181804.099373,47.655,-122.3035,60.0,0.5166666666666667
2026-01-20T23:00:32+00:00,SAT-60032,206.25941428514227,30.680537830812934,861.8412660551116,-5.163696413192655,180854.49080417788,10.5,10500180854.490805,47.655,-122.3035,60.0,0.5333333333333333
2026-01-20T23:00:33+00:00,SAT-60032,205.9889366828283,30.939919189340884,856.6914127994127,-5.136085664207334,179887.44558135953,10.5,10500179887.445581,47.655,-122.3035,60.0,0.55
2026-01-20T23:00:34+00:00,SAT-60032,205.71365097441523,31.201417607047553,851.5690962720913,-5.107967776259742,178902.63820688674,10.5,10500178902.638206,47.655,-122.3035,60.0,0.5666666666666667
2026-01-20T23:00:35+00:00,SAT-60032,205.43344191597694,31.465035145232683,846.4748222525402,-5.079333305817747,177899.7379283182,10.5,10500177899.737928,47.655,-122.3035,60.0,0.5833333333333334
2026-01-20T23:00:36+00:00,SAT-60032,205.14819108613668,31.73077246399342,841.4091059383672,-5.050172704591533,176878.41032415527,10.5,10500176878.410324,47.655,-122.3035,60.0,0.6
2026-01-20T23:00:37+00:00,SAT-60032,204.85777680365757,31.99862873105858,836.372472049873,-5.020476320709107,175838.31734501346,10.5,10500175838.317345,47.655,-122.3035,60.0,0.6166666666666667
2026-01-20T23:00:38+00:00,SAT-60032,204.56207404433533,32.26860152612106,831.3654549333539,-4.990234377027638,174779.1165539935,10.5,10500174779.116554,47.655,-122.3035,60.0,0.6333333333333333
2026-01-20T23:00:39+00:00,SAT-60032,204.26095435935898,32.540686739240904,826.3885986860388,-4.95943704785889,173700.46381393072,10.5,10500173700.463814,47.655,-122.3035,60.0,0.65
2026-01-20T23:00:40+00:00,SAT-60032,203.9542857888272,32.814878468478895,821.4424572045031,-4.928074334747094,172602.00893661068,10.5,10500172602.008936,47.655,-122.3035,60.0,0.6666666666666666
2026-01-20T23:00:41+00:00,SAT-60032,203.6419327839506,33.091168905639066,816.5275943569732,-4.896136239644711,171483.40174811688,10.5,10500171483.401749,47.655,-122.3035,60.0,0.6833333333333333
2026-01-20T23:00:42+00:00,SAT-60032,203.32375611852464,33.36954822626727,811.6445839829202,-4.863612625021249,170344.28718924982,10.5,10500170344.28719,47.655,-122.3035,60.0,0.7
2026-01-20T23:00:43+00:00,SAT-60032,202.99961281117152,33.65000446648269,806.794010032168,-4.8304932931221805,169184.3080915094,10.5,10500169184.308092,47.655,-122.3035,60.0,0.7166666666666667
2026-01-20T23:00:44+00:00,SAT-60032,202.66935604376408,33.93252339857514,801.9764666249567,-4.796767988565168,168003.10526802603,10.5,10500168003.105268,47.655,-122.3035,60.0,0.7333333333333333
2026-01-20T23:00:45+00:00,SAT-60032,202.33283508190843,34.21708840102271,797.1925581094148,-4.76242638733166,166800.31712799933,10.5,10500166800.317127,47.655,-122.3035,60.0,0.75
2026-01-20T23:00:46+00:00,SAT-60032,201.98989519882468,34.50368032194087,792.4428991300128,-4.727458149132058,165575.58151074836,10.5,10500165575.58151,47.655,-122.3035,60.0,0.7666666666666667
2026-01-20T23:00:47+00:00,SAT-60032,201.64037759871226,34.79227733958992,787.7281146437895,-4.691852848524802,164328.53327321005,10.5,10500164328.533274,47.655,-122.3035,60.0,0.7833333333333333
2026-01-20T23:00:48+00:00,SAT-60032,201.28411934931574,35.08285481251178,783.0488400052757,-4.655600061100526,163058.80730847316,10.5,10500163058.807308,47.655,-122.3035,60.0,0.8
2026-01-20T23:00:49+00:00,SAT-60032,200.92095331268956,35.37538512850375,778.4057209654662,-4.618689354427359,161766.03822864438,10.5,10500161766.038229,47.655,-122.3035,60.0,0.8166666666666667
2026-01-20T23:00:50+00:00,SAT-60032,200.5507080820853,35.669837546672305,773.799413679819,-4.581110265872343,160449.85958806076,10.5,10500160449.859589,47.655,-122.3035,60.0,0.8333333333333334
2026-01-20T23:00:51+00:00,SAT-60032,200.17320792724405,35.96617803150535,769.2305847383761,-4.542852373798195,159109.90637690108,10.5,10500159109.906378,47.655,-122.3035,60.0,0.85
2026-01-20T23:00:52+00:00,SAT-60032,199.7882727411146,36.26436908483039,764.6999111248784,-4.503905246226631,157745.81322315862,10.5,10500157745.813223,47.655,-122.3035,60.0,0.8666666666666667
2026-01-20T23:00:53+00:00,SAT-60032,199.39571799975576,36.56436956779075,760.2080802270782,-4.464258535618049,156357.2177122265,10.5,10500156357.217712,47.655,-122.3035,60.0,0.8833333333333333
2026-01-20T23:00:54+00:00,SAT-60032,198.9953547234123,36.86613452231289,755.7557897525267,-4.423901903938589,154943.75776242904,10.5,10500154943.757763,47.655,-122.3035,60.0,0.9
2026-01-20T23:00:55+00:00,SAT-60032,198.58698945571095,37.16961498091731,751.343747719094,-4.382825100441642,153505.07434925946,10.5,10500153505.074348,47.655,-122.3035,60.0,0.9166666666666666
2026-01-20T23:00:56+00:00,SAT-60032,198.17042424824382,37.47475777497881,746.9726723679169,-4.34101797087121,152040.8118277202,10.5,10500152040.811829,47.655,-122.3035,60.0,0.9333333333333333
2026-01-20T23:00:57+00:00,SAT-60032,197.7454566584286,37.781505337082834,742.643292067165,-4.298470476555329,150550.61860105552,10.5,10500150550.6186,47.655,-122.3035,60.0,0.95
2026-01-20T23:00:58+00:00,SAT-60032,197.31187976098806,38.08979549825712,738.3563451967684,-4.255172702135978,149034.14739148563,10.5,10500149034.147392,47.655,-122.3035,60.0,0.9666666666666667
2026-01-20T23:00:59+00:00,SAT-60032,196.86948217670076,38.399561279433726,734.1125800254331,-4.2111148324639975,147491.05443096894,10.5,10500147491.054432,47.655,-122.3035,60.0,0.9833333333333333
2026-01-20T23:01:00+00:00,SAT-60032,196.4180481235208,38.71073067499174,729.9127546107012,-4.166287314061536,145921.00511629993,10.5,10500145921.005116,47.655,-122.3035,60.0,1.0
2026-01-20T23:01:01+00:00,SAT-60032,195.95735747212237,39.023226442274485,725.757636537981,-4.12068070987157,144323.66892182286,10.5,10500144323.668922,47.655,-122.3035,60.0,1.0166666666666666
2026-01-20T23:01:02+00:00,SAT-60032,195.48718584149688,39.33696587501991,721.6480028044386,-4.074285838113828,142698.72426275376,10.5,10500142698.724262,47.655,-122.3035,60.0,1.0333333333333334
2026-01-20T23:01:03+00:00,SAT-60032,195.00730470626115,39.65186058192817,717.5846395644054,-4.027093732343549,141045.85709626914,10.5,10500141045.857096,47.655,-122.3035,60.0,1.05
2026-01-20T23:01:04+00:00,SAT-60032,194.5174815379026,39.96781625768307,713.5683419146194,-3.979095737701706,139364.76429259576,10.5,10500139364.764292,47.655,-122.3035,60.0,1.0666666666666667
2026-01-20T23:01:05+00:00,SAT-60032,194.0174799667676,40.28473245743484,709.5999135834753,-3.930283457239363,137655.15175506286,10.5,10500137655.151754,47.655,-122.3035,60.0,1.0833333333333333
2026-01-20T23:01:06+00:00,SAT-60032,193.5070599863576,40.60250236382581,705.6801666738058,-3.880648814387933,135916.7366080747,10.5,10500135916.736609,47.655,-122.3035,60.0,1.1
2026-01-20T23:01:07+00:00,SAT-60032,192.98597818906546,40.92101255630121,701.8099213433596,-3.83018411093307,134149.24922760142,10.5,10500134149.249228,47.655,-122.3035,60.0,1.1166666666666667
2026-01-20T23:01:08+00:00,SAT-60032,192.45398803603882,41.24014278355725,697.9900054274625,-3.778882007606015,132352.43256140605,10.5,10500132352.432562,47.655,-122.3035,60.0,1.1333333333333333
2026-01-20T23:01:09+00:00,SAT-60032,191.9108401763497,41.55976573383475,694.2212540810334,-3.726735612491597,130526.04522546653,10.5,10500130526.045225,47.655,-122.3035,60.0,1.15
2026-01-20T23:01:10+00:00,SAT-60032,191.3562828029288,41.87974681314998,690.5045093324293,-3.673738412769878,128669.85911327935,10.5,10500128669.859114,47.655,-122.3035,60.0,1.1666666666666667
2026-01-20T23:01:11+00:00,SAT-60032,190.7900620736759,42.19994391955983,686.8406197053681,-3.6198844438943705,126783.6653211966,10.5,10500126783.665321,47.655,-122.3035,60.0,1.1833333333333333
2026-01-20T23:01:12+00:00,SAT-60032,190.21192256454663,42.52020723519654,683.2304396721238,-3.565168210980617,124867.2713951212,10.5,10500124867.271395,47.655,-122.3035,60.0,1.2
2026-01-20T23:01:13+00:00,SAT-60032,189.6216077977202,42.840379016573,679.6748291851237,-3.5095847784086285,122920.50446876352,10.5,10500122920.504469,47.655,-122.3035,60.0,1.2166666666666666
2026-01-20T23:01:14+00:00,SAT-60032,189.0188608224212,43.160293399378624,676.1746531191833,-3.453129765710124,120943.21111959495,10.5,10500120943.211119,47.655,-122.3035,60.0,1.2333333333333334
2026-01-20T23:01:15+00:00,SAT-60032,188.40342486876372,43.47977621156898,672.7307807178431,-3.3957994408043612,118935.26063436124,10.5,10500118935.260633,47.655,-122.3035,60.0,1.25
2026-01-20T23:01:16+00:00,SAT-60032,187.77504406094866,43.798644805768234,669.3440849467191,-3.33759070245211,116896.54439454629,10.5,10500116896.544395,47.655,-122.3035,60.0,1.2666666666666666
2026-01-20T23:01:17+00:00,SAT-60032,187.13346421470803,44.116707903294156,666.015441864353,-3.2785011205954655,114826.97728924318,10.5,10500114826.97729,47.655,-122.3035,60.0,1.2833333333333334
2026-01-20T23:01:18+00:00,SAT-60032,186.4784337129516,44.43376545751706,662.7457299528286,-3.2185290101494544,112726.50029964819,10.5,10500112726.5003,47.655,-122.3035,60.0,1.3
2026-01-20T23:01:19+00:00,SAT-60032,185.80970445666406,44.74960854267401,659.5358293747985,-3.157673428287378,110595.08040398224,10.5,10500110595.080404,47.655,-122.3035,60.0,1.3166666666666667
2026-01-20T23:01:20+00:00,SAT-60032,185.1270329099359,45.06401926382124,656.3866212332135,-3.0959342240968066,108432.71231665363,10.5,10500108432.712317,47.655,-122.3035,60.0,1.3333333333333333
2026-01-20T23:01:21+00:00,SAT-60032,184.43018123255138,45.376770696054756,653.2989867815323,-3.0333120863795537,106239.42016241555,10.5,10500106239.420162,47.655,-122.3035,60.0,1.35
2026-01-20T23:01:22+00:00,SAT-60032,183.71891850257188,45.68762685630583,650.2738065862594,-2.9698085384109163,104015.25729281228,10.5,10500104015.257294,47.655,-122.3035,60.0,1.3666666666666667
2026-01-20T23:01:23+00:00,SAT-60032,182.99302204450382,45.99634270584185,647.3119596947064,-2.905426034743974,101760.30967667548,10.5,10500101760.309677,47.655,-122.3035,60.0,1.3833333333333333
2026-01-20T23:01:24+00:00,SAT-60032,182.25227883939368,46.302664197611584,644.4143227062128,-2.8401679349045197,99474.69497880916,10.5,10500099474.694979,47.655,-122.3035,60.0,1.4
2026-01-20T23:01:25+00:00,SAT-60032,181.49648704843398,46.60632835969015,641.5817688695986,-2.7740385616809426,97158.5646015481,10.5,10500097158.564602,47.655,-122.3035,60.0,1.4166666666666667
2026-01-20T23:01:26+00:00,SAT-60032,180.7254576287687,46.90706342743302,638.8151671224845,-2.7070432499419117,94812.10539455958,10.5,10500094812.105394,47.655,-122.3035,60.0,1.4333333333333333
2026-01-20T23:01:27+00:00,SAT-60032,179.93901604110823,47.20458902762941,636.1153810819234,-2.6391883418812228,92435.53948829773,10.5,10500092435.539488,47.655,-122.3035,60.0,1.45
2026-01-20T23:01:28+00:00,SAT-60032,179.1370040617758,47.49861641297344,633.4832680397791,-2.5704812425280963,90029.12623820912,10.5,10500090029.126238,47.655,-122.3035,60.0,1.4666666666666666
2026-01-20T23:01:29+00:00,SAT-60032,178.31928167702412,47.78884875746904,630.9196779027358,-2.5009304122923592,87593.16196363342,10.5,10500087593.161964,47.655,-122.3035,60.0,1.4833333333333334
2026-01-20T23:01:30+00:00,SAT-60032,177.48572907299584,48.07498150989491,628.4254521397504,-2.430545445935191,85127.9827136929,10.5,10500085127.982714,47.655,-122.3035,60.0,1.5
2026-01-20T23:01:31+00:00,SAT-60032,176.63624868391983,48.356702819029465,626.0014226507404,-2.35933704020289,82633.96313369012,10.5,10500082633.963133,47.655,-122.3035,60.0,1.5166666666666666
2026-01-20T23:01:32+00:00,SAT-60032,175.77076732490806,48.63369402183816,623.6484106675538,-2.287317059336279,80111.51875952438,10.5,10500080111.518759,47.655,-122.3035,60.0,1.5333333333333334
2026-01-20T23:01:33+00:00,SAT-60032,174.88923836213084,48.905630209299375,621.367225589604,-2.2144984911727086,77561.10448019824,10.5,10500077561.10448,47.655,-122.3035,60.0,1.55
2026-01-20T23:01:34+00:00,SAT-60032,173.99164394601235,49.17218086024084,619.1586638632854,-2.140895533041813,74983.21754625006,10.5,10500074983.217546,47.655,-122.3035,60.0,1.5666666666666667
2026-01-20T23:01:35+00:00,SAT-60032,173.0779972374898,49.433010561204526,617.023507775724,-2.066523566318684,72378.39667849877,10.5,10500072378.396679,47.655,-122.3035,60.0,1.5833333333333333
2026-01-20T23:01:36+00:00,SAT-60032,172.14834464853058,49.687779801419765,614.9625242739063,-1.991399134016721,69747.22128325046,10.5,10500069747.221283,47.655,-122.3035,60.0,1.6
2026-01-20T23:01:37+00:00,SAT-60032,171.2027680768931,49.93614584437815,612.976463806155,-1.9155400166263423,67090.31410849099,10.5,10500067090.314108,47.655,-122.3035,60.0,1.6166666666666667
2026-01-20T23:01:38+00:00,SAT-60032,170.24138705907615,50.17776368891535,611.0660590879685,-1.838965166882436,64408.33895916614,10.5,10500064408.338959,47.655,-122.3035,60.0,1.6333333333333333
2026-01-20T23:01:39+00:00,SAT-60032,169.26436087905478,50.41228710222799,609.2320239329215,-1.761694735068245,61702.001583430676,10.5,10500061702.001583,47.655,-122.3035,60.0,1.65
2026-01-20T23:01:40+00:00,SAT-60032,168.2718905572657,50.639369734748705,607.4750520583241,-1.6837500646024903,58972.049518090775,10.5,10500058972.049519,47.655,-122.3035,60.0,1.6666666666666667
2026-01-20T23:01:41+00:00,SAT-60032,167.264220698266,50.85866631100673,605.7958158952872,-1.60515366672177,56219.27120187455,10.5,10500056219.271202,47.655,-122.3035,60.0,1.6833333333333333
2026-01-20T23:01:42+00:00,SAT-60032,166.24164117221466,51.06983389022824,604.1949654240348,-1.5259292107284574,53444.49563387217,10.5,10500053444.495634,47.655,-122.3035,60.0,1.7
2026-01-20T23:01:43+00:00,SAT-60032,165.20448858432042,51.27253319390232,602.6731270189421,-1.4461015077303363,50648.59180402908,10.5,10500050648.591805,47.655,-122.3035,60.0,1.7166666666666666
2026-01-20T23:01:44+00:00,SAT-60032,164.15314749493757,51.46642999335814,601.2309023097921,-1.3656964758807824,47832.4674757102,10.5,10500047832.467476,47.655,-122.3035,60.0,1.7333333333333334
2026-01-20T23:01:45+00:00,SAT-60032,163.08805136524887,51.65119654740372,599.868867077697,-1.284741111442763,44997.068172238716,10.5,10500044997.068172,47.655,-122.3035,60.0,1.75
2026-01-20T23:01:46+00:00,SAT-60032,162.00968318677167,51.82651308184676,598.5875701798798,-1.203263475468524,42143.37671036242,10.5,10500042143.37671,47.655,-122.3035,60.0,1.7666666666666666
2026-01-20T23:01:47+00:00,SAT-60032,160.91857574203985,51.99206930279283,597.3875324877388,-1.1212926247515818,39272.410781900355,10.5,10500039272.410782,47.655,-122.3035,60.0,1.7833333333333334
2026-01-20T23:01:48+00:00,SAT-60032,159.81531150974328,52.14756592455678,596.2692458937756,-1.0388585899751779,36385.222188409316,10.5,10500036385.222189,47.655,-122.3035,60.0,1.8
2026-01-20T23:01:49+00:00,SAT-60032,158.7005221440287,52.292716205756456,595.2331723403178,-0.9559923258996283,33482.89509653408,10.5,10500033482.895096,47.655,-122.3035,60.0,1.8166666666666667
2026-01-20T23:01:50+00:00,SAT-60032,157.57488752287736,52.42724747590665,594.2797428979169,-0.872725650971711,30566.543922872686,10.5,10500030566.543922,47.655,-122.3035,60.0,1.8333333333333333
2026-01-20T23:01:51+00:00,SAT-60032,156.43913436099558,52.55090263620717,593.4093569039793,-0.7890912044309166,27637.311831655967,10.5,10500027637.311832,47.655,-122.3035,60.0,1.85
2026-01-20T23:01:52+00:00,SAT-60032,155.2940343485572,52.663441621468216,592.622381144173,-0.7051223804212987,24696.368427065754,10.5,10500024696.368427,47.655,-122.3035,60.0,1.8666666666666667
2026-01-20T23:01:53+00:00,SAT-60032,154.14040183978372,52.76464280402919,591.9191490995466,-0.620853270540149,21744.907741046525,10.5,10500021744.907742,47.655,-122.3035,60.0,1.8833333333333333
2026-01-20T23:01:54+00:00,SAT-60032,152.979091074832,52.854304324795905,591.2999602509472,-0.5363185934933953,18784.145769539842,10.5,10500018784.14577,47.655,-122.3035,60.0,1.9
2026-01-20T23:01:55+00:00,SAT-60032,151.81099296810316,52.932245333634874,590.765079453591,-0.4515536254898204,15815.3180345955,10.5,10500015815.318035,47.655,-122.3035,60.0,1.9166666666666667
2026-01-20T23:01:56+00:00,SAT-60032,150.63703148276667,52.99830712382218,590.3147363810567,-0.366594139543741,12839.67745849457,10.5,10500012839.677458,47.655,-122.3035,60.0,1.9333333333333333
2026-01-20T23:01:57+00:00,SAT-60032,149.458159584678,53.052354147295844,589.949125029811,-0.2814763170398124,9858.491266374787,10.5,10500009858.491266,47.655,-122.3035,60.0,1.95
2026-01-20T23:01:58+00:00,SAT-60032,148.27535489007792,53.09427489325199,589.6684033119336,-0.1962366848999128,6873.03878554905,10.5,10500006873.038786,47.655,-122.3035,60.0,1.9666666666666666
2026-01-20T23:01:59+00:00,SAT-60032,147.08961496252638,53.12398262196252,589.472692710505,-0.1109120290447517,3884.6084145648947,10.5,10500003884.608414,47.655,-122.3035,60.0,1.9833333333333334
2026-01-20T23:02:00+00:00,SAT-60032,145.90195240131408,53.14141594015975,589.3620780213043,-0.025539320855231723,894.4950475703197,10.5,10500000894.495049,47.655,-122.3035,60.0,2.0
2026-01-20T23:02:01+00:00,SAT-60032,144.71338970788204,53.146539211886186,589.336607167844,0.05984436492715151,-2096.002801161498,10.5,10499997903.997198,47.655,-122.3035,60.0,2.0166666666666666
2026-01-20T23:02:02+00:00,SAT-60032,143.52495404228083,53.13934279767883,589.3962910982874,0.14520192957331046,-5085.5857772104455,10.5,10499994914.414223,47.655,-122.3035,60.0,2.033333333333333
2026-01-20T23:02:03+00:00,SAT-60032,142.33767191273387,53.11984311907479,589.5411037615252,0.2304963304880474,-8072.956492202676,10.5,10499991927.043509,47.655,-122.3035,60.0,2.05
2026-01-20T23:02:04+00:00,SAT-60032,141.15256387840947,53.08808254739502,589.77098216316,0.31569066112672384,-11056.822322830418,10.5,10499988943.177677,47.655,-122.3035,60.0,2.066666666666667
2026-01-20T23:02:05+00:00,SAT-60032,139.97063932492537,53.0441291184258,590.0858265011892,0.4007482342623681,-14035.898327218309,10.5,10499985964.101673,47.655,-122.3035,60.0,2.0833333333333335
2026-01-20T23:02:06+00:00,SAT-60032,138.79289137579678,52.98807607658595,590.4855003847389,0.48563264953659563,-17008.90961084236,10.5,10499982991.09039,47.655,-122.3035,60.0,2.1
2026-01-20T23:02:07+00:00,SAT-60032,137.620292035919,52.920041257225826,590.9698311201595,0.5703078872522022,-19974.594611543303,10.5,10499980025.405388,47.655,-122.3035,60.0,2.1166666666666667
2026-01-20T23:02:08+00:00,SAT-60032,136.4537875590761,52.840166312014944,591.5386100906684,0.6547383643528092,-22931.707060170593,10.5,10499977068.29294,47.655,-122.3035,60.0,2.1333333333333333
2026-01-20T23:02:09+00:00,SAT-60032,135.29429417271962,52.74861579335029,592.1915931918203,0.7388890236795961,-25879.01910673069,10.5,10499974120.980894,47.655,-122.3035,60.0,2.15
2026-01-20T23:02:10+00:00,SAT-60032,134.1426941318826,52.645576105440156,592.9285013559941,0.8227253901847257,-28815.32328921904,10.5,10499971184.67671,47.655,-122.3035,60.0,2.1666666666666665
2026-01-20T23:02:11+00:00,SAT-60032,132.99983219420974,52.53125434045063,593.7490211329438,0.9062136543500301,-31739.435455295265,10.5,10499968260.564545,47.655,-122.3035,60.0,2.183333333333333
2026-01-20T23:02:12+00:00,SAT-60032,131.86651250018363,52.40587701073866,594.6528053535442,0.9893207157372506,-34650.19628759684,10.5,10499965349.803713,47.655,-122.3035,60.0,2.2
2026-01-20T23:02:13+00:00,SAT-60032,130.74349592563138,52.26968869831325,595.6394738369686,1.072014266455258,-37546.47422711418,10.5,10499962453.525772,47.655,-122.3035,60.0,2.216666666666667
2026-01-20T23:02:14+00:00,SAT-60032,129.63149786631953,52.12295063196582,596.7086141811134,1.1542628244257052,-40427.16663829449,10.5,10499959572.833363,47.655,-122.3035,60.0,2.2333333333333334
2026-01-20T23:02:15+00:00,SAT-60032,128.53118650887973,51.96593921510139,597.8597825861953,1.2360358111605976,-43291.20253314136,10.5,10499956708.797466,47.655,-122.3035,60.0,2.25
2026-01-20T23:02:16+00:00,SAT-60032,127.44318153452384,51.798944513987834,599.0925047559189,1.3173035844047425,-46137.543714491294,10.5,10499953862.456285,47.655,-122.3035,60.0,2.2666666666666666
2026-01-20T23:02:17+00:00,SAT-60032,126.3680532836245,51.62226872798689,600.4062768312018,1.398037493480245,-48965.186714412186,10.5,10499951034.813286,47.655,-122.3035,60.0,2.283333333333333
2026-01-20T23:02:18+00:00,SAT-60032,125.30632233818338,51.43622465326226,601.8005663790914,1.4782098904202075,-51773.16318415249,10.5,10499948226.836817,47.655,-122.3035,60.0,2.3
2026-01-20T23:02:19+00:00,SAT-60032,124.25845952668914,51.24113415951653,603.2748133927882,1.5577942269942344,-54560.54329238483,10.5,10499945439.456707,47.655,-122.3035,60.0,2.316666666666667
2026-01-20T23:02:20+00:00,SAT-60032,123.22488626195697,51.03732668085947,604.8284313884354,1.6367650241730636,-57326.434655728284,10.5,10499942673.565344,47.655,-122.3035,60.0,2.3333333333333335
2026-01-20T23:02:21+00:00,SAT-60032,122.2059752649579,50.825137749066194,606.4608084714523,1.715097933451382,-60069.98448653272,10.5,10499939930.015514,47.655,-122.3035,60.0,2.35
2026-01-20T23:02:22+00:00,SAT-60032,121.20205157373901,50.6049075669077,608.1713084640276,1.7927697538217295,-62790.38018737669,10.5,10499937209.619812,47.655,-122.3035,60.0,2.3666666666666667
2026-01-20T23:02:23+00:00,SAT-60032,120.2133938298867,50.37697963601942,609.9592720495416,1.8697584532422096,-65486.85010295756,10.5,10499934513.149897,47.655,-122.3035,60.0,2.3833333333333333
2026-01-20T23:02:24+00:00,SAT-60032,119.2402358006857,50.14169944587254,611.8240179383973,1.9460431650219037,-68158.66339349333,10.5,10499931841.336607,47.655,-122.3035,60.0,2.4
2026-01-20T23:02:25+00:00,SAT-60032,118.28276810985595,49.89941323276544,613.7648440302478,2.0216042220282557,-70805.13123281002,10.5,10499929194.868767,47.655,-122.3035,60.0,2.4166666666666665
2026-01-20T23:02:26+00:00,SAT-60032,117.34114012123655,49.6504668085048,615.7810286103382,2.096423156367527,-73425.60679714977,10.5,10499926574.393204,47.655,-122.3035,60.0,2.433333333333333
2026-01-20T23:02:27+00:00,SAT-60032,116.41546195689996,49.39520446637392,617.87183154553,2.170482685600607,-76019.48478239027,10.5,10499923980.515217,47.655,-122.3035,60.0,2.45
2026-01-20T23:02:28+00:00,SAT-60032,115.50580662051244,49.1339679679625,620.0364954665769,2.2437667397899586,-78586.20235134324,10.5,10499921413.79765,47.655,-122.3035,60.0,2.466666666666667
2026-01-20T23:02:29+00:00,SAT-60032,114.61221217672426,48.86709560682087,622.2742469773775,2.3162604173210957,-81125.23758643556,10.5,10499918874.762413,47.655,-122.3035,60.0,2.4833333333333334
2026-01-20T23:02:30+00:00,SAT-60032,113.73468398712824,48.59492135749514,624.5842978201636,2.387950020825836,-83636.11074789372,10.5,10499916363.889252,47.655,-122.3035,60.0,2.5
2026-01-20T23:02:31+00:00,SAT-60032,112.87319694408333,48.31777409942344,626.9658460765205,2.4588230231963806,-86118.38308341298,10.5,10499913881.616917,47.655,-122.3035,60.0,2.5166666666666666
2026-01-20T23:02:32+00:00,SAT-60032,112.02769770782089,48.03597692245989,629.4180773345093,2.5288680144767257,-88571.65496807001,10.5,10499911428.345032,47.655,-122.3035,60.0,2.533333333333333
2026-01-20T23:02:33+00:00,SAT-60032,111.19810692853805,47.74984651367118,631.9401658028231,2.5980747805294957,-90995.56865956818,10.5,10499909004.431341,47.655,-122.3035,60.0,2.55
2026-01-20T23:02:34+00:00,SAT-60032,110.38432139440833,47.45969260756925,634.5312755034004,2.666434172306949,-93389.80371955509,10.5,10499906610.19628,47.655,-122.3035,60.0,2.566666666666667
2026-01-20T23:02:35+00:00,SAT-60032,109.58621615764436,47.165817520465986,637.1905613336593,2.733938171272334,-95754.07930495538,10.5,10499904245.920694,47.655,-122.3035,60.0,2.5833333333333335
2026-01-20T23:02:36+00:00,SAT-60032,108.80364656423247,46.868515743043055,639.917170193978,2.8005797849440794,-98088.15050948625,10.5,10499901911.849491,47.655,-122.3035,60.0,2.6
2026-01-20T23:02:37+00:00,SAT-60032,108.03645022749758,46.56807360632742,642.7102420109985,2.866353108638782,-100391.81052615811,10.5,10499899608.189474,47.655,-122.3035,60.0,2.6166666666666667
2026-01-20T23:02:38+00:00,SAT-60032,107.28444889164615,46.26476899879194,645.5689108225098,2.9312532192492062,-102664.88692693085,10.5,10499897335.113073,47.655,-122.3035,60.0,2.6333333333333333
2026-01-20T23:02:39+00:00,SAT-60032,106.54745022438235,45.95887114882634,648.4923057563913,2.995276188745144,-104907.24213557104,10.5,10499895092.757864,47.655,-122.3035,60.0,2.65
2026-01-20T23:02:40+00:00,SAT-60032,105.82524950288978,45.65064045540096,651.4795520230223,3.0584190185180256,-107118.77112812248,10.5,10499892881.228872,47.655,-122.3035,60.0,2.6666666666666665
2026-01-20T23:02:41+00:00,SAT-60032,105.11763120984808,45.34032837126496,654.5297718422136,3.1206796516147888,-109299.40186138799,10.5,10499890700.598139,47.655,-122.3035,60.0,2.683333333333333
2026-01-20T23:02:42+00:00,SAT-60032,104.42437052101701,45.02817732652799,657.6420853823362,3.1820568992128337,-111449.09269777146,10.5,10499888550.907303,47.655,-122.3035,60.0,2.7
2026-01-20T23:02:43+00:00,SAT-60032,103.74523470323325,44.714420697533264,660.8156116261259,3.2425504176035127,-113567.83159914213,10.5,10499886432.168402,47.655,-122.3035,60.0,2.716666666666667
2026-01-20T23:02:44+00:00,SAT-60032,103.07998441260187,44.399282811932416,664.0494692135318,3.3021607023831767,-115655.63592338056,10.5,10499884344.364077,47.655,-122.3035,60.0,2.7333333333333334
2026-01-20T23:02:45+00:00,SAT-60032,102.42837489209764,44.0829789847631,667.3427772787701,3.3608889769272716,-117712.54851826977,10.5,10499882287.45148,47.655,-122.3035,60.0,2.75
2026-01-20T23:02:46+00:00,SAT-60032,101.79015709106233,43.76571559222546,670.694656176153,3.4187372553342437,-119738.63992605699,10.5,10499880261.360073,47.655,-122.3035,60.0,2.7666666666666666
2026-01-20T23:02:47+00:00,SAT-60032,101.1650786766832,43.44769016299776,674.1042282686914,3.475708240384543,-121734.00480954628,10.5,10499878265.99519,47.655,-122.3035,60.0,2.783333333333333
2026-01-20T23:02:48+00:00,SAT-60032,100.55288497253072,43.12909149992231,677.570618614931,3.531805271650745,-123698.76013469565,10.5,10499876301.239866,47.655,-122.3035,60.0,2.8
2026-01-20T23:02:49+00:00,SAT-60032,99.95331981728543,42.81009982401321,681.0929556040377,3.58703239513014,-125633.04760944477,10.5,10499874366.95239,47.655,-122.3035,60.0,2.816666666666667
2026-01-20T23:02:50+00:00,SAT-60032,99.36612632825626,42.49088692717504,684.670371660327,3.641394180565014,-127537.02728549845,10.5,10499872462.972715,47.655,-122.3035,60.0,2.8333333333333335
2026-01-20T23:02:51+00:00,SAT-60032,98.79104761594876,42.171616354035926,688.3020037656062,3.6948958138730816,-129410.88079563148,10.5,10499870589.119204,47.655,-122.3035,60.0,2.85
2026-01-20T23:02:52+00:00,SAT-60032,98.22782740855986,41.852443585625835,691.9869940736979,3.747542976999633,-131254.80714560254,10.5,10499868745.192854,47.655,-122.3035,60.0,2.8666666666666667
2026-01-20T23:02:53+00:00,SAT-60032,97.67621062521062,41.5335162418625,695.7244904051373,3.799341883276928,-133069.0239525897,10.5,10499866930.976048,47.655,-122.3035,60.0,2.8833333333333333
2026-01-20T23:02:54+00:00,SAT-60032,97.1359438781797,41.21497428718915,699.5136467771342,3.8502991778979867,-134853.7639593617,10.5,10499865146.23604,47.655,-122.3035,60.0,2.9
2026-01-20T23:02:55+00:00,SAT-60032,96.60677592833486,40.896950249233136,703.3536238342775,3.9004219496915393,-136609.2754466864,10.5,10499863390.724554,47.655,-122.3035,60.0,2.9166666666666665
2026-01-20T23:02:56+00:00,SAT-60032,96.08845808165812,40.579569439320565,707.24358929098,3.949717698496732,-138335.82109065494,10.5,10499861664.17891,47.655,-122.3035,60.0,2.933333333333333
2026-01-20T23:02:57+00:00,SAT-60032,95.58074453784664,40.26295017729176,711.1827183413882,3.9981942729731554,-140033.675784526,10.5,10499859966.324215,47.655,-122.3035,60.0,2.95
2026-01-20T23:02:58+00:00,SAT-60032,95.08339269799237,39.94720402163201,715.1701940072663,4.04585987952151,-141703.1269511652,10.5,10499858296.873049,47.655,-122.3035,60.0,2.966666666666667
2026-01-20T23:02:59+00:00,SAT-60032,94.59616342633612,39.632435997989326,719.2052074947795,4.092723018014378,-143344.4722920647,10.5,10499856655.527708,47.655,-122.3035,60.0,2.9833333333333334
2026-01-20T23:03:00+00:00,SAT-60032,94.11882127843285,39.318744830940894,723.2869584871784,4.138792483495465,-144958.01984685814,10.5,10499855041.980154,47.655,-122.3035,60.0,3.0
2026-01-20T23:03:01+00:00,SAT-60032,93.65113469138984,39.00622317286702,727.4146554391789,4.1840773637848585,-146544.0879094464,10.5,10499853455.91209,47.655,-122.3035,60.0,3.0166666666666666
2026-01-20T23:03:02+00:00,SAT-60032,93.19287614014884,38.694957829676504,731.587515868954,4.228586889491697,-148102.99977480696,10.5,10499851897.000225,47.655,-122.3035,60.0,3.033333333333333
2026-01-20T23:03:03+00:00,SAT-60032,92.74382227832146,38.38502999360586,735.8047665005402,4.27233058435586,-149635.08900459573,10.5,10499850364.910995,47.655,-122.3035,60.0,3.05
2026-01-20T23:03:04+00:00,SAT-60032,92.30375403426612,38.0765154600325,740.0656435561809,4.315318116872955,-151140.69423042668,10.5,10499848859.305769,47.655,-122.3035,60.0,3.066666666666667
2026-01-20T23:03:05+00:00,SAT-60032,91.8724566969969,37.76948485021528,744.3693929006964,4.357559327536425,-152620.1601080053,10.5,10499847379.839891,47.655,-122.3035,60.0,3.0833333333333335
2026-01-20T23:03:06+00:00,SAT-60032,91.44971997554138,37.46400382637041,748.7152702130188,4.3990641828754145,-154073.83570734074,10.5,10499845926.164293,47.655,-122.3035,60.0,3.1
2026-01-20T23:03:07+00:00,SAT-60032,91.03533804165153,37.16013330413406,753.1025411118909,4.439842786969263,-155502.0749160316,10.5,10499844497.925083,47.655,-122.3035,60.0,3.1166666666666667
2026-01-20T23:03:08+00:00,SAT-60032,90.62910955226636,36.8579296580546,757.5304812930464,4.479905345238741,-156905.23517108223,10.5,10499843094.76483,47.655,-122.3035,60.0,3.1333333333333333
2026-01-20T23:03:09+00:00,SAT-60032,90.23083765846424,36.5574449232953,761.9983766302815,4.519262129458305,-158283.6762334835,10.5,10499841716.323767,47.655,-122.3035,60.0,3.15
2026-01-20T23:03:10+00:00,SAT-60032,89.84033000206404,36.258726993173546,766.5055232416291,4.557923476334345,-159637.76013841754,10.5,10499840362.239862,47.655,-122.3035,60.0,3.1666666666666665
2026-01-20T23:03:11+00:00,SAT-60032,89.45739869871898,35.96181981013374,771.0512275541165,4.595899785912168,-160967.85113946316,10.5,10499839032.14886,47.655,-122.3035,60.0,3.183333333333333
2026-01-20T23:03:12+00:00,SAT-60032,89.08186030912073,35.66676355019165,775.6348063669368,4.633201495931496,-162274.31481041698,10.5,10499837725.68519,47.655,-122.3035,60.0,3.2
2026-01-20T23:03:13+00:00,SAT-60032,88.7135358018546,35.37359480241364,780.2555868890396,4.669839030149396,-163557.51623534394,10.5,10499836442.483765,47.655,-122.3035,60.0,3.216666666666667
2026-01-20T23:03:14+00:00,SAT-60032,88.35225051073245,35.08234674496263,784.9129067251871,4.705822837074635,-164817.82136521814,10.5,10499835182.178635,47.655,-122.3035,60.0,3.2333333333333334
2026-01-20T23:03:15+00:00,SAT-60032,87.99783408095226,34.79304931198626,789.606113900639,4.741163376457674,-166055.59654474558,10.5,10499833944.403456,47.655,-122.3035,60.0,3.25
2026-01-20T23:03:16+00:00,SAT-60032,87.65012040928968,34.50572935486284,794.3345668723646,4.7758710524585,-167271.2061716184,10.5,10499832728.793829,47.655,-122.3035,60.0,3.2666666666666666
2026-01-20T23:03:17+00:00,SAT-60032,87.30894758304895,34.220410801029054,799.0976344736017,4.8099562657752335,-168465.01452227976,10.5,10499831534.985477,47.655,-122.3035,60.0,3.283333333333333
2026-01-20T23:03:18+00:00,SAT-60032,86.97415780990316,33.937114803190504,803.8946959104026,4.843429334206962,-169637.382969698,10.5,10499830362.617031,47.655,-122.3035,60.0,3.3
2026-01-20T23:03:19+00:00,SAT-60032,86.64559734875397,33.65585988698734,808.7251406789579,4.876300594111312,-170788.67353683987,10.5,10499829211.326464,47.655,-122.3035,60.0,3.316666666666667
2026-01-20T23:03:20+00:00,SAT-60032,86.32311643011526,33.37666208654781,813.5883685841056,4.9085802473132745,-171919.24353477024,10.5,10499828080.756466,47.655,-122.3035,60.0,3.3333333333333335
2026-01-20T23:03:21+00:00,SAT-60032,86.00656918350508,33.099535082960664,818.4837896051598,4.940278480142853,-173029.449731854,10.5,10499826970.550268,47.655,-122.3035,60.0,3.35
2026-01-20T23:03:22+00:00,SAT-60032,85.69581355451291,32.82449032996111,823.4108238804561,4.971405361216191,-174119.6447736187,10.5,10499825880.355227,47.655,-122.3035,60.0,3.3666666666666667
2026-01-20T23:03:23+00:00,SAT-60032,85.39071122643033,32.55153717974022,828.3689015899527,5.001970917530805,-175190.17984793152,10.5,10499824809.820152,47.655,-122.3035,60.0,3.3833333333333333
2026-01-20T23:03:24+00:00,SAT-60032,85.09112753566548,32.28068299893968,833.3574629137257,5.031985070115691,-176241.40243119377,10.5,10499823758.597569,47.655,-122.3035,60.0,3.4
2026-01-20T23:03:25+00:00,SAT-60032,84.79693139006875,32.011933282874566,838.3759579262822,5.06145760447491,-177273.65525315035,10.5,10499822726.344748,47.655,-122.3035,60.0,3.4166666666666665
2026-01-20T23:03:26+00:00,SAT-60032,84.50799518795058,31.74529176602807,843.4238464614006,5.090398274991813,-178287.2799535672,10.5,10499821712.720047,47.655,-122.3035,60.0,3.433333333333333
2026-01-20T23:03:27+00:00,SAT-60032,84.22419473104449,31.48076052195482,848.5005980810921,5.11881666431861,-179282.61215745928,10.5,10499820717.387842,47.655,-122.3035,60.0,3.45
2026-01-20T23:03:28+00:00,SAT-60032,83.945409145075,31.218340065782417,853.6056919043303,5.146722329032145,-180259.986576572,10.5,10499819740.013424,47.655,-122.3035,60.0,3.466666666666667
2026-01-20T23:03:29+00:00,SAT-60032,83.67152079282333,30.95802944443048,858.7386165810459,5.17412458306584,-181219.72942425162,10.5,10499818780.270576,47.655,-122.3035,60.0,3.4833333333333334
2026-01-20T23:03:30+00:00,SAT-60032,83.40241519873895,30.699826333387293,863.8988700501338,5.201032756064218,-182162.16746411377,10.5,10499817837.832537,47.655,-122.3035,60.0,3.5
2026-01-20T23:03:31+00:00,SAT-60032,83.13798096102252,30.44372711598441,869.0859595551216,5.227455990175048,-183087.6208928445,10.5,10499816912.379107,47.655,-122.3035,60.0,3.5166666666666666
2026-01-20T23:03:32+00:00,SAT-60032,82.87810967482845,30.189726968825184,874.2994014571758,5.25340329652145,-183996.40531809253,10.5,10499816003.594683,47.655,-122.3035,60.0,3.533333333333333
