DopplerPredictor/satellites_20260205_234138/SAT-46080.csv

timestamp,satellite,azimuth_deg,elevation_deg,distance_km,relative_velocity_kms,doppler_shift_hz,tx_freq_ghz,rx_freq_hz,ue_lat,ue_lon,ue_alt_m,time_minutes
2026-01-20T23:11:32+00:00,SAT-46080,336.48232242042616,30.017749701232642,804.6139974521368,-2.0381339954745483,71384.07381977154,10.5,10500071384.07382,47.655,-122.3035,60.0,11.533333333333333
2026-01-20T23:11:33+00:00,SAT-46080,337.051882499905,30.123092400728257,802.5813274126419,-1.9808932905548955,69379.26220554355,10.5,10500069379.262205,47.655,-122.3035,60.0,11.55
2026-01-20T23:11:34+00:00,SAT-46080,337.62547880044934,30.22605492910018,800.6057446236356,-1.92322567858656,67359.49850065567,10.5,10500067359.4985,47.655,-122.3035,60.0,11.566666666666666
2026-01-20T23:11:35+00:00,SAT-46080,338.2030418111507,30.326571629700624,798.6876748476881,-1.865139562797276,65325.077021688776,10.5,10500065325.077023,47.655,-122.3035,60.0,11.583333333333334
2026-01-20T23:11:36+00:00,SAT-46080,338.78449788791806,30.42457738142039,796.8275354666694,-1.806643717913899,63276.3050966944,10.5,10500063276.305098,47.655,-122.3035,60.0,11.6
2026-01-20T23:11:37+00:00,SAT-46080,339.3697692281291,30.520007703285668,795.0257351112464,-1.7477473516844433,61213.50521995671,10.5,10500061213.50522,47.655,-122.3035,60.0,11.616666666666667
2026-01-20T23:11:38+00:00,SAT-46080,339.95877387329324,30.61279886424239,793.2826732290225,-1.6884600545452622,59137.01328912435,10.5,10500059137.013288,47.655,-122.3035,60.0,11.633333333333333
2026-01-20T23:11:39+00:00,SAT-46080,340.551425706287,30.702887992017267,791.5987397028761,-1.628791818774206,57047.179276034905,10.5,10500057047.179276,47.655,-122.3035,60.0,11.65
2026-01-20T23:11:40+00:00,SAT-46080,341.14763446519817,30.790213184442255,789.9743144501947,-1.5687530346568603,54944.36709244044,10.5,10500054944.367092,47.655,-122.3035,60.0,11.666666666666666
2026-01-20T23:11:41+00:00,SAT-46080,341.74730576752916,30.874713621753358,788.4097670259357,-1.5083544825005106,52828.95431030277,10.5,10500052828.95431,47.655,-122.3035,60.0,11.683333333333334
2026-01-20T23:11:42+00:00,SAT-46080,342.35034114403874,30.956329679344584,786.9054562336498,-1.4476073144782444,50701.33152589705,10.5,10500050701.331526,47.655,-122.3035,60.0,11.7
2026-01-20T23:11:43+00:00,SAT-46080,342.95663807818886,31.035003040103177,785.4617297546116,-1.3865230579826942,48561.90247727409,10.5,10500048561.902477,47.655,-122.3035,60.0,11.716666666666667
2026-01-20T23:11:44+00:00,SAT-46080,343.5660900596871,31.110676807154178,784.0789237736072,-1.3251136233730836,46411.08431559468,10.5,10500046411.084316,47.655,-122.3035,60.0,11.733333333333333
2026-01-20T23:11:45+00:00,SAT-46080,344.1785866558794,31.18329561692876,782.757362596993,-1.263391270680609,44249.3064390112,10.5,10500044249.306438,47.655,-122.3035,60.0,11.75
2026-01-20T23:11:46+00:00,SAT-46080,344.7940135842273,31.25280574997113,781.4973583039608,-1.201368606398269,42077.010380233856,10.5,10500042077.01038,47.655,-122.3035,60.0,11.766666666666667
2026-01-20T23:11:47+00:00,SAT-46080,345.4122527976832,31.319155240742546,780.2992104010077,-1.139058584294141,39894.64983501513,10.5,10500039894.649836,47.655,-122.3035,60.0,11.783333333333333
2026-01-20T23:11:48+00:00,SAT-46080,346.0331825867293,31.382293986296464,779.1632054755876,-1.0764744834243996,37702.68989207259,10.5,10500037702.689892,47.655,-122.3035,60.0,11.8
2026-01-20T23:11:49+00:00,SAT-46080,346.656677687475,31.44217385218773,778.0896168716997,-1.0136298960515326,35501.60660993377,10.5,10500035501.60661,47.655,-122.3035,60.0,11.816666666666666
2026-01-20T23:11:50+00:00,SAT-46080,347.28260940011097,31.49874877578506,777.0787043775186,-0.9505387266459446,33291.8869819681,10.5,10500033291.886982,47.655,-122.3035,60.0,11.833333333333334
2026-01-20T23:11:51+00:00,SAT-46080,347.91084572518605,31.55197486723238,776.1307139140245,-0.8872151634880331,31074.027941771463,10.5,10500031074.027943,47.655,-122.3035,60.0,11.85
2026-01-20T23:11:52+00:00,SAT-46080,348.5412515020499,31.601810506155488,775.2458772519539,-0.8236736721035147,28848.536133243568,10.5,10500028848.536133,47.655,-122.3035,60.0,11.866666666666667
2026-01-20T23:11:53+00:00,SAT-46080,349.17368856191786,31.648216434964137,774.4244117352983,-0.7599289816372901,26615.92743334305,10.5,10500026615.927433,47.655,-122.3035,60.0,11.883333333333333
2026-01-20T23:11:54+00:00,SAT-46080,349.8080158925421,31.69115584799137,773.6665200183908,-0.6959960616027704,24376.726137750567,10.5,10500024376.726137,47.655,-122.3035,60.0,11.9
2026-01-20T23:11:55+00:00,SAT-46080,350.44408980676684,31.730594475583462,772.9723898261816,-0.6318901142252941,22131.464692702804,10.5,10500022131.464693,47.655,-122.3035,60.0,11.916666666666666
2026-01-20T23:11:56+00:00,SAT-46080,351.08176412708684,31.766500663667035,772.3421937221514,-0.5676265527607067,19880.682935617482,10.5,10500019880.682936,47.655,-122.3035,60.0,11.933333333333334
2026-01-20T23:11:57+00:00,SAT-46080,351.7208903758344,31.798845447697538,771.7760888978463,-0.5032209815266465,17624.92739570449,10.5,10500017624.927395,47.655,-122.3035,60.0,11.95
2026-01-20T23:11:58+00:00,SAT-46080,352.3613179706593,31.82760262075953,771.2742169823266,-0.4386891819830378,15364.750806445896,10.5,10500015364.750807,47.655,-122.3035,60.0,11.966666666666667
2026-01-20T23:11:59+00:00,SAT-46080,353.002894431385,31.85274879588336,770.8367038655011,-0.37404709428396954,13100.711459464668,10.5,10500013100.71146,47.655,-122.3035,60.0,11.983333333333333
2026-01-20T23:12:00+00:00,SAT-46080,353.6454655957532,31.874263462063585,770.4636595398586,-0.30931079210124907,10833.372322739073,10.5,10500010833.372322,47.655,-122.3035,60.0,12.0
2026-01-20T23:12:01+00:00,SAT-46080,354.2888758322229,31.892129033344748,770.1551779673059,-0.24449647104309064,8563.30063497612,10.5,10500008563.300634,47.655,-122.3035,60.0,12.016666666666667
2026-01-20T23:12:02+00:00,SAT-46080,354.9329682709824,31.90633089154495,769.9113369575613,-0.17962042087672814,6291.066932729994,10.5,10500006291.066933,47.655,-122.3035,60.0,12.033333333333333
2026-01-20T23:12:03+00:00,SAT-46080,355.5775850250377,31.91685742149948,769.7321980742453,-0.11469901172656438,4017.2445670028364,10.5,10500004017.244568,47.655,-122.3035,60.0,12.05
2026-01-20T23:12:04+00:00,SAT-46080,356.2225674279539,31.92370003947787,769.6178065547406,-0.04974867003385111,1742.4088612510616,10.5,10500001742.408861,47.655,-122.3035,60.0,12.066666666666666
2026-01-20T23:12:05+00:00,SAT-46080,356.86775626701547,31.926853214054763,769.5681912540257,0.015214141214838713,-532.8635810971819,10.5,10499999467.13642,47.655,-122.3035,60.0,12.083333333333334
2026-01-20T23:12:06+00:00,SAT-46080,357.51299202420336,31.92631447959212,769.5833646082275,0.0801729435187614,-2807.9956132418606,10.5,10499997192.004387,47.655,-122.3035,60.0,12.1
2026-01-20T23:12:07+00:00,SAT-46080,358.15811510668414,31.922084442195203,769.6633226191484,0.1451112628171082,-5082.410243888245,10.5,10499994917.589756,47.655,-122.3035,60.0,12.116666666666667
2026-01-20T23:12:08+00:00,SAT-46080,358.80296609240514,31.914166778186647,769.8080448586953,0.21001265125567684,-7355.531399607815,10.5,10499992644.468601,47.655,-122.3035,60.0,12.133333333333333
2026-01-20T23:12:09+00:00,SAT-46080,359.44738596667275,31.90256822498979,770.0174944950146,0.27486070706042437,-9626.784620894152,10.5,10499990373.21538,47.655,-122.3035,60.0,12.15
2026-01-20T23:12:10+00:00,SAT-46080,0.09121635702736869,31.887298564582256,770.2916183384503,0.33963909584458096,-11895.597808428189,10.5,10499988104.402191,47.655,-122.3035,60.0,12.166666666666666
2026-01-20T23:12:11+00:00,SAT-46080,0.7342997691133852,31.868370599499706,770.6303469087491,0.4043315716678795,-14161.401960661513,10.5,10499985838.59804,47.655,-122.3035,60.0,12.183333333333334
2026-01-20T23:12:12+00:00,SAT-46080,1.3764798185736926,31.84580012152198,771.033594523271,0.468921993659662,-16423.631756027866,10.5,10499983576.368244,47.655,-122.3035,60.0,12.2
2026-01-20T23:12:13+00:00,SAT-46080,2.0176014536366043,31.81960587341828,771.5012594017769,0.5333943487934777,-18681.72635060591,10.5,10499981318.27365,47.655,-122.3035,60.0,12.216666666666667
2026-01-20T23:12:14+00:00,SAT-46080,2.6575111791402164,31.789809503582553,772.0332237939294,0.5977327752931447,-20935.130197898507,10.5,10499979064.869802,47.655,-122.3035,60.0,12.233333333333333
2026-01-20T23:12:15+00:00,SAT-46080,3.296057277660205,31.756435513718284,772.6293541301392,0.6619215695440308,-23183.293290895006,10.5,10499976816.706709,47.655,-122.3035,60.0,12.25
2026-01-20T23:12:16+00:00,SAT-46080,3.9330900101678954,31.719511200715136,773.2895011793005,0.7259452199481126,-25425.672347818647,10.5,10499974574.327652,47.655,-122.3035,60.0,12.266666666666667
2026-01-20T23:12:17+00:00,SAT-46080,4.568461827344478,31.679066591474097,774.0135002402944,0.7897884102215607,-27661.73092762189,10.5,10499972338.269072,47.655,-122.3035,60.0,12.283333333333333
2026-01-20T23:12:18+00:00,SAT-46080,5.202027557510333,31.63513437265054,774.8011713367788,0.853436051142973,-29890.94054194391,10.5,10499970109.059458,47.655,-122.3035,60.0,12.3
2026-01-20T23:12:19+00:00,SAT-46080,5.833644599685699,31.587749814026623,775.6523194436427,0.9168732837582101,-32112.780767357413,10.5,10499967887.219233,47.655,-122.3035,60.0,12.316666666666666
2026-01-20T23:12:20+00:00,SAT-46080,6.463173095867543,31.536950687422443,776.5667347166558,0.9800855051705141,-34326.74014864776,10.5,10499965673.259851,47.655,-122.3035,60.0,12.333333333333334
2026-01-20T23:12:21+00:00,SAT-46080,7.090476102107852,31.48277718021208,777.5441927478386,1.043058379001833,-36532.31656521275,10.5,10499963467.683435,47.655,-122.3035,60.0,12.35
2026-01-20T23:12:22+00:00,SAT-46080,7.715419745741155,31.42527180464855,778.5844548312682,1.105777852822725,-38729.0178415316,10.5,10499961270.982159,47.655,-122.3035,60.0,12.366666666666667
2026-01-20T23:12:23+00:00,SAT-46080,8.337873374405264,31.36447930296234,779.687268246265,1.1682301759503413,-40916.362370525625,10.5,10499959083.637629,47.655,-122.3035,60.0,12.383333333333333
2026-01-20T23:12:24+00:00,SAT-46080,8.9577096962235,31.30044654858691,780.8523665583294,1.2304018967111556,-43093.8790176874,10.5,10499956906.120983,47.655,-122.3035,60.0,12.4
2026-01-20T23:12:25+00:00,SAT-46080,9.574804900680387,31.23322244500473,782.0794699173508,1.2922798951064076,-45261.108265162824,10.5,10499954738.891735,47.655,-122.3035,60.0,12.416666666666666
2026-01-20T23:12:26+00:00,SAT-46080,10.189038779866532,31.162857820645563,783.3682853883929,1.3538513838445523,-47417.602247911775,10.5,10499952582.397753,47.655,-122.3035,60.0,12.433333333333334
2026-01-20T23:12:27+00:00,SAT-46080,10.800294832489616,31.089405321957493,784.7185072835089,1.4151039217732535,-49562.92522415344,10.5,10499950437.074776,47.655,-122.3035,60.0,12.45
2026-01-20T23:12:28+00:00,SAT-46080,11.408460358166526,31.01291930433802,786.1298175069522,1.476025408044259,-51696.653370995475,10.5,10499948303.346628,47.655,-122.3035,60.0,12.466666666666667
2026-01-20T23:12:29+00:00,SAT-46080,12.013426534148989,30.933455722344224,787.601885894569,1.5366041301070075,-53818.376465373185,10.5,10499946181.623535,47.655,-122.3035,60.0,12.483333333333333
2026-01-20T23:12:30+00:00,SAT-46080,12.615088497497602,30.85107201663514,789.1343706010547,1.596828729844802,-55927.69669799505,10.5,10499944072.303303,47.655,-122.3035,60.0,12.5
2026-01-20T23:12:31+00:00,SAT-46080,13.213345398128258,30.765827002439632,790.7269184534368,1.6566882325743368,-58024.229689028856,10.5,10499941975.770311,47.655,-122.3035,60.0,12.516666666666667
2026-01-20T23:12:32+00:00,SAT-46080,13.808100450509654,30.67778075648259,792.3791653334827,1.7161720505601663,-60107.60461119321,10.5,10499939892.39539,47.655,-122.3035,60.0,12.533333333333333
2026-01-20T23:12:33+00:00,SAT-46080,14.399260973236235,30.58699450410291,794.0907365636072,1.7752699778796512,-62177.46400990627,10.5,10499937822.53599,47.655,-122.3035,60.0,12.55
2026-01-20T23:12:34+00:00,SAT-46080,14.986738414575932,30.493530507326984,795.8612472876632,1.8339722232990587,-64233.46495474585,10.5,10499935766.535046,47.655,-122.3035,60.0,12.566666666666666
2026-01-20T23:12:35+00:00,SAT-46080,15.57044837737638,30.39745195220419,797.6903028845197,1.8922693741217345,-66275.27777325943,10.5,10499933724.722227,47.655,-122.3035,60.0,12.583333333333334
2026-01-20T23:12:36+00:00,SAT-46080,16.150310620633544,30.298822839343156,799.5774993455825,1.9501524349606922,-68302.58740894432,10.5,10499931697.412592,47.655,-122.3035,60.0,12.6
2026-01-20T23:12:37+00:00,SAT-46080,16.726249063450556,30.19770787396549,801.5224236909859,2.007612801871756,-70315.09251528082,10.5,10499929684.907484,47.655,-122.3035,60.0,12.616666666666667
2026-01-20T23:12:38+00:00,SAT-46080,17.298191770964213,30.09417235914208,803.5246543599866,2.0646422880003605,-72312.50635399169,10.5,10499927687.493647,47.655,-122.3035,60.0,12.633333333333333
