DopplerPredictor/satellites_20260205_234138/SAT-48374.csv

timestamp,satellite,azimuth_deg,elevation_deg,distance_km,relative_velocity_kms,doppler_shift_hz,tx_freq_ghz,rx_freq_hz,ue_lat,ue_lon,ue_alt_m,time_minutes
2026-01-20T23:04:09+00:00,SAT-48374,265.74413155723965,30.041148216405364,995.1756146392078,-4.289795228724182,150246.7747257468,10.5,10500150246.774725,47.655,-122.3035,60.0,4.15
2026-01-20T23:04:10+00:00,SAT-48374,265.4151055383912,30.22822957902806,990.8973197595001,-4.258656128760292,149156.15172674914,10.5,10500149156.151728,47.655,-122.3035,60.0,4.166666666666667
2026-01-20T23:04:11+00:00,SAT-48374,265.081931330926,30.415718738567445,986.6500805001261,-4.227108410039515,148051.21717042965,10.5,10500148051.21717,47.655,-122.3035,60.0,4.183333333333334
2026-01-20T23:04:12+00:00,SAT-48374,264.7445535797747,30.60358878332899,982.434304384393,-4.195148054009949,146931.8303101023,10.5,10500146931.83031,47.655,-122.3035,60.0,4.2
2026-01-20T23:04:13+00:00,SAT-48374,264.40291670882044,30.79181161926107,978.2504029433856,-4.1627711683893125,145797.8548215772,10.5,10500145797.854822,47.655,-122.3035,60.0,4.216666666666667
2026-01-20T23:04:14+00:00,SAT-48374,264.0569649540422,30.9803579446177,974.0987915900361,-4.129973880892751,144649.15508105909,10.5,10500144649.15508,47.655,-122.3035,60.0,4.233333333333333
2026-01-20T23:04:15+00:00,SAT-48374,263.7066424078839,31.169197219840335,969.9798895991814,-4.09675236972476,143485.5972331031,10.5,10500143485.597233,47.655,-122.3035,60.0,4.25
2026-01-20T23:04:16+00:00,SAT-48374,263.3518930646637,31.358297638733767,965.8941200572082,-4.063102899971401,142307.05046522454,10.5,10500142307.050465,47.655,-122.3035,60.0,4.266666666666667
2026-01-20T23:04:17+00:00,SAT-48374,262.9926608665946,31.547626101353565,961.8419097754035,-4.029021792701936,141113.3859257071,10.5,10500141113.385925,47.655,-122.3035,60.0,4.283333333333333
2026-01-20T23:04:18+00:00,SAT-48374,262.6288897556836,31.73714818559753,957.8236892341229,-3.994505435338171,139904.47708678115,10.5,10500139904.477087,47.655,-122.3035,60.0,4.3
2026-01-20T23:04:19+00:00,SAT-48374,262.26052372889774,31.926828119431683,953.8398925166151,-3.9595503153903246,138680.20092619676,10.5,10500138680.200926,47.655,-122.3035,60.0,4.316666666666666
2026-01-20T23:04:20+00:00,SAT-48374,261.8875068940591,32.11662875497385,949.8909572092022,-3.924152997291238,137440.43711585968,10.5,10500137440.437117,47.655,-122.3035,60.0,4.333333333333333
2026-01-20T23:04:21+00:00,SAT-48374,261.5097835319421,32.30651154185063,945.9773243245635,-3.888310127223825,136185.06819090882,10.5,10500136185.068192,47.655,-122.3035,60.0,4.35
2026-01-20T23:04:22+00:00,SAT-48374,261.1272981621537,32.496436501199646,942.0994382202041,-3.8520184818204695,134913.98125537543,10.5,10500134913.981255,47.655,-122.3035,60.0,4.366666666666666
2026-01-20T23:04:23+00:00,SAT-48374,260.7399956088797,32.686362202585265,938.2577464683549,-3.8152748913057066,133627.06529031467,10.5,10500133627.06529,47.655,-122.3035,60.0,4.383333333333334
2026-01-20T23:04:24+00:00,SAT-48374,260.34782107833433,32.87624573780191,934.4526998025244,-3.7780763500561396,132324.21502608137,10.5,10500132324.215027,47.655,-122.3035,60.0,4.4
2026-01-20T23:04:25+00:00,SAT-48374,259.9507202304307,33.06604270085572,930.6847519537882,-3.7404199527399498,131005.32870566567,10.5,10500131005.328705,47.655,-122.3035,60.0,4.416666666666667
2026-01-20T23:04:26+00:00,SAT-48374,259.54863926107424,33.25570716570678,926.9543595507636,-3.702302914392469,129670.30878782454,10.5,10500129670.308788,47.655,-122.3035,60.0,4.433333333333334
2026-01-20T23:04:27+00:00,SAT-48374,259.14152498770204,33.44519166597587,923.2619819995671,-3.663722565893534,128319.06178867952,10.5,10500128319.061789,47.655,-122.3035,60.0,4.45
2026-01-20T23:04:28+00:00,SAT-48374,258.7293249403052,33.63444717551695,919.6080813682787,-3.6246764278179158,126951.50086827106,10.5,10500126951.500868,47.655,-122.3035,60.0,4.466666666666667
2026-01-20T23:04:29+00:00,SAT-48374,258.3119874498341,33.82342309405971,915.9931221977587,-3.5851621253402715,125567.54285017021,10.5,10500125567.54285,47.655,-122.3035,60.0,4.483333333333333
2026-01-20T23:04:30+00:00,SAT-48374,257.8894617507934,34.01206722988641,912.417571397324,-3.5451774453114018,124167.11022053036,10.5,10500124167.11022,47.655,-122.3035,60.0,4.5
2026-01-20T23:04:31+00:00,SAT-48374,257.46169808326385,34.20032578696584,908.8818980835089,-3.5047203552828226,122750.13179440839,10.5,10500122750.131794,47.655,-122.3035,60.0,4.516666666666667
2026-01-20T23:04:32+00:00,SAT-48374,257.02864779803514,34.38814335482412,905.386573399847,-3.463788965980835,121316.54140144768,10.5,10500121316.5414,47.655,-122.3035,60.0,4.533333333333333
2026-01-20T23:04:33+00:00,SAT-48374,256.590263471759,34.57546289827615,901.9320703740813,-3.42238160490373,119866.28046356377,10.5,10500119866.280464,47.655,-122.3035,60.0,4.55
2026-01-20T23:04:34+00:00,SAT-48374,256.1464990188122,34.762225753125286,898.5188637019716,-3.3804967304880518,118399.29498868363,10.5,10500118399.294989,47.655,-122.3035,60.0,4.566666666666666
2026-01-20T23:04:35+00:00,SAT-48374,255.69730981929717,34.948371619410324,895.1474296167091,-3.3381330496725328,116915.53968833196,10.5,10500116915.539688,47.655,-122.3035,60.0,4.583333333333333
2026-01-20T23:04:36+00:00,SAT-48374,255.24265283829996,35.133838563404275,891.8182456410807,-3.2952894282026346,115414.974836117,10.5,10500115414.974836,47.655,-122.3035,60.0,4.6
2026-01-20T23:04:37+00:00,SAT-48374,254.78248676188522,35.31856301725881,888.5317904290852,-3.251964985228299,113897.5695809437,10.5,10500113897.56958,47.655,-122.3035,60.0,4.616666666666666
2026-01-20T23:04:38+00:00,SAT-48374,254.31677212657834,35.502479786607644,885.2885435132112,-3.208158996977745,112363.29857326271,10.5,10500112363.298573,47.655,-122.3035,60.0,4.633333333333334
2026-01-20T23:04:39+00:00,SAT-48374,253.84547146738052,35.685522055675,882.088985147778,-3.1638710189871184,110812.14624606982,10.5,10500110812.146246,47.655,-122.3035,60.0,4.65
2026-01-20T23:04:40+00:00,SAT-48374,253.36854945466544,35.86762140235804,878.9335960303786,-3.119100820975819,109244.10453396429,10.5,10500109244.104534,47.655,-122.3035,60.0,4.666666666666667
2026-01-20T23:04:41+00:00,SAT-48374,252.88597304541887,36.04870781294063,875.8228570882679,-3.073848420979929,107659.17406864603,10.5,10500107659.174068,47.655,-122.3035,60.0,4.683333333333334
2026-01-20T23:04:42+00:00,SAT-48374,252.3977116347801,36.22870970222322,872.7572492307137,-3.028114045468404,106057.36278201583,10.5,10500106057.362782,47.655,-122.3035,60.0,4.7
2026-01-20T23:04:43+00:00,SAT-48374,251.90373721899687,36.40755393495384,869.7372531411213,-2.981898243530267,104438.68990549388,10.5,10500104438.689905,47.655,-122.3035,60.0,4.716666666666667
2026-01-20T23:04:44+00:00,SAT-48374,251.40402454594636,36.58516585781105,866.76334895528,-2.935201793499392,102803.18269962489,10.5,10500102803.1827,47.655,-122.3035,60.0,4.733333333333333
2026-01-20T23:04:45+00:00,SAT-48374,250.89855128433575,36.76146932997472,863.836016032731,-2.8880257264259996,101150.87727614879,10.5,10500101150.877275,47.655,-122.3035,60.0,4.75
2026-01-20T23:04:46+00:00,SAT-48374,250.387298193977,36.93638675922409,860.9557327047299,-2.8403713942947397,99481.82098728704,10.5,10500099481.820988,47.655,-122.3035,60.0,4.766666666666667
2026-01-20T23:04:47+00:00,SAT-48374,249.8702492892128,37.1098391465494,858.1229759541723,-2.7922404078067786,97796.07024660765,10.5,10500097796.070246,47.655,-122.3035,60.0,4.783333333333333
2026-01-20T23:04:48+00:00,SAT-48374,249.3473920157162,37.28174613159307,855.3382211575694,-2.743634693758952,96093.69253868621,10.5,10500096093.69254,47.655,-122.3035,60.0,4.8
2026-01-20T23:04:49+00:00,SAT-48374,248.81871742126376,37.452026046311616,852.6019417698029,-2.694556445583058,94374.76468678245,10.5,10500094374.764687,47.655,-122.3035,60.0,4.816666666666666
2026-01-20T23:04:50+00:00,SAT-48374,248.2842203376473,37.620595970460194,849.9146090582017,-2.645008195414339,92639.3753769835,10.5,10500092639.375378,47.655,-122.3035,60.0,4.833333333333333
2026-01-20T23:04:51+00:00,SAT-48374,247.74389955227835,37.78737179657235,847.276691764748,-2.5949927830968114,90887.62407263934,10.5,10500090887.624073,47.655,-122.3035,60.0,4.85
2026-01-20T23:04:52+00:00,SAT-48374,247.1977579865575,37.95226829819619,844.6886557991937,-2.5445133563287428,89119.62101945806,10.5,10500089119.62102,47.655,-122.3035,60.0,4.866666666666666
2026-01-20T23:04:53+00:00,SAT-48374,246.6458028755593,38.11519920339636,842.1509639320302,-2.493573398775592,87335.48823013992,10.5,10500087335.48823,47.655,-122.3035,60.0,4.883333333333334
2026-01-20T23:04:54+00:00,SAT-48374,246.08804594271558,38.27607727541158,839.6640754594239,-2.442176721716909,85535.35919181643,10.5,10500085535.359192,47.655,-122.3035,60.0,4.9
2026-01-20T23:04:55+00:00,SAT-48374,245.52450357539863,38.43481439825228,837.2284458764775,-2.3903274728930413,83719.37917589952,10.5,10500083719.379175,47.655,-122.3035,60.0,4.916666666666667
2026-01-20T23:04:56+00:00,SAT-48374,244.95519699770927,38.59132166838552,834.8445265416738,-2.3380301402198422,81887.70536818625,10.5,10500081887.705368,47.655,-122.3035,60.0,4.933333333333334
2026-01-20T23:04:57+00:00,SAT-48374,244.3801524402681,38.74550949222996,832.512764337612,-2.2852895547651837,80040.50697310882,10.5,10500080040.506973,47.655,-122.3035,60.0,4.95
2026-01-20T23:04:58+00:00,SAT-48374,243.79940130656743,38.897287689424545,830.2336013287729,-2.2321109057467803,78177.965739022,10.5,10500078177.965738,47.655,-122.3035,60.0,4.966666666666667
2026-01-20T23:04:59+00:00,SAT-48374,243.2129803316351,39.046565602672935,828.0074744043329,-2.178499713994725,76300.27502874877,10.5,10500076300.275028,47.655,-122.3035,60.0,4.983333333333333
2026-01-20T23:05:00+00:00,SAT-48374,242.62093174239968,39.19325221135339,825.8348149474388,-2.1244618768865107,74407.64139339478,10.5,10500074407.641394,47.655,-122.3035,60.0,5.0
2026-01-20T23:05:01+00:00,SAT-48374,242.02330340102023,39.33725625360977,823.7160484596684,-2.0700036286737373,72500.2831828219,10.5,10500072500.283182,47.655,-122.3035,60.0,5.016666666666667
2026-01-20T23:05:02+00:00,SAT-48374,241.42014895107997,39.47848635116247,821.6515942250625,-2.01513158454629,70578.43208896217,10.5,10500070578.432089,47.655,-122.3035,60.0,5.033333333333333
2026-01-20T23:05:03+00:00,SAT-48374,240.81152794401612,39.61685114235889,819.6418649302061,-1.9598526947400994,68642.33153847735,10.5,10500068642.33154,47.655,-122.3035,60.0,5.05
2026-01-20T23:05:04+00:00,SAT-48374,240.19750596862474,39.75225941719496,817.6872663300808,-1.9041742836102153,66692.23806126324,10.5,10500066692.238062,47.655,-122.3035,60.0,5.066666666666666
2026-01-20T23:05:05+00:00,SAT-48374,239.57815475920944,39.88462025990219,815.7881968749489,-1.8481040303671217,64728.42061575404,10.5,10500064728.420616,47.655,-122.3035,60.0,5.083333333333333
2026-01-20T23:05:06+00:00,SAT-48374,238.95355229749865,40.013843194891386,813.945047356449,-1.7916499788154945,62751.16093001476,10.5,10500062751.16093,47.655,-122.3035,60.0,5.1
2026-01-20T23:05:07+00:00,SAT-48374,238.32378289823203,40.13983833777824,812.1582005439791,-1.7348205204632658,60760.75291014924,10.5,10500060760.75291,47.655,-122.3035,60.0,5.116666666666666
2026-01-20T23:05:08+00:00,SAT-48374,237.68893728611434,40.26251654932986,810.4280308379258,-1.6776244062155072,58757.50304986933,10.5,10500058757.50305,47.655,-122.3035,60.0,5.133333333333334
2026-01-20T23:05:09+00:00,SAT-48374,237.04911265330253,40.38178959398863,808.7549039112309,-1.6200707428181584,56741.73030593939,10.5,10500056741.730307,47.655,-122.3035,60.0,5.15
2026-01-20T23:05:10+00:00,SAT-48374,236.4044127013756,40.497570301541145,807.1391763545047,-1.5621689844058289,54713.76580214437,10.5,10500054713.765802,47.655,-122.3035,60.0,5.166666666666667
2026-01-20T23:05:11+00:00,SAT-48374,235.7549476677236,40.609772731166146,805.5811953295668,-1.5039289168233418,52673.952280164056,10.5,10500052673.95228,47.655,-122.3035,60.0,5.183333333333334
2026-01-20T23:05:12+00:00,SAT-48374,235.1008343392044,40.71831233687552,804.0812982386274,-1.4453606796034448,50622.64486932547,10.5,10500050622.644869,47.655,-122.3035,60.0,5.2
2026-01-20T23:05:13+00:00,SAT-48374,234.4421960368347,40.82310613658083,802.6398123715459,-1.386474745935074,48560.21038500668,10.5,10500048560.210384,47.655,-122.3035,60.0,5.216666666666667
2026-01-20T23:05:14+00:00,SAT-48374,233.7791625864642,40.92407288126293,801.2570545730712,-1.3272819113352616,46487.02693187914,10.5,10500046487.026932,47.655,-122.3035,60.0,5.233333333333333
2026-01-20T23:05:15+00:00,SAT-48374,233.1118702708464,41.02113322430665,799.9333309213752,-1.2677932811701822,44403.48346684196,10.5,10500044403.483467,47.655,-122.3035,60.0,5.25
2026-01-20T23:05:16+00:00,SAT-48374,232.4404617649155,41.11420989032824,798.6689364190362,-1.2080202911078197,42309.98051536075,10.5,10500042309.980515,47.655,-122.3035,60.0,5.266666666666667
2026-01-20T23:05:17+00:00,SAT-48374,231.76508603634238,41.2032278453303,797.4641546636221,-1.1479746675712301,40206.92878637366,10.5,10500040206.928787,47.655,-122.3035,60.0,5.283333333333333
2026-01-20T23:05:18+00:00,SAT-48374,231.0858982387672,41.28811446316025,796.3192575577142,-1.0876684401999603,38094.74960874294,10.5,10500038094.749609,47.655,-122.3035,60.0,5.3
2026-01-20T23:05:19+00:00,SAT-48374,230.40305957234406,41.36879969144718,795.234505006504,-1.0271139039911081,35973.87360527473,10.5,10500035973.873606,47.655,-122.3035,60.0,5.316666666666666
2026-01-20T23:05:20+00:00,SAT-48374,229.71673713790332,41.4452162126558,794.2101446531477,-0.9663236497428285,33844.74175897947,10.5,10500033844.741758,47.655,-122.3035,60.0,5.333333333333333
2026-01-20T23:05:21+00:00,SAT-48374,229.0271037453926,41.517299604649004,793.2464115837573,-0.9053105124871799,31707.803606971956,10.5,10500031707.803606,47.655,-122.3035,60.0,5.35
2026-01-20T23:05:22+00:00,SAT-48374,228.33433772408813,41.58498849401307,792.3435280838214,-0.8440875900980832,29563.517892200853,10.5,10500029563.517893,47.655,-122.3035,60.0,5.366666666666666
2026-01-20T23:05:23+00:00,SAT-48374,227.63862269148348,41.64822470668706,791.5017033760681,-0.7826681986726747,27412.351000714916,10.5,10500027412.351,47.655,-122.3035,60.0,5.383333333333334
2026-01-20T23:05:24+00:00,SAT-48374,226.94014732322094,41.706953410513464,790.7211334028278,-0.721065897307656,25254.77782943555,10.5,10500025254.77783,47.655,-122.3035,60.0,5.4
2026-01-20T23:05:25+00:00,SAT-48374,226.23910507512136,41.76112325425939,790.0020005836836,-0.6592944396402837,23091.28008891731,10.5,10500023091.280088,47.655,-122.3035,60.0,5.416666666666667
2026-01-20T23:05:26+00:00,SAT-48374,225.53569391023237,41.81068649696869,789.3444736214536,-0.597367785067322,20922.34669628307,10.5,10500020922.346697,47.655,-122.3035,60.0,5.433333333333334
2026-01-20T23:05:27+00:00,SAT-48374,224.83011598691414,41.85559913151204,788.7487072969814,-0.5353000614907547,18748.47247042127,10.5,10500018748.472471,47.655,-122.3035,60.0,5.45
2026-01-20T23:05:28+00:00,SAT-48374,224.12257734758577,41.89582099809332,788.2148423010838,-0.47310556797590064,16570.158225084357,10.5,10500016570.158226,47.655,-122.3035,60.0,5.466666666666667
2026-01-20T23:05:29+00:00,SAT-48374,223.41328757473465,41.93131589016224,787.7430050638471,-0.41079875163618246,14387.909959295626,10.5,10500014387.90996,47.655,-122.3035,60.0,5.483333333333333
2026-01-20T23:05:30+00:00,SAT-48374,222.7024594371808,41.962051650260754,787.3333076069739,-0.3483941893834619,12202.23821816875,10.5,10500012202.238218,47.655,-122.3035,60.0,5.5
2026-01-20T23:05:31+00:00,SAT-48374,221.99030852396663,41.98800025568629,786.9858474143336,-0.2859065746037883,10013.65762623614,10.5,10500010013.657627,47.655,-122.3035,60.0,5.516666666666667
2026-01-20T23:05:32+00:00,SAT-48374,221.27705286233817,42.009137893904956,786.7007073158014,-0.223350697454354,7822.686197364969,10.5,10500007822.686197,47.655,-122.3035,60.0,5.533333333333333
2026-01-20T23:05:33+00:00,SAT-48374,220.5629125282566,42.02544502684735,786.4779553907442,-0.16074143111157463,5629.844853106791,10.5,10500005629.844852,47.655,-122.3035,60.0,5.55
2026-01-20T23:05:34+00:00,SAT-48374,219.84810924137062,42.036906444194656,786.3176448852273,-0.09809371064350471,3435.6566827201486,10.5,10500003435.656683,47.655,-122.3035,60.0,5.566666666666666
2026-01-20T23:05:35+00:00,SAT-48374,219.13286595790737,42.04351130482299,786.219814150285,-0.035422517273447605,1240.6463920156384,10.5,10500001240.646393,47.655,-122.3035,60.0,5.583333333333333
2026-01-20T23:05:36+00:00,SAT-48374,218.41740645761254,42.04525316659797,786.1844865958922,0.02725713943543443,-954.6603206144083,10.5,10499999045.33968,47.655,-122.3035,60.0,5.6
2026-01-20T23:05:37+00:00,SAT-48374,217.70195492102218,42.04213000419126,786.2116706626981,0.08993024040292869,-3149.7374234502963,10.5,10499996850.262577,47.655,-122.3035,60.0,5.616666666666666
2026-01-20T23:05:38+00:00,SAT-48374,216.9867355137722,42.03414421476662,786.301359812537,0.15258177374534143,-5344.059136824866,10.5,10499994655.940863,47.655,-122.3035,60.0,5.633333333333334
2026-01-20T23:05:39+00:00,SAT-48374,216.27197196129532,42.021302611645986,786.4535325356031,0.21519675363095953,-7537.10059352152,10.5,10499992462.899406,47.655,-122.3035,60.0,5.65
2026-01-20T23:05:40+00:00,SAT-48374,215.5578871341252,42.00361640584574,786.6681523764347,0.2777602376535433,-9728.338447267424,10.5,10499990271.661552,47.655,-122.3035,60.0,5.666666666666667
2026-01-20T23:05:41+00:00,SAT-48374,214.84470263428577,41.981101175681125,786.9451679772219,0.34025734463475654,-11917.251496249926,10.5,10499988082.748505,47.655,-122.3035,60.0,5.683333333333334
2026-01-20T23:05:42+00:00,SAT-48374,214.1326383810908,41.95377682456355,787.2845131388714,0.4026732721837951,-14103.321298129016,10.5,10499985896.678701,47.655,-122.3035,60.0,5.7
2026-01-20T23:05:43+00:00,SAT-48374,213.42191221688452,41.92166752725433,787.6861068995813,0.4649933137420614,-16286.032767013921,10.5,10499983713.967234,47.655,-122.3035,60.0,5.716666666666667
2026-01-20T23:05:44+00:00,SAT-48374,212.71273951204248,41.88480166486921,788.1498536304183,0.5272028755165385,-18464.87476654151,10.5,10499981535.125233,47.655,-122.3035,60.0,5.733333333333333
2026-01-20T23:05:45+00:00,SAT-48374,212.00533278849443,41.843211749004304,788.6756431477794,0.5892874945351878,-20639.34074225267,10.5,10499979360.659258,47.655,-122.3035,60.0,5.75
2026-01-20T23:05:46+00:00,SAT-48374,211.2999013483247,41.79693433526306,789.2633508438636,0.6512328517630832,-22808.92918097484,10.5,10499977191.07082,47.655,-122.3035,60.0,5.766666666666667
2026-01-20T23:05:47+00:00,SAT-48374,210.59665092705768,41.746009927038486,789.9128378302211,0.7130247948381321,-24973.144407123098,10.5,10499975026.855593,47.655,-122.3035,60.0,5.783333333333333
2026-01-20T23:05:48+00:00,SAT-48374,209.89578334964872,41.69048286925995,790.6239511039818,0.7746493434490563,-27131.496771059836,10.5,10499972868.50323,47.655,-122.3035,60.0,5.8
2026-01-20T23:05:49+00:00,SAT-48374,209.19749621887496,41.63040123400274,791.3965237194425,0.8360927134305998,-29283.503493010816,10.5,10499970716.496508,47.655,-122.3035,60.0,5.816666666666666
2026-01-20T23:05:50+00:00,SAT-48374,208.50198260915684,41.565816697053805,792.2303749836892,0.8973413267345461,-31428.689012292412,10.5,10499968571.310987,47.655,-122.3035,60.0,5.833333333333333
2026-01-20T23:05:51+00:00,SAT-48374,207.80943078635985,41.49678440713135,793.1253106621598,0.9583818279783707,-33566.585566915404,10.5,10499966433.414433,47.655,-122.3035,60.0,5.85
2026-01-20T23:05:52+00:00,SAT-48374,207.1200239437922,41.423362847862556,794.081123200714,1.0192010962261562,-35696.73360620246,10.5,10499964303.266394,47.655,-122.3035,60.0,5.866666666666666
2026-01-20T23:05:53+00:00,SAT-48374,206.4339399622971,41.34561369353619,795.097591959451,1.079786255875549,-37818.682172095425,10.5,10499962181.317827,47.655,-122.3035,60.0,5.883333333333334
2026-01-20T23:05:54+00:00,SAT-48374,205.75135119124866,41.26360165933503,796.1744834573851,1.1401246936472933,-39931.98949420062,10.5,10499960068.010506,47.655,-122.3035,60.0,5.9
2026-01-20T23:05:55+00:00,SAT-48374,205.0724242484888,41.177394346261956,797.311551634066,1.2002040647889403,-42036.22320706905,10.5,10499957963.776793,47.655,-122.3035,60.0,5.916666666666667
2026-01-20T23:05:56+00:00,SAT-48374,204.3973198455723,41.08706208223636,798.5085381173855,1.2600123163885433,-44130.96116674057,10.5,10499955869.038834,47.655,-122.3035,60.0,5.933333333333334
2026-01-20T23:05:57+00:00,SAT-48374,203.7261926275186,40.99267775874828,799.7651725146352,1.319537667749877,-46215.790763401084,10.5,10499953784.209236,47.655,-122.3035,60.0,5.95
2026-01-20T23:05:58+00:00,SAT-48374,203.05919105251922,40.89431666695151,801.0811726839942,1.3787686648079087,-48290.310827242494,10.5,10499951709.689173,47.655,-122.3035,60.0,5.966666666666667
2026-01-20T23:05:59+00:00,SAT-48374,202.39645726689173,40.792056328294535,802.4562450602817,1.4376941435322759,-50354.130346697704,10.5,10499949645.869654,47.655,-122.3035,60.0,5.983333333333333
2026-01-20T23:06:00+00:00,SAT-48374,201.73812702730194,40.68597632714313,803.890084944217,1.4963032726581484,-52406.869965056154,10.5,10499947593.130035,47.655,-122.3035,60.0,6.0
2026-01-20T23:06:01+00:00,SAT-48374,201.0843296253316,40.57615814008974,805.3823768342909,1.55458553548256,-54448.16134289435,10.5,10499945551.838657,47.655,-122.3035,60.0,6.016666666666667
2026-01-20T23:06:02+00:00,SAT-48374,200.43518784562508,40.46268496707463,806.9327947404856,1.6125307611425383,-56477.64825356832,10.5,10499943522.351746,47.655,-122.3035,60.0,6.033333333333333
2026-01-20T23:06:03+00:00,SAT-48374,199.79081793219402,40.345641561238935,808.5410025291869,1.6701291076133764,-58494.98598774106,10.5,10499941505.014011,47.655,-122.3035,60.0,6.05
2026-01-20T23:06:04+00:00,SAT-48374,199.15132958451383,40.225114061603485,810.2066542511403,1.727371070939428,-60499.8416766842,10.5,10499939500.158323,47.655,-122.3035,60.0,6.066666666666666
2026-01-20T23:06:05+00:00,SAT-48374,198.51682597012768,40.10118982713647,811.9293944786158,1.7842475161318363,-62491.89537444695,10.5,10499937508.104626,47.655,-122.3035,60.0,6.083333333333333
2026-01-20T23:06:06+00:00,SAT-48374,197.88740374326966,39.97395727117285,813.7088586733831,1.8407496360350037,-64470.83861718609,10.5,10499935529.161383,47.655,-122.3035,60.0,6.1
2026-01-20T23:06:07+00:00,SAT-48374,197.263153099605,39.843505701795195,815.5446735136675,1.8968689940920171,-66436.37592099191,10.5,10499933563.624079,47.655,-122.3035,60.0,6.116666666666666
2026-01-20T23:06:08+00:00,SAT-48374,196.6441578295983,39.709925162563536,817.436457263754,1.9525975073551125,-68388.2241868429,10.5,10499931611.775814,47.655,-122.3035,60.0,6.133333333333334
2026-01-20T23:06:09+00:00,SAT-48374,196.0304953954219,39.573306278263495,819.3838201266506,2.007927439799793,-70326.11246643779,10.5,10499929673.887533,47.655,-122.3035,60.0,6.15
2026-01-20T23:06:10+00:00,SAT-48374,195.42223702329395,39.43374010523099,821.3863645900781,2.062851435380964,-72249.78311996133,10.5,10499927750.21688,47.655,-122.3035,60.0,6.166666666666667
2026-01-20T23:06:11+00:00,SAT-48374,194.81944779798962,39.29131798380209,823.4436858054341,2.117362482036871,-74158.99055534994,10.5,10499925841.009445,47.655,-122.3035,60.0,6.183333333333334
2026-01-20T23:06:12+00:00,SAT-48374,194.2221867813226,39.14613139796899,825.555371930853,2.1714539299951783,-76053.50186944788,10.5,10499923946.49813,47.655,-122.3035,60.0,6.2
2026-01-20T23:06:13+00:00,SAT-48374,193.6305071347864,38.99827183867206,827.7210044925225,2.225119485624525,-77933.09663266281,10.5,10499922066.903368,47.655,-122.3035,60.0,6.216666666666667
2026-01-20T23:06:14+00:00,SAT-48374,193.0444562532593,38.847830672628575,829.9401587398725,2.278353236072888,-79797.56775190563,10.5,10499920202.432247,47.655,-122.3035,60.0,6.233333333333333
2026-01-20T23:06:15+00:00,SAT-48374,192.4640759002853,38.69489901477704,832.2124040253323,2.331149570118588,-81646.71869845763,10.5,10499918353.281301,47.655,-122.3035,60.0,6.25
2026-01-20T23:06:16+00:00,SAT-48374,191.8894023721975,38.539567611447765,834.537304105152,2.383503294989039,-83480.36759945746,10.5,10499916519.6324,47.655,-122.3035,60.0,6.266666666666667
2026-01-20T23:06:17+00:00,SAT-48374,191.3204666357335,38.381926721169386,836.9144175567304,2.435409508813098,-85298.34277064278,10.5,10499914701.657228,47.655,-122.3035,60.0,6.283333333333333
2026-01-20T23:06:18+00:00,SAT-48374,190.75729450529775,38.22206600956386,839.3432980687371,2.486863697092222,-87100.48609517832,10.5,10499912899.513905,47.655,-122.3035,60.0,6.3
2026-01-20T23:06:19+00:00,SAT-48374,190.1999067981731,38.06007444340452,841.8234948274446,2.5378616569113115,-88886.65036919898,10.5,10499911113.34963,47.655,-122.3035,60.0,6.316666666666666
2026-01-20T23:06:20+00:00,SAT-48374,189.64831951194134,37.89604019526705,844.3545528274784,2.5883995358046863,-90656.70066306074,10.5,10499909343.299337,47.655,-122.3035,60.0,6.333333333333333
2026-01-20T23:06:21+00:00,SAT-48374,189.10254399418554,37.730050551190516,846.9360132213271,2.638473819351842,-92410.51388689152,10.5,10499907589.486113,47.655,-122.3035,60.0,6.35
2026-01-20T23:06:22+00:00,SAT-48374,188.56258711612793,37.56219182469801,849.5674136564784,2.6880812983014737,-94147.97763913553,10.5,10499905852.022362,47.655,-122.3035,60.0,6.366666666666666
2026-01-20T23:06:23+00:00,SAT-48374,188.02845145423436,37.39254927837733,852.2482885797743,2.737219100581316,-95868.99132767314,10.5,10499904131.008673,47.655,-122.3035,60.0,6.383333333333334
2026-01-20T23:06:24+00:00,SAT-48374,187.50013546358545,37.22120704878503,854.9781695736831,2.785884678593412,-97573.46572484763,10.5,10499902426.534275,47.655,-122.3035,60.0,6.4
2026-01-20T23:06:25+00:00,SAT-48374,186.97763365381775,37.048248077475705,857.7565856799057,2.834075756398518,-99261.32111763945,10.5,10499900738.678883,47.655,-122.3035,60.0,6.416666666666667
2026-01-20T23:06:26+00:00,SAT-48374,186.46093677321477,36.873754050466246,860.5830636703038,2.8817904008864392,-100932.48980035253,10.5,10499899067.5102,47.655,-122.3035,60.0,6.433333333333334
2026-01-20T23:06:27+00:00,SAT-48374,185.95003197651735,36.6978053382991,863.4571283888123,2.9290269436036933,-102586.91333668835,10.5,10499897413.086664,47.655,-122.3035,60.0,6.45
2026-01-20T23:06:28+00:00,SAT-48374,185.44490300493214,36.52048094583625,866.3783030153859,2.975784025308377,-104224.54412024589,10.5,10499895775.45588,47.655,-122.3035,60.0,6.466666666666667
2026-01-20T23:06:29+00:00,SAT-48374,184.9455303545143,36.341858464033194,869.3461093743806,3.022060555311319,-105845.34395047673,10.5,10499894154.65605,47.655,-122.3035,60.0,6.483333333333333
2026-01-20T23:06:30+00:00,SAT-48374,184.45189144790925,36.16201402876512,872.3600682023878,3.0678557033145686,-107449.28374683451,10.5,10499892550.716253,47.655,-122.3035,60.0,6.5
2026-01-20T23:06:31+00:00,SAT-48374,183.96396080354805,35.98102228449355,875.4196994079258,3.113168942062605,-109036.34504260062,10.5,10499890963.654957,47.655,-122.3035,60.0,6.516666666666667
2026-01-20T23:06:32+00:00,SAT-48374,183.4817101926918,35.798956349636114,878.524522373672,3.157999964576841,-110606.51708608636,10.5,10499889393.482914,47.655,-122.3035,60.0,6.533333333333333
2026-01-20T23:06:33+00:00,SAT-48374,183.00510880614922,35.61588779086875,881.6740561761475,3.202348747455406,-112159.7990576593,10.5,10499887840.200943,47.655,-122.3035,60.0,6.55
2026-01-20T23:06:34+00:00,SAT-48374,182.53412340505366,35.431886597546296,884.8678198685351,3.246215459484312,-113696.19686891948,10.5,10499886303.803131,47.655,-122.3035,60.0,6.566666666666666
2026-01-20T23:06:35+00:00,SAT-48374,182.06871848133903,35.24702116507655,888.1053326723506,3.289600564491982,-115215.7267651003,10.5,10499884784.273235,47.655,-122.3035,60.0,6.583333333333333
2026-01-20T23:06:36+00:00,SAT-48374,181.60885639624559,35.06135827583563,891.386114271694,3.3325047047862526,-116718.41124253916,10.5,10499883281.588757,47.655,-122.3035,60.0,6.6
2026-01-20T23:06:37+00:00,SAT-48374,181.15449753185794,34.87496309004925,894.7096849912524,3.374928784703289,-118204.28197491392,10.5,10499881795.718025,47.655,-122.3035,60.0,6.616666666666666
2026-01-20T23:06:38+00:00,SAT-48374,180.70560042394865,34.68789913501762,898.075566057624,3.4168738550906332,-119673.37576735052,10.5,10499880326.624233,47.655,-122.3035,60.0,6.633333333333334
2026-01-20T23:06:39+00:00,SAT-48374,180.26212190615848,34.500228303702386,901.4832797454377,3.4583412445745183,-121125.73915395979,10.5,10499878874.260845,47.655,-122.3035,60.0,6.65
2026-01-20T23:06:40+00:00,SAT-48374,179.82401722948558,34.31201084873239,904.9323496543866,3.4993324260917076,-122561.42372321765,10.5,10499877438.576277,47.655,-122.3035,60.0,6.666666666666667
2026-01-20T23:06:41+00:00,SAT-48374,179.39124019511166,34.12330538635405,908.4223008531517,3.5398490729928884,-123980.48808294346,10.5,10499876019.511917,47.655,-122.3035,60.0,6.683333333333334
2026-01-20T23:06:42+00:00,SAT-48374,178.96374327335707,33.93416889960889,911.952660079279,3.5798930284883728,-125382.99679015913,10.5,10499874617.00321,47.655,-122.3035,60.0,6.7
2026-01-20T23:06:43+00:00,SAT-48374,178.5414777209217,33.74465674536233,915.5229559085833,3.619466333514805,-126769.02132709908,10.5,10499873230.978672,47.655,-122.3035,60.0,6.716666666666667
2026-01-20T23:06:44+00:00,SAT-48374,178.12439368915355,33.55482266187625,919.1327189523442,3.6585711658838473,-128138.63796993985,10.5,10499871861.36203,47.655,-122.3035,60.0,6.733333333333333
2026-01-20T23:06:45+00:00,SAT-48374,177.71244033436827,33.364718781468625,922.7814819938153,3.697209861766535,-129491.9285412731,10.5,10499870508.071459,47.655,-122.3035,60.0,6.75
2026-01-20T23:06:46+00:00,SAT-48374,177.30556591957074,33.174395643700294,926.4687801461575,3.73538492096174,-130828.98059462948,10.5,10499869171.019405,47.655,-122.3035,60.0,6.766666666666667
2026-01-20T23:06:47+00:00,SAT-48374,176.90371791056646,32.983902209853284,930.1941510156291,3.7730989690262975,-132149.88608811543,10.5,10499867850.113913,47.655,-122.3035,60.0,6.783333333333333
2026-01-20T23:06:48+00:00,SAT-48374,176.5068430708506,32.793285880757594,933.9571348270072,3.8103547840264254,-133454.7423213611,10.5,10499866545.257679,47.655,-122.3035,60.0,6.8
2026-01-20T23:06:49+00:00,SAT-48374,176.114887548475,32.60259251451067,937.7572745756866,3.8471552456346902,-134743.65015268078,10.5,10499865256.349848,47.655,-122.3035,60.0,6.816666666666666
2026-01-20T23:06:50+00:00,SAT-48374,175.72779696335954,32.41186644788605,941.5941161290151,3.883503352586588,-136016.7146104762,10.5,10499863983.285389,47.655,-122.3035,60.0,6.833333333333333
2026-01-20T23:06:51+00:00,SAT-48374,175.3455164875899,32.22115051781493,945.4672083450369,3.91940227183696,-137274.0466149021,10.5,10499862725.953384,47.655,-122.3035,60.0,6.85
2026-01-20T23:06:52+00:00,SAT-48374,174.96799091583057,32.030486081367805,949.3761032402607,3.9548551890856993,-138515.75774264423,10.5,10499861484.242258,47.655,-122.3035,60.0,6.866666666666666
2026-01-20T23:06:53+00:00,SAT-48374,174.59516474678887,31.839913043815415,953.3203560083546,3.9898654646044114,-139741.96568462814,10.5,10499860258.034315,47.655,-122.3035,60.0,6.883333333333334
2026-01-20T23:06:54+00:00,SAT-48374,174.22698224375932,31.649469879690155,957.2995251942498,4.024436509731005,-140952.78992033732,10.5,10499859047.21008,47.655,-122.3035,60.0,6.9
2026-01-20T23:06:55+00:00,SAT-48374,173.86338750355114,31.45919366041794,961.3131727450705,4.0585718360613,-142148.35344071148,10.5,10499857851.646559,47.655,-122.3035,60.0,6.916666666666667
2026-01-20T23:06:56+00:00,SAT-48374,173.50432451608336,31.269120079978528,965.3608641101222,4.092275050183996,-143328.7825637427,10.5,10499856671.217436,47.655,-122.3035,60.0,6.933333333333334
2026-01-20T23:06:57+00:00,SAT-48374,173.1497372205629,31.079283481204474,969.4421683356306,4.125549803681635,-144494.20518329774,10.5,10499855505.794817,47.655,-122.3035,60.0,6.95
2026-01-20T23:06:58+00:00,SAT-48374,172.79956956229518,30.889716884666267,973.5566581096145,4.158399834566645,-145644.75222038364,10.5,10499854355.24778,47.655,-122.3035,60.0,6.966666666666667
2026-01-20T23:06:59+00:00,SAT-48374,172.4537655418457,30.700452015784105,977.7039098480836,4.190828962838863,-146780.5574675533,10.5,10499853219.442532,47.655,-122.3035,60.0,6.983333333333333
2026-01-20T23:07:00+00:00,SAT-48374,172.11226926104632,30.511519332295606,981.8835037768074,4.222841036304481,-147901.75569125576,10.5,10499852098.244308,47.655,-122.3035,60.0,7.0
2026-01-20T23:07:01+00:00,SAT-48374,171.7750249702834,30.322948054210997,986.0950239590461,4.254439970261917,-149008.48402180325,10.5,10499850991.515978,47.655,-122.3035,60.0,7.016666666666667
2026-01-20T23:07:02+00:00,SAT-48374,171.44197710893764,30.13476619191832,990.3380583628601,4.2856297433618415,-150100.88180837207,10.5,10499849899.11819,47.655,-122.3035,60.0,7.033333333333333
