DopplerPredictor/satellites_20260205_234138/SAT-53032.csv

timestamp,satellite,azimuth_deg,elevation_deg,distance_km,relative_velocity_kms,doppler_shift_hz,tx_freq_ghz,rx_freq_hz,ue_lat,ue_lon,ue_alt_m,time_minutes
2026-01-20T23:10:42+00:00,SAT-53032,216.79091319165587,30.220328297602627,978.4745495509284,-5.500369602053014,192646.21000424447,10.5,10500192646.210005,47.655,-122.3035,60.0,10.7
2026-01-20T23:10:43+00:00,SAT-53032,216.63060941628095,30.46662807818566,972.988925680727,-5.480913469915601,191964.77395743495,10.5,10500191964.773958,47.655,-122.3035,60.0,10.716666666666667
2026-01-20T23:10:44+00:00,SAT-53032,216.4676190006828,30.715145088771855,967.5227057834585,-5.461119653883517,191271.51079223258,10.5,10500191271.510792,47.655,-122.3035,60.0,10.733333333333333
2026-01-20T23:10:45+00:00,SAT-53032,216.30187745579966,30.965901173208195,962.0762266377325,-5.440981685658016,190566.1939614544,10.5,10500190566.193962,47.655,-122.3035,60.0,10.75
2026-01-20T23:10:46+00:00,SAT-53032,216.13331831439052,31.2189180184838,956.6498314731182,-5.42049307330521,189848.59609011482,10.5,10500189848.59609,47.655,-122.3035,60.0,10.766666666666667
2026-01-20T23:10:47+00:00,SAT-53032,215.96187305611286,31.474217129934,951.2438699937144,-5.3996471248042,189118.4827953347,10.5,10500189118.482796,47.655,-122.3035,60.0,10.783333333333333
2026-01-20T23:10:48+00:00,SAT-53032,215.78747103554525,31.73181979648044,945.8586985777008,-5.378437109419045,188375.61833827046,10.5,10500188375.618338,47.655,-122.3035,60.0,10.8
2026-01-20T23:10:49+00:00,SAT-53032,215.6100394016927,31.991747061486336,940.4946803159478,-5.356856164792768,187619.76237015295,10.5,10500187619.762371,47.655,-122.3035,60.0,10.816666666666666
2026-01-20T23:10:50+00:00,SAT-53032,215.42950301743724,32.25401968729337,935.1521851432864,-5.3348972834059545,186850.66945801055,10.5,10500186850.669458,47.655,-122.3035,60.0,10.833333333333334
2026-01-20T23:10:51+00:00,SAT-53032,215.24578437630757,32.51865811688588,929.8315899832816,-5.312553372428659,186068.09118093597,10.5,10500186068.09118,47.655,-122.3035,60.0,10.85
2026-01-20T23:10:52+00:00,SAT-53032,215.05880351362165,32.78568243620772,924.5332788333121,-5.289817230522969,185271.7753176138,10.5,10500185271.775318,47.655,-122.3035,60.0,10.866666666666667
2026-01-20T23:10:53+00:00,SAT-53032,214.8684779148876,33.05511233303153,919.2576428727895,-5.26668153928191,184461.465546475,10.5,10500184461.465546,47.655,-122.3035,60.0,10.883333333333333
2026-01-20T23:10:54+00:00,SAT-53032,214.67472242080476,33.32696705290053,914.0050805799124,-5.243138832462077,183636.90036809337,10.5,10500183636.900368,47.655,-122.3035,60.0,10.9
2026-01-20T23:10:55+00:00,SAT-53032,214.47744912976611,33.601265350799295,908.775997879107,-5.21918160434499,182797.81690045848,10.5,10500182797.8169,47.655,-122.3035,60.0,10.916666666666666
2026-01-20T23:10:56+00:00,SAT-53032,214.27656729195357,33.87802544567841,903.570808180396,-5.194802180471,181943.94635153064,10.5,10500181943.946352,47.655,-122.3035,60.0,10.933333333333334
2026-01-20T23:10:57+00:00,SAT-53032,214.07198320455493,34.157264965367105,898.3899325476883,-5.169992786689727,181075.0164376788,10.5,10500181075.016438,47.655,-122.3035,60.0,10.95
2026-01-20T23:10:58+00:00,SAT-53032,213.86360009991864,34.439000891944154,893.233799798201,-5.144745562908791,180190.75186521973,10.5,10500180190.751865,47.655,-122.3035,60.0,10.966666666666667
2026-01-20T23:10:59+00:00,SAT-53032,213.65131802869115,34.72324950466568,888.1028465881714,-5.11905252984443,179290.8731658837,10.5,10500179290.873165,47.655,-122.3035,60.0,10.983333333333333
2026-01-20T23:11:00+00:00,SAT-53032,213.4350337397121,35.01002631770971,882.9975175317301,-5.092905590878148,178375.09676184237,10.5,10500178375.096762,47.655,-122.3035,60.0,11.0
2026-01-20T23:11:01+00:00,SAT-53032,213.2146405552445,35.29934601437403,877.9182653179201,-5.066296582553823,177443.13673433085,10.5,10500177443.136734,47.655,-122.3035,60.0,11.016666666666667
2026-01-20T23:11:02+00:00,SAT-53032,212.99002823887523,35.59122238036782,872.8655507773553,-5.039217189263217,176494.70183557383,10.5,10500176494.701836,47.655,-122.3035,60.0,11.033333333333333
2026-01-20T23:11:03+00:00,SAT-53032,212.76108286255322,35.885668228289376,867.8398430339646,-5.011659051674811,175529.4992864214,10.5,10500175529.499287,47.655,-122.3035,60.0,11.05
2026-01-20T23:11:04+00:00,SAT-53032,212.5276866630377,36.18269532413888,862.8416195485983,-4.9836137030281895,174547.23254510955,10.5,10500174547.232546,47.655,-122.3035,60.0,11.066666666666666
2026-01-20T23:11:05+00:00,SAT-53032,212.28971789619547,36.48231430586882,857.8713662261692,-4.95507255738337,173547.6008957016,10.5,10500173547.600895,47.655,-122.3035,60.0,11.083333333333334
2026-01-20T23:11:06+00:00,SAT-53032,212.0470506863918,36.78453459654751,852.9295775345123,-4.926026972248975,172530.30164159177,10.5,10500172530.301641,47.655,-122.3035,60.0,11.1
2026-01-20T23:11:07+00:00,SAT-53032,211.79955486716833,37.08936431644635,848.0167565607842,-4.896468211479782,171495.02880602053,10.5,10500171495.028807,47.655,-122.3035,60.0,11.116666666666667
2026-01-20T23:11:08+00:00,SAT-53032,211.54709581786545,37.396810187882316,843.1334151048669,-4.866387473493711,170441.47412035288,10.5,10500170441.474121,47.655,-122.3035,60.0,11.133333333333333
2026-01-20T23:11:09+00:00,SAT-53032,211.28953429309112,37.706877436504215,838.2800737446281,-4.835775877312563,169369.32653516557,10.5,10500169369.326534,47.655,-122.3035,60.0,11.15
2026-01-20T23:11:10+00:00,SAT-53032,211.0267262466432,38.019569686183615,833.4572619151055,-4.804624463075435,168278.27223822978,10.5,10500168278.272238,47.655,-122.3035,60.0,11.166666666666666
2026-01-20T23:11:11+00:00,SAT-53032,210.75852264962055,38.33488884807759,828.6655179871775,-4.772924239805294,167167.99632749797,10.5,10500167167.996328,47.655,-122.3035,60.0,11.183333333333334
2026-01-20T23:11:12+00:00,SAT-53032,210.48476929936584,38.65283500674004,823.9053892985955,-4.740666142522969,166038.18130905472,10.5,10500166038.181309,47.655,-122.3035,60.0,11.2
2026-01-20T23:11:13+00:00,SAT-53032,210.2053066247175,38.97340629711408,819.1774322277888,-4.707841035948266,164888.50722674548,10.5,10500164888.507227,47.655,-122.3035,60.0,11.216666666666667
2026-01-20T23:11:14+00:00,SAT-53032,209.9199694849991,39.296598775008825,814.4822122639761,-4.674439818533697,163718.65530587774,10.5,10500163718.655306,47.655,-122.3035,60.0,11.233333333333333
2026-01-20T23:11:15+00:00,SAT-53032,209.62858695593005,39.6224062877777,809.8203039735232,-4.640453294160589,162528.30345947592,10.5,10500162528.30346,47.655,-122.3035,60.0,11.25
2026-01-20T23:11:16+00:00,SAT-53032,209.3309821174514,39.95082032905261,805.1922910942618,-4.605872265171631,161317.12954667502,10.5,10500161317.129547,47.655,-122.3035,60.0,11.266666666666667
2026-01-20T23:11:17+00:00,SAT-53032,209.02697182953978,40.281829892241895,800.5987665370225,-4.570687506765877,160084.81047592498,10.5,10500160084.810476,47.655,-122.3035,60.0,11.283333333333333
2026-01-20T23:11:18+00:00,SAT-53032,208.716366503562,40.61542131439186,796.0403324127074,-4.534889846338202,158831.02498379434,10.5,10500158831.024984,47.655,-122.3035,60.0,11.3
2026-01-20T23:11:19+00:00,SAT-53032,208.39896986207614,40.95157811765824,791.5175999802324,-4.498470035313647,157555.4491460666,10.5,10500157555.449146,47.655,-122.3035,60.0,11.316666666666666
2026-01-20T23:11:20+00:00,SAT-53032,208.07457870223496,41.29028083289901,787.0311897222947,-4.461418933775404,156257.76284419317,10.5,10500156257.762844,47.655,-122.3035,60.0,11.333333333333334
2026-01-20T23:11:21+00:00,SAT-53032,207.74298264033797,41.631506828020456,782.5817312370051,-4.42372736942798,154937.64482558728,10.5,10500154937.644825,47.655,-122.3035,60.0,11.35
2026-01-20T23:11:22+00:00,SAT-53032,207.4039638618437,41.975230116714336,778.1698632701799,-4.385386230934685,153594.77597269707,10.5,10500153594.775972,47.655,-122.3035,60.0,11.366666666666667
2026-01-20T23:11:23+00:00,SAT-53032,207.0572968601122,42.32142116459383,773.7962336545471,-4.346386499821381,152228.8404204101,10.5,10500152228.84042,47.655,-122.3035,60.0,11.383333333333333
2026-01-20T23:11:24+00:00,SAT-53032,206.7027481682212,42.67004668814308,769.4614992171307,-4.30671917477168,150839.52290455098,10.5,10500150839.522905,47.655,-122.3035,60.0,11.4
2026-01-20T23:11:25+00:00,SAT-53032,206.34007609437927,43.02106943748239,765.1663257621392,-4.266375395829003,149426.51311196273,10.5,10500149426.513111,47.655,-122.3035,60.0,11.416666666666666
2026-01-20T23:11:26+00:00,SAT-53032,205.9690304441113,43.374447978523065,760.9113879299866,-4.225346384390175,147989.50357882865,10.5,10500147989.503578,47.655,-122.3035,60.0,11.433333333333334
2026-01-20T23:11:27+00:00,SAT-53032,205.5893522467648,43.73013645956763,756.6973691161554,-4.18362346242058,146528.1903636685,10.5,10500146528.190363,47.655,-122.3035,60.0,11.45
2026-01-20T23:11:28+00:00,SAT-53032,205.20077348038865,44.08808436820762,752.5249613708975,-4.1411981338479755,145042.27589809394,10.5,10500145042.275898,47.655,-122.3035,60.0,11.466666666666667
2026-01-20T23:11:29+00:00,SAT-53032,204.80301679031896,44.448236283696296,748.3948652177609,-4.098062034432451,143531.46723104268,10.5,10500143531.467232,47.655,-122.3035,60.0,11.483333333333333
2026-01-20T23:11:30+00:00,SAT-53032,204.395795215727,44.81053161346695,744.3077895221103,-4.054206973353806,141995.47748534408,10.5,10500141995.477486,47.655,-122.3035,60.0,11.5
2026-01-20T23:11:31+00:00,SAT-53032,203.97881191726907,45.17490432119637,740.2644513181716,-4.009624969997118,140434.02714610565,10.5,10500140434.027145,47.655,-122.3035,60.0,11.516666666666667
2026-01-20T23:11:32+00:00,SAT-53032,203.5517599083095,45.54128264599287,736.2655755993907,-3.964308244225687,138846.8437200302,10.5,10500138846.84372,47.655,-122.3035,60.0,11.533333333333333
2026-01-20T23:11:33+00:00,SAT-53032,203.11432179703274,45.90958880839397,732.3118951184933,-3.9182492715998647,137233.66366941284,10.5,10500137233.66367,47.655,-122.3035,60.0,11.55
2026-01-20T23:11:34+00:00,SAT-53032,202.66616953554845,46.279738708910244,728.4041501324723,-3.871440785697585,135594.23249341597,10.5,10500135594.232494,47.655,-122.3035,60.0,11.566666666666666
2026-01-20T23:11:35+00:00,SAT-53032,202.2069641846466,46.651641614315544,724.5430881452625,-3.8238758104446475,133928.30586041225,10.5,10500133928.30586,47.655,-122.3035,60.0,11.583333333333334
2026-01-20T23:11:36+00:00,SAT-53032,201.7363556950894,47.02519983443487,720.7294636181706,-3.775547627464253,132235.64846442753,10.5,10500132235.648464,47.655,-122.3035,60.0,11.6
2026-01-20T23:11:37+00:00,SAT-53032,201.25398271772767,47.40030838311625,716.9640377128701,-3.726449941314765,130516.03981246597,10.5,10500130516.039812,47.655,-122.3035,60.0,11.616666666666667
2026-01-20T23:11:38+00:00,SAT-53032,200.75947242182832,47.776854643053326,713.247577869598,-3.6765767508361464,128769.2697185182,10.5,10500128769.269718,47.655,-122.3035,60.0,11.633333333333333
2026-01-20T23:11:39+00:00,SAT-53032,200.25244036470357,48.154718005976854,709.5808575136632,-3.625922443076483,126995.1415932654,10.5,10500126995.141594,47.655,-122.3035,60.0,11.65
2026-01-20T23:11:40+00:00,SAT-53032,199.73249039111354,48.53376951021869,705.9646556682793,-3.5744818446300477,125193.47424215556,10.5,10500125193.474241,47.655,-122.3035,60.0,11.666666666666666
2026-01-20T23:11:41+00:00,SAT-53032,199.1992145727856,48.913871472450026,702.3997565161964,-3.522250189821098,123364.10075106536,10.5,10500123364.100752,47.655,-122.3035,60.0,11.683333333333334
2026-01-20T23:11:42+00:00,SAT-53032,198.65219320922284,49.29487710554177,698.8869489930635,-3.469223215456366,121506.87180493328,10.5,10500121506.871805,47.655,-122.3035,60.0,11.7
2026-01-20T23:11:43+00:00,SAT-53032,198.09099487852015,49.676630136721656,695.4270262862951,-3.41539711104201,119621.65394414659,10.5,10500119621.653944,47.655,-122.3035,60.0,11.716666666666667
2026-01-20T23:11:44+00:00,SAT-53032,197.51517657123645,50.05896441167528,692.0207853835828,-3.360768619275306,117708.33308418556,10.5,10500117708.333084,47.655,-122.3035,60.0,11.733333333333333
2026-01-20T23:11:45+00:00,SAT-53032,196.9242838928426,50.44170350213482,688.6690265211898,-3.305335033726027,115766.81443441544,10.5,10500115766.814434,47.655,-122.3035,60.0,11.75
2026-01-20T23:11:46+00:00,SAT-53032,196.31785136372412,50.82466030749791,685.372552634553,-3.249094204237544,113797.02268725591,10.5,10500113797.022688,47.655,-122.3035,60.0,11.766666666666667
2026-01-20T23:11:47+00:00,SAT-53032,195.69540282875442,51.20763665286264,682.132168803502,-3.192044621601194,111798.90498383564,10.5,10500111798.904984,47.655,-122.3035,60.0,11.783333333333333
2026-01-20T23:11:48+00:00,SAT-53032,195.05645197553363,51.59042289493374,678.9486816130292,-3.1341853862718,109772.42981827748,10.5,10500109772.42982,47.655,-122.3035,60.0,11.8
2026-01-20T23:11:49+00:00,SAT-53032,194.40050299886076,51.972797524918484,675.8228985452607,-3.0755163072214926,107717.5904999774,10.5,10500107717.5905,47.655,-122.3035,60.0,11.816666666666666
2026-01-20T23:11:50+00:00,SAT-53032,193.72705140145064,52.35452678682672,672.7556272728375,-3.0160378537321484,105634.40346517175,10.5,10500105634.403465,47.655,-122.3035,60.0,11.833333333333334
2026-01-20T23:11:51+00:00,SAT-53032,193.03558497981268,52.735364296934584,669.7476750003779,-2.95575122251559,103522.91062777067,10.5,10500103522.910627,47.655,-122.3035,60.0,11.85
2026-01-20T23:11:52+00:00,SAT-53032,192.32558499040124,53.11505068215678,666.7998477389962,-2.8946583996751047,101383.18154951249,10.5,10500101383.18155,47.655,-122.3035,60.0,11.866666666666667
2026-01-20T23:11:53+00:00,SAT-53032,191.59652751453316,53.49331324173186,663.9129495190278,-2.832762120222821,99215.31202209102,10.5,10500099215.312021,47.655,-122.3035,60.0,11.883333333333333
2026-01-20T23:11:54+00:00,SAT-53032,190.84788506945452,53.869865624130185,661.0877816431283,-2.7700659312722578,97019.42628042599,10.5,10500097019.426281,47.655,-122.3035,60.0,11.9
2026-01-20T23:11:55+00:00,SAT-53032,190.0791284623847,54.244407538007145,658.3251418763485,-2.7065742399177144,94795.67867960174,10.5,10500094795.67868,47.655,-122.3035,60.0,11.916666666666666
2026-01-20T23:11:56+00:00,SAT-53032,189.2897289119658,54.61662450207812,655.6258235884611,-2.642292268977853,92544.25214482033,10.5,10500092544.252146,47.655,-122.3035,60.0,11.933333333333334
2026-01-20T23:11:57+00:00,SAT-53032,188.47916048754155,54.98618762846232,652.9906149404197,-2.577226171992496,90265.36219907575,10.5,10500090265.3622,47.655,-122.3035,60.0,11.95
2026-01-20T23:11:58+00:00,SAT-53032,187.6469028414955,55.35275346912449,650.4202979561371,-2.5113829760349353,87959.25496019924,10.5,10500087959.254961,47.655,-122.3035,60.0,11.966666666666667
2026-01-20T23:11:59+00:00,SAT-53032,186.79244430863108,55.71596391053299,647.9156476512901,-2.444770637179429,85626.20908356542,10.5,10500085626.209084,47.655,-122.3035,60.0,11.983333333333333
2026-01-20T23:12:00+00:00,SAT-53032,185.9152853596397,56.07544614143326,645.4774311068107,-2.377398076943726,83266.53703846387,10.5,10500083266.537039,47.655,-122.3035,60.0,12.0
2026-01-20T23:12:01+00:00,SAT-53032,185.01494242988886,56.43081270175038,643.1064065060303,-2.309275154052381,80880.58411913084,10.5,10500080880.58412,47.655,-122.3035,60.0,12.016666666666667
2026-01-20T23:12:02+00:00,SAT-53032,184.09095216429574,56.78166161408815,640.8033221999862,-2.240412707671009,78468.72995899581,10.5,10500078468.72996,47.655,-122.3035,60.0,12.033333333333333
2026-01-20T23:12:03+00:00,SAT-53032,183.1428760630133,57.12757661995697,638.5689157296075,-2.170822596547972,76031.38990158889,10.5,10500076031.389902,47.655,-122.3035,60.0,12.05
2026-01-20T23:12:04+00:00,SAT-53032,182.17030553117985,57.46812753296125,636.4039128088672,-2.1005176350680137,73569.01276086853,10.5,10500073569.01276,47.655,-122.3035,60.0,12.066666666666666
2026-01-20T23:12:05+00:00,SAT-53032,181.17286737840786,57.80287070576895,634.3090263717077,-2.0295116876858366,71082.08412868506,10.5,10500071082.08413,47.655,-122.3035,60.0,12.083333333333334
2026-01-20T23:12:06+00:00,SAT-53032,180.1502296866232,58.13134964860268,632.2849555247838,-1.9578195909401659,68571.12364338312,10.5,10500068571.123644,47.655,-122.3035,60.0,12.1
2026-01-20T23:12:07+00:00,SAT-53032,179.10210810675397,58.45309578557537,630.3323845779878,-1.8854572351185683,66036.68785004914,10.5,10500066036.68785,47.655,-122.3035,60.0,12.116666666666667
2026-01-20T23:12:08+00:00,SAT-53032,178.0282724737336,58.7676293873825,628.4519819935233,-1.8124415115405734,63479.36835414325,10.5,10500063479.368355,47.655,-122.3035,60.0,12.133333333333333
2026-01-20T23:12:09+00:00,SAT-53032,176.92855376125192,59.07446067149646,626.6443993875585,-1.7387903148310693,60899.79190112323,10.5,10500060899.7919,47.655,-122.3035,60.0,12.15
2026-01-20T23:12:10+00:00,SAT-53032,175.80285129098618,59.373091090180765,624.9102705296083,-1.6645225543882842,58298.620778101715,10.5,10500058298.620779,47.655,-122.3035,60.0,12.166666666666666
2026-01-20T23:12:11+00:00,SAT-53032,174.6511401093526,59.66301481843312,623.2502103304844,-1.5896581358115274,55676.552163367094,10.5,10500055676.552164,47.655,-122.3035,60.0,12.183333333333334
2026-01-20T23:12:12+00:00,SAT-53032,173.47347845489006,59.943720445281215,621.6648138487622,-1.5142179445532848,53034.31755381082,10.5,10500053034.317554,47.655,-122.3035,60.0,12.2
2026-01-20T23:12:13+00:00,SAT-53032,172.27001520104653,60.21469287470394,620.154655313556,-1.4382238216460081,50372.68191477681,10.5,10500050372.681915,47.655,-122.3035,60.0,12.216666666666667
2026-01-20T23:12:14+00:00,SAT-53032,171.0409971504181,60.47541543757283,618.7202871715011,-1.3616985711585874,47692.44394121872,10.5,10500047692.443941,47.655,-122.3035,60.0,12.233333333333333
2026-01-20T23:12:15+00:00,SAT-53032,169.78677599893115,60.7253722195988,617.3622391262973,-1.28466590740731,44994.43420880439,10.5,10500044994.434208,47.655,-122.3035,60.0,12.25
2026-01-20T23:12:16+00:00,SAT-53032,168.50781485359656,60.96405058928696,616.081017230904,-1.207150431812803,42279.5143633481,10.5,10500042279.514364,47.655,-122.3035,60.0,12.266666666666667
2026-01-20T23:12:17+00:00,SAT-53032,167.20469410023986,61.19094392099056,614.877103002812,-1.1291776207927136,39548.576696760974,10.5,10500039548.576696,47.655,-122.3035,60.0,12.283333333333333
2026-01-20T23:12:18+00:00,SAT-53032,165.87811641157222,61.405554499707996,613.750952551394,-1.0507737766581497,36802.54242723669,10.5,10500036802.542427,47.655,-122.3035,60.0,12.3
2026-01-20T23:12:19+00:00,SAT-53032,164.52891073418107,61.60739657934972,612.7029957542244,-0.9719659866716237,34042.360265287425,10.5,10500034042.360266,47.655,-122.3035,60.0,12.316666666666666
2026-01-20T23:12:20+00:00,SAT-53032,163.15803505345875,61.79599956832632,611.7336354742317,-0.8927821026986944,31269.005701058333,10.5,10500031269.005701,47.655,-122.3035,60.0,12.333333333333334
2026-01-20T23:12:21+00:00,SAT-53032,161.76657771003784,61.97091131278972,610.8432467971468,-0.813250663460507,28483.47828128259,10.5,10500028483.478281,47.655,-122.3035,60.0,12.35
2026-01-20T23:12:22+00:00,SAT-53032,160.3557571815887,62.131701426701575,610.0321763464863,-0.7334008841241816,25686.80124469278,10.5,10500025686.801245,47.655,-122.3035,60.0,12.366666666666667
2026-01-20T23:12:23+00:00,SAT-53032,158.92692006786496,62.27796463659618,609.3007416089232,-0.6532625870807401,22880.019097571065,10.5,10500022880.019098,47.655,-122.3035,60.0,12.383333333333333
2026-01-20T23:12:24+00:00,SAT-53032,157.48153725257376,62.40932407963277,608.649230328688,-0.5728661450693419,20064.195621719377,10.5,10500020064.195621,47.655,-122.3035,60.0,12.4
2026-01-20T23:12:25+00:00,SAT-53032,156.02119815290027,62.52543450348759,608.0778999586983,-0.49224244124188316,17240.41247575272,10.5,10500017240.412476,47.655,-122.3035,60.0,12.416666666666666
2026-01-20T23:12:26+00:00,SAT-53032,154.54760298260848,62.62598531543065,607.5869771515119,-0.4114228021984356,14409.766849716993,10.5,10500014409.76685,47.655,-122.3035,60.0,12.433333333333334
2026-01-20T23:12:27+00:00,SAT-53032,153.06255310905462,62.71070341826746,607.1766573170696,-0.3304389409863331,11573.369468675884,10.5,10500011573.369469,47.655,-122.3035,60.0,12.45
2026-01-20T23:12:28+00:00,SAT-53032,151.5679395670285,62.779355779178545,606.8471042372837,-0.24932289470615834,8732.342407408603,10.5,10500008732.342407,47.655,-122.3035,60.0,12.466666666666667
2026-01-20T23:12:29+00:00,SAT-53032,150.06572988745907,62.83175167730737,606.5984497428516,-0.16810696734858083,5887.817088314139,10.5,10500005887.81709,47.655,-122.3035,60.0,12.483333333333333
2026-01-20T23:12:30+00:00,SAT-53032,148.55795340053052,62.86774458296606,606.4307934470836,-0.08682365884586045,3040.9317964948095,10.5,10500003040.931797,47.655,-122.3035,60.0,12.5
2026-01-20T23:12:31+00:00,SAT-53032,147.04668535249107,62.88723362393619,606.3442025504855,-0.005505606251762329,192.82961962807101,10.5,10500000192.82962,47.655,-122.3035,60.0,12.516666666666667
2026-01-20T23:12:32+00:00,SAT-53032,145.53403003312727,62.89016460817262,606.3387117040045,0.07581448454386779,-2655.343943677902,10.5,10499997344.656055,47.655,-122.3035,60.0,12.533333333333333
2026-01-20T23:12:33+00:00,SAT-53032,144.02210334271027,62.87653057723975,606.4143229403777,0.15710390282106346,-5502.443225643676,10.5,10499994497.556774,47.655,-122.3035,60.0,12.55
2026-01-20T23:12:34+00:00,SAT-53032,142.51301509675196,62.846371878483914,606.5710056693155,0.23833000000293866,-8347.32473500336,10.5,10499991652.675264,47.655,-122.3035,60.0,12.566666666666666
2026-01-20T23:12:35+00:00,SAT-53032,141.00885145990387,62.79977575358457,606.8086967394779,0.3194602547572425,-11188.849437136427,10.5,10499988811.150562,47.655,-122.3035,60.0,12.583333333333334
2026-01-20T23:12:36+00:00,SAT-53032,139.51165787293453,62.736875453448775,607.1273005653777,0.40046233291928146,-14025.884852821931,10.5,10499985974.115147,47.655,-122.3035,60.0,12.6
2026-01-20T23:12:37+00:00,SAT-53032,138.02342282852143,62.657848900945936,607.5266893140462,0.48130416094682854,-16857.307630940133,10.5,10499983142.69237,47.655,-122.3035,60.0,12.616666666666667
2026-01-20T23:12:38+00:00,SAT-53032,136.54606275888915,62.56291692929733,608.0067031649577,0.5619539825109026,-19682.00553052097,10.5,10499980317.994469,47.655,-122.3035,60.0,12.633333333333333
2026-01-20T23:12:39+00:00,SAT-53032,135.08140837134007,62.452341138722446,608.5671506263909,0.6423804140889116,-22498.879367851117,10.5,10499977501.120632,47.655,-122.3035,60.0,12.65
2026-01-20T23:12:40+00:00,SAT-53032,133.63119262649826,62.326421417985316,609.2078089072384,0.7225525172023775,-25306.845546544613,10.5,10499974693.154453,47.655,-122.3035,60.0,12.666666666666666
2026-01-20T23:12:41+00:00,SAT-53032,132.19704048827927,62.18549317937325,609.9284243608543,0.8024398453337493,-28104.837700768203,10.5,10499971895.1623,47.655,-122.3035,60.0,12.683333333333334
2026-01-20T23:12:42+00:00,SAT-53032,130.78046060423654,62.029924367396724,610.7287129756993,0.8820125064185057,-30891.808883979033,10.5,10499969108.191116,47.655,-122.3035,60.0,12.7
2026-01-20T23:12:43+00:00,SAT-53032,129.38283892168008,61.86011229498623,611.6083609283058,0.9612412083766905,-33666.73316363165,10.5,10499966333.266836,47.655,-122.3035,60.0,12.716666666666667
2026-01-20T23:12:44+00:00,SAT-53032,128.0054342567957,61.67648036708641,612.5670251816541,1.0400973114412522,-36428.607453937846,10.5,10499963571.392546,47.655,-122.3035,60.0,12.733333333333333
2026-01-20T23:12:45+00:00,SAT-53032,126.64937573900959,61.47947474490042,613.6043341357371,1.1185528851238904,-39176.45351105146,10.5,10499960823.54649,47.655,-122.3035,60.0,12.75
2026-01-20T23:12:46+00:00,SAT-53032,125.31566202121968,61.26956100126213,614.7198883349362,1.1965807352758522,-41909.318880852064,10.5,10499958090.68112,47.655,-122.3035,60.0,12.766666666666667
2026-01-20T23:12:47+00:00,SAT-53032,124.00516215034008,61.047220819601776,615.9132612023889,1.274154458402523,-44626.278801271554,10.5,10499955373.721199,47.655,-122.3035,60.0,12.783333333333333
2026-01-20T23:12:48+00:00,SAT-53032,122.71861789353387,60.81294877276569,617.1839998285217,1.3512484738116293,-47326.4373282603,10.5,10499952673.562672,47.655,-122.3035,60.0,12.8
2026-01-20T23:12:49+00:00,SAT-53032,121.45664736174832,60.56724922149281,618.5316257916472,1.4278380649536144,-50008.92878370193,10.5,10499949991.071217,47.655,-122.3035,60.0,12.816666666666666
2026-01-20T23:12:50+00:00,SAT-53032,120.21974972238944,60.31063336026406,619.9556360197904,1.5038993938004452,-52672.91825901996,10.5,10499947327.081741,47.655,-122.3035,60.0,12.833333333333334
2026-01-20T23:12:51+00:00,SAT-53032,119.0083108276797,60.043616438706096,621.4555036668542,1.579409549982206,-55317.603336149186,10.5,10499944682.396664,47.655,-122.3035,60.0,12.85
2026-01-20T23:12:52+00:00,SAT-53032,117.8226095315909,59.76671516954531,623.0306790377914,1.6543465670205273,-57942.21465609898,10.5,10499942057.785343,47.655,-122.3035,60.0,12.866666666666667
2026-01-20T23:12:53+00:00,SAT-53032,116.66282454145077,59.480445340857614,624.6805905299656,1.7286894253559233,-60546.01602498351,10.5,10499939453.983974,47.655,-122.3035,60.0,12.883333333333333
2026-01-20T23:12:54+00:00,SAT-53032,115.52904163483441,59.18531964134738,626.4046455775315,1.8024181083884236,-63128.30637680168,10.5,10499936871.693623,47.655,-122.3035,60.0,12.9
2026-01-20T23:12:55+00:00,SAT-53032,114.42126105277842,58.88184569160042,628.2022316517048,1.8755135694554865,-65688.41861686397,10.5,10499934311.581383,47.655,-122.3035,60.0,12.916666666666666
2026-01-20T23:12:56+00:00,SAT-53032,113.33940498746611,58.570524294819094,630.0727172281014,1.9479577838734476,-68225.72144450412,10.5,10499931774.278555,47.655,-122.3035,60.0,12.933333333333334
2026-01-20T23:12:57+00:00,SAT-53032,112.28332499179294,58.25184788734818,632.0154528059746,2.019733728145106,-70739.61862484083,10.5,10499929260.381374,47.655,-122.3035,60.0,12.95
2026-01-20T23:12:58+00:00,SAT-53032,111.2528092532553,57.9262991936021,634.0297719067175,2.090825405222822,-73229.54987359833,10.5,10499926770.450127,47.655,-122.3035,60.0,12.966666666666667
2026-01-20T23:12:59+00:00,SAT-53032,110.24758962365355,57.594350067840345,636.1149920975631,2.16121781550937,-75694.98984143352,10.5,10499924305.010159,47.655,-122.3035,60.0,12.983333333333333
2026-01-20T23:13:00+00:00,SAT-53032,109.26734836550135,57.25646052024813,638.2704159863571,2.2308969926460085,-78135.44936738565,10.5,10499921864.550632,47.655,-122.3035,60.0,13.0
2026-01-20T23:13:01+00:00,SAT-53032,108.31172453507341,56.91307790449778,640.4953322520296,2.2998499715703655,-80550.4743601283,10.5,10499919449.52564,47.655,-122.3035,60.0,13.016666666666667
2026-01-20T23:13:02+00:00,SAT-53032,107.38031999731493,56.564636264629016,642.7890166432053,2.368064778581753,-82939.64545001465,10.5,10499917060.35455,47.655,-122.3035,60.0,13.033333333333333
2026-01-20T23:13:03+00:00,SAT-53032,106.47270503793449,56.211555824226345,645.1507329669087,2.4355304629426584,-85302.57909589543,10.5,10499914697.420904,47.655,-122.3035,60.0,13.05
2026-01-20T23:13:04+00:00,SAT-53032,105.58842354551427,55.85424259856217,647.5797341087833,2.5022370130630076,-87638.92464953731,10.5,10499912361.07535,47.655,-122.3035,60.0,13.066666666666666
2026-01-20T23:13:05+00:00,SAT-53032,104.72699780223006,55.49308813392641,650.075262969723,2.5681754039337177,-89948.36601694641,10.5,10499910051.633984,47.655,-122.3035,60.0,13.083333333333334
2026-01-20T23:13:06+00:00,SAT-53032,103.88793283815083,55.12846934192293,652.636553449807,2.633337558746702,-92230.62031413868,10.5,10499907769.379686,47.655,-122.3035,60.0,13.1
2026-01-20T23:13:07+00:00,SAT-53032,103.07072039121019,54.760748429700534,655.2628313939595,2.6977163223078593,-94485.43693595027,10.5,10499905514.563065,47.655,-122.3035,60.0,13.116666666666667
2026-01-20T23:13:08+00:00,SAT-53032,102.27484248091346,54.390272912871346,657.953315511092,2.761305452490471,-96712.59725669932,10.5,10499903287.402742,47.655,-122.3035,60.0,13.133333333333333
2026-01-20T23:13:09+00:00,SAT-53032,101.49977460825389,54.017375698058196,660.7072182847244,2.8240995850154427,-98911.91339664104,10.5,10499901088.086603,47.655,-122.3035,60.0,13.15
2026-01-20T23:13:10+00:00,SAT-53032,100.74498860941465,53.64237522903608,663.5237468484783,2.886094221427841,-101083.22780085524,10.5,10499898916.7722,47.655,-122.3035,60.0,13.166666666666666
2026-01-20T23:13:11+00:00,SAT-53032,100.00995517894358,53.26557568431976,666.4021038495794,2.947285715378645,-103226.4127587752,10.5,10499896773.587242,47.655,-122.3035,60.0,13.183333333333334
2026-01-20T23:13:12+00:00,SAT-53032,99.29414608553164,52.88726721843942,669.3414882986804,3.007671210584709,-105341.368231283,10.5,10499894658.63177,47.655,-122.3035,60.0,13.2
2026-01-20T23:13:13+00:00,SAT-53032,98.59703611534475,52.507726245731256,672.3410963578082,3.067248651286523,-107428.02221698483,10.5,10499892571.977783,47.655,-122.3035,60.0,13.216666666666667
2026-01-20T23:13:14+00:00,SAT-53032,97.91810474754561,52.127215750542646,675.4001221387407,3.1260167265699463,-109486.3288021223,10.5,10499890513.671198,47.655,-122.3035,60.0,13.233333333333333
2026-01-20T23:13:15+00:00,SAT-53032,97.25683760021032,51.74598562646141,678.5177584458572,3.183974870821699,-111516.26817652577,10.5,10499888483.731823,47.655,-122.3035,60.0,13.25
2026-01-20T23:13:16+00:00,SAT-53032,96.61272765544236,51.36427303218627,681.6931975194387,3.241123215805252,-113517.8449551094,10.5,10499886482.155045,47.655,-122.3035,60.0,13.266666666666667
2026-01-20T23:13:17+00:00,SAT-53032,95.9852762951112,50.98230276544294,684.9256317311775,3.2974625387417307,-115491.08635944463,10.5,10499884508.913641,47.655,-122.3035,60.0,13.283333333333333
2026-01-20T23:13:18+00:00,SAT-53032,95.37399416553531,50.60028765099652,688.2142542279026,3.3529943246002576,-117436.0443994315,10.5,10499882563.9556,47.655,-122.3035,60.0,13.3
2026-01-20T23:13:19+00:00,SAT-53032,94.77840186977372,50.21842892596509,691.558259637432,3.4077205872829786,-119352.789610442,10.5,10499880647.21039,47.655,-122.3035,60.0,13.316666666666666
2026-01-20T23:13:20+00:00,SAT-53032,94.19803054684942,49.836916647305245,694.9568445960858,3.4616440023015556,-121241.41570021196,10.5,10499878758.5843,47.655,-122.3035,60.0,13.333333333333334
2026-01-20T23:13:21+00:00,SAT-53032,93.6324222992365,49.45593008277217,698.409208408524,3.5147677564430926,-123102.03428350578,10.5,10499876897.965717,47.655,-122.3035,60.0,13.35
2026-01-20T23:13:22+00:00,SAT-53032,93.08113053169068,49.075638115524114,701.9145535576499,3.5670955691874,-124934.7756322399,10.5,10499875065.224367,47.655,-122.3035,60.0,13.366666666666667
2026-01-20T23:13:23+00:00,SAT-53032,92.54372018522308,48.69619964071799,705.4720862358756,3.618631679661891,-126739.78821858771,10.5,10499873260.21178,47.655,-122.3035,60.0,13.383333333333333
2026-01-20T23:13:24+00:00,SAT-53032,92.01976788489755,48.31776395662455,709.0810168633755,3.6693807593621957,-128517.23565808669,10.5,10499871482.764341,47.655,-122.3035,60.0,13.4
2026-01-20T23:13:25+00:00,SAT-53032,91.50886202274451,47.94047115664159,712.7405605192963,3.719347963152024,-130267.29849586893,10.5,10499869732.701504,47.655,-122.3035,60.0,13.416666666666666
2026-01-20T23:13:26+00:00,SAT-53032,91.01060276606042,47.56445250645163,716.449937423829,3.768538831972996,-131990.17079914818,10.5,10499868009.8292,47.655,-122.3035,60.0,13.433333333333334
2026-01-20T23:13:27+00:00,SAT-53032,90.52460202063811,47.18983082095746,720.208373323252,3.816959320859758,-133686.0611384275,10.5,10499866313.938862,47.655,-122.3035,60.0,13.45
2026-01-20T23:13:28+00:00,SAT-53032,90.05048333994333,46.81672082724894,724.0150999029128,3.864615703970845,-135355.18926127846,10.5,10499864644.81074,47.655,-122.3035,60.0,13.466666666666667
2026-01-20T23:13:29+00:00,SAT-53032,89.58788180298222,46.44522952537951,727.8693551054982,3.9115146310838083,-136997.78807103942,10.5,10499863002.21193,47.655,-122.3035,60.0,13.483333333333333
2026-01-20T23:13:30+00:00,SAT-53032,89.13644384863886,46.07545653152145,731.7703835056452,3.957663051011431,-138614.1009445275,10.5,10499861385.899055,47.655,-122.3035,60.0,13.5
2026-01-20T23:13:31+00:00,SAT-53032,88.69582708856278,45.707494416365414,735.7174366081741,4.003068210014826,-140204.38167645855,10.5,10499859795.618324,47.655,-122.3035,60.0,13.516666666666667
2026-01-20T23:13:32+00:00,SAT-53032,88.26570009436925,45.34142903116763,739.7097731447415,4.0477375919371745,-141768.89238267738,10.5,10499858231.107616,47.655,-122.3035,60.0,13.533333333333333
2026-01-20T23:13:33+00:00,SAT-53032,87.84574217012698,44.97733982677157,743.7466593107825,4.091678944986907,-143307.90443821813,10.5,10499856692.095562,47.655,-122.3035,60.0,13.55
2026-01-20T23:13:34+00:00,SAT-53032,87.43564310458065,44.61530015757482,747.8273690291694,4.134900228137801,-144821.69660000887,10.5,10499855178.3034,47.655,-122.3035,60.0,13.566666666666666
2026-01-20T23:13:35+00:00,SAT-53032,87.03510291551248,44.25537757791427,751.9511841604118,4.177409617103228,-146310.55521611517,10.5,10499853689.444784,47.655,-122.3035,60.0,13.583333333333334
2026-01-20T23:13:36+00:00,SAT-53032,86.64383158284829,43.89763412558262,756.1173947188141,4.219215426856271,-147774.77151206668,10.5,10499852225.228487,47.655,-122.3035,60.0,13.6
2026-01-20T23:13:37+00:00,SAT-53032,86.26154878098392,43.54212659982954,760.3252990113626,4.260326175296963,-149214.64382075318,10.5,10499850785.35618,47.655,-122.3035,60.0,13.616666666666667
2026-01-20T23:13:38+00:00,SAT-53032,85.88798359975068,43.18890682188886,764.5742038401088,4.300750519076056,-150630.47533470168,10.5,10499849369.524666,47.655,-122.3035,60.0,13.633333333333333
2026-01-20T23:13:39+00:00,SAT-53032,85.5228742678805,42.83802188935394,768.8634246405467,4.340497178035601,-152022.57145966566,10.5,10499847977.428541,47.655,-122.3035,60.0,13.65
2026-01-20T23:13:40+00:00,SAT-53032,85.16596788050241,42.4895144251302,773.1922855446365,4.379575060930039,-153391.2442179096,10.5,10499846608.755781,47.655,-122.3035,60.0,13.666666666666666
2026-01-20T23:13:41+00:00,SAT-53032,84.81702011621489,42.143422804915375,777.5601195692097,4.417993122876674,-154736.8072555217,10.5,10499845263.192745,47.655,-122.3035,60.0,13.683333333333334
2026-01-20T23:13:42+00:00,SAT-53032,84.47579496680667,41.79978138547867,781.966268662207,4.455760389623414,-156059.57669237247,10.5,10499843940.423307,47.655,-122.3035,60.0,13.7
2026-01-20T23:13:43+00:00,SAT-53032,84.14206446674562,41.45862072022277,786.4100837731205,4.492885979263857,-157359.87188266925,10.5,10499842640.128117,47.655,-122.3035,60.0,13.716666666666667
2026-01-20T23:13:44+00:00,SAT-53032,83.8156084243165,41.119967762886546,790.8909249450924,4.529379010080661,-158638.012187241,10.5,10499841361.987812,47.655,-122.3035,60.0,13.733333333333333
2026-01-20T23:13:45+00:00,SAT-53032,83.4962141630206,40.78384606838045,795.4081613151011,4.565248685262978,-159894.31994070136,10.5,10499840105.68006,47.655,-122.3035,60.0,13.75
2026-01-20T23:13:46+00:00,SAT-53032,83.18367626148118,40.45027597760009,799.961171198643,4.600504206802346,-161129.11743571825,10.5,10499838870.882565,47.655,-122.3035,60.0,13.766666666666667
2026-01-20T23:13:47+00:00,SAT-53032,82.87779630430275,40.11927479952222,804.5493420885371,4.635154762941556,-162342.72648342056,10.5,10499837657.273516,47.655,-122.3035,60.0,13.783333333333333
2026-01-20T23:13:48+00:00,SAT-53032,82.57838263882344,39.79085698514367,809.1720706412101,4.669209589017332,-163535.4705443657,10.5,10499836464.529455,47.655,-122.3035,60.0,13.8
2026-01-20T23:13:49+00:00,SAT-53032,82.28525013373317,39.46503428849163,813.8287627236701,4.702677882339488,-164707.67174724798,10.5,10499835292.328253,47.655,-122.3035,60.0,13.816666666666666
2026-01-20T23:13:50+00:00,SAT-53032,81.99821994908532,39.14181592552571,818.518833375577,4.735568814942672,-165859.65133551846,10.5,10499834140.348665,47.655,-122.3035,60.0,13.833333333333334
2026-01-20T23:13:51+00:00,SAT-53032,81.71711931139336,38.82120872409614,823.241706784035,4.767891538608212,-166991.7298432712,10.5,10499833008.270157,47.655,-122.3035,60.0,13.85
2026-01-20T23:13:52+00:00,SAT-53032,81.44178129479461,38.50321726595288,827.9968162633971,4.799655183231076,-168104.22703804742,10.5,10499831895.772963,47.655,-122.3035,60.0,13.866666666666667
2026-01-20T23:13:53+00:00,SAT-53032,81.1720446086155,38.18784402163205,832.7836042334345,4.8308687926613265,-169197.4596737318,10.5,10499830802.540327,47.655,-122.3035,60.0,13.883333333333333
2026-01-20T23:13:54+00:00,SAT-53032,80.90775339485272,37.875089482578616,837.6015221335226,4.861541399094655,-170271.74409602353,10.5,10499829728.255903,47.655,-122.3035,60.0,13.9
2026-01-20T23:13:55+00:00,SAT-53032,80.64875702789612,37.564952281636295,842.4500304110188,4.8916819553010225,-171327.39386879688,10.5,10499828672.60613,47.655,-122.3035,60.0,13.916666666666666
2026-01-20T23:13:56+00:00,SAT-53032,80.39490992428962,37.257429311601975,847.3285984420498,4.921299343582673,-172364.72008784846,10.5,10499827635.279913,47.655,-122.3035,60.0,13.933333333333334
2026-01-20T23:13:57+00:00,SAT-53032,80.146071358123,36.95251583699496,852.2367044612316,4.950402418699511,-173384.03288432583,10.5,10499826615.967115,47.655,-122.3035,60.0,13.95
2026-01-20T23:13:58+00:00,SAT-53032,79.90210528068211,36.65020559734512,857.1738355342022,4.9789998681813525,-174385.63653227125,10.5,10499825614.363468,47.655,-122.3035,60.0,13.966666666666667
2026-01-20T23:13:59+00:00,SAT-53032,79.66288015270314,36.350490913473266,862.1394873908389,5.007100406725401,-175369.83625724405,10.5,10499824630.163742,47.655,-122.3035,60.0,13.983333333333333
2026-01-20T23:14:00+00:00,SAT-53032,79.4282687735492,36.05336277650274,867.1331644523536,5.034712567703928,-176336.9309340372,10.5,10499823663.069065,47.655,-122.3035,60.0,14.0
2026-01-20T23:14:01+00:00,SAT-53032,79.19814812579669,35.75881094444914,872.1543796504538,5.061844887243885,-177287.21953392433,10.5,10499822712.780466,47.655,-122.3035,60.0,14.016666666666667
2026-01-20T23:14:02+00:00,SAT-53032,78.97239921732779,35.46682402292205,877.2026544300896,5.088505715740765,-178220.9945230778,10.5,10499821779.005476,47.655,-122.3035,60.0,14.033333333333333
2026-01-20T23:14:03+00:00,SAT-53032,78.75090693714884,35.17738955229773,882.2775185642204,5.114703374426759,-179138.54734624768,10.5,10499820861.452654,47.655,-122.3035,60.0,14.05
2026-01-20T23:14:04+00:00,SAT-53032,78.53355990997538,34.89049408130667,887.3785101247292,5.14044605717711,-180040.164987605,10.5,10499819959.835012,47.655,-122.3035,60.0,14.066666666666666
2026-01-20T23:14:05+00:00,SAT-53032,78.320250360123,34.60612324213322,892.5051753554085,5.165741862680034,-180926.1310974686,10.5,10499819073.868902,47.655,-122.3035,60.0,14.083333333333334
2026-01-20T23:14:06+00:00,SAT-53032,78.1108739793324,34.32426181963505,897.6570685770271,5.19059877939406,-181796.72546544726,10.5,10499818203.274534,47.655,-122.3035,60.0,14.1
2026-01-20T23:14:07+00:00,SAT-53032,77.90532979995372,34.04489381759025,902.8337520773965,5.215024718280045,-182652.2251668535,10.5,10499817347.774834,47.655,-122.3035,60.0,14.116666666666667
2026-01-20T23:14:08+00:00,SAT-53032,77.70352007186415,33.76800251956296,908.0347960340799,5.239027414193202,-183492.9011090353,10.5,10499816507.09889,47.655,-122.3035,60.0,14.133333333333333
2026-01-20T23:14:09+00:00,SAT-53032,77.5053501475524,33.49357055157865,913.2597783387616,5.262614584032446,-184319.0235704351,10.5,10499815680.976429,47.655,-122.3035,60.0,14.15
2026-01-20T23:14:10+00:00,SAT-53032,77.31072836596088,33.221579933114334,918.5082845793349,5.28579376614143,-185130.85657573486,10.5,10499814869.143425,47.655,-122.3035,60.0,14.166666666666666
2026-01-20T23:14:11+00:00,SAT-53032,77.11956594646536,32.95201213349181,923.7799078618287,5.308572410870509,-185928.66106771887,10.5,10499814071.338932,47.655,-122.3035,60.0,14.183333333333334
2026-01-20T23:14:12+00:00,SAT-53032,76.93177688377145,32.68484812050414,929.0742487226489,5.330957878738255,-186712.69484288254,10.5,10499813287.305157,47.655,-122.3035,60.0,14.2
2026-01-20T23:14:13+00:00,SAT-53032,76.74727784693869,32.42006840642241,934.3909150389866,5.35295735476174,-187483.2095509163,10.5,10499812516.79045,47.655,-122.3035,60.0,14.216666666666667
2026-01-20T23:14:14+00:00,SAT-53032,76.56598808520118,32.15765309559528,939.7295218537879,5.374577973925452,-188240.45508915788,10.5,10499811759.54491,47.655,-122.3035,60.0,14.233333333333333
2026-01-20T23:14:15+00:00,SAT-53032,76.3878293332476,31.89758192324237,945.0896913258573,5.395826760061894,-188984.6774619323,10.5,10499811015.322538,47.655,-122.3035,60.0,14.25
2026-01-20T23:14:16+00:00,SAT-53032,76.2127257223488,31.63983429499596,950.4710526189996,5.416710557920139,-189716.1164013054,10.5,10499810283.883598,47.655,-122.3035,60.0,14.266666666666667
2026-01-20T23:14:17+00:00,SAT-53032,76.0406036968757,31.384389327346693,955.8732417234198,5.4372361646692156,-190435.0099728885,10.5,10499809564.990026,47.655,-122.3035,60.0,14.283333333333333
2026-01-20T23:14:18+00:00,SAT-53032,75.87139193012209,31.13122587961961,961.2959014082702,5.457410240790157,-191141.59145490127,10.5,10499808858.408545,47.655,-122.3035,60.0,14.3
2026-01-20T23:14:19+00:00,SAT-53032,75.70502124608025,30.880322588204503,966.7386810853272,5.47723931676202,-191836.08957234412,10.5,10499808163.910427,47.655,-122.3035,60.0,14.316666666666666
2026-01-20T23:14:20+00:00,SAT-53032,75.5414245441058,30.631657898468852,972.20123667934,5.496729862206826,-192518.73091874673,10.5,10499807481.269081,47.655,-122.3035,60.0,14.333333333333334
2026-01-20T23:14:21+00:00,SAT-53032,75.38053672450712,30.385210091696255,977.6832305673352,5.515888164631509,-193189.735709198,10.5,10499806810.26429,47.655,-122.3035,60.0,14.35
2026-01-20T23:14:22+00:00,SAT-53032,75.22229462045473,30.140957315797557,983.1843313969895,5.534720477610055,-193849.3229703116,10.5,10499806150.67703,47.655,-122.3035,60.0,14.366666666666667
