DopplerPredictor/satellites_20260205_234138/SAT-55786.csv

timestamp,satellite,azimuth_deg,elevation_deg,distance_km,relative_velocity_kms,doppler_shift_hz,tx_freq_ghz,rx_freq_hz,ue_lat,ue_lon,ue_alt_m,time_minutes
2026-01-20T23:02:30+00:00,SAT-55786,185.14253934845468,30.134267400156002,1037.202229820324,-5.541684512413261,194093.2329269579,10.5,10500194093.232927,47.655,-122.3035,60.0,2.5
2026-01-20T23:02:31+00:00,SAT-55786,184.98463455896362,30.371120765446385,1031.675401799336,-5.522574511733442,193423.9198679279,10.5,10500193423.919868,47.655,-122.3035,60.0,2.5166666666666666
2026-01-20T23:02:32+00:00,SAT-55786,184.8242106216869,30.609970280276016,1026.1676325477533,-5.503148842865012,192743.55077365763,10.5,10500192743.550774,47.655,-122.3035,60.0,2.533333333333333
2026-01-20T23:02:33+00:00,SAT-55786,184.6612100906474,30.850833874638532,1020.6792368875014,-5.4834018509941185,192051.92758864618,10.5,10500192051.92759,47.655,-122.3035,60.0,2.55
2026-01-20T23:02:34+00:00,SAT-55786,184.4955738512824,31.093729310602384,1015.2105352801607,-5.463327770782454,191348.8483863586,10.5,10500191348.848387,47.655,-122.3035,60.0,2.566666666666667
2026-01-20T23:02:35+00:00,SAT-55786,184.32724106406246,31.338674157277747,1009.7618539371922,-5.442920754077551,190634.10833975777,10.5,10500190634.10834,47.655,-122.3035,60.0,2.5833333333333335
2026-01-20T23:02:36+00:00,SAT-55786,184.1561491048131,31.58568576557586,1004.3335249025338,-5.422174837454183,189907.49858446713,10.5,10500189907.498585,47.655,-122.3035,60.0,2.6
2026-01-20T23:02:37+00:00,SAT-55786,183.98223350428822,31.834781240013946,998.925886167558,-5.401084006278777,189168.808462577,10.5,10500189168.808462,47.655,-122.3035,60.0,2.6166666666666667
2026-01-20T23:02:38+00:00,SAT-55786,183.80542788270418,32.0859774118751,993.5392817221509,-5.379642130464329,188417.82327251026,10.5,10500188417.823273,47.655,-122.3035,60.0,2.6333333333333333
2026-01-20T23:02:39+00:00,SAT-55786,183.62566388456844,32.339290807820795,988.1740616698478,-5.357842969920177,187654.3244598964,10.5,10500187654.32446,47.655,-122.3035,60.0,2.65
2026-01-20T23:02:40+00:00,SAT-55786,183.44287111053183,32.594737616956955,982.8305823375474,-5.33568021073216,186878.09088475362,10.5,10500186878.090885,47.655,-122.3035,60.0,2.6666666666666665
2026-01-20T23:02:41+00:00,SAT-55786,183.25697704569097,32.852333657775404,977.5092063491363,-5.313147469791873,186088.89898362508,10.5,10500186088.898983,47.655,-122.3035,60.0,2.683333333333333
2026-01-20T23:02:42+00:00,SAT-55786,183.06790698454134,33.112094343476144,972.2103026944969,-5.290238237084237,185286.52074824538,10.5,10500185286.520748,47.655,-122.3035,60.0,2.7
2026-01-20T23:02:43+00:00,SAT-55786,182.87558395588113,33.37403464249045,966.9342468560733,-5.266945921459051,184470.72532865396,10.5,10500184470.725328,47.655,-122.3035,60.0,2.716666666666667
2026-01-20T23:02:44+00:00,SAT-55786,182.67992864289593,33.63816903907349,961.6814208897914,-5.243263838179347,183641.2785970858,10.5,10500183641.278597,47.655,-122.3035,60.0,2.7333333333333334
2026-01-20T23:02:45+00:00,SAT-55786,182.4808593007396,33.90451149108003,956.4522135183918,-5.219185262228947,182797.9450150275,10.5,10500182797.945015,47.655,-122.3035,60.0,2.75
2026-01-20T23:02:46+00:00,SAT-55786,182.27829166897763,34.17307538816193,951.2470201716034,-5.194703306900155,181940.48338084485,10.5,10500181940.483381,47.655,-122.3035,60.0,2.7666666666666666
2026-01-20T23:02:47+00:00,SAT-55786,182.07213888597053,34.44387350135154,946.0662431474002,-5.16981102646495,181068.65042576214,10.5,10500181068.650425,47.655,-122.3035,60.0,2.783333333333333
2026-01-20T23:02:48+00:00,SAT-55786,181.86231139583148,34.71691793524768,940.9102916708629,-5.144501430060444,180182.20130018968,10.5,10500180182.2013,47.655,-122.3035,60.0,2.8
2026-01-20T23:02:49+00:00,SAT-55786,181.64871685115205,34.99222007837573,935.7795819391953,-5.11876740960908,179280.88704918436,10.5,10500179280.887049,47.655,-122.3035,60.0,2.816666666666667
2026-01-20T23:02:50+00:00,SAT-55786,181.43126001581174,35.269790546973674,930.6745372386217,-5.092601760072471,178364.4553218245,10.5,10500178364.455322,47.655,-122.3035,60.0,2.8333333333333335
2026-01-20T23:02:51+00:00,SAT-55786,181.20984266326838,35.54963912680762,925.5955880410891,-5.06599724133083,177432.65253848955,10.5,10500177432.652538,47.655,-122.3035,60.0,2.85
2026-01-20T23:02:52+00:00,SAT-55786,180.9843634684661,35.83177471530484,920.5431720392546,-5.038946491319329,176485.22084852768,10.5,10500176485.220848,47.655,-122.3035,60.0,2.8666666666666667
2026-01-20T23:02:53+00:00,SAT-55786,180.75471790017698,36.116205255712366,915.5177342681039,-5.0114421471732,175521.9023732698,10.5,10500175521.902372,47.655,-122.3035,60.0,2.8833333333333333
2026-01-20T23:02:54+00:00,SAT-55786,180.5207981036419,36.40293767465405,910.5197271057482,-4.983476675840751,174542.43327338106,10.5,10500174542.433273,47.655,-122.3035,60.0,2.9
2026-01-20T23:02:55+00:00,SAT-55786,180.28249278796974,36.69197780659982,905.5496104431559,-4.955042562497349,173546.5503479149,10.5,10500173546.550348,47.655,-122.3035,60.0,2.9166666666666665
2026-01-20T23:02:56+00:00,SAT-55786,180.03968710007763,36.983330325326335,900.6078516659726,-4.926132204704313,172533.98732731058,10.5,10500172533.987328,47.655,-122.3035,60.0,2.933333333333333
2026-01-20T23:02:57+00:00,SAT-55786,179.79226249996296,37.276998665574,895.6949257419027,-4.8967379296067035,171504.47547573192,10.5,10500171504.475475,47.655,-122.3035,60.0,2.95
2026-01-20T23:02:58+00:00,SAT-55786,179.5400966313359,37.572984941608226,890.8113152909357,-4.866852010900997,170457.74418534728,10.5,10500170457.744184,47.655,-122.3035,60.0,2.966666666666667
2026-01-20T23:02:59+00:00,SAT-55786,179.28306318719058,37.87128986256282,885.9575106386502,-4.8364666977801045,169393.52199010656,10.5,10500169393.52199,47.655,-122.3035,60.0,2.9833333333333334
2026-01-20T23:03:00+00:00,SAT-55786,179.02103176972656,38.17191264521833,881.1340098406545,-4.8055741631321895,168311.5347514446,10.5,10500168311.534752,47.655,-122.3035,60.0,3.0
2026-01-20T23:03:01+00:00,SAT-55786,178.75386774907267,38.47485091905113,876.3413187586841,-4.774166565900628,167211.5078423907,10.5,10500167211.507843,47.655,-122.3035,60.0,3.0166666666666666
2026-01-20T23:03:02+00:00,SAT-55786,178.4814321145098,38.78010063037045,871.5799510745121,-4.7422360363432166,166093.16563128406,10.5,10500166093.16563,47.655,-122.3035,60.0,3.033333333333333
2026-01-20T23:03:03+00:00,SAT-55786,178.20358132218692,39.0876559406665,866.850428318554,-4.7097746391457145,164956.23018985358,10.5,10500164956.23019,47.655,-122.3035,60.0,3.05
2026-01-20T23:03:04+00:00,SAT-55786,177.92016714156173,39.39750911738448,862.1532799352669,-4.676774478950375,163800.42498927354,10.5,10500163800.42499,47.655,-122.3035,60.0,3.066666666666667
2026-01-20T23:03:05+00:00,SAT-55786,177.63103649090672,39.70965042620995,857.4890432432996,-4.6432275933050375,162625.47115078825,10.5,10500162625.471151,47.655,-122.3035,60.0,3.0833333333333335
2026-01-20T23:03:06+00:00,SAT-55786,177.3360312762374,40.024068010823534,852.8582635024067,-4.6091260391318984,161431.09047421376,10.5,10500161431.090475,47.655,-122.3035,60.0,3.1
2026-01-20T23:03:07+00:00,SAT-55786,177.03498822069892,40.340747772544624,848.2614938941263,-4.574461892439851,160217.00542786316,10.5,10500160217.005428,47.655,-122.3035,60.0,3.1166666666666667
2026-01-20T23:03:08+00:00,SAT-55786,176.72773869060464,40.65967324409229,843.6992955027443,-4.53922722973966,158982.93849762698,10.5,10500158982.938498,47.655,-122.3035,60.0,3.1333333333333333
2026-01-20T23:03:09+00:00,SAT-55786,176.4141085193749,40.98082545591715,839.1722373147945,-4.503414111773426,157728.61161711073,10.5,10500157728.611618,47.655,-122.3035,60.0,3.15
2026-01-20T23:03:10+00:00,SAT-55786,176.09391783022951,41.30418279484939,834.6808962347839,-4.4670147059649326,156453.75045636334,10.5,10500156453.750456,47.655,-122.3035,60.0,3.1666666666666665
2026-01-20T23:03:11+00:00,SAT-55786,175.76698084670062,41.62972086485622,830.2258569787973,-4.430021149927824,155158.07964135692,10.5,10500155158.079641,47.655,-122.3035,60.0,3.183333333333333
2026-01-20T23:03:12+00:00,SAT-55786,175.43310571181527,41.957412331255824,825.8077121042295,-4.392425678507462,153841.32720352942,10.5,10500153841.327204,47.655,-122.3035,60.0,3.2
2026-01-20T23:03:13+00:00,SAT-55786,175.09209429552692,42.28722676699358,821.4270619128115,-4.354220575185459,152503.22287776606,10.5,10500152503.222878,47.655,-122.3035,60.0,3.216666666666667
2026-01-20T23:03:14+00:00,SAT-55786,174.74374200506972,42.61913048820611,817.0845144021058,-4.3153981847279965,151143.4985453969,10.5,10500151143.498545,47.655,-122.3035,60.0,3.2333333333333334
2026-01-20T23:03:15+00:00,SAT-55786,174.38783759403,42.953086383180356,812.780685204386,-4.275950976112836,149761.89043816697,10.5,10500149761.890438,47.655,-122.3035,60.0,3.25
2026-01-20T23:03:16+00:00,SAT-55786,174.02416296649776,43.28905373850043,808.516197462759,-4.235871490358908,148358.13731100777,10.5,10500148358.137312,47.655,-122.3035,60.0,3.2666666666666666
2026-01-20T23:03:17+00:00,SAT-55786,173.65249298698046,43.62698805339085,804.2916817593152,-4.1951523664123584,146931.9813486761,10.5,10500146931.981348,47.655,-122.3035,60.0,3.283333333333333
2026-01-20T23:03:18+00:00,SAT-55786,173.27259529106968,43.96684084791059,800.1077760174664,-4.15378644548483,145483.17182012202,10.5,10500145483.17182,47.655,-122.3035,60.0,3.3
2026-01-20T23:03:19+00:00,SAT-55786,172.88423008924997,44.308559471458324,795.9651253002195,-4.1117666120046845,144011.45950792794,10.5,10500144011.459507,47.655,-122.3035,60.0,3.316666666666667
2026-01-20T23:03:20+00:00,SAT-55786,172.48714999192913,44.652086890091745,791.8643817670779,-4.069086003015117,142516.60404231626,10.5,10500142516.604042,47.655,-122.3035,60.0,3.3333333333333335
2026-01-20T23:03:21+00:00,SAT-55786,172.0810998197708,44.997361482508175,787.806204422103,-4.025737862625977,140998.36880343655,10.5,10500140998.368803,47.655,-122.3035,60.0,3.35
2026-01-20T23:03:22+00:00,SAT-55786,171.66581643791602,45.34431681555015,783.7912590071347,-3.981715667877452,139456.52532964404,10.5,10500139456.52533,47.655,-122.3035,60.0,3.3666666666666667
2026-01-20T23:03:23+00:00,SAT-55786,171.24102858715258,45.692881421648806,779.8202177694864,-3.937013088325023,137890.85190199394,10.5,10500137890.851902,47.655,-122.3035,60.0,3.3833333333333333
2026-01-20T23:03:24+00:00,SAT-55786,170.80645673252073,46.042978564327484,775.8937592699434,-3.8916240272657574,136301.13498816054,10.5,10500136301.134989,47.655,-122.3035,60.0,3.4
2026-01-20T23:03:25+00:00,SAT-55786,170.36181292255964,46.39452599869379,772.0125681496505,-3.8455426177081145,134687.16910128275,10.5,10500134687.169102,47.655,-122.3035,60.0,3.4166666666666665
2026-01-20T23:03:26+00:00,SAT-55786,169.90680066778,46.74743572305365,768.1773349010157,-3.7987632922042707,133048.75924578746,10.5,10500133048.759245,47.655,-122.3035,60.0,3.433333333333333
2026-01-20T23:03:27+00:00,SAT-55786,169.44111483174376,47.10161372851452,764.3887555689683,-3.7512807259612675,131385.7189249014,10.5,10500131385.718925,47.655,-122.3035,60.0,3.45
2026-01-20T23:03:28+00:00,SAT-55786,168.96444155501604,47.456959735226526,760.6475315089567,-3.703089917473632,129697.87296474661,10.5,10500129697.872965,47.655,-122.3035,60.0,3.466666666666667
2026-01-20T23:03:29+00:00,SAT-55786,168.47645819791796,47.81336692809724,756.9543690645254,-3.6541862076762794,127985.058185156,10.5,10500127985.058186,47.655,-122.3035,60.0,3.4833333333333334
2026-01-20T23:03:30+00:00,SAT-55786,167.97683331418625,48.170721686944425,753.3099792257942,-3.6045652429745725,126247.12210482963,10.5,10500126247.122105,47.655,-122.3035,60.0,3.5
2026-01-20T23:03:31+00:00,SAT-55786,167.4652266688117,48.528903305945875,749.7150773248061,-3.554223072788718,124483.92635775227,10.5,10500124483.926357,47.655,-122.3035,60.0,3.5166666666666666
2026-01-20T23:03:32+00:00,SAT-55786,166.94128928618227,48.88778371601706,746.1703826335928,-3.5031561075569013,122695.34522228528,10.5,10500122695.345222,47.655,-122.3035,60.0,3.533333333333333
2026-01-20T23:03:33+00:00,SAT-55786,166.40466355445056,49.247227197269645,742.676618004125,-3.451361188721469,120881.268072379,10.5,10500120881.268072,47.655,-122.3035,60.0,3.55
2026-01-20T23:03:34+00:00,SAT-55786,165.85498337659226,49.6070900934445,739.2345094384626,-3.3988355750852586,119041.59889971351,10.5,10500119041.5989,47.655,-122.3035,60.0,3.566666666666667
2026-01-20T23:03:35+00:00,SAT-55786,165.29187438710485,49.96722052095965,735.8447856725147,-3.3455769999925504,117176.25831641762,10.5,10500117176.258316,47.655,-122.3035,60.0,3.5833333333333335
2026-01-20T23:03:36+00:00,SAT-55786,164.71495423181153,50.327458081034955,732.5081777027697,-3.2915836349647987,115285.18228143813,10.5,10500115285.182281,47.655,-122.3035,60.0,3.6
2026-01-20T23:03:37+00:00,SAT-55786,164.12383293459757,50.687633566371524,729.2254183492915,-3.236854196047524,113368.3258252581,10.5,10500113368.325825,47.655,-122.3035,60.0,3.6166666666666667
2026-01-20T23:03:38+00:00,SAT-55786,163.51811333533266,51.04756867925757,725.9972417126577,-3.181387898990539,111425.66148011855,10.5,10500111425.66148,47.655,-122.3035,60.0,3.6333333333333333
2026-01-20T23:03:39+00:00,SAT-55786,162.89739163511717,51.40707574676363,722.824382675593,-3.1251845001779337,109457.18071355986,10.5,10500109457.180714,47.655,-122.3035,60.0,3.65
2026-01-20T23:03:40+00:00,SAT-55786,162.26125804571234,51.76595744419969,719.7075763637845,-3.068244336430837,107462.8953224827,10.5,10500107462.895323,47.655,-122.3035,60.0,3.6666666666666665
2026-01-20T23:03:41+00:00,SAT-55786,161.60929755212027,52.12400652931449,716.647557567002,-3.010568333985874,105442.83774761164,10.5,10500105442.837748,47.655,-122.3035,60.0,3.683333333333333
2026-01-20T23:03:42+00:00,SAT-55786,160.94109080763633,52.4810055864711,713.6450601512611,-2.9521580204506606,103397.06149222718,10.5,10500103397.061493,47.655,-122.3035,60.0,3.7
2026-01-20T23:03:43+00:00,SAT-55786,160.25621517322725,52.836726784017735,710.7008164590655,-2.8930155571422045,101325.6422547933,10.5,10500101325.642254,47.655,-122.3035,60.0,3.716666666666667
2026-01-20T23:03:44+00:00,SAT-55786,159.55424591015355,53.190931650622574,707.8155566773958,-2.833143773482079,99228.67913362193,10.5,10500099228.679134,47.655,-122.3035,60.0,3.7333333333333334
2026-01-20T23:03:45+00:00,SAT-55786,158.83475753726435,53.5433708747422,704.9900081713965,-2.772546154263609,97106.29418091597,10.5,10500097106.294182,47.655,-122.3035,60.0,3.75
2026-01-20T23:03:46+00:00,SAT-55786,158.0973253796888,53.89378412559947,702.2248948307613,-2.711226894574548,94958.63432639375,10.5,10500094958.634327,47.655,-122.3035,60.0,3.7666666666666666
2026-01-20T23:03:47+00:00,SAT-55786,157.34152730463376,54.24189990856151,699.5209363613419,-2.649190892766747,92785.8711310571,10.5,10500092785.871132,47.655,-122.3035,60.0,3.783333333333333
2026-01-20T23:03:48+00:00,SAT-55786,156.56694567437216,54.58743545233546,696.8788475837703,-2.5864437800051943,90588.2018221237,10.5,10500090588.201822,47.655,-122.3035,60.0,3.8
2026-01-20T23:03:49+00:00,SAT-55786,155.77316951974197,54.93009663799719,694.29933770261,-2.522991934530949,88365.84979257539,10.5,10500088365.849792,47.655,-122.3035,60.0,3.816666666666667
2026-01-20T23:03:50+00:00,SAT-55786,154.95979695042286,55.26957797393034,691.7831095612827,-2.458842499052042,86119.06521026103,10.5,10500086119.06521,47.655,-122.3035,60.0,3.8333333333333335
2026-01-20T23:03:51+00:00,SAT-55786,154.12643781194313,55.605562623481624,689.3308588796503,-2.3940033837086827,83848.12512175062,10.5,10500083848.125122,47.655,-122.3035,60.0,3.85
2026-01-20T23:03:52+00:00,SAT-55786,153.2727166046649,55.93772249021797,686.9432734886408,-2.328483309588687,81553.33497642964,10.5,10500081553.334976,47.655,-122.3035,60.0,3.8666666666666667
2026-01-20T23:03:53+00:00,SAT-55786,152.3982756550235,56.26571837364328,684.6210325214747,-2.262291773675309,79235.02739882383,10.5,10500079235.0274,47.655,-122.3035,60.0,3.8833333333333333
2026-01-20T23:03:54+00:00,SAT-55786,151.50277857400252,56.58920019215883,682.3648056398482,-2.1954390972550417,76893.5638840452,10.5,10500076893.563885,47.655,-122.3035,60.0,3.9
2026-01-20T23:03:55+00:00,SAT-55786,150.58591397030966,56.90780729272396,680.1752522118425,-2.127936420063692,74529.33459276272,10.5,10500074529.334593,47.655,-122.3035,60.0,3.9166666666666665
2026-01-20T23:03:56+00:00,SAT-55786,149.64739943507624,57.221168847909524,678.0530204956656,-2.0597957107732388,72142.75871849652,10.5,10500072142.758718,47.655,-122.3035,60.0,3.933333333333333
2026-01-20T23:03:57+00:00,SAT-55786,148.6869857810826,57.5289043508598,675.9987468129412,-1.991029745234565,69734.28372558637,10.5,10500069734.283726,47.655,-122.3035,60.0,3.95
2026-01-20T23:03:58+00:00,SAT-55786,147.70446153802436,57.830624211566445,674.0130547436916,-1.9216521580172954,67304.38715433462,10.5,10500067304.387154,47.655,-122.3035,60.0,3.966666666666667
2026-01-20T23:03:59+00:00,SAT-55786,146.6996576427114,58.12593047344427,672.0965542699217,-1.8516773900366033,64853.57478667571,10.5,10500064853.574787,47.655,-122.3035,60.0,3.9833333333333334
2026-01-20T23:04:00+00:00,SAT-55786,145.6724523465577,58.41441764230127,670.2498409714365,-1.7811207355029366,62382.38229055394,10.5,10500062382.38229,47.655,-122.3035,60.0,4.0
2026-01-20T23:04:01+00:00,SAT-55786,144.62277624646234,58.695673649752095,668.4734951748308,-1.7099982851973214,59891.373233184786,10.5,10500059891.373234,47.655,-122.3035,60.0,4.016666666666667
2026-01-20T23:04:02+00:00,SAT-55786,143.55061745017088,58.96928094126229,666.7680811590561,-1.638326955559193,57381.140099833756,10.5,10500057381.1401,47.655,-122.3035,60.0,4.033333333333333
2026-01-20T23:04:03+00:00,SAT-55786,142.4560267651223,59.234817707035305,665.134146331976,-1.566124482184614,54852.30406609645,10.5,10500054852.304066,47.655,-122.3035,60.0,4.05
2026-01-20T23:04:04+00:00,SAT-55786,141.33912285910532,59.49185925390918,663.5722204134026,-1.4934093761915412,52305.51346962566,10.5,10500052305.51347,47.655,-122.3035,60.0,4.066666666666666
2026-01-20T23:04:05+00:00,SAT-55786,140.20009734055756,59.73997951378237,662.0828146616585,-1.4202009433609073,49741.44448053302,10.5,10500049741.44448,47.655,-122.3035,60.0,4.083333333333333
2026-01-20T23:04:06+00:00,SAT-55786,139.039219622159,59.978752698306195,660.666421081039,-1.3465192345240786,47160.79936374792,10.5,10500047160.799364,47.655,-122.3035,60.0,4.1
2026-01-20T23:04:07+00:00,SAT-55786,137.85684152003495,60.20775508560103,659.3235116787628,-1.2723850613020415,44564.30703027037,10.5,10500044564.30703,47.655,-122.3035,60.0,4.116666666666666
2026-01-20T23:04:08+00:00,SAT-55786,136.6534014248555,60.42656694414043,658.0545377062209,-1.1978199461955528,41952.72128911697,10.5,10500041952.721289,47.655,-122.3035,60.0,4.133333333333334
2026-01-20T23:04:09+00:00,SAT-55786,135.42942798648377,60.63477457394919,656.8599289500022,-1.1228461068885174,39326.820297558756,10.5,10500039326.820297,47.655,-122.3035,60.0,4.15
2026-01-20T23:04:10+00:00,SAT-55786,134.18554316501368,60.83197245868153,655.7400930385733,-1.0474864311742036,36687.405682931276,10.5,10500036687.405684,47.655,-122.3035,60.0,4.166666666666667
2026-01-20T23:04:11+00:00,SAT-55786,132.9224645335001,61.017765511346624,654.6954147739682,-0.9717644468995089,34035.30148995557,10.5,10500034035.30149,47.655,-122.3035,60.0,4.183333333333334
2026-01-20T23:04:12+00:00,SAT-55786,131.6410067206354,61.191771393648736,653.7262554934472,-0.8957042859993888,31371.352921071757,10.5,10500031371.35292,47.655,-122.3035,60.0,4.2
2026-01-20T23:04:13+00:00,SAT-55786,130.3420818886558,61.353622885150685,652.8329524670313,-0.8193306509004807,28696.42515975184,10.5,10500028696.42516,47.655,-122.3035,60.0,4.216666666666667
2026-01-20T23:04:14+00:00,SAT-55786,129.02669914593918,61.50297027658105,652.0158183285384,-0.7426687828846785,26011.40226245827,10.5,10500026011.402262,47.655,-122.3035,60.0,4.233333333333333
2026-01-20T23:04:15+00:00,SAT-55786,127.69596279963703,61.639483758591915,651.2751405381721,-0.6657444174327509,23317.185594588518,10.5,10500023317.185595,47.655,-122.3035,60.0,4.25
2026-01-20T23:04:16+00:00,SAT-55786,126.35106940719375,61.76285577190994,650.6111808896499,-0.5885837459437019,20614.69248972524,10.5,10500020614.69249,47.655,-122.3035,60.0,4.266666666666667
2026-01-20T23:04:17+00:00,SAT-55786,124.99330357035102,61.87280328640106,650.0241750555047,-0.5112133746878956,17904.854812000987,10.5,10500017904.854813,47.655,-122.3035,60.0,4.283333333333333
2026-01-20T23:04:18+00:00,SAT-55786,123.62403246547022,61.96906997367621,649.5143321733267,-0.4336602754651411,15188.617227935672,10.5,10500015188.617228,47.655,-122.3035,60.0,4.3
2026-01-20T23:04:19+00:00,SAT-55786,122.24469914236857,62.05142823648197,649.0818344812152,-0.35595174948716496,12466.935941447973,10.5,10500012466.935942,47.655,-122.3035,60.0,4.316666666666666
2026-01-20T23:04:20+00:00,SAT-55786,120.85681460091358,62.119681062748235,648.7268369892469,-0.278115369035888,9740.776650481395,10.5,10500009740.776651,47.655,-122.3035,60.0,4.333333333333333
2026-01-20T23:04:21+00:00,SAT-55786,119.46194880100548,62.17366366709591,648.4494672091354,-0.2001789380652129,7011.113167112214,10.5,10500007011.113167,47.655,-122.3035,60.0,4.35
2026-01-20T23:04:22+00:00,SAT-55786,118.06172064577817,62.21324489309025,648.2498249231786,-0.12217043848816542,4278.92553629797,10.5,10500004278.925537,47.655,-122.3035,60.0,4.366666666666666
2026-01-20T23:04:23+00:00,SAT-55786,116.65778714776259,62.238328346798525,648.1279820067765,-0.0441179822806122,1545.1983583470542,10.5,10500001545.198359,47.655,-122.3035,60.0,4.383333333333334
2026-01-20T23:04:24+00:00,SAT-55786,115.25183190447484,62.24885324069438,648.083982298718,0.03395023908495447,-1189.0809821240464,10.5,10499998810.919018,47.655,-122.3035,60.0,4.4
2026-01-20T23:04:25+00:00,SAT-55786,113.84555312669411,62.24479493056705,648.1178415218969,0.11200600622918672,-3922.924123082711,10.5,10499996077.075876,47.655,-122.3035,60.0,4.416666666666667
2026-01-20T23:04:26+00:00,SAT-55786,112.44065136974203,62.22616513452423,648.2295472554803,0.19002112271314167,-6655.3435059663425,10.5,10499993344.656494,47.655,-122.3035,60.0,4.433333333333334
2026-01-20T23:04:27+00:00,SAT-55786,111.03881725206863,62.19301182967392,648.4190589577864,0.26796746314331543,-9385.35406052414,10.5,10499990614.645939,47.655,-122.3035,60.0,4.45
2026-01-20T23:04:28+00:00,SAT-55786,109.64171934575222,62.1454188291016,648.6863080371407,0.3458170267387693,-12111.975080964437,10.5,10499987888.02492,47.655,-122.3035,60.0,4.466666666666667
2026-01-20T23:04:29+00:00,SAT-55786,108.25099245156032,62.08350504664199,649.0311979761534,0.42354198693960426,-14834.231963453345,10.5,10499985165.768036,47.655,-122.3035,60.0,4.483333333333333
2026-01-20T23:04:30+00:00,SAT-55786,106.86822647552536,62.00742346479348,649.4536045054748,0.5011147391333717,-17551.157877695518,10.5,10499982448.842123,47.655,-122.3035,60.0,4.5
2026-01-20T23:04:31+00:00,SAT-55786,105.49495608853464,61.917359826351955,649.9533758251463,0.5785079478890184,-20261.795421266714,10.5,10499979738.204578,47.655,-122.3035,60.0,4.516666666666667
2026-01-20T23:04:32+00:00,SAT-55786,104.13265132329114,61.81353107496579,650.5303328730612,0.655694596512126,-22965.198355247892,10.5,10499977034.801645,47.655,-122.3035,60.0,4.533333333333333
2026-01-20T23:04:33+00:00,SAT-55786,102.7827092339701,61.6961835733008,651.184269642846,0.7326480348638169,-25660.43327904559,10.5,10499974339.566721,47.655,-122.3035,60.0,4.55
2026-01-20T23:04:34+00:00,SAT-55786,101.4464467153472,61.56559113129768,651.9149535494338,0.8093420192548622,-28346.58102765231,10.5,10499971653.418972,47.655,-122.3035,60.0,4.566666666666666
2026-01-20T23:04:35+00:00,SAT-55786,100.12509456012515,61.42205288009217,652.7221258344241,0.8857507549357773,-31022.73815982943,10.5,10499968977.26184,47.655,-122.3035,60.0,4.583333333333333
2026-01-20T23:04:36+00:00,SAT-55786,98.81979277319881,61.26589102626679,653.6055020138193,0.9618489333061323,-33688.01826133461,10.5,10499966311.981739,47.655,-122.3035,60.0,4.6
2026-01-20T23:04:37+00:00,SAT-55786,97.53158714835301,61.097448522480356,654.5647723628707,1.0376117954485018,-36341.5541701495,10.5,10499963658.44583,47.655,-122.3035,60.0,4.616666666666666
2026-01-20T23:04:38+00:00,SAT-55786,96.26142704736438,60.91708668409756,655.5996024642859,1.1130151323508128,-38982.497984267284,10.5,10499961017.502016,47.655,-122.3035,60.0,4.633333333333334
2026-01-20T23:04:39+00:00,SAT-55786,95.01016440122027,60.72518279545235,656.7096337566628,1.1880353385757474,-41610.02294142219,10.5,10499958389.977058,47.655,-122.3035,60.0,4.65
2026-01-20T23:04:40+00:00,SAT-55786,93.77855378424047,60.52212772644355,657.8944841364446,1.2626494494602722,-44223.32472197436,10.5,10499955776.675278,47.655,-122.3035,60.0,4.666666666666667
2026-01-20T23:04:41+00:00,SAT-55786,92.56725349530373,60.30832358966766,659.1537485969765,1.336835167612946,-46821.62237695763,10.5,10499953178.377623,47.655,-122.3035,60.0,4.683333333333334
2026-01-20T23:04:42+00:00,SAT-55786,91.37682754538643,60.08418146397665,660.4869998939888,1.4105708813526396,-49404.15897388158,10.5,10499950595.841026,47.655,-122.3035,60.0,4.7
2026-01-20T23:04:43+00:00,SAT-55786,90.20774844247742,59.85011920628253,661.8937892294668,1.4838356900285548,-51970.20248354555,10.5,10499948029.797516,47.655,-122.3035,60.0,4.716666666666667
2026-01-20T23:04:44+00:00,SAT-55786,89.06040064611423,59.606559367373954,663.3736469607798,1.5566094553157348,-54519.04757662454,10.5,10499945480.952423,47.655,-122.3035,60.0,4.733333333333333
2026-01-20T23:04:45+00:00,SAT-55786,87.93508455739156,59.35392722099129,664.9260833609579,1.6288727720591294,-57050.014602504976,10.5,10499942949.985397,47.655,-122.3035,60.0,4.75
2026-01-20T23:04:46+00:00,SAT-55786,86.8320209826639,59.09264892946267,666.5505893498996,1.7006070396783481,-59562.45209018119,10.5,10499940437.54791,47.655,-122.3035,60.0,4.766666666666667
2026-01-20T23:04:47+00:00,SAT-55786,85.75135589259722,58.82314983625124,668.2466372967884,1.7717944187932613,-62055.73522910054,10.5,10499937944.26477,47.655,-122.3035,60.0,4.783333333333333
2026-01-20T23:04:48+00:00,SAT-55786,84.69316544528427,58.54585290799434,670.0136817792525,1.842417910560282,-64529.26864785558,10.5,10499935470.731352,47.655,-122.3035,60.0,4.8
2026-01-20T23:04:49+00:00,SAT-55786,83.65746110710438,58.26117730771297,671.8511604216482,1.9124613013325713,-66982.48447595036,10.5,10499933017.515524,47.655,-122.3035,60.0,4.816666666666666
2026-01-20T23:04:50+00:00,SAT-55786,82.64419486234917,57.96953711963731,673.7584946781516,1.9819092150594004,-69414.84417904771,10.5,10499930585.15582,47.655,-122.3035,60.0,4.833333333333333
2026-01-20T23:04:51+00:00,SAT-55786,81.6532643789922,57.671340205756785,675.7350906681088,2.0507470976835505,-71825.83801250023,10.5,10499928174.161987,47.655,-122.3035,60.0,4.85
2026-01-20T23:04:52+00:00,SAT-55786,80.68451810297228,57.366987200304074,677.7803399958266,2.118961230745085,-74214.98549781193,10.5,10499925785.014502,47.655,-122.3035,60.0,4.866666666666666
2026-01-20T23:04:53+00:00,SAT-55786,79.7377602133793,57.056870631891464,679.8936205839284,2.1865387236607288,-76581.83515222938,10.5,10499923418.164848,47.655,-122.3035,60.0,4.883333333333334
2026-01-20T23:04:54+00:00,SAT-55786,78.81275540538189,56.74137416979743,682.0742974990135,2.2534675100045916,-78925.964358477,10.5,10499921074.03564,47.655,-122.3035,60.0,4.9
2026-01-20T23:04:55+00:00,SAT-55786,77.9092334631766,56.42087198627626,684.3217237736023,2.319736352552371,-81246.97954142628,10.5,10499918753.020458,47.655,-122.3035,60.0,4.916666666666667
2026-01-20T23:04:56+00:00,SAT-55786,77.02689359515533,56.09572822573474,686.6352412331171,2.385334839693072,-83544.5160424191,10.5,10499916455.483957,47.655,-122.3035,60.0,4.933333333333334
2026-01-20T23:04:57+00:00,SAT-55786,76.16540851623466,55.766296573910076,689.0141813192813,2.450253355018021,-85818.23705414638,10.5,10499914181.762945,47.655,-122.3035,60.0,4.95
2026-01-20T23:04:58+00:00,SAT-55786,75.32442827457312,55.43291992244139,691.4578658831895,2.514483109896487,-88067.834761584,10.5,10499911932.16524,47.655,-122.3035,60.0,4.966666666666667
2026-01-20T23:04:59+00:00,SAT-55786,74.50358379505919,55.09593011191751,693.9656080108666,2.5780160789614976,-90293.02808243336,10.5,10499909706.971918,47.655,-122.3035,60.0,4.983333333333333
2026-01-20T23:05:00+00:00,SAT-55786,73.70249017054896,54.755647758708704,696.5367127844868,2.6408450302515933,-92493.56372281296,10.5,10499907506.436277,47.655,-122.3035,60.0,5.0
2026-01-20T23:05:01+00:00,SAT-55786,72.92074967241601,54.412382144846106,699.1704780736487,2.702963499132421,-94669.21526388239,10.5,10499905330.784737,47.655,-122.3035,60.0,5.016666666666667
2026-01-20T23:05:02+00:00,SAT-55786,72.15795450520956,54.06643117129867,701.8661953006489,2.764365765412864,-96819.78236035234,10.5,10499903180.21764,47.655,-122.3035,60.0,5.033333333333333
2026-01-20T23:05:03+00:00,SAT-55786,71.41368931173595,53.71808136706222,704.6231501829272,2.8250468343109447,-98945.09007383007,10.5,10499901054.909925,47.655,-122.3035,60.0,5.05
2026-01-20T23:05:04+00:00,SAT-55786,70.68753343785305,53.36760794690853,707.4406234565319,2.8850024425649123,-101044.98908685548,10.5,10499898955.010914,47.655,-122.3035,60.0,5.066666666666666
2026-01-20T23:05:05+00:00,SAT-55786,69.97906296264291,53.01527490858181,710.3178916056786,2.9442290064793335,-103119.35388325546,10.5,10499896880.646116,47.655,-122.3035,60.0,5.083333333333333
2026-01-20T23:05:06+00:00,SAT-55786,69.28785252166949,52.66133517102408,713.2542275404949,3.0027236230567707,-105168.0827877801,10.5,10499894831.917212,47.655,-122.3035,60.0,5.1
2026-01-20T23:05:07+00:00,SAT-55786,68.61347692281714,52.30603074174235,716.2489012758944,3.0604840653835272,-107191.09780449192,10.5,10499892808.902195,47.655,-122.3035,60.0,5.116666666666666
2026-01-20T23:05:08+00:00,SAT-55786,67.95551257185109,51.94959290948601,719.3011806058453,3.1175087095567933,-109188.34205744538,10.5,10499890811.657942,47.655,-122.3035,60.0,5.133333333333334
2026-01-20T23:05:09+00:00,SAT-55786,67.31353873427285,51.5922424659014,722.4103317047679,3.173796564924993,-111159.78084983186,10.5,10499888840.21915,47.655,-122.3035,60.0,5.15
2026-01-20T23:05:10+00:00,SAT-55786,66.68713862638066,51.23418994000448,725.5756197590863,3.2293472358749926,-113105.40032560601,10.5,10499886894.599674,47.655,-122.3035,60.0,5.166666666666667
2026-01-20T23:05:11+00:00,SAT-55786,66.07590036269656,50.875635850167455,728.7963095606718,3.2841608892422562,-115025.20632805143,10.5,10499884974.793673,47.655,-122.3035,60.0,5.183333333333334
2026-01-20T23:05:12+00:00,SAT-55786,65.4794177711835,50.516770969633114,732.0716660677841,3.3382382477850467,-116919.22417121979,10.5,10499883080.77583,47.655,-122.3035,60.0,5.2
2026-01-20T23:05:13+00:00,SAT-55786,64.89729108325754,50.157776599851886,735.4009549595038,3.391580539893034,-118787.4968785134,10.5,10499881212.503122,47.655,-122.3035,60.0,5.216666666666667
2026-01-20T23:05:14+00:00,SAT-55786,64.32912751812604,49.798824853935734,738.7834431400074,3.444189512524025,-120630.08563578429,10.5,10499879369.914364,47.655,-122.3035,60.0,5.233333333333333
2026-01-20T23:05:15+00:00,SAT-55786,63.77454176094148,49.44007894117726,742.2183992557464,3.496067415513064,-122447.0692417725,10.5,10499877552.930758,47.655,-122.3035,60.0,5.25
2026-01-20T23:05:16+00:00,SAT-55786,63.23315635151469,49.081693454033584,745.7050941969756,3.5472169009140404,-124238.5405826234,10.5,10499875761.459417,47.655,-122.3035,60.0,5.266666666666667
2026-01-20T23:05:17+00:00,SAT-55786,62.70460200370565,48.723814664474226,749.2428014988943,3.5976411079844546,-126004.60960841374,10.5,10499873995.390392,47.655,-122.3035,60.0,5.283333333333333
2026-01-20T23:05:18+00:00,SAT-55786,62.18851783775299,48.36658080906376,752.8307978275429,3.6473435445845825,-127745.39917924859,10.5,10499872254.60082,47.655,-122.3035,60.0,5.3
2026-01-20T23:05:19+00:00,SAT-55786,61.68455156256567,48.01012238246564,756.4683633474176,3.696328148029047,-129461.04719654085,10.5,10499870538.952803,47.655,-122.3035,60.0,5.316666666666666
2026-01-20T23:05:20+00:00,SAT-55786,61.1923595908796,47.6545624201058,760.1547821497751,3.7445992177352427,-131151.70424407424,10.5,10499868848.295755,47.655,-122.3035,60.0,5.333333333333333
2026-01-20T23:05:21+00:00,SAT-55786,60.71160711081742,47.300016782017096,763.8893426137622,3.7921613662970186,-132817.53187439658,10.5,10499867182.468126,47.655,-122.3035,60.0,5.35
2026-01-20T23:05:22+00:00,SAT-55786,60.24196811754288,46.94659443491409,767.6713377187546,3.8390195640522538,-134458.70416976488,10.5,10499865541.29583,47.655,-122.3035,60.0,5.366666666666666
2026-01-20T23:05:23+00:00,SAT-55786,59.78312539854996,46.59439772305861,771.5000654011402,3.8851791131646602,-136075.4068343805,10.5,10499863924.593166,47.655,-122.3035,60.0,5.383333333333334
2026-01-20T23:05:24+00:00,SAT-55786,59.33477048793045,46.24352263439428,775.3748288852571,3.9306455306211734,-137667.83309646277,10.5,10499862332.166904,47.655,-122.3035,60.0,5.4
2026-01-20T23:05:25+00:00,SAT-55786,58.896603602270716,45.89405906949631,779.2949368976397,3.9754246576573915,-139236.18754079068,10.5,10499860763.81246,47.655,-122.3035,60.0,5.416666666666667
2026-01-20T23:05:26+00:00,SAT-55786,58.46833353835784,45.5460910923919,783.2597039903985,4.019522570334269,-140780.68297672062,10.5,10499859219.317024,47.655,-122.3035,60.0,5.433333333333334
2026-01-20T23:05:27+00:00,SAT-55786,58.04967755807818,45.19969718126745,787.2684507754158,4.062945574212864,-142301.54025167332,10.5,10499857698.45975,47.655,-122.3035,60.0,5.45
2026-01-20T23:05:28+00:00,SAT-55786,57.6403612544227,44.85495047112072,791.3205041532307,4.105700161172942,-143798.98673873875,10.5,10499856201.013262,47.655,-122.3035,60.0,5.466666666666667
2026-01-20T23:05:29+00:00,SAT-55786,57.24011840522872,44.51191899150274,795.4151974988581,4.147793060345224,-145273.25812053902,10.5,10499854726.741879,47.655,-122.3035,60.0,5.483333333333333
2026-01-20T23:05:30+00:00,SAT-55786,56.848690808877585,44.17066589138528,799.551870898404,4.189231145894292,-146724.59515939545,10.5,10499853275.40484,47.655,-122.3035,60.0,5.5
2026-01-20T23:05:31+00:00,SAT-55786,56.46582811721093,43.83124966324756,803.7298712937101,4.230021490238458,-148153.24556131364,10.5,10499851846.754438,47.655,-122.3035,60.0,5.516666666666667
2026-01-20T23:05:32+00:00,SAT-55786,56.091287654909905,43.49372435422274,807.9485526800761,4.270171226747341,-149559.4591670718,10.5,10499850440.540833,47.655,-122.3035,60.0,5.533333333333333
2026-01-20T23:05:33+00:00,SAT-55786,55.72483424301625,43.15813977982797,812.2072761670478,4.309687741404883,-150943.49466507015,10.5,10499849056.505335,47.655,-122.3035,60.0,5.55
2026-01-20T23:05:34+00:00,SAT-55786,55.366240001436005,42.824541714062875,816.5054102303553,4.348578440230569,-152305.6114454386,10.5,10499847694.388554,47.655,-122.3035,60.0,5.566666666666666
2026-01-20T23:05:35+00:00,SAT-55786,55.01528416620074,42.49297208980598,820.8423307318911,4.386850869987731,-153646.07382775174,10.5,10499846353.926172,47.655,-122.3035,60.0,5.583333333333333
2026-01-20T23:05:36+00:00,SAT-55786,54.67175289441537,42.16346918152099,825.2174210600818,4.424512669853361,-154965.14936830165,10.5,10499845034.850632,47.655,-122.3035,60.0,5.6
2026-01-20T23:05:37+00:00,SAT-55786,54.33543907117023,41.83606778392553,829.6300722220502,4.461571549433806,-156263.10809011402,10.5,10499843736.89191,47.655,-122.3035,60.0,5.616666666666666
2026-01-20T23:05:38+00:00,SAT-55786,54.00614211769364,41.51079938459642,834.0796829138569,4.498035271410201,-157540.22187511838,10.5,10499842459.778126,47.655,-122.3035,60.0,5.633333333333334
2026-01-20T23:05:39+00:00,SAT-55786,53.683667800647484,41.18769233028854,838.565659573433,4.533911679655723,-158796.76544893297,10.5,10499841203.23455,47.655,-122.3035,60.0,5.65
2026-01-20T23:05:40+00:00,SAT-55786,53.367828040588044,40.86677198391795,843.0874164615554,4.569208632701881,-160033.01405057276,10.5,10499839966.985949,47.655,-122.3035,60.0,5.666666666666667
2026-01-20T23:05:41+00:00,SAT-55786,53.05844072623086,40.54806087924743,847.6443756764638,4.603934034571697,-161249.244512358,10.5,10499838750.755487,47.655,-122.3035,60.0,5.683333333333334
2026-01-20T23:05:42+00:00,SAT-55786,52.755329529024685,40.23157886642852,852.2359671992316,4.638095818729238,-162445.7346977588,10.5,10499837554.265303,47.655,-122.3035,60.0,5.7
2026-01-20T23:05:43+00:00,SAT-55786,52.45832372097155,39.9173432520422,856.861628923128,4.671701921651805,-163622.76257578155,10.5,10499836377.237425,47.655,-122.3035,60.0,5.716666666666667
2026-01-20T23:05:44+00:00,SAT-55786,52.16725799731809,39.60536893449361,861.5208066566228,4.704760295370766,-164780.60666020174,10.5,10499835219.39334,47.655,-122.3035,60.0,5.733333333333333
2026-01-20T23:05:45+00:00,SAT-55786,51.88197230132247,39.295668532293305,866.2129541388985,4.737278853158235,-165919.54410728192,10.5,10499834080.455893,47.655,-122.3035,60.0,5.75
2026-01-20T23:05:46+00:00,SAT-55786,51.602311655888926,38.98825250988717,870.9375330011961,4.76926556970481,-167039.85422441983,10.5,10499832960.145775,47.655,-122.3035,60.0,5.766666666666667
2026-01-20T23:05:47+00:00,SAT-55786,51.32812599304554,38.68312929112358,875.6940128280668,4.800728311222473,-168141.81251963307,10.5,10499831858.18748,47.655,-122.3035,60.0,5.783333333333333
2026-01-20T23:05:48+00:00,SAT-55786,51.05926999666141,38.380305378166824,880.4818710491875,4.8316749931164615,-169225.69622389515,10.5,10499830774.303776,47.655,-122.3035,60.0,5.8
2026-01-20T23:05:49+00:00,SAT-55786,50.795602940620796,38.079785454802526,885.3005929884184,4.862113461956443,-170291.78015726682,10.5,10499829708.219843,47.655,-122.3035,60.0,5.816666666666666
2026-01-20T23:05:50+00:00,SAT-55786,50.536988537260896,37.78157249214228,890.1496717951552,4.892051543028348,-171340.3383943623,10.5,10499828659.661606,47.655,-122.3035,60.0,5.833333333333333
2026-01-20T23:05:51+00:00,SAT-55786,50.283294787352546,37.48566784629787,895.0286084230997,4.921496985339658,-172371.64233820187,10.5,10499827628.357662,47.655,-122.3035,60.0,5.85
2026-01-20T23:05:52+00:00,SAT-55786,50.034393837002504,37.192071354604934,899.9369115541882,4.950457543696004,-173385.9635948815,10.5,10499826614.036406,47.655,-122.3035,60.0,5.866666666666666
2026-01-20T23:05:53+00:00,SAT-55786,49.79016183458963,36.90078142229488,904.8740976043725,4.978940869541918,-174383.5701503543,10.5,10499825616.42985,47.655,-122.3035,60.0,5.883333333333334
2026-01-20T23:05:54+00:00,SAT-55786,49.55047879715917,36.61179511130841,909.8396906205372,5.006954594760553,-175364.72930545107,10.5,10499824635.270695,47.655,-122.3035,60.0,5.9
2026-01-20T23:05:55+00:00,SAT-55786,49.31522847688421,36.325108219874295,914.8332222609888,5.034506251045504,-176329.70485194057,10.5,10499823670.295149,47.655,-122.3035,60.0,5.916666666666667
2026-01-20T23:05:56+00:00,SAT-55786,49.08429823525757,36.04071536273804,919.8542316955372,5.061603360896927,-177278.76025959844,10.5,10499822721.23974,47.655,-122.3035,60.0,5.933333333333334
2026-01-20T23:05:57+00:00,SAT-55786,48.85757891733189,35.758610042288794,924.9022655963246,5.0882532999516625,-178212.1538544257,10.5,10499821787.846146,47.655,-122.3035,60.0,5.95
2026-01-20T23:05:58+00:00,SAT-55786,48.634964735736496,35.47878472374589,929.976877991358,5.11446345365697,-179130.14430602582,10.5,10499820869.855694,47.655,-122.3035,60.0,5.966666666666667
2026-01-20T23:05:59+00:00,SAT-55786,48.416353151915146,35.2012308979931,935.0776302742918,5.1402410591986785,-180032.98509125976,10.5,10499819967.014908,47.655,-122.3035,60.0,5.983333333333333
2026-01-20T23:06:00+00:00,SAT-55786,48.20164476784225,34.92593914977837,940.2040910565639,5.165593337113468,-180920.92910386497,10.5,10499819079.070896,47.655,-122.3035,60.0,6.0
2026-01-20T23:06:01+00:00,SAT-55786,47.99074321598538,34.652899215434516,945.3558361507925,5.190527393231037,-181794.22522005503,10.5,10499818205.77478,47.655,-122.3035,60.0,6.016666666666667
2026-01-20T23:06:02+00:00,SAT-55786,47.78355505688255,34.382100042830594,950.532448456375,5.215050264130169,-182653.11989058368,10.5,10499817346.88011,47.655,-122.3035,60.0,6.033333333333333
2026-01-20T23:06:03+00:00,SAT-55786,47.579989678377565,34.11352984587917,955.733517890424,5.239168890028892,-183497.85619124337,10.5,10499816502.143808,47.655,-122.3035,60.0,6.05
2026-01-20T23:06:04+00:00,SAT-55786,47.379959199458284,33.84717615763109,960.9586412916639,5.262890133048753,-184328.6744625574,10.5,10499815671.325537,47.655,-122.3035,60.0,6.066666666666666
2026-01-20T23:06:05+00:00,SAT-55786,47.18337837652839,33.58302587970351,966.2074223425445,5.286220779164735,-185145.81237807428,10.5,10499814854.187622,47.655,-122.3035,60.0,6.083333333333333
2026-01-20T23:06:06+00:00,SAT-55786,46.99016451323221,33.32106532905781,971.4794714932989,5.309167515608524,-185949.5041529347,10.5,10499814050.495848,47.655,-122.3035,60.0,6.1
2026-01-20T23:06:07+00:00,SAT-55786,46.80023737389436,33.0612802834537,976.7744058634631,5.331736932509949,-186739.98060136143,10.5,10499813260.019398,47.655,-122.3035,60.0,6.116666666666666
2026-01-20T23:06:08+00:00,SAT-55786,46.61351910022227,32.80365602443368,982.0918491450368,5.3539355422850425,-187517.46981571146,10.5,10499812482.530184,47.655,-122.3035,60.0,6.133333333333334
2026-01-20T23:06:09+00:00,SAT-55786,46.42993413009902,32.54817737712495,987.4314315249761,5.375769762702544,-188282.19657339316,10.5,10499811717.803427,47.655,-122.3035,60.0,6.15
2026-01-20T23:06:10+00:00,SAT-55786,46.24940912002189,32.29482874874424,992.7927895908008,5.397245910524296,-189034.38211412614,10.5,10499810965.617886,47.655,-122.3035,60.0,6.166666666666667
2026-01-20T23:06:11+00:00,SAT-55786,46.07187287039653,32.04359416535153,998.175566229859,5.41837024795043,-189774.24576664806,10.5,10499810225.754232,47.655,-122.3035,60.0,6.183333333333334
2026-01-20T23:06:12+00:00,SAT-55786,45.897256252191184,31.79445730451507,1003.5794105749098,5.4391488887727695,-190502.00166180992,10.5,10499809497.998339,47.655,-122.3035,60.0,6.2
2026-01-20T23:06:13+00:00,SAT-55786,45.72549213893243,31.547401530499304,1009.0039778561145,5.459587896869097,-191217.86218226183,10.5,10499808782.137817,47.655,-122.3035,60.0,6.216666666666667
2026-01-20T23:06:14+00:00,SAT-55786,45.55651533839166,31.302409923114933,1014.4489293512548,5.479693205548551,-191922.0351375877,10.5,10499808077.964863,47.655,-122.3035,60.0,6.233333333333333
2026-01-20T23:06:15+00:00,SAT-55786,45.39026252892645,31.059465308602434,1019.9139322555169,5.4994707223317985,-192614.72743415006,10.5,10499807385.272566,47.655,-122.3035,60.0,6.25
2026-01-20T23:06:16+00:00,SAT-55786,45.22667219537098,30.81855028424169,1025.3986596557693,5.518926186865752,-193296.1400986625,10.5,10499806703.859901,47.655,-122.3035,60.0,6.266666666666667
2026-01-20T23:06:17+00:00,SAT-55786,45.06568457103526,30.579647247779455,1030.90279036314,5.538065284413105,-193966.47225307318,10.5,10499806033.527746,47.655,-122.3035,60.0,6.283333333333333
2026-01-20T23:06:18+00:00,SAT-55786,44.90724157876175,30.342738420362387,1036.4260088587782,5.556893618305432,-194625.92014975587,10.5,10499805374.079851,47.655,-122.3035,60.0,6.3
2026-01-20T23:06:19+00:00,SAT-55786,44.75128677491563,30.10780586938315,1041.9680052121444,5.575416667705411,-195274.6756921644,10.5,10499804725.324308,47.655,-122.3035,60.0,6.316666666666666
