DopplerPredictor/satellites_20260205_234138/SAT-47400.csv

timestamp,satellite,azimuth_deg,elevation_deg,distance_km,relative_velocity_kms,doppler_shift_hz,tx_freq_ghz,rx_freq_hz,ue_lat,ue_lon,ue_alt_m,time_minutes
2026-01-20T23:01:01+00:00,SAT-47400,319.06397660260194,30.204806984558438,994.8802650453352,-4.748528617684159,166313.55844743658,10.5,10500166313.558447,47.655,-122.3035,60.0,1.0166666666666666
2026-01-20T23:01:02+00:00,SAT-47400,319.34439932822573,30.413662270441947,990.1444665775781,-4.722409055386646,165398.7408901387,10.5,10500165398.74089,47.655,-122.3035,60.0,1.0333333333333334
2026-01-20T23:01:03+00:00,SAT-47400,319.6286803205244,30.62357279559439,985.4347176491766,-4.69590777600662,164470.55398594955,10.5,10500164470.553986,47.655,-122.3035,60.0,1.05
2026-01-20T23:01:04+00:00,SAT-47400,319.91688759298955,30.83452690186696,980.751398953882,-4.6690196479386685,163528.81800434092,10.5,10500163528.818005,47.655,-122.3035,60.0,1.0666666666666667
2026-01-20T23:01:05+00:00,SAT-47400,320.20909031511087,31.04651192456414,976.0948963032946,-4.641739517764588,162573.3524508084,10.5,10500162573.352451,47.655,-122.3035,60.0,1.0833333333333333
2026-01-20T23:01:06+00:00,SAT-47400,320.50535881603076,31.259514151836925,971.4656006486174,-4.61406219312701,161603.97546703328,10.5,10500161603.975468,47.655,-122.3035,60.0,1.1
2026-01-20T23:01:07+00:00,SAT-47400,320.80576458531124,31.473518782049258,966.8639081194893,-4.585982507328456,160620.50609341476,10.5,10500160620.506094,47.655,-122.3035,60.0,1.1166666666666667
2026-01-20T23:01:08+00:00,SAT-47400,321.1103802760678,31.68850988289487,962.2902199983973,-4.5574952608344805,159622.76222026252,10.5,10500159622.76222,47.655,-122.3035,60.0,1.1333333333333333
2026-01-20T23:01:09+00:00,SAT-47400,321.4192797022718,31.904470346609774,957.7449427534231,-4.528595270774652,158610.5623215306,10.5,10500158610.56232,47.655,-122.3035,60.0,1.15
2026-01-20T23:01:10+00:00,SAT-47400,321.7325378371992,32.121381846266914,953.2284880216229,-4.499277330273035,157583.72403039862,10.5,10500157583.72403,47.655,-122.3035,60.0,1.1666666666666667
2026-01-20T23:01:11+00:00,SAT-47400,322.05023080670514,32.33922478893579,948.7412726329724,-4.469536249015815,156542.0655601218,10.5,10500156542.06556,47.655,-122.3035,60.0,1.1833333333333333
2026-01-20T23:01:12+00:00,SAT-47400,322.37243588272423,32.557978269549054,944.283718593844,-4.439366860203868,155485.40594753926,10.5,10500155485.405947,47.655,-122.3035,60.0,1.2
2026-01-20T23:01:13+00:00,SAT-47400,322.6992314745973,32.77762002395379,939.8562530635597,-4.408763968840261,154413.56324188362,10.5,10500154413.563242,47.655,-122.3035,60.0,1.2166666666666666
2026-01-20T23:01:14+00:00,SAT-47400,323.0306971135822,32.99812637822995,935.4593083825105,-4.377722462176949,153326.3583730914,10.5,10500153326.358374,47.655,-122.3035,60.0,1.2333333333333334
2026-01-20T23:01:15+00:00,SAT-47400,323.3669134423836,33.21947220232914,931.093321990129,-4.346237160721385,152223.6099334245,10.5,10500152223.609934,47.655,-122.3035,60.0,1.25
2026-01-20T23:01:16+00:00,SAT-47400,323.70796218989386,33.44163085513272,926.7587364914544,-4.31430301104481,151105.1409304316,10.5,10500151105.14093,47.655,-122.3035,60.0,1.2666666666666666
2026-01-20T23:01:17+00:00,SAT-47400,324.05392615708524,33.66457413813732,922.4559995314087,-4.281914945319707,149970.77386735636,10.5,10500149970.773867,47.655,-122.3035,60.0,1.2833333333333334
2026-01-20T23:01:18+00:00,SAT-47400,324.404889188152,33.88827224103002,918.1855638091531,-4.249067909942873,148820.33174563776,10.5,10500148820.331745,47.655,-122.3035,60.0,1.3
2026-01-20T23:01:19+00:00,SAT-47400,324.7609361392695,34.11269368761377,913.9478870639053,-4.215756949552774,147653.64100755373,10.5,10500147653.641008,47.655,-122.3035,60.0,1.3166666666666667
2026-01-20T23:01:20+00:00,SAT-47400,325.12215284986866,34.33780528520301,909.7434319769596,-4.181977142447659,146470.5292742902,10.5,10500146470.529274,47.655,-122.3035,60.0,1.3333333333333333
2026-01-20T23:01:21+00:00,SAT-47400,325.48862610378046,34.563572069805794,905.5726661381183,-4.147723611780106,145270.82573802143,10.5,10500145270.825739,47.655,-122.3035,60.0,1.35
2026-01-20T23:01:22+00:00,SAT-47400,325.86044358598144,34.78995725104242,901.4360620009552,-4.112991561104079,144054.36240691828,10.5,10500144054.362408,47.655,-122.3035,60.0,1.3666666666666667
2026-01-20T23:01:23+00:00,SAT-47400,326.23769383691325,35.016922158250395,897.3340968026336,-4.077776263827205,142820.97373572236,10.5,10500142820.973736,47.655,-122.3035,60.0,1.3833333333333333
2026-01-20T23:01:24+00:00,SAT-47400,326.6204662000614,35.24442618541005,893.2672524942367,-4.042073080437265,141570.49722909066,10.5,10500141570.497229,47.655,-122.3035,60.0,1.4
2026-01-20T23:01:25+00:00,SAT-47400,327.008850764868,35.47242673649578,889.2360156539219,-4.00587743565619,140302.77264143183,10.5,10500140302.772642,47.655,-122.3035,60.0,1.4166666666666667
2026-01-20T23:01:26+00:00,SAT-47400,327.402938300775,35.70087916911977,885.2408774228597,-3.9691848747086333,139017.64394766945,10.5,10500139017.643948,47.655,-122.3035,60.0,1.4333333333333333
2026-01-20T23:01:27+00:00,SAT-47400,327.8028201896497,35.92973674104405,881.2823333850525,-3.931991053450172,137714.9589974902,10.5,10500137714.958998,47.655,-122.3035,60.0,1.45
2026-01-20T23:01:28+00:00,SAT-47400,328.2085883500297,36.15895055604938,877.3608834570018,-3.89429171658032,136394.56875227115,10.5,10500136394.568752,47.655,-122.3035,60.0,1.4666666666666666
2026-01-20T23:01:29+00:00,SAT-47400,328.6203351512099,36.3884695085248,873.4770317991015,-3.8560827374225326,135056.32867834385,10.5,10500135056.328678,47.655,-122.3035,60.0,1.4833333333333334
2026-01-20T23:01:30+00:00,SAT-47400,329.0381533230503,36.61824023050192,869.6312866873583,-3.817360122730062,133700.09891531576,10.5,10500133700.098915,47.655,-122.3035,60.0,1.5
2026-01-20T23:01:31+00:00,SAT-47400,329.462135857643,36.84820703934657,865.8241603803217,-3.7781200255789846,132325.74472763867,10.5,10500132325.744728,47.655,-122.3035,60.0,1.5166666666666666
2026-01-20T23:01:32+00:00,SAT-47400,329.892375903329,37.078311886770244,862.0561689731508,-3.7383587410628145,130933.13635381566,10.5,10500130933.136354,47.655,-122.3035,60.0,1.5333333333333334
2026-01-20T23:01:33+00:00,SAT-47400,330.32896664861863,37.308494308347775,858.327832255979,-3.698072719769103,129522.14947840876,10.5,10500129522.149479,47.655,-122.3035,60.0,1.55
2026-01-20T23:01:34+00:00,SAT-47400,330.77200119751575,37.53869137480911,854.6396735588378,-3.6572585714799,128092.6653616448,10.5,10500128092.665361,47.655,-122.3035,60.0,1.5666666666666667
2026-01-20T23:01:35+00:00,SAT-47400,331.2215724346196,37.768837644754875,850.992219592886,-3.615913125527566,126644.57295333108,10.5,10500126644.572954,47.655,-122.3035,60.0,1.5833333333333333
2026-01-20T23:01:36+00:00,SAT-47400,331.6777728868342,37.998865122663794,847.3860002314522,-3.5740333494929413,125177.76604532154,10.5,10500125177.766045,47.655,-122.3035,60.0,1.6
2026-01-20T23:01:37+00:00,SAT-47400,332.1406945634951,38.22870321354547,843.8215483721526,-3.53161643577093,123692.14630340957,10.5,10500123692.146303,47.655,-122.3035,60.0,1.6166666666666667
2026-01-20T23:01:38+00:00,SAT-47400,332.6104287953573,38.45827868508175,840.2993997126831,-3.4886597923367826,122187.62294392416,10.5,10500122187.622944,47.655,-122.3035,60.0,1.6333333333333333
2026-01-20T23:01:39+00:00,SAT-47400,333.08706606036526,38.68751563160698,836.8200925358143,-3.44516102717132,120664.11218823543,10.5,10500120664.112188,47.655,-122.3035,60.0,1.65
2026-01-20T23:01:40+00:00,SAT-47400,333.5706957944907,38.916335439753716,833.3841675099246,-3.4011180062663406,119121.53929434935,10.5,10500119121.539295,47.655,-122.3035,60.0,1.6666666666666667
2026-01-20T23:01:41+00:00,SAT-47400,334.06140619739693,39.14465676094608,829.9921674316785,-3.356528806482921,117559.83690580592,10.5,10500117559.836906,47.655,-122.3035,60.0,1.6833333333333333
2026-01-20T23:01:42+00:00,SAT-47400,334.5592840179503,39.37239548418527,826.644637015725,-3.311391784802072,115978.9474771302,10.5,10500115978.947477,47.655,-122.3035,60.0,1.7
2026-01-20T23:01:43+00:00,SAT-47400,335.06441433578914,39.59946471724776,823.3421226153258,-3.2657055602490184,114378.822640744,10.5,10500114378.822641,47.655,-122.3035,60.0,1.7166666666666666
2026-01-20T23:01:44+00:00,SAT-47400,335.57688032637316,39.82577477091422,820.0851719610165,-3.2194690195655604,112759.42340563612,10.5,10500112759.423405,47.655,-122.3035,60.0,1.7333333333333334
2026-01-20T23:01:45+00:00,SAT-47400,336.0967630123045,40.05123314817761,816.8743338936057,-3.1726813242935203,111120.72040545451,10.5,10500111120.720406,47.655,-122.3035,60.0,1.75
2026-01-20T23:01:46+00:00,SAT-47400,336.6241410008843,40.27574453894969,813.7101580901125,-3.1253419756101133,109462.69616931521,10.5,10500109462.696169,47.655,-122.3035,60.0,1.7666666666666666
2026-01-20T23:01:47+00:00,SAT-47400,337.1590902176993,40.49921082484241,810.5931947250418,-3.077450747220577,107785.34277141842,10.5,10500107785.342772,47.655,-122.3035,60.0,1.7833333333333334
2026-01-20T23:01:48+00:00,SAT-47400,337.7016836142892,40.72153108519283,807.5239941985863,-3.0290077505792863,106088.66411536779,10.5,10500106088.664116,47.655,-122.3035,60.0,1.8
2026-01-20T23:01:49+00:00,SAT-47400,338.25199087176054,40.94260161411587,804.5031067997832,-2.9800134248347487,104372.67558200167,10.5,10500104372.675583,47.655,-122.3035,60.0,1.8166666666666667
2026-01-20T23:01:50+00:00,SAT-47400,338.8100780880339,41.162315943774125,801.5310823796985,-2.930468565355096,102637.40502847642,10.5,10500102637.40503,47.655,-122.3035,60.0,1.8333333333333333
2026-01-20T23:01:51+00:00,SAT-47400,339.37600745577004,41.380564877138525,798.6084699961626,-2.8803742973072577,100882.89186289738,10.5,10500100882.891863,47.655,-122.3035,60.0,1.85
2026-01-20T23:01:52+00:00,SAT-47400,339.9498369208712,41.59723652668499,795.7358175848545,-2.8297321382385117,99109.18923618943,10.5,10500099109.189236,47.655,-122.3035,60.0,1.8666666666666667
2026-01-20T23:01:53+00:00,SAT-47400,340.5316198390838,41.81221636612335,792.9136715679757,-2.7785439595518993,97316.3626928031,10.5,10500097316.362692,47.655,-122.3035,60.0,1.8833333333333333
2026-01-20T23:01:54+00:00,SAT-47400,341.12140461171106,42.0253872881455,790.1425765013402,-2.726812032929053,95504.4917966384,10.5,10500095504.491796,47.655,-122.3035,60.0,1.9
2026-01-20T23:01:55+00:00,SAT-47400,341.71923431792027,42.23662967503678,787.4230746751714,-2.674539029959577,93673.67011806401,10.5,10500093673.670118,47.655,-122.3035,60.0,1.9166666666666667
2026-01-20T23:01:56+00:00,SAT-47400,342.3251463354905,42.44582147915751,784.7557057152645,-2.621727995172236,91824.00428935567,10.5,10500091824.00429,47.655,-122.3035,60.0,1.9333333333333333
2026-01-20T23:01:57+00:00,SAT-47400,342.9391719439769,42.65283831159891,782.1410062110489,-2.5683824331130802,89955.61705454026,10.5,10500089955.617054,47.655,-122.3035,60.0,1.95
2026-01-20T23:01:58+00:00,SAT-47400,343.56133593821954,42.85755354841287,779.5795092568023,-2.514506236647957,88068.64475824655,10.5,10500088068.644758,47.655,-122.3035,60.0,1.9666666666666666
2026-01-20T23:01:59+00:00,SAT-47400,344.19165621663706,43.059838442416925,777.0717440643729,-2.4601037453131283,86163.23938939067,10.5,10500086163.23939,47.655,-122.3035,60.0,1.9833333333333334
2026-01-20T23:02:00+00:00,SAT-47400,344.8301433762923,43.25956225116298,774.6182355177064,-2.4051797242874273,84239.56784469202,10.5,10500084239.567844,47.655,-122.3035,60.0,2.0
2026-01-20T23:02:01+00:00,SAT-47400,345.47680029733533,43.45659237516497,772.2195037483452,-2.349739406921481,82297.81341822665,10.5,10500082297.813417,47.655,-122.3035,60.0,2.0166666666666666
2026-01-20T23:02:02+00:00,SAT-47400,346.1316217353563,43.650794511834015,769.8760636685096,-2.2937884513696702,80338.17428249492,10.5,10500080338.174282,47.655,-122.3035,60.0,2.033333333333333
2026-01-20T23:02:03+00:00,SAT-47400,346.7945939004778,43.84203281838336,767.588424547435,-2.2373329898173107,78360.8652125657,10.5,10500078360.865213,47.655,-122.3035,60.0,2.05
2026-01-20T23:02:04+00:00,SAT-47400,347.4656940508584,44.03017009148608,765.3570895386116,-2.1803796107384454,76366.1169646692,10.5,10500076366.116964,47.655,-122.3035,60.0,2.066666666666667
2026-01-20T23:02:05+00:00,SAT-47400,348.1448900847166,44.21506795836994,763.182555224717,-2.122935374844167,74354.17683477464,10.5,10500074354.176834,47.655,-122.3035,60.0,2.0833333333333335
2026-01-20T23:02:06+00:00,SAT-47400,348.83214014324295,44.39658708219428,761.0653111466476,-2.065007810485382,72325.30849757572,10.5,10500072325.308498,47.655,-122.3035,60.0,2.1
2026-01-20T23:02:07+00:00,SAT-47400,349.527392221181,44.57458738002526,759.0058393371311,-2.006604905102782,70279.79170703223,10.5,10500070279.791706,47.655,-122.3035,60.0,2.1166666666666667
2026-01-20T23:02:08+00:00,SAT-47400,350.2305837861046,44.74892825293725,757.0046138628675,-1.9477351495868,68217.92385004363,10.5,10500068217.92385,47.655,-122.3035,60.0,2.1333333333333333
2026-01-20T23:02:09+00:00,SAT-47400,350.94164142859506,44.91946883268134,755.0621003224292,-1.8884074791769956,66140.01787649526,10.5,10500066140.017876,47.655,-122.3035,60.0,2.15
2026-01-20T23:02:10+00:00,SAT-47400,351.660480510388,45.086068235718194,753.1787554031037,-1.8286313271794772,64046.404180669924,10.5,10500064046.40418,47.655,-122.3035,60.0,2.1666666666666665
2026-01-20T23:02:11+00:00,SAT-47400,352.38700485415893,45.24858583402385,751.3550263841612,-1.7684165786259083,61937.42897819009,10.5,10500061937.428978,47.655,-122.3035,60.0,2.183333333333333
2026-01-20T23:02:12+00:00,SAT-47400,353.1211064417384,45.40688153348621,749.5913506863412,-1.7077736203543643,59813.45606006147,10.5,10500059813.45606,47.655,-122.3035,60.0,2.2
2026-01-20T23:02:13+00:00,SAT-47400,353.8626651625963,45.5608160678272,747.8881553713901,-1.646713269103231,57674.86427421708,10.5,10500057674.864275,47.655,-122.3035,60.0,2.216666666666667
2026-01-20T23:02:14+00:00,SAT-47400,354.6115485656354,45.71025129649224,746.2458567133148,-1.5852468419551597,55522.04999276258,10.5,10500055522.049994,47.655,-122.3035,60.0,2.2333333333333334
2026-01-20T23:02:15+00:00,SAT-47400,355.3676116793178,45.855050518461425,744.664859699379,-1.523386090570002,53355.42480853545,10.5,10500053355.424809,47.655,-122.3035,60.0,2.25
2026-01-20T23:02:16+00:00,SAT-47400,356.1306968441373,45.99507878881145,743.1455575966903,-1.4611432324165654,51175.41662897315,10.5,10500051175.41663,47.655,-122.3035,60.0,2.2666666666666666
2026-01-20T23:02:17+00:00,SAT-47400,356.90063360496754,46.13020324575304,741.688331487642,-1.3985309206180272,48982.468619972045,10.5,10500048982.46862,47.655,-122.3035,60.0,2.283333333333333
2026-01-20T23:02:18+00:00,SAT-47400,357.67723863805674,46.26029344141834,740.293549835425,-1.3355622494687898,46777.03939911088,10.5,10500046777.039398,47.655,-122.3035,60.0,2.3
2026-01-20T23:02:19+00:00,SAT-47400,358.460315733697,46.38522167839463,738.9615680440394,-1.2722507372538547,44559.60243391272,10.5,10500044559.602434,47.655,-122.3035,60.0,2.316666666666667
2026-01-20T23:02:20+00:00,SAT-47400,359.2496558266624,46.50486334855322,737.6927280354415,-1.2086103217391373,42330.64588389659,10.5,10500042330.645884,47.655,-122.3035,60.0,2.3333333333333335
2026-01-20T23:02:21+00:00,SAT-47400,0.0450370843233087,46.61909727388687,736.4873578311867,-1.1446553386355236,40090.671846297744,10.5,10500040090.671846,47.655,-122.3035,60.0,2.35
2026-01-20T23:02:22+00:00,SAT-47400,0.8462250448826101,46.7278060461886,735.3457711555516,-1.0804005144322117,37840.19610506087,10.5,10500037840.196106,47.655,-122.3035,60.0,2.3666666666666667
2026-01-20T23:02:23+00:00,SAT-47400,1.6529728167908448,46.830876365285356,734.2682670458033,-1.0158609562744991,35579.74777631744,10.5,10500035579.747776,47.655,-122.3035,60.0,2.3833333333333333
2026-01-20T23:02:24+00:00,SAT-47400,2.4650213411361803,46.928199373848464,733.2551294725636,-0.9510521283064033,33309.86847980423,10.5,10500033309.86848,47.655,-122.3035,60.0,2.4
2026-01-20T23:02:25+00:00,SAT-47400,3.282099707819079,47.01967098571963,732.306626983768,-0.8859898394291762,31031.11191011466,10.5,10500031031.11191,47.655,-122.3035,60.0,2.4166666666666665
2026-01-20T23:02:26+00:00,SAT-47400,4.1039255354836,47.10519220703645,731.4230123608316,-0.8206902293444431,28744.04334787052,10.5,10500028744.043348,47.655,-122.3035,60.0,2.433333333333333
2026-01-20T23:02:27+00:00,SAT-47400,4.930205415537374,47.184669448158246,730.6045222887369,-0.7551697392175989,26449.238632229997,10.5,10500026449.238632,47.655,-122.3035,60.0,2.45
2026-01-20T23:02:28+00:00,SAT-47400,5.760635405018545,47.258014823072905,729.8513770553766,-0.6894451095038979,24147.28408474815,10.5,10500024147.284084,47.655,-122.3035,60.0,2.466666666666667
2026-01-20T23:02:29+00:00,SAT-47400,6.5949015960963635,47.325146437080356,729.163780253068,-0.6235333441896023,21838.775256950674,10.5,10500021838.775257,47.655,-122.3035,60.0,2.4833333333333334
2026-01-20T23:02:30+00:00,SAT-47400,7.432680726623239,47.38598865771226,728.5419185157264,-0.5574516958072495,19524.31640550517,10.5,10500019524.316406,47.655,-122.3035,60.0,2.5
2026-01-20T23:02:31+00:00,SAT-47400,8.273640849355509,47.44047236914311,727.9859612709874,-0.49121764950626606,17204.519934306667,10.5,10500017204.519934,47.655,-122.3035,60.0,2.5166666666666666
2026-01-20T23:02:32+00:00,SAT-47400,9.117442063821473,47.48853520833853,727.4960605082114,-0.4248488915223781,14880.005290142988,10.5,10500014880.005291,47.655,-122.3035,60.0,2.533333333333333
2026-01-20T23:02:33+00:00,SAT-47400,9.963737282661825,47.530121779839405,727.0723505779379,-0.3583632912809055,12551.398335876442,10.5,10500012551.398336,47.655,-122.3035,60.0,2.55
2026-01-20T23:02:34+00:00,SAT-47400,10.812173049902196,47.565183849028784,726.7149480091867,-0.2917788771398145,10219.330500862874,10.5,10500010219.330502,47.655,-122.3035,60.0,2.566666666666667
2026-01-20T23:02:35+00:00,SAT-47400,11.662390398386322,47.59368051192707,726.4239513509511,-0.22511381112852624,7884.437896197927,10.5,10500007884.437897,47.655,-122.3035,60.0,2.5833333333333335
2026-01-20T23:02:36+00:00,SAT-47400,12.514025738912887,47.61557834021291,726.1994410388845,-0.15838636702382472,5547.360546842575,10.5,10500005547.360546,47.655,-122.3035,60.0,2.6
2026-01-20T23:02:37+00:00,SAT-47400,13.366711785874697,47.6308515007653,726.0414792838532,-0.09161490280637807,3208.7414269339947,10.5,10500003208.741426,47.655,-122.3035,60.0,2.6166666666666667
2026-01-20T23:02:38+00:00,SAT-47400,14.220078500511848,47.63948184830835,725.9501099879586,-0.02481783727780094,869.2256408161871,10.5,10500000869.225641,47.655,-122.3035,60.0,2.6333333333333333
2026-01-20T23:02:39+00:00,SAT-47400,15.073754055159446,47.64145899090052,725.9253586838774,0.0419863758767223,-1470.540485396681,10.5,10499998529.459515,47.655,-122.3035,60.0,2.65
2026-01-20T23:02:40+00:00,SAT-47400,15.927365806114873,47.63678032753943,725.9672325000746,0.10877927331608579,-3809.910287399228,10.5,10499996190.089712,47.655,-122.3035,60.0,2.6666666666666665
2026-01-20T23:02:41+00:00,SAT-47400,16.780541279789716,47.625451057660655,726.0757201511703,0.17554240662165962,-6148.237623534299,10.5,10499993851.762377,47.655,-122.3035,60.0,2.683333333333333
2026-01-20T23:02:42+00:00,SAT-47400,17.632909143659916,47.6074841625545,726.2507919528248,0.24225736941869183,-8484.877824699193,10.5,10499991515.122175,47.655,-122.3035,60.0,2.7
2026-01-20T23:02:43+00:00,SAT-47400,18.48410018685711,47.58290035855326,726.4923998636675,0.30890582208760503,-10819.188559839798,10.5,10499989180.81144,47.655,-122.3035,60.0,2.716666666666667
2026-01-20T23:02:44+00:00,SAT-47400,19.333748276100103,47.55172802259709,726.8004775518752,0.3754695139277152,-13150.53061221777,10.5,10499986849.469387,47.655,-122.3035,60.0,2.7333333333333334
2026-01-20T23:02:45+00:00,SAT-47400,20.181491288057092,47.514003090961964,727.1749404838506,0.44193031370390734,-15478.268949284333,10.5,10499984521.73105,47.655,-122.3035,60.0,2.75
2026-01-20T23:02:46+00:00,SAT-47400,21.02697203011326,47.46976893105192,727.6156860433699,0.5082702257616492,-17801.773287096225,10.5,10499982198.226713,47.655,-122.3035,60.0,2.7666666666666666
2026-01-20T23:02:47+00:00,SAT-47400,21.869839111513652,47.419076188620586,728.1225936667976,0.5744714245546801,-20120.41929962141,10.5,10499979879.5807,47.655,-122.3035,60.0,2.783333333333333
2026-01-20T23:02:48+00:00,SAT-47400,22.709747797278517,47.36198260966275,728.6955250127401,0.6405162668904395,-22433.589047625792,10.5,10499977566.410952,47.655,-122.3035,60.0,2.8
2026-01-20T23:02:49+00:00,SAT-47400,23.54636080166656,47.29855284046135,729.3343241439103,0.7063873236840185,-24740.6720908309,10.5,10499975259.32791,47.655,-122.3035,60.0,2.816666666666667
2026-01-20T23:02:50+00:00,SAT-47400,24.379349050005697,47.22885820521843,730.0388177406608,0.7720673989042123,-27041.0661514848,10.5,10499972958.93385,47.655,-122.3035,60.0,2.8333333333333335
2026-01-20T23:02:51+00:00,SAT-47400,25.208392384463732,47.15297646406165,730.8088153334138,0.8375395420677216,-29334.17755196189,10.5,10499970665.822449,47.655,-122.3035,60.0,2.85
2026-01-20T23:02:52+00:00,SAT-47400,26.03318020946586,47.07099155367427,731.6441095475499,0.9027870912703754,-31619.4227218983,10.5,10499968380.577278,47.655,-122.3035,60.0,2.8666666666666667
2026-01-20T23:02:53+00:00,SAT-47400,26.853412102943803,46.98299330923247,732.5444763912132,0.9677936679955376,-33896.22801636039,10.5,10499966103.771984,47.655,-122.3035,60.0,2.8833333333333333
2026-01-20T23:02:54+00:00,SAT-47400,27.66879834529322,46.88907717416815,733.5096755379402,1.0325432118058246,-36164.0309308954,10.5,10499963835.969069,47.655,-122.3035,60.0,2.9
2026-01-20T23:02:55+00:00,SAT-47400,28.479060404069692,46.78934389563809,734.5394506438862,1.0970199926579063,-38422.28053284788,10.5,10499961577.719467,47.655,-122.3035,60.0,2.9166666666666665
2026-01-20T23:02:56+00:00,SAT-47400,29.28393135316142,46.68389920972667,735.6335296773324,1.1612086281369978,-40670.43806498453,10.5,10499959329.561935,47.655,-122.3035,60.0,2.933333333333333
2026-01-20T23:02:57+00:00,SAT-47400,30.083156231362178,46.57285351774053,736.7916252653841,1.2250941054947972,-42907.977717355956,10.5,10499957092.022284,47.655,-122.3035,60.0,2.95
2026-01-20T23:02:58+00:00,SAT-47400,30.8764923442858,46.456321554965236,738.0134350626452,1.2886617796803854,-45134.38655833045,10.5,10499954865.613441,47.655,-122.3035,60.0,2.966666666666667
2026-01-20T23:02:59+00:00,SAT-47400,31.663709495432297,46.33442205596319,739.2986421179295,1.3518974155406367,-47349.16601263093,10.5,10499952650.833988,47.655,-122.3035,60.0,2.9833333333333334
2026-01-20T23:03:00+00:00,SAT-47400,32.44459017601275,46.20727741396454,740.6469152830607,1.4147871672768317,-49551.83114181856,10.5,10499950448.168858,47.655,-122.3035,60.0,3.0
2026-01-20T23:03:01+00:00,SAT-47400,33.21892967719688,46.07501334199394,742.057909601183,1.4773176195617972,-51741.91208438896,10.5,10499948258.087915,47.655,-122.3035,60.0,3.0166666666666666
2026-01-20T23:03:02+00:00,SAT-47400,33.98653616435846,45.93775853150924,743.5312667360764,1.5394757816408715,-53918.953849163045,10.5,10499946081.04615,47.655,-122.3035,60.0,3.033333333333333
2026-01-20T23:03:03+00:00,SAT-47400,34.747230688316904,45.79564431453094,745.0666153955945,1.6012490947569964,-56082.51657534514,10.5,10499943917.483425,47.655,-122.3035,60.0,3.05
2026-01-20T23:03:04+00:00,SAT-47400,35.50084714601789,45.64880432940824,746.6635717625006,1.662625462478858,-58232.17659474277,10.5,10499941767.823404,47.655,-122.3035,60.0,3.066666666666667
2026-01-20T23:03:05+00:00,SAT-47400,36.24723220341779,45.497374189474236,748.321739955557,1.7235932203342463,-60367.525368198505,10.5,10499939632.474632,47.655,-122.3035,60.0,3.0833333333333335
2026-01-20T23:03:06+00:00,SAT-47400,36.9862451568041,45.34149116137959,750.0407124603232,1.7841411882118363,-62488.171320921894,10.5,10499937511.828678,47.655,-122.3035,60.0,3.1
2026-01-20T23:03:07+00:00,SAT-47400,37.71775777285324,45.181293846651265,751.820070612221,1.8442586292777157,-64593.73840357256,10.5,10499935406.261597,47.655,-122.3035,60.0,3.1166666666666667
2026-01-20T23:03:08+00:00,SAT-47400,38.441654071198506,45.01692187597848,753.6593850386213,1.9039352849490372,-66683.86731718545,10.5,10499933316.132683,47.655,-122.3035,60.0,3.1333333333333333
2026-01-20T23:03:09+00:00,SAT-47400,39.15783008529482,44.84851561020034,755.5582161358143,1.9631613791424811,-68758.2156619699,10.5,10499931241.784338,47.655,-122.3035,60.0,3.15
2026-01-20T23:03:10+00:00,SAT-47400,39.86619359166359,44.67621585158641,757.5161145502158,2.021927587939889,-70816.45687487187,10.5,10499929183.543125,47.655,-122.3035,60.0,3.1666666666666665
2026-01-20T23:03:11+00:00,SAT-47400,40.56666379978301,44.50016356907403,759.5326216293181,2.08022508273752,-72858.28174084339,10.5,10499927141.71826,47.655,-122.3035,60.0,3.183333333333333
2026-01-20T23:03:12+00:00,SAT-47400,41.25917103270264,44.32049963151913,761.6072699156799,2.1380454940717284,-74883.39712586481,10.5,10499925116.602875,47.655,-122.3035,60.0,3.2
2026-01-20T23:03:13+00:00,SAT-47400,41.94365637384973,44.13736455636175,763.7395836048324,2.1953809409498506,-76891.52700423649,10.5,10499923108.472996,47.655,-122.3035,60.0,3.216666666666667
2026-01-20T23:03:14+00:00,SAT-47400,42.62007130596955,43.9508982683222,765.9290790324421,2.2522240015087767,-78882.41143091784,10.5,10499921117.58857,47.655,-122.3035,60.0,3.2333333333333334
2026-01-20T23:03:15+00:00,SAT-47400,43.288377326396535,43.76123987341484,768.1752651322097,2.308567725927283,-80855.80699377193,10.5,10499919144.193007,47.655,-122.3035,60.0,3.25
2026-01-20T23:03:16+00:00,SAT-47400,43.948545555654746,43.56852744477304,770.4776439066461,2.3644056430217155,-82811.48704457407,10.5,10499917188.512955,47.655,-122.3035,60.0,3.2666666666666666
2026-01-20T23:03:17+00:00,SAT-47400,44.600556339231495,43.37289782092731,772.8357109044268,2.419731728589482,-84749.24059026717,10.5,10499915250.759409,47.655,-122.3035,60.0,3.283333333333333
2026-01-20T23:03:18+00:00,SAT-47400,45.24439883540001,43.174486419675326,775.2489556661749,2.4745404120075296,-86668.87252406817,10.5,10499913331.127476,47.655,-122.3035,60.0,3.3
2026-01-20T23:03:19+00:00,SAT-47400,45.88007060260865,42.973427064213936,777.7168621768245,2.528826578531399,-88570.20370599079,10.5,10499911429.796293,47.655,-122.3035,60.0,3.316666666666667
2026-01-20T23:03:20+00:00,SAT-47400,46.507577187266506,42.76985182174768,780.2389093202769,2.582585564733065,-90453.07080305931,10.5,10499909546.929197,47.655,-122.3035,60.0,3.3333333333333335
2026-01-20T23:03:21+00:00,SAT-47400,47.12693171190327,42.56389085494284,782.8145713295077,2.6358131436789614,-92317.3257701803,10.5,10499907682.67423,47.655,-122.3035,60.0,3.35
2026-01-20T23:03:22+00:00,SAT-47400,47.73815446373762,42.35567228674782,785.4433182218909,2.688505492322473,-94162.83470808984,10.5,10499905837.165293,47.655,-122.3035,60.0,3.3666666666666667
2026-01-20T23:03:23+00:00,SAT-47400,48.341272481835496,42.14532207959497,788.1246162020021,2.7406592328050494,-95989.47930989317,10.5,10499904010.52069,47.655,-122.3035,60.0,3.3833333333333333
2026-01-20T23:03:24+00:00,SAT-47400,48.93631916127689,41.93296392277686,790.857928105615,2.7922714078704387,-97797.15599996719,10.5,10499902202.844,47.655,-122.3035,60.0,3.4
2026-01-20T23:03:25+00:00,SAT-47400,49.52333385997232,41.71871913288667,793.6427138191741,2.843339423476008,-99585.77392396604,10.5,10499900414.226076,47.655,-122.3035,60.0,3.4166666666666665
2026-01-20T23:03:26+00:00,SAT-47400,50.10236150407093,41.50270656927855,796.4784306420368,2.8938611234288714,-101355.25756289423,10.5,10499898644.742437,47.655,-122.3035,60.0,3.433333333333333
2026-01-20T23:03:27+00:00,SAT-47400,50.67345221987433,41.28504255395222,799.3645337231467,2.943834704876831,-103105.5437732417,10.5,10499896894.456226,47.655,-122.3035,60.0,3.45
2026-01-20T23:03:28+00:00,SAT-47400,51.236660960706416,41.06584080762831,802.3004764134288,2.993258751025272,-104836.58293286803,10.5,10499895163.417067,47.655,-122.3035,60.0,3.466666666666667
2026-01-20T23:03:29+00:00,SAT-47400,51.79204715327984,40.84521239252754,805.2857106508122,3.042132202223526,-106548.33792832447,10.5,10499893451.662071,47.655,-122.3035,60.0,3.4833333333333334
2026-01-20T23:03:30+00:00,SAT-47400,52.33967435204865,40.62326566606142,808.3196873164159,3.0904543648200913,-108240.78446500131,10.5,10499891759.215534,47.655,-122.3035,60.0,3.5
2026-01-20T23:03:31+00:00,SAT-47400,52.879609908959424,40.40010624211686,811.4018565995666,3.1382248587029205,-109913.90922976677,10.5,10499890086.09077,47.655,-122.3035,60.0,3.5166666666666666
2026-01-20T23:03:32+00:00,SAT-47400,53.411924648539866,40.17583696390184,814.5316683104983,3.1854436647900117,-111567.7115542884,10.5,10499888432.288446,47.655,-122.3035,60.0,3.533333333333333
2026-01-20T23:03:33+00:00,SAT-47400,53.936692565568606,39.95055788059397,817.7085722404142,3.2321110537935183,-113202.20092005096,10.5,10499886797.79908,47.655,-122.3035,60.0,3.55
2026-01-20T23:03:34+00:00,SAT-47400,54.453990525740345,39.72436623587596,820.932018450504,3.2782276338050007,-114817.3986249931,10.5,10499885182.601376,47.655,-122.3035,60.0,3.566666666666667
2026-01-20T23:03:35+00:00,SAT-47400,54.96389798859291,39.49735645936539,824.2014576084181,3.3237942941614076,-116413.33581745668,10.5,10499883586.664183,47.655,-122.3035,60.0,3.5833333333333335
2026-01-20T23:03:36+00:00,SAT-47400,55.466496736382894,39.26962016784447,827.5163412687605,3.368812195791824,-117990.05315808895,10.5,10499882009.946842,47.655,-122.3035,60.0,3.6
2026-01-20T23:03:37+00:00,SAT-47400,55.961870616294064,39.04124617244883,830.8761221439513,3.413282801023162,-119547.60186376404,10.5,10499880452.398136,47.655,-122.3035,60.0,3.6166666666666667
2026-01-20T23:03:38+00:00,SAT-47400,56.45010530160624,38.81232048875055,834.280254404818,3.4572078067891594,-121086.04136827943,10.5,10499878913.958632,47.655,-122.3035,60.0,3.6333333333333333
2026-01-20T23:03:39+00:00,SAT-47400,56.931288057203794,38.582926355876495,837.7281939145718,3.500589192995363,-122605.44101630239,10.5,10499877394.558983,47.655,-122.3035,60.0,3.65
2026-01-20T23:03:40+00:00,SAT-47400,57.40550752606804,38.353144256441205,841.2193985110222,3.5434291535009828,-124105.87764606246,10.5,10499875894.122355,47.655,-122.3035,60.0,3.6666666666666665
2026-01-20T23:03:41+00:00,SAT-47400,57.87285351975468,38.12305194477512,844.7533282199557,3.5857301164359923,-125587.43630094231,10.5,10499874412.5637,47.655,-122.3035,60.0,3.683333333333333
2026-01-20T23:03:42+00:00,SAT-47400,58.33341682522664,37.89272447706121,848.3294454887806,3.6274947284592742,-127050.20967813132,10.5,10499872949.790321,47.655,-122.3035,60.0,3.7
2026-01-20T23:03:43+00:00,SAT-47400,58.78728902243411,37.6622342454446,851.947215404467,3.6687258624063115,-128494.29839648026,10.5,10499871505.701603,47.655,-122.3035,60.0,3.716666666666667
2026-01-20T23:03:44+00:00,SAT-47400,59.23456231526937,37.43165101428415,855.6061059191202,3.709426562995691,-129919.80909491311,10.5,10499870080.190905,47.655,-122.3035,60.0,3.7333333333333334
2026-01-20T23:03:45+00:00,SAT-47400,59.67532936795554,37.20104196212248,859.3055880214015,3.74960006077173,-131326.8549207571,10.5,10499868673.145079,47.655,-122.3035,60.0,3.75
2026-01-20T23:03:46+00:00,SAT-47400,60.10968315503624,36.970471724683804,863.0451359218553,3.7892497917761347,-132715.5562187272,10.5,10499867284.44378,47.655,-122.3035,60.0,3.7666666666666666
2026-01-20T23:03:47+00:00,SAT-47400,60.53771682463452,36.74000243837013,866.8242272578561,3.828379338999821,-134086.03848032132,10.5,10499865913.96152,47.655,-122.3035,60.0,3.783333333333333
2026-01-20T23:03:48+00:00,SAT-47400,60.959523565719124,36.5096937887974,870.6423432401645,3.8669924006899405,-135438.43123379833,10.5,10499864561.568766,47.655,-122.3035,60.0,3.8
2026-01-20T23:03:49+00:00,SAT-47400,61.37519648268058,36.27960306229363,874.498968767873,3.905092912846351,-136772.87233452246,10.5,10499863227.127665,47.655,-122.3035,60.0,3.816666666666667
2026-01-20T23:03:50+00:00,SAT-47400,61.78482849258975,36.049785190990754,878.3935926655225,3.9426848753739865,-138089.50187608408,10.5,10499861910.498123,47.655,-122.3035,60.0,3.8333333333333335
2026-01-20T23:03:51+00:00,SAT-47400,62.18851221337137,35.820292809043245,882.3257077468364,3.9797724457017707,-139388.46546923002,10.5,10499860611.53453,47.655,-122.3035,60.0,3.85
2026-01-20T23:03:52+00:00,SAT-47400,62.586339870998366,35.59117630369481,886.2948109718199,4.016359884042772,-140669.91232464262,10.5,10499859330.087675,47.655,-122.3035,60.0,3.8666666666666667
2026-01-20T23:03:53+00:00,SAT-47400,62.978403209508265,35.36248386986995,890.3004035492713,4.052451585314595,-141933.99637092685,10.5,10499858066.00363,47.655,-122.3035,60.0,3.8833333333333333
2026-01-20T23:03:54+00:00,SAT-47400,63.364793412249696,35.1342615630424,894.3419910711236,4.088052019111388,-143180.87415217623,10.5,10499856819.125849,47.655,-122.3035,60.0,3.9
2026-01-20T23:03:55+00:00,SAT-47400,63.74560102502401,34.90655335549332,898.4190835869232,4.123165777098515,-144410.70648793443,10.5,10499855589.293512,47.655,-122.3035,60.0,3.9166666666666665
2026-01-20T23:03:56+00:00,SAT-47400,64.12091589096279,34.67940118968938,902.5311957255705,4.157797516486817,-145623.65649342514,10.5,10499854376.343506,47.655,-122.3035,60.0,3.933333333333333
2026-01-20T23:03:57+00:00,SAT-47400,64.49082708700517,34.45284503451411,906.6778467606911,4.191951969038792,-146819.88989498632,10.5,10499853180.110106,47.655,-122.3035,60.0,3.95
2026-01-20T23:03:58+00:00,SAT-47400,64.85542286783453,34.226922940505254,910.8585606849904,4.225633970860544,-147999.57607351054,10.5,10499852000.423927,47.655,-122.3035,60.0,3.966666666666667
2026-01-20T23:03:59+00:00,SAT-47400,65.21479061832541,34.00167109295134,915.0728663143125,4.258848382270918,-149162.88525792284,10.5,10499850837.114742,47.655,-122.3035,60.0,3.9833333333333334
2026-01-20T23:04:00+00:00,SAT-47400,65.5690168049371,33.77712386865711,919.320297311792,4.291600158417741,-150309.99099846027,10.5,10499849690.009,47.655,-122.3035,60.0,4.0
2026-01-20T23:04:01+00:00,SAT-47400,65.91818693838177,33.55331388817177,923.6003922824257,4.323894260053988,-151441.06704167614,10.5,10499848558.932959,47.655,-122.3035,60.0,4.016666666666667
2026-01-20T23:04:02+00:00,SAT-47400,66.26238553417349,33.330272071901305,927.912694778666,4.35573574211415,-152556.29043275854,10.5,10499847443.709568,47.655,-122.3035,60.0,4.033333333333333
2026-01-20T23:04:03+00:00,SAT-47400,66.60169608488059,33.10802769068642,932.2567533943469,4.387129667535014,-153655.8384971701,10.5,10499846344.161503,47.655,-122.3035,60.0,4.05
2026-01-20T23:04:04+00:00,SAT-47400,66.93620103007599,32.886608419921274,936.6321217726671,4.418081152288138,-154739.89041787517,10.5,10499845260.109583,47.655,-122.3035,60.0,4.066666666666666
2026-01-20T23:04:05+00:00,SAT-47400,67.26598173383972,32.66604039032645,941.0383586590812,4.448595292146134,-155808.62467038582,10.5,10499844191.37533,47.655,-122.3035,60.0,4.083333333333333
2026-01-20T23:04:06+00:00,SAT-47400,67.59111846089452,32.44634824133475,945.4750278811553,4.478677287364616,-156862.22338965067,10.5,10499843137.77661,47.655,-122.3035,60.0,4.1
2026-01-20T23:04:07+00:00,SAT-47400,67.91169036518178,32.22755516717258,949.9416984527697,4.5083322610894205,-157900.8660099078,10.5,10499842099.13399,47.655,-122.3035,60.0,4.116666666666666
2026-01-20T23:04:08+00:00,SAT-47400,68.22777546895702,32.00968297080661,954.4379444972174,4.537565431501326,-158924.73529392097,10.5,10499841075.264706,47.655,-122.3035,60.0,4.133333333333334
2026-01-20T23:04:09+00:00,SAT-47400,68.53945065702476,31.79275210825484,958.9633453419807,4.566381984830856,-159934.01288542085,10.5,10499840065.987114,47.655,-122.3035,60.0,4.15
2026-01-20T23:04:10+00:00,SAT-47400,68.84679166504799,31.57678173795578,963.5174854868709,4.594787094929953,-160928.87999458783,10.5,10499839071.120005,47.655,-122.3035,60.0,4.166666666666667
2026-01-20T23:04:11+00:00,SAT-47400,69.14987307202577,31.361789767908505,968.0999545916801,4.622785966016184,-161909.51889513488,10.5,10499838090.481106,47.655,-122.3035,60.0,4.183333333333334
2026-01-20T23:04:12+00:00,SAT-47400,69.44876829804552,31.147792899596293,972.7103475064655,4.650383794444443,-162876.11158539105,10.5,10499837123.888414,47.655,-122.3035,60.0,4.2
2026-01-20T23:04:13+00:00,SAT-47400,69.7435496016993,30.93480667253277,977.3482642637103,4.6775857470702675,-163828.83903049293,10.5,10499836171.160969,47.655,-122.3035,60.0,4.216666666666667
2026-01-20T23:04:14+00:00,SAT-47400,70.03428807839879,30.72284550855561,982.0133100488995,4.704396995442981,-164767.88235997353,10.5,10499835232.11764,47.655,-122.3035,60.0,4.233333333333333
2026-01-20T23:04:15+00:00,SAT-47400,70.32105366270561,30.511922753319674,986.7050952052044,4.730822699238246,-165693.42228749994,10.5,10499834306.577713,47.655,-122.3035,60.0,4.25
2026-01-20T23:04:16+00:00,SAT-47400,70.60391513142503,30.30205071735217,991.4232352216396,4.7568679719106575,-166605.63790788196,10.5,10499833394.362093,47.655,-122.3035,60.0,4.266666666666667
2026-01-20T23:04:17+00:00,SAT-47400,70.8829401062993,30.093240717414584,996.1673506869654,4.78253793636567,-167504.70864693847,10.5,10499832495.291353,47.655,-122.3035,60.0,4.283333333333333
