DopplerPredictor/satellites_20260205_234138/SAT-61249.csv

timestamp,satellite,azimuth_deg,elevation_deg,distance_km,relative_velocity_kms,doppler_shift_hz,tx_freq_ghz,rx_freq_hz,ue_lat,ue_lon,ue_alt_m,time_minutes
2026-01-20T23:10:38+00:00,SAT-61249,241.4616199977933,30.08721504897778,677.0849032778501,-6.059706339829177,212236.5485532206,10.5,10500212236.548553,47.655,-122.3035,60.0,10.633333333333333
2026-01-20T23:10:39+00:00,SAT-61249,241.46830860429495,30.450689161884505,671.0414421744787,-6.036897868707099,211437.69941478825,10.5,10500211437.699415,47.655,-122.3035,60.0,10.65
2026-01-20T23:10:40+00:00,SAT-61249,241.47509309529102,30.820185523675427,665.0207283958658,-6.01345719327529,210616.70780720754,10.5,10500210616.707808,47.655,-122.3035,60.0,10.666666666666666
2026-01-20T23:10:41+00:00,SAT-61249,241.4819772024917,31.195845519952325,659.0233924514685,-5.989363669079459,209772.85067436326,10.5,10500209772.850674,47.655,-122.3035,60.0,10.683333333333334
2026-01-20T23:10:42+00:00,SAT-61249,241.48896485595978,31.577813967362584,653.0500854398539,-5.964595928053369,208905.37961618896,10.5,10500208905.379616,47.655,-122.3035,60.0,10.7
2026-01-20T23:10:43+00:00,SAT-61249,241.4960601975256,31.96623915823421,647.1014797703693,-5.9391318290627035,208013.51915650387,10.5,10500208013.519157,47.655,-122.3035,60.0,10.716666666666667
2026-01-20T23:10:44+00:00,SAT-61249,241.50326759526473,32.36127289886833,641.1782699341402,-5.912948529041722,207096.46923451984,10.5,10500207096.469234,47.655,-122.3035,60.0,10.733333333333333
2026-01-20T23:10:45+00:00,SAT-61249,241.51059165908393,32.76307054882343,635.281173204118,-5.886022369046208,206153.4012139331,10.5,10500206153.401215,47.655,-122.3035,60.0,10.75
2026-01-20T23:10:46+00:00,SAT-61249,241.51803725771336,33.171791048403605,629.410930448772,-5.858328882001016,205183.45815427642,10.5,10500205183.458155,47.655,-122.3035,60.0,10.766666666666667
2026-01-20T23:10:47+00:00,SAT-61249,241.5256095371933,33.58759694132425,623.5683069380542,-5.829842787574551,204185.75463140165,10.5,10500204185.754631,47.655,-122.3035,60.0,10.783333333333333
2026-01-20T23:10:48+00:00,SAT-61249,241.53331394082957,34.01065439100543,617.754093154475,-5.800537975790713,203159.3761635007,10.5,10500203159.376163,47.655,-122.3035,60.0,10.8
2026-01-20T23:10:49+00:00,SAT-61249,241.54115623096698,34.44113318885391,611.9691056205231,-5.770387434865249,202103.3766836293,10.5,10500202103.376684,47.655,-122.3035,60.0,10.816666666666666
2026-01-20T23:10:50+00:00,SAT-61249,241.54914251278643,34.879206749221794,606.2141877980572,-5.73936333760972,201016.78156593937,10.5,10500201016.781567,47.655,-122.3035,60.0,10.833333333333334
2026-01-20T23:10:51+00:00,SAT-61249,241.55727926004738,35.32505210169853,600.4902109015237,-5.70743684741479,199898.58083039333,10.5,10500199898.58083,47.655,-122.3035,60.0,10.85
2026-01-20T23:10:52+00:00,SAT-61249,241.56557334356447,35.77884985819659,594.7980749046703,-5.674578343982142,198747.73704885025,10.5,10500198747.73705,47.655,-122.3035,60.0,10.866666666666667
2026-01-20T23:10:53+00:00,SAT-61249,241.57403206181436,36.240784185732934,589.1387093221366,-5.6407571618709325,197563.17618785723,10.5,10500197563.176188,47.655,-122.3035,60.0,10.883333333333333
2026-01-20T23:10:54+00:00,SAT-61249,241.5826631749922,36.711042745488726,583.5130742517922,-5.6059417704685925,196343.79391198768,10.5,10500196343.793913,47.655,-122.3035,60.0,10.9
2026-01-20T23:10:55+00:00,SAT-61249,241.59147494192837,37.18981663127811,577.9221612375902,-5.5700996451079305,195088.45106981735,10.5,10500195088.451069,47.655,-122.3035,60.0,10.916666666666666
2026-01-20T23:10:56+00:00,SAT-61249,241.60047616087712,37.67730028098777,572.3669942609571,-5.53319725929081,193795.97342156453,10.5,10500193795.973421,47.655,-122.3035,60.0,10.933333333333334
2026-01-20T23:10:57+00:00,SAT-61249,241.60967621439949,38.17369136832957,566.8486307399373,-5.495200221243613,192465.15642184016,10.5,10500192465.156422,47.655,-122.3035,60.0,10.95
2026-01-20T23:10:58+00:00,SAT-61249,241.6190851183632,38.67919068617879,561.3681623921494,-5.456073045118686,191094.75720615426,10.5,10500191094.757206,47.655,-122.3035,60.0,10.966666666666667
2026-01-20T23:10:59+00:00,SAT-61249,241.62871357666933,39.19400198666388,555.9267163259266,-5.415779363071253,189683.5020187471,10.5,10500189683.502018,47.655,-122.3035,60.0,10.983333333333333
2026-01-20T23:11:00+00:00,SAT-61249,241.63857304105534,39.71833181501682,550.5254559199501,-5.374281774554739,188230.0809342734,10.5,10500188230.080935,47.655,-122.3035,60.0,11.0
2026-01-20T23:11:01+00:00,SAT-61249,241.64867577778455,40.252389301653025,545.1655818531822,-5.331541991287525,186733.15293515162,10.5,10500186733.152935,47.655,-122.3035,60.0,11.016666666666667
2026-01-20T23:11:02+00:00,SAT-61249,241.6590349411048,40.796385937473445,539.8483329902205,-5.28752065912396,185191.3396727331,10.5,10500185191.339672,47.655,-122.3035,60.0,11.033333333333333
2026-01-20T23:11:03+00:00,SAT-61249,241.66966465556837,41.35053529760346,534.5749874443059,-5.24217765062802,183603.2357144695,10.5,10500183603.235714,47.655,-122.3035,60.0,11.05
2026-01-20T23:11:04+00:00,SAT-61249,241.68058010654389,41.91505275794084,529.3468633485386,-5.195471816044366,181967.39982186555,10.5,10500181967.399822,47.655,-122.3035,60.0,11.066666666666666
2026-01-20T23:11:05+00:00,SAT-61249,241.69179764222517,42.49015514588089,524.165319875458,-5.147361228914978,180282.3635530126,10.5,10500180282.363552,47.655,-122.3035,60.0,11.083333333333334
2026-01-20T23:11:06+00:00,SAT-61249,241.70333488674626,43.076060372945975,519.0317580116619,-5.097803058000342,178546.62677672697,10.5,10500178546.626778,47.655,-122.3035,60.0,11.1
2026-01-20T23:11:07+00:00,SAT-61249,241.71521086748209,43.672987005740865,513.9476214601632,-5.0467537779116425,176758.66504978004,10.5,10500176758.66505,47.655,-122.3035,60.0,11.116666666666667
2026-01-20T23:11:08+00:00,SAT-61249,241.7274461571368,44.281153808800816,508.9143973326781,-4.99416909843321,174916.92714147165,10.5,10500174916.927141,47.655,-122.3035,60.0,11.133333333333333
2026-01-20T23:11:09+00:00,SAT-61249,241.74006303426023,44.900779223582745,503.93361691240256,-4.940004105881113,173019.8399846059,10.5,10500173019.839985,47.655,-122.3035,60.0,11.15
2026-01-20T23:11:10+00:00,SAT-61249,241.75308566352044,45.53208080357714,499.00685627580873,-4.884213337285471,171065.81127366933,10.5,10500171065.811274,47.655,-122.3035,60.0,11.166666666666666
2026-01-20T23:11:11+00:00,SAT-61249,241.76654029971215,46.17527459390082,494.1357368404591,-4.826750834738823,169053.23136834096,10.5,10500169053.231369,47.655,-122.3035,60.0,11.183333333333334
2026-01-20T23:11:12+00:00,SAT-61249,241.78045551875337,46.830574447936094,489.32192585861657,-4.767570320562534,166980.47942856056,10.5,10500166980.47943,47.655,-122.3035,60.0,11.2
2026-01-20T23:11:13+00:00,SAT-61249,241.79486247983917,47.49819129237567,484.56713673615883,-4.7066252142009,164845.9240062319,10.5,10500164845.924006,47.655,-122.3035,60.0,11.216666666666667
2026-01-20T23:11:14+00:00,SAT-61249,241.80979522435658,48.178332314829014,479.873129334643,-4.643868903289954,162647.93253919858,10.5,10500162647.932539,47.655,-122.3035,60.0,11.233333333333333
2026-01-20T23:11:15+00:00,SAT-61249,241.8252910167481,48.87120010451237,475.24171000302886,-4.579254799837466,160384.87331890583,10.5,10500160384.87332,47.655,-122.3035,60.0,11.25
2026-01-20T23:11:16+00:00,SAT-61249,241.84139073523187,49.576991712172216,470.6747315533726,-4.512736495202093,158055.12091842544,10.5,10500158055.120918,47.655,-122.3035,60.0,11.266666666666667
2026-01-20T23:11:17+00:00,SAT-61249,241.85813932095675,50.29589763758072,466.1740930819564,-4.4442680313214336,155657.06569200967,10.5,10500155657.065693,47.655,-122.3035,60.0,11.283333333333333
2026-01-20T23:11:18+00:00,SAT-61249,241.87558629534468,51.02810075907262,461.741739519918,-4.373804054010614,153189.11914425628,10.5,10500153189.119144,47.655,-122.3035,60.0,11.3
2026-01-20T23:11:19+00:00,SAT-61249,241.89378635896216,51.773775183942284,457.3796610309912,-4.301300006872592,150649.72072166743,10.5,10500150649.720722,47.655,-122.3035,60.0,11.316666666666666
2026-01-20T23:11:20+00:00,SAT-61249,241.91280008674048,52.53308502139906,453.0898922158577,-4.226712460882163,148037.34935607587,10.5,10500148037.349356,47.655,-122.3035,60.0,11.333333333333334
2026-01-20T23:11:21+00:00,SAT-61249,241.9326947382208,53.30618309882743,448.87451098779707,-4.149999289521675,145350.5295986385,10.5,10500145350.529598,47.655,-122.3035,60.0,11.35
2026-01-20T23:11:22+00:00,SAT-61249,241.95354520577357,54.09320959290985,444.7356372736705,-4.071120009929837,142587.8435683105,10.5,10500142587.843569,47.655,-122.3035,60.0,11.366666666666667
2026-01-20T23:11:23+00:00,SAT-61249,241.9754351289418,54.89429060302164,440.67543137467277,-3.9900360637748324,139747.94078921006,10.5,10500139747.940788,47.655,-122.3035,60.0,11.383333333333333
2026-01-20T23:11:24+00:00,SAT-61249,241.99845820973658,55.70953665632069,436.69609204696,-3.9067111640020635,136829.5503351911,10.5,10500136829.550335,47.655,-122.3035,60.0,11.4
2026-01-20T23:11:25+00:00,SAT-61249,242.02271977288424,56.539041157861384,432.79985423646247,-3.8211115922869174,133831.49124789736,10.5,10500133831.491247,47.655,-122.3035,60.0,11.416666666666666
2026-01-20T23:11:26+00:00,SAT-61249,242.04833862523665,57.38287877750136,428.9889865170411,-3.733206618326183,130752.68722212125,10.5,10500130752.687222,47.655,-122.3035,60.0,11.433333333333334
2026-01-20T23:11:27+00:00,SAT-61249,242.07544928445625,58.24110380231572,425.2657881104762,-3.6429688661973496,127592.17943725646,10.5,10500127592.179438,47.655,-122.3035,60.0,11.45
2026-01-20T23:11:28+00:00,SAT-61249,242.10420466435244,59.11374844981397,421.6325855410794,-3.5503746545822055,124349.13847336732,10.5,10500124349.138474,47.655,-122.3035,60.0,11.466666666666667
2026-01-20T23:11:29+00:00,SAT-61249,242.1347793309113,60.000821141107174,418.09172895099437,-3.4554044758929883,121022.88109221339,10.5,10500121022.881092,47.655,-122.3035,60.0,11.483333333333333
2026-01-20T23:11:30+00:00,SAT-61249,242.16737347496817,60.90230477541049,414.64558793765553,-3.358043397222023,117612.88428020175,10.5,10500117612.88428,47.655,-122.3035,60.0,11.5
2026-01-20T23:11:31+00:00,SAT-61249,242.20221779268562,61.81815500021066,411.2965469913715,-3.258281450906959,114118.7989276337,10.5,10500114118.798927,47.655,-122.3035,60.0,11.516666666666667
2026-01-20T23:11:32+00:00,SAT-61249,242.23957952598215,62.748298486032674,408.04700054339145,-3.1561140853648384,110540.46561882089,10.5,10500110540.465618,47.655,-122.3035,60.0,11.533333333333333
2026-01-20T23:11:33+00:00,SAT-61249,242.27976999680328,63.69263123668801,404.8993475643458,-3.0515426288637926,106877.93087533185,10.5,10500106877.930876,47.655,-122.3035,60.0,11.55
2026-01-20T23:11:34+00:00,SAT-61249,242.32315408562653,64.65101695927449,401.8559857001571,-2.944574619719775,103131.45872087829,10.5,10500103131.458721,47.655,-122.3035,60.0,11.566666666666666
2026-01-20T23:11:35+00:00,SAT-61249,242.37016226524867,65.62328547379053,398.91930507864146,-2.8352243217547173,99301.54873484021,10.5,10500099301.548735,47.655,-122.3035,60.0,11.583333333333334
2026-01-20T23:11:36+00:00,SAT-61249,242.42130603157213,66.60923124133686,396.0916816020324,-2.7235130101975873,95388.94606573014,10.5,10500095388.946066,47.655,-122.3035,60.0,11.6
2026-01-20T23:11:37+00:00,SAT-61249,242.47719790456273,67.60861196320107,393.37546995437054,-2.6094694480758824,91394.65811643856,10.5,10500091394.658117,47.655,-122.3035,60.0,11.616666666666667
2026-01-20T23:11:38+00:00,SAT-61249,242.53857766168042,68.62114734009546,390.77299613377807,-2.4931301168421394,87319.96262174968,10.5,10500087319.962622,47.655,-122.3035,60.0,11.633333333333333
2026-01-20T23:11:39+00:00,SAT-61249,242.6063471913179,69.64651793234955,388.2865497547273,-2.374539585851353,83166.42058900364,10.5,10500083166.42059,47.655,-122.3035,60.0,11.65
2026-01-20T23:11:40+00:00,SAT-61249,242.68161746391127,70.68436419469415,385.91837598181905,-2.2537507291475256,78935.88389087834,10.5,10500078935.88389,47.655,-122.3035,60.0,11.666666666666666
2026-01-20T23:11:41+00:00,SAT-61249,242.7657728347808,71.73428564992668,383.67066724735884,-2.1308249493990115,74630.50310855258,10.5,10500074630.503109,47.655,-122.3035,60.0,11.683333333333334
2026-01-20T23:11:42+00:00,SAT-61249,242.86056062900695,72.79584021669967,381.5455547455953,-2.005832301850655,70252.73187303422,10.5,10500070252.731873,47.655,-122.3035,60.0,11.7
2026-01-20T23:11:43+00:00,SAT-61249,242.9682184135761,73.86854364626171,379.5450998033411,-1.8788515702240591,65805.32952350863,10.5,10500065805.329523,47.655,-122.3035,60.0,11.716666666666667
2026-01-20T23:11:44+00:00,SAT-61249,243.09165884375258,74.95186901426527,377.6712851748952,-1.7499702939491486,61291.362061103144,10.5,10500061291.36206,47.655,-122.3035,60.0,11.733333333333333
2026-01-20T23:11:45+00:00,SAT-61249,243.2347449345394,76.04524616691491,375.9260063098084,-1.6192846614528797,56714.19841140646,10.5,10500056714.198412,47.655,-122.3035,60.0,11.75
2026-01-20T23:11:46+00:00,SAT-61249,243.40271192408716,77.148060877068,374.3110627270715,-1.4868993894804892,52077.50619778813,10.5,10500052077.506197,47.655,-122.3035,60.0,11.766666666666667
2026-01-20T23:11:47+00:00,SAT-61249,243.60283562437112,78.25965335688805,372.8281495096621,-1.3529274548085006,47385.24234485331,10.5,10500047385.242344,47.655,-122.3035,60.0,11.783333333333333
2026-01-20T23:11:48+00:00,SAT-61249,243.84553329348364,79.37931534352829,371.47884906665587,-1.217489804267613,42641.64292221766,10.5,10500042641.642921,47.655,-122.3035,60.0,11.8
2026-01-20T23:11:49+00:00,SAT-61249,244.1462627847003,80.50628433020272,370.26462318453997,-1.080714908735637,37851.2075234534,10.5,10500037851.207523,47.655,-122.3035,60.0,11.816666666666666
2026-01-20T23:11:50+00:00,SAT-61249,244.52898736115864,81.6397317907989,369.186805523336,-0.9427382969682131,33018.682938869126,10.5,10500033018.68294,47.655,-122.3035,60.0,11.833333333333334
2026-01-20T23:11:51+00:00,SAT-61249,245.03294955081915,82.77873840386505,368.2465945776441,-0.8037019555533862,28149.04213938082,10.5,10500028149.04214,47.655,-122.3035,60.0,11.85
2026-01-20T23:11:52+00:00,SAT-61249,245.7271305454354,83.92223852098387,367.4450472361226,-0.6637536852596545,23247.46173309794,10.5,10500023247.461733,47.655,-122.3035,60.0,11.866666666666667
2026-01-20T23:11:53+00:00,SAT-61249,246.74490390387797,85.06888319379173,366.783072982895,-0.52304636454059,18319.29617013979,10.5,10500018319.29617,47.655,-122.3035,60.0,11.883333333333333
2026-01-20T23:11:54+00:00,SAT-61249,248.38155507542405,86.21664803289858,366.2614288334774,-0.3817371560953376,13370.049953027987,10.5,10500013370.049953,47.655,-122.3035,60.0,11.9
2026-01-20T23:11:55+00:00,SAT-61249,251.44338853936543,87.36141130684777,365.8807150620178,-0.2399866560547887,8405.3478375873,10.5,10500008405.347837,47.655,-122.3035,60.0,11.916666666666666
2026-01-20T23:11:56+00:00,SAT-61249,259.13341279204803,88.48910584735563,365.64137177706976,-0.09795800234436598,3430.903604038774,10.5,10500003430.903605,47.655,-122.3035,60.0,11.933333333333334
2026-01-20T23:11:57+00:00,SAT-61249,300.16157181672224,89.46199053767002,365.5436763866115,0.04418405775409184,-1547.5126009272867,10.5,10499998452.487398,47.655,-122.3035,60.0,11.95
2026-01-20T23:11:58+00:00,SAT-61249,33.85777745016917,89.0061216517197,365.5877419930041,0.1862741183639266,-6524.107563844149,10.5,10499993475.892437,47.655,-122.3035,60.0,11.966666666666667
2026-01-20T23:11:59+00:00,SAT-61249,48.727153081867094,87.90825639790295,365.7735167361625,0.32814707479355437,-11493.098620020392,10.5,10499988506.90138,47.655,-122.3035,60.0,11.983333333333333
2026-01-20T23:12:00+00:00,SAT-61249,53.25209784436484,86.7686344792231,366.1007840939329,0.46963907557591805,-16448.746997988655,10.5,10499983551.253002,47.655,-122.3035,60.0,12.0
2026-01-20T23:12:01+00:00,SAT-61249,55.410791100334464,85.62184195535279,366.5691641319573,0.6105884729012662,-21385.391107681884,10.5,10499978614.608892,47.655,-122.3035,60.0,12.016666666666667
2026-01-20T23:12:02+00:00,SAT-61249,56.67194343225732,84.47472466767103,367.1781157014239,0.7508367101620553,-26297.477626010124,10.5,10499973702.522373,47.655,-122.3035,60.0,12.033333333333333
2026-01-20T23:12:03+00:00,SAT-61249,57.498797973410944,83.32999569320005,367.92693952198147,0.8902292181023947,-31179.592883804784,10.5,10499968820.407116,47.655,-122.3035,60.0,12.05
2026-01-20T23:12:04+00:00,SAT-61249,58.08292149234209,82.18924718096983,368.81478215840184,1.0286162100274219,-36026.49071741468,10.5,10499963973.509283,47.655,-122.3035,60.0,12.066666666666666
2026-01-20T23:12:05+00:00,SAT-61249,58.51774367291911,81.05365254481518,369.8406407903191,1.1658534438033734,-40833.1191571718,10.5,10499959166.880842,47.655,-122.3035,60.0,12.083333333333334
2026-01-20T23:12:06+00:00,SAT-61249,58.854226661782526,79.92418859148107,371.00336874192743,1.3018029054814033,-45594.64437078912,10.5,10499954405.355629,47.655,-122.3035,60.0,12.1
2026-01-20T23:12:07+00:00,SAT-61249,59.12251989340201,78.80172003470189,372.301681693468,1.4363334243567079,-50306.4722053329,10.5,10499949693.527794,47.655,-122.3035,60.0,12.116666666666667
2026-01-20T23:12:08+00:00,SAT-61249,59.34159618103564,77.68703571574194,373.7341645061279,1.5693211934803513,-54964.266417748535,10.5,10499945035.733582,47.655,-122.3035,60.0,12.133333333333333
2026-01-20T23:12:09+00:00,SAT-61249,59.52398971113661,76.5808653791003,375.29927856605485,1.7006502115500017,-59563.964151743334,10.5,10499940436.035849,47.655,-122.3035,60.0,12.15
2026-01-20T23:12:10+00:00,SAT-61249,59.678312899953895,75.48388782102153,376.9953695690775,1.830212644586436,-64101.788605227615,10.5,10499935898.211395,47.655,-122.3035,60.0,12.166666666666666
2026-01-20T23:12:11+00:00,SAT-61249,59.810678557481204,74.39673495850748,378.8206756661331,1.9579090965923922,-68574.25850993262,10.5,10499931425.74149,47.655,-122.3035,60.0,12.183333333333334
2026-01-20T23:12:12+00:00,SAT-61249,59.92554517126842,73.31999391141551,380.773335878629,2.083648788902628,-72978.1944130082,10.5,10499927021.805588,47.655,-122.3035,60.0,12.2
2026-01-20T23:12:13+00:00,SAT-61249,60.02624097173355,72.25420812670714,382.8513986926721,2.2073496568729856,-77310.72206348283,10.5,10499922689.277937,47.655,-122.3035,60.0,12.216666666666667
2026-01-20T23:12:14+00:00,SAT-61249,60.11530068227718,71.19987807418785,385.0528307497292,2.3289384012161145,-81569.27421025783,10.5,10499918430.72579,47.655,-122.3035,60.0,12.233333333333333
2026-01-20T23:12:15+00:00,SAT-61249,60.19468866302681,70.15746178270035,387.3755255884851,2.4483503925511947,-85751.58725903486,10.5,10499914248.41274,47.655,-122.3035,60.0,12.25
2026-01-20T23:12:16+00:00,SAT-61249,60.26595077139883,69.12737540633874,389.8173122915062,2.565529601831504,-89855.69883559509,10.5,10499910144.301165,47.655,-122.3035,60.0,12.266666666666667
2026-01-20T23:12:17+00:00,SAT-61249,60.33032016440815,68.10999385851974,392.37596406251834,2.68042837794885,-93879.93999656565,10.5,10499906120.060003,47.655,-122.3035,60.0,12.283333333333333
2026-01-20T23:12:18+00:00,SAT-61249,60.3887925499435,67.10565159657244,395.04920658188485,2.7930072625624263,-97822.92874394283,10.5,10499902177.071257,47.655,-122.3035,60.0,12.3
2026-01-20T23:12:19+00:00,SAT-61249,60.4421807091879,66.11464353466685,397.83472617741137,2.9032346392005026,-101683.55773514915,10.5,10499898316.442265,47.655,-122.3035,60.0,12.316666666666666
2026-01-20T23:12:20+00:00,SAT-61249,60.491154654448515,65.1372261318866,400.7301776451906,3.011086493121633,-105460.98587235689,10.5,10499894539.014128,47.655,-122.3035,60.0,12.333333333333334
2026-01-20T23:12:21+00:00,SAT-61249,60.536271656695014,64.17361859157302,403.73319183095407,3.1165459798998527,-109154.62319251691,10.5,10499890845.376808,47.655,-122.3035,60.0,12.35
2026-01-20T23:12:22+00:00,SAT-61249,60.57799899848773,63.22400421504474,406.8413827811652,3.2196031130235747,-112764.11992575055,10.5,10499887235.880074,47.655,-122.3035,60.0,12.366666666666667
2026-01-20T23:12:23+00:00,SAT-61249,60.61673143320051,62.28853184321296,410.0523545825479,3.3202542744181405,-116289.34935177882,10.5,10499883710.650648,47.655,-122.3035,60.0,12.383333333333333
2026-01-20T23:12:24+00:00,SAT-61249,60.65280472894486,61.367317417262605,413.36370771345133,3.4185019074563674,-119730.39704785321,10.5,10499880269.602953,47.655,-122.3035,60.0,12.4
2026-01-20T23:12:25+00:00,SAT-61249,60.68650628974541,60.460445580525445,416.7730450890472,3.5143539837108007,-123087.54221216401,10.5,10499876912.457788,47.655,-122.3035,60.0,12.416666666666666
2026-01-20T23:12:26+00:00,SAT-61249,60.71808355921955,59.56797136625502,420.27797757470836,3.6078236454683683,-126361.24514319125,10.5,10499873638.754856,47.655,-122.3035,60.0,12.433333333333334
2026-01-20T23:12:27+00:00,SAT-61249,60.747750732434504,58.68992190185463,423.8761291428628,3.6989287603268957,-129552.13163979063,10.5,10499870447.86836,47.655,-122.3035,60.0,12.45
2026-01-20T23:12:28+00:00,SAT-61249,60.775694158493046,57.82629813852418,427.5651415856355,3.7876914920202824,-132660.97796967585,10.5,10499867339.02203,47.655,-122.3035,60.0,12.466666666666667
2026-01-20T23:12:29+00:00,SAT-61249,60.80207672302472,56.977076586866126,431.342678799467,3.8741378822523527,-135688.69622347105,10.5,10499864311.303776,47.655,-122.3035,60.0,12.483333333333333
2026-01-20T23:12:30+00:00,SAT-61249,60.82704142782707,56.1422110433806,435.2064306526881,3.9582974776540834,-138636.32124917523,10.5,10499861363.678751,47.655,-122.3035,60.0,12.5
2026-01-20T23:12:31+00:00,SAT-61249,60.85071433535365,55.321634288305304,439.1541164810496,4.0402029381621505,-141504.9969359222,10.5,10499858495.003063,47.655,-122.3035,60.0,12.516666666666667
2026-01-20T23:12:32+00:00,SAT-61249,60.87320700472172,54.51525975179697,443.18348819268255,4.119889600639398,-144295.96093012346,10.5,10499855704.03907,47.655,-122.3035,60.0,12.533333333333333
2026-01-20T23:12:33+00:00,SAT-61249,60.894618518403135,53.72298315017622,447.2923329378474,4.1973952571287025,-147010.5368689808,10.5,10499852989.46313,47.655,-122.3035,60.0,12.55
2026-01-20T23:12:34+00:00,SAT-61249,60.915037179722695,52.94468404529374,451.47847555753214,4.272759706850197,-149650.11868953376,10.5,10499850349.881311,47.655,-122.3035,60.0,12.566666666666666
2026-01-20T23:12:35+00:00,SAT-61249,60.934541939396865,52.180227369881734,455.73978058524915,4.346024503691897,-152216.16178471345,10.5,10499847783.838215,47.655,-122.3035,60.0,12.583333333333334
2026-01-20T23:12:36+00:00,SAT-61249,60.95320360192172,51.42946487854741,460.07415399699806,4.417232618202391,-154710.1711648967,10.5,10499845289.828835,47.655,-122.3035,60.0,12.6
2026-01-20T23:12:37+00:00,SAT-61249,60.97108584951394,50.69223654055492,464.47954462412895,4.486428237572054,-157133.69445240204,10.5,10499842866.305548,47.655,-122.3035,60.0,12.616666666666667
2026-01-20T23:12:38+00:00,SAT-61249,60.9882461160322,49.968371851137974,468.95394536672336,4.553656446679531,-159488.3107103884,10.5,10499840511.68929,47.655,-122.3035,60.0,12.633333333333333
2026-01-20T23:12:39+00:00,SAT-61249,61.004736334781505,49.257691083706796,473.4953940888737,4.618963016408357,-161775.62302880798,10.5,10499838224.37697,47.655,-122.3035,60.0,12.65
2026-01-20T23:12:40+00:00,SAT-61249,61.02060358150242,48.56000646653872,478.1019743028521,4.682394199540754,-163997.25137574313,10.5,10499836002.748625,47.655,-122.3035,60.0,12.666666666666666
2026-01-20T23:12:41+00:00,SAT-61249,61.03589062936849,47.87512328636494,482.77181564971414,4.743996569284965,-166154.82694195103,10.5,10499833845.173058,47.655,-122.3035,60.0,12.683333333333334
2026-01-20T23:12:42+00:00,SAT-61249,61.050636429832586,47.20284091636001,487.5030942188683,4.803816722362715,-168249.9817417305,10.5,10499831750.01826,47.655,-122.3035,60.0,12.7
2026-01-20T23:12:43+00:00,SAT-61249,61.0648765294568,46.54295379138692,492.29403257152507,4.8619013167693135,-170284.34993544032,10.5,10499829715.650064,47.655,-122.3035,60.0,12.716666666666667
2026-01-20T23:12:44+00:00,SAT-61249,61.07864343476702,45.89525228685111,497.14289980180655,4.918296733914039,-172259.55599622658,10.5,10499827740.444004,47.655,-122.3035,60.0,12.733333333333333
2026-01-20T23:12:45+00:00,SAT-61249,61.09196692987283,45.259523558744576,502.0480112609019,4.973049073398177,-174177.2145271275,10.5,10499825822.785473,47.655,-122.3035,60.0,12.75
2026-01-20T23:12:46+00:00,SAT-61249,61.104874355799836,44.6355523024673,507.007728276015,5.026204015286776,-176038.9254372475,10.5,10499823961.074562,47.655,-122.3035,60.0,12.766666666666667
2026-01-20T23:12:47+00:00,SAT-61249,61.11739085605791,44.02312145395472,512.0204577319529,5.07780668296845,-177846.26913852757,10.5,10499822153.730862,47.655,-122.3035,60.0,12.783333333333333
2026-01-20T23:12:48+00:00,SAT-61249,61.12953959282073,43.42201283660695,517.0846515159417,5.127901621070064,-179600.8057722242,10.5,10499820399.194227,47.655,-122.3035,60.0,12.8
2026-01-20T23:12:49+00:00,SAT-61249,61.14134193862078,42.83200774434462,522.198805940416,5.176532651647884,-181304.07017211482,10.5,10499818695.929829,47.655,-122.3035,60.0,12.816666666666666
2026-01-20T23:12:50+00:00,SAT-61249,61.152817645569144,42.25288747990936,527.3614610223864,5.223742885702745,-182957.57226780805,10.5,10499817042.427732,47.655,-122.3035,60.0,12.833333333333334
2026-01-20T23:12:51+00:00,SAT-61249,61.1639849964498,41.684433834293365,532.5711997742891,5.269574580323041,-184562.79208128687,10.5,10499815437.207918,47.655,-122.3035,60.0,12.85
2026-01-20T23:12:52+00:00,SAT-61249,61.174860938427734,41.12642952901958,537.8266473523635,5.314069187390981,-186121.1814328074,10.5,10499813878.818567,47.655,-122.3035,60.0,12.866666666666667
2026-01-20T23:12:53+00:00,SAT-61249,61.18546120318919,40.578658603809636,543.1264702536045,5.357267240702853,-187634.15998737354,10.5,10499812365.840014,47.655,-122.3035,60.0,12.883333333333333
2026-01-20T23:12:54+00:00,SAT-61249,61.195800413735306,40.040906771193676,548.469375400138,5.399208407944906,-189103.11707515176,10.5,10499810896.882925,47.655,-122.3035,60.0,12.9
2026-01-20T23:12:55+00:00,SAT-61249,61.20589218067909,39.51296172419593,553.8541092754318,5.43993132386939,-190529.40584859072,10.5,10499809470.59415,47.655,-122.3035,60.0,12.916666666666666
2026-01-20T23:12:56+00:00,SAT-61249,61.21574918783593,38.99461342249862,559.2794568941324,5.479473771509778,-191914.34962934483,10.5,10499808085.650372,47.655,-122.3035,60.0,12.933333333333334
2026-01-20T23:12:57+00:00,SAT-61249,61.22538327033026,38.48565432584084,564.7442409526283,5.5178725182946335,-193259.2361682883,10.5,10499806740.763832,47.655,-122.3035,60.0,12.95
2026-01-20T23:12:58+00:00,SAT-61249,61.23480548414461,37.98587961183475,570.2473208161675,5.5551633363025115,-194565.31835492796,10.5,10499805434.681644,47.655,-122.3035,60.0,12.966666666666667
2026-01-20T23:12:59+00:00,SAT-61249,61.244026169130585,37.49508736240408,575.7875915261781,5.591381081699258,-195833.81699963316,10.5,10499804166.183,47.655,-122.3035,60.0,12.983333333333333
2026-01-20T23:13:00+00:00,SAT-61249,61.2530550062756,37.01307871692737,581.363982886808,5.626559578997175,-197065.91677990224,10.5,10499802934.08322,47.655,-122.3035,60.0,13.0
2026-01-20T23:13:01+00:00,SAT-61249,61.26190106918219,36.53965801195655,586.9754584360388,5.660731748398,-198262.77070045235,10.5,10499801737.2293,47.655,-122.3035,60.0,13.016666666666667
2026-01-20T23:13:02+00:00,SAT-61249,61.27057287114921,36.07463288837252,592.6210145438005,5.693929466555303,-199425.4952165297,10.5,10499800574.504784,47.655,-122.3035,60.0,13.033333333333333
2026-01-20T23:13:03+00:00,SAT-61249,61.279078407461185,35.61781439094949,598.2996793712182,5.726183749561743,-200555.17664289704,10.5,10499799444.823357,47.655,-122.3035,60.0,13.05
2026-01-20T23:13:04+00:00,SAT-61249,61.28742519455479,35.16901703537919,604.0105120123606,5.757524596392982,-201652.8656705777,10.5,10499798347.134329,47.655,-122.3035,60.0,13.066666666666666
2026-01-20T23:13:05+00:00,SAT-61249,61.2956203050293,34.72805887252866,609.7526014798491,5.787981158914068,-202719.5833211979,10.5,10499797280.41668,47.655,-122.3035,60.0,13.083333333333334
2026-01-20T23:13:06+00:00,SAT-61249,61.30367040019072,34.29476152531963,615.5250658600175,5.817581606653452,-203756.31621080087,10.5,10499796243.683788,47.655,-122.3035,60.0,13.1
2026-01-20T23:13:07+00:00,SAT-61249,61.31158175926745,33.86895022377403,621.3270513332096,5.846353291541287,-204764.0223196793,10.5,10499795235.97768,47.655,-122.3035,60.0,13.116666666666667
2026-01-20T23:13:08+00:00,SAT-61249,61.319360306654154,33.45045381664826,627.1577313583731,5.874322637625358,-205743.62712976008,10.5,10499794256.37287,47.655,-122.3035,60.0,13.133333333333333
2026-01-20T23:13:09+00:00,SAT-61249,61.32701163645282,33.039104781691165,633.0163057476634,5.901515269825002,-206696.02813411178,10.5,10499793303.971867,47.655,-122.3035,60.0,13.15
2026-01-20T23:13:10+00:00,SAT-61249,61.334541035293874,32.63473921811584,638.9019998694591,5.927955905343473,-207622.091033746,10.5,10499792377.908966,47.655,-122.3035,60.0,13.166666666666666
2026-01-20T23:13:11+00:00,SAT-61249,61.34195350300255,32.2371968392974,644.8140637430783,5.953668551718138,-208522.65667417308,10.5,10499791477.343327,47.655,-122.3035,60.0,13.183333333333334
2026-01-20T23:13:12+00:00,SAT-61249,61.34925377203596,31.846320945477945,650.7517713310156,5.978676329618857,-209398.53483905186,10.5,10499790601.46516,47.655,-122.3035,60.0,13.2
2026-01-20T23:13:13+00:00,SAT-61249,61.35644632485677,31.461958403019487,656.714419654452,6.003001669581883,-210250.51114064307,10.5,10499789749.48886,47.655,-122.3035,60.0,13.216666666666667
2026-01-20T23:13:14+00:00,SAT-61249,61.3635354104612,31.08395960583343,662.7013281049719,6.0266662008743985,-211079.3431273751,10.5,10499788920.656872,47.655,-122.3035,60.0,13.233333333333333
2026-01-20T23:13:15+00:00,SAT-61249,61.37052505922855,30.71217844019081,668.7118376454417,6.049690845502726,-211885.76357640934,10.5,10499788114.236423,47.655,-122.3035,60.0,13.25
2026-01-20T23:13:16+00:00,SAT-61249,61.37741909681401,30.346472240112284,674.7453101046448,6.072095837193568,-212670.4811584435,10.5,10499787329.51884,47.655,-122.3035,60.0,13.266666666666667
