DopplerPredictor/satellites_20260205_234138/SAT-53543.csv

timestamp,satellite,azimuth_deg,elevation_deg,distance_km,relative_velocity_kms,doppler_shift_hz,tx_freq_ghz,rx_freq_hz,ue_lat,ue_lon,ue_alt_m,time_minutes
2026-01-20T23:07:55+00:00,SAT-53543,278.020838017623,30.11681894433224,983.3530111206252,-5.135851621571802,179879.24841826383,10.5,10500179879.248419,47.655,-122.3035,60.0,7.916666666666667
2026-01-20T23:07:56+00:00,SAT-53543,278.2524604749803,30.344846576845335,978.2309280085036,-5.11306079399588,179081.01723144998,10.5,10500179081.017231,47.655,-122.3035,60.0,7.933333333333334
2026-01-20T23:07:57+00:00,SAT-53543,278.4875648278142,30.574506101787797,973.1315746248938,-5.089904381131297,178269.98170140295,10.5,10500178269.9817,47.655,-122.3035,60.0,7.95
2026-01-20T23:07:58+00:00,SAT-53543,278.72622401296684,30.805801060763347,968.0553155750013,-5.066376347220578,177445.9304303648,10.5,10500177445.93043,47.655,-122.3035,60.0,7.966666666666667
2026-01-20T23:07:59+00:00,SAT-53543,278.96851275418686,31.038734290942102,963.0025214836079,-5.042470650063292,176608.65179491794,10.5,10500176608.651794,47.655,-122.3035,60.0,7.983333333333333
2026-01-20T23:08:00+00:00,SAT-53543,279.2145076081903,31.273307885859676,957.9735690014966,-5.018181136044275,175757.93026942955,10.5,10500175757.93027,47.655,-122.3035,60.0,8.0
2026-01-20T23:08:01+00:00,SAT-53543,279.46428700653325,31.509523149551494,952.9688409165688,-4.993501585744701,174893.5480235442,10.5,10500174893.548023,47.655,-122.3035,60.0,8.016666666666667
2026-01-20T23:08:02+00:00,SAT-53543,279.7179312999249,31.747380550768263,947.9887262194724,-4.968425755715465,174015.2863852645,10.5,10500174015.286385,47.655,-122.3035,60.0,8.033333333333333
2026-01-20T23:08:03+00:00,SAT-53543,279.9755228049346,31.986879677175697,943.0336201275652,-4.94294729759616,173122.92300815549,10.5,10500173122.923008,47.655,-122.3035,60.0,8.05
2026-01-20T23:08:04+00:00,SAT-53543,280.23714584710547,32.22801918362476,938.1039241895473,-4.917059820507955,172216.23405660703,10.5,10500172216.234056,47.655,-122.3035,60.0,8.066666666666666
2026-01-20T23:08:05+00:00,SAT-53543,280.5028868072827,32.47079674119319,933.2000463278638,-4.890756885224558,171294.99400167653,10.5,10500171294.994001,47.655,-122.3035,60.0,8.083333333333334
2026-01-20T23:08:06+00:00,SAT-53543,280.77283416779966,32.715208983749264,928.3224008869239,-4.864031995265424,170358.9753091352,10.5,10500170358.97531,47.655,-122.3035,60.0,8.1
2026-01-20T23:08:07+00:00,SAT-53543,281.0470785581529,32.96125145177975,923.4714086902015,-4.836878575952131,169407.94770593385,10.5,10500169407.947706,47.655,-122.3035,60.0,8.116666666666667
2026-01-20T23:08:08+00:00,SAT-53543,281.32571279948434,33.20891853273647,918.6474971182222,-4.8092900399487934,168441.6804757054,10.5,10500168441.680475,47.655,-122.3035,60.0,8.133333333333333
2026-01-20T23:08:09+00:00,SAT-53543,281.6088319521704,33.45820340224441,913.8511001211886,-4.78125974613412,167459.94101829026,10.5,10500167459.94102,47.655,-122.3035,60.0,8.15
2026-01-20T23:08:10+00:00,SAT-53543,281.8965333609287,33.70909796074316,909.0826582726199,-4.752781017743588,166462.49548515218,10.5,10500166462.495485,47.655,-122.3035,60.0,8.166666666666666
2026-01-20T23:08:11+00:00,SAT-53543,282.18891670023254,33.96159276846238,904.3426188049013,-4.723847093938638,165449.10708312647,10.5,10500165449.107082,47.655,-122.3035,60.0,8.183333333333334
2026-01-20T23:08:12+00:00,SAT-53543,282.4860840161698,34.21567697513301,899.6314356931306,-4.694451258338761,164419.5405761575,10.5,10500164419.540577,47.655,-122.3035,60.0,8.2
2026-01-20T23:08:13+00:00,SAT-53543,282.78813977469713,34.47133825381903,894.949569610781,-4.6645867189624575,163373.55808032304,10.5,10500163373.55808,47.655,-122.3035,60.0,8.216666666666667
2026-01-20T23:08:14+00:00,SAT-53543,283.0951909018498,34.72856272560126,890.2974880050994,-4.634246663098065,162310.92098564297,10.5,10500162310.920986,47.655,-122.3035,60.0,8.233333333333333
2026-01-20T23:08:15+00:00,SAT-53543,283.40734682543456,34.987334884292224,885.6756651177787,-4.603424270824954,161231.39042964854,10.5,10500161231.39043,47.655,-122.3035,60.0,8.25
2026-01-20T23:08:16+00:00,SAT-53543,283.72471951605644,35.247637519013466,881.0845819921516,-4.572112712031672,160134.72719294543,10.5,10500160134.727194,47.655,-122.3035,60.0,8.266666666666667
2026-01-20T23:08:17+00:00,SAT-53543,284.0474235257509,35.50945163367742,876.5247264833491,-4.540305124815458,159020.6909426731,10.5,10500159020.690943,47.655,-122.3035,60.0,8.283333333333333
2026-01-20T23:08:18+00:00,SAT-53543,284.37557602291093,35.77275636219659,871.9965932900111,-4.50799470833527,157889.04348461074,10.5,10500157889.043484,47.655,-122.3035,60.0,8.3
2026-01-20T23:08:19+00:00,SAT-53543,284.7092968306738,36.0375288860098,867.5006838933856,-4.47517458468349,156739.54392534,10.5,10500156739.543926,47.655,-122.3035,60.0,8.316666666666666
2026-01-20T23:08:20+00:00,SAT-53543,285.0487084526945,36.303744340511926,863.0375066341898,-4.44183796499248,155571.95448999933,10.5,10500155571.95449,47.655,-122.3035,60.0,8.333333333333334
2026-01-20T23:08:21+00:00,SAT-53543,285.39393610691536,36.57137572805369,858.6075766238079,-4.407978030741754,154386.03636515903,10.5,10500154386.036366,47.655,-122.3035,60.0,8.35
2026-01-20T23:08:22+00:00,SAT-53543,285.74510774687946,36.84039382084267,854.2114157738655,-4.373588028215835,153181.5530071349,10.5,10500153181.553007,47.655,-122.3035,60.0,8.366666666666667
2026-01-20T23:08:23+00:00,SAT-53543,286.10235408533947,37.11076706633085,849.849552731598,-4.338661216466618,151958.26831941013,10.5,10500151958.26832,47.655,-122.3035,60.0,8.383333333333333
2026-01-20T23:08:24+00:00,SAT-53543,286.46580860900787,37.38246148632853,845.5225228671176,-4.303190898336117,150715.94773918306,10.5,10500150715.947739,47.655,-122.3035,60.0,8.4
2026-01-20T23:08:25+00:00,SAT-53543,286.83560758970265,37.65544057483775,841.2308682297394,-4.267170465013621,149454.35979794734,10.5,10500149454.359798,47.655,-122.3035,60.0,8.416666666666666
2026-01-20T23:08:26+00:00,SAT-53543,287.21189009297876,37.92966519562895,836.9751374598729,-4.230593338869223,148173.27411928037,10.5,10500148173.274118,47.655,-122.3035,60.0,8.433333333333334
2026-01-20T23:08:27+00:00,SAT-53543,287.59479797497846,38.20509347315959,832.7558857579234,-4.193453016432066,146872.46292412298,10.5,10500146872.462925,47.655,-122.3035,60.0,8.45
2026-01-20T23:08:28+00:00,SAT-53543,287.9844758749534,38.48168068315141,828.5736748103321,-4.155743109922569,145551.702485414,10.5,10500145551.702486,47.655,-122.3035,60.0,8.466666666666667
2026-01-20T23:08:29+00:00,SAT-53543,288.38107120280904,38.75937914300828,824.4290726741945,-4.117457307768193,144210.77174518522,10.5,10500144210.771746,47.655,-122.3035,60.0,8.483333333333333
2026-01-20T23:08:30+00:00,SAT-53543,288.7847341139162,39.038138096848684,820.3226537012595,-4.078589388031252,142849.45278486004,10.5,10500142849.452785,47.655,-122.3035,60.0,8.5
2026-01-20T23:08:31+00:00,SAT-53543,289.1956174743832,39.3179035986319,816.254998448532,-4.039133276469962,141467.53285879726,10.5,10500141467.532858,47.655,-122.3035,60.0,8.516666666666667
2026-01-20T23:08:32+00:00,SAT-53543,289.613876820438,39.59861839665056,812.226693530976,-3.9990830234734025,140064.80358645556,10.5,10500140064.803587,47.655,-122.3035,60.0,8.533333333333333
2026-01-20T23:08:33+00:00,SAT-53543,290.03967030323065,39.88022181412544,808.2383314972152,-3.958432821525852,138641.06156406857,10.5,10500138641.061563,47.655,-122.3035,60.0,8.55
2026-01-20T23:08:34+00:00,SAT-53543,290.4731586218588,40.16264962879167,804.2905106878201,-3.9171769940348407,137196.10797335612,10.5,10500137196.107973,47.655,-122.3035,60.0,8.566666666666666
2026-01-20T23:08:35+00:00,SAT-53543,290.9145049399965,40.445833949669826,800.3838351047357,-3.8753100925641504,135729.7519870349,10.5,10500135729.751987,47.655,-122.3035,60.0,8.583333333333334
2026-01-20T23:08:36+00:00,SAT-53543,291.3638747969992,40.7297030991196,796.5189141837369,-3.8328267916428516,134241.80708458633,10.5,10500134241.807085,47.655,-122.3035,60.0,8.6
2026-01-20T23:08:37+00:00,SAT-53543,291.82143599015996,41.014181485941776,792.6963626717924,-3.7897220153588,132732.0954860959,10.5,10500132732.095486,47.655,-122.3035,60.0,8.616666666666667
2026-01-20T23:08:38+00:00,SAT-53543,292.2873584519887,41.29918948661422,788.9168003781751,-3.7459908419132977,131200.44480935417,10.5,10500131200.444809,47.655,-122.3035,60.0,8.633333333333333
2026-01-20T23:08:39+00:00,SAT-53543,292.7618140961089,41.58464331879482,785.1808520207624,-3.701628660680447,129646.69357073918,10.5,10500129646.693571,47.655,-122.3035,60.0,8.65
2026-01-20T23:08:40+00:00,SAT-53543,293.24497665984114,41.870454926402374,781.4891469156962,-3.656631023852085,128070.68598919487,10.5,10500128070.68599,47.655,-122.3035,60.0,8.666666666666666
2026-01-20T23:08:41+00:00,SAT-53543,293.73702150522206,42.15653185370704,777.8423188150042,-3.610993795547551,126472.27720868579,10.5,10500126472.277208,47.655,-122.3035,60.0,8.683333333333334
2026-01-20T23:08:42+00:00,SAT-53543,294.23812541296076,42.44277713155431,774.2410055955054,-3.5647130958176585,124851.33133697917,10.5,10500124851.331337,47.655,-122.3035,60.0,8.7
2026-01-20T23:08:43+00:00,SAT-53543,294.7484663422015,42.72908916068799,770.685849003567,-3.517785349100522,123207.72314277328,10.5,10500123207.723143,47.655,-122.3035,60.0,8.716666666666667
2026-01-20T23:08:44+00:00,SAT-53543,295.2682231678706,43.015361600875764,767.177494351533,-3.470207291065885,121541.33829541432,10.5,10500121541.338295,47.655,-122.3035,60.0,8.733333333333333
2026-01-20T23:08:45+00:00,SAT-53543,295.79757538797224,43.30148326332849,763.7165902073257,-3.4219759510853427,119852.07275092992,10.5,10500119852.07275,47.655,-122.3035,60.0,8.75
2026-01-20T23:08:46+00:00,SAT-53543,296.3367027953048,43.58733800508614,760.3037881015327,-3.3730887590166936,118139.8364920684,10.5,10500118139.836493,47.655,-122.3035,60.0,8.766666666666667
2026-01-20T23:08:47+00:00,SAT-53543,296.88578513004796,43.87280463653701,756.9397421279928,-3.3235434758730986,116404.5511000398,10.5,10500116404.5511,47.655,-122.3035,60.0,8.783333333333333
2026-01-20T23:08:48+00:00,SAT-53543,297.4450016856621,44.157756828490726,753.6251086135295,-3.2733382354312917,114646.15121181122,10.5,10500114646.151213,47.655,-122.3035,60.0,8.8
2026-01-20T23:08:49+00:00,SAT-53543,298.01453088177516,44.442063028822886,750.3605457461865,-3.2224715809860336,112864.5858074033,10.5,10500112864.585808,47.655,-122.3035,60.0,8.816666666666666
2026-01-20T23:08:50+00:00,SAT-53543,298.59454980243146,44.7255863895105,747.1467131668081,-3.17094248099629,111059.81875788566,10.5,10500111059.818758,47.655,-122.3035,60.0,8.833333333333334
2026-01-20T23:08:51+00:00,SAT-53543,299.1852336945156,45.008184703459115,743.9842715450134,-3.1187503339934963,109231.8289972849,10.5,10500109231.828997,47.655,-122.3035,60.0,8.85
2026-01-20T23:08:52+00:00,SAT-53543,299.7867554228357,45.28971035134561,740.8738821502777,-3.0658949714831047,107380.61062420922,10.5,10500107380.610624,47.655,-122.3035,60.0,8.866666666666667
2026-01-20T23:08:53+00:00,SAT-53543,300.3992848790922,45.570010259479204,737.8162064201197,-3.012376710907313,105506.17475682724,10.5,10500105506.174757,47.655,-122.3035,60.0,8.883333333333333
2026-01-20T23:08:54+00:00,SAT-53543,301.0229883528657,45.84892587458306,734.8119054754662,-2.9581963627170724,103608.54978055939,10.5,10500103608.54978,47.655,-122.3035,60.0,8.9
2026-01-20T23:08:55+00:00,SAT-53543,301.65802785514353,46.12629315289294,731.8616396289667,-2.9033552270081757,101687.78123025979,10.5,10500101687.78123,47.655,-122.3035,60.0,8.916666666666666
2026-01-20T23:08:56+00:00,SAT-53543,302.3045603910387,46.401942563988264,728.966067896659,-2.847855124005426,99743.93285790054,10.5,10500099743.932858,47.655,-122.3035,60.0,8.933333333333334
2026-01-20T23:08:57+00:00,SAT-53543,302.9627371869981,46.67569911402932,726.125847479237,-2.791698431518812,97777.08794444565,10.5,10500097777.087944,47.655,-122.3035,60.0,8.95
2026-01-20T23:08:58+00:00,SAT-53543,303.63270287484505,46.94738239080292,723.3416332059588,-2.734888068509465,95787.34872426104,10.5,10500095787.348724,47.655,-122.3035,60.0,8.966666666666667
2026-01-20T23:08:59+00:00,SAT-53543,304.3145946204981,47.21680662709254,720.6140769949462,-2.6774275111829384,93774.83694876957,10.5,10500093774.836948,47.655,-122.3035,60.0,8.983333333333333
2026-01-20T23:09:00+00:00,SAT-53543,305.0085412043254,47.48378078706038,717.943827297436,-2.619320842939085,91739.69563590686,10.5,10500091739.695637,47.655,-122.3035,60.0,9.0
2026-01-20T23:09:01+00:00,SAT-53543,305.71466206266416,47.74810868081552,715.3315284922104,-2.560572730188925,89682.08822312573,10.5,10500089682.088223,47.655,-122.3035,60.0,9.016666666666667
2026-01-20T23:09:02+00:00,SAT-53543,306.43306627462,48.00958910159372,712.777820304152,-2.50118846602915,87602.20009706206,10.5,10500087602.200096,47.655,-122.3035,60.0,9.033333333333333
2026-01-20T23:09:03+00:00,SAT-53543,307.16385151247084,48.26801599401829,710.2833371792361,-2.44117394548559,85500.23772645638,10.5,10500085500.237726,47.655,-122.3035,60.0,9.05
2026-01-20T23:09:04+00:00,SAT-53543,307.90710294097727,48.52317864821237,707.8487076842166,-2.3805357204638438,83376.43058675733,10.5,10500083376.430586,47.655,-122.3035,60.0,9.066666666666666
2026-01-20T23:09:05+00:00,SAT-53543,308.6628920908379,48.77486192959973,705.4745538515053,-2.319280988544177,81231.03076767147,10.5,10500081231.030767,47.655,-122.3035,60.0,9.083333333333334
2026-01-20T23:09:06+00:00,SAT-53543,309.4312756933427,49.02284653924438,703.1614905352307,-2.2574175821415734,79064.31259350266,10.5,10500079064.312593,47.655,-122.3035,60.0,9.1
2026-01-20T23:09:07+00:00,SAT-53543,310.21229447966573,49.26690930609193,700.9101247781032,-2.1949540338437394,76876.5749115652,10.5,10500076876.574911,47.655,-122.3035,60.0,9.116666666666667
2026-01-20T23:09:08+00:00,SAT-53543,311.0059719769086,49.50682352068942,698.7210551131205,-2.131899514424811,74668.13892116163,10.5,10500074668.138922,47.655,-122.3035,60.0,9.133333333333333
2026-01-20T23:09:09+00:00,SAT-53543,311.81231326644195,49.74235929795134,696.5948709270917,-2.0682638896212517,72439.35016211495,10.5,10500072439.350163,47.655,-122.3035,60.0,9.15
2026-01-20T23:09:10+00:00,SAT-53543,312.63130375249483,49.97328398275072,694.532151767538,-2.004057702940172,70190.57791264317,10.5,10500070190.577913,47.655,-122.3035,60.0,9.166666666666666
2026-01-20T23:09:11+00:00,SAT-53543,313.4629079260458,50.19936259118479,692.5334666667395,-1.9392921799116105,67922.21533829217,10.5,10500067922.215338,47.655,-122.3035,60.0,9.183333333333334
2026-01-20T23:09:12+00:00,SAT-53543,314.30706814190364,50.42035829034061,690.5993734615398,-1.8739792384247027,65634.6798539521,10.5,10500065634.679853,47.655,-122.3035,60.0,9.2
2026-01-20T23:09:13+00:00,SAT-53543,315.1637034235373,50.636032917516104,688.7304181028442,-1.8081314688316406,63328.41242701385,10.5,10500063328.412428,47.655,-122.3035,60.0,9.216666666666667
2026-01-20T23:09:14+00:00,SAT-53543,316.0327082961526,50.84614753535562,686.9271339849583,-1.7417621586167875,61003.87844138584,10.5,10500061003.87844,47.655,-122.3035,60.0,9.233333333333333
2026-01-20T23:09:15+00:00,SAT-53543,316.91395168101184,51.05046302752402,685.1900412503255,-1.6748852528667095,58661.56631298727,10.5,10500058661.566313,47.655,-122.3035,60.0,9.25
2026-01-20T23:09:16+00:00,SAT-53543,317.8072758369813,51.24874072661951,683.5196461336876,-1.6075153968850382,56301.988982300885,10.5,10500056301.988983,47.655,-122.3035,60.0,9.266666666666667
2026-01-20T23:09:17+00:00,SAT-53543,318.7124954039013,51.44074308259309,681.9164402637444,-1.5396678759576277,53925.681804694,10.5,10500053925.681805,47.655,-122.3035,60.0,9.283333333333333
2026-01-20T23:09:18+00:00,SAT-53543,319.629396513849,51.62623435778769,680.380900024888,-1.471358638203133,51533.203350742384,10.5,10500051533.20335,47.655,-122.3035,60.0,9.3
2026-01-20T23:09:19+00:00,SAT-53543,320.55773602758273,51.80498135607014,678.9134858961464,-1.4026042797725058,49125.134887854016,10.5,10500049125.134888,47.655,-122.3035,60.0,9.316666666666666
2026-01-20T23:09:20+00:00,SAT-53543,321.49724089518986,51.97675417885735,677.5146418048886,-1.3334220253511442,46702.07969737188,10.5,10500046702.079697,47.655,-122.3035,60.0,9.333333333333334
2026-01-20T23:09:21+00:00,SAT-53543,322.44760765508903,52.14132700409767,676.1847944999752,-1.263829706343557,44264.662310508655,10.5,10500044264.66231,47.655,-122.3035,60.0,9.35
2026-01-20T23:09:22+00:00,SAT-53543,323.4085020839224,52.298478884032974,674.9243529466657,-1.1938457661633,41813.528693622604,10.5,10500041813.528694,47.655,-122.3035,60.0,9.366666666666667
2026-01-20T23:09:23+00:00,SAT-53543,324.37955903355146,52.44799456073342,673.7337077162508,-1.123489206114809,39349.344352770524,10.5,10500039349.344353,47.655,-122.3035,60.0,9.383333333333333
2026-01-20T23:09:24+00:00,SAT-53543,325.360382427278,52.58966528717149,672.6132304296559,-1.0527796048578375,36872.79501543462,10.5,10500036872.795015,47.655,-122.3035,60.0,9.4
2026-01-20T23:09:25+00:00,SAT-53543,326.3505454834625,52.72328965764527,671.5632731816353,-0.9817370580926964,34384.584518044525,10.5,10500034384.584518,47.655,-122.3035,60.0,9.416666666666666
2026-01-20T23:09:26+00:00,SAT-53543,327.3495911172933,52.848674431832045,670.5841680251157,-0.9103821817791927,31885.43491871808,10.5,10500031885.43492,47.655,-122.3035,60.0,9.433333333333334
2026-01-20T23:09:27+00:00,SAT-53543,328.35703258123743,52.96563535429435,669.6762264523328,-0.8387360685195538,29376.084969606927,10.5,10500029376.08497,47.655,-122.3035,60.0,9.45
2026-01-20T23:09:28+00:00,SAT-53543,329.37235431297006,53.073997957110485,668.8397389194673,-0.7668202687408323,26857.28945782465,10.5,10500026857.289457,47.655,-122.3035,60.0,9.466666666666667
2026-01-20T23:09:29+00:00,SAT-53543,330.395013018022,53.17359834209797,668.0749743900458,-0.6946567537294102,24329.817910758804,10.5,10500024329.817911,47.655,-122.3035,60.0,9.483333333333333
2026-01-20T23:09:30+00:00,SAT-53543,331.4244389701193,53.26428393353314,667.3821799152105,-0.62226788707858,21794.453596044405,10.5,10500021794.453596,47.655,-122.3035,60.0,9.5
2026-01-20T23:09:31+00:00,SAT-53543,332.46003753773476,53.345914195580306,666.7615802424643,-0.549676398455764,19251.992602780963,10.5,10500019251.992603,47.655,-122.3035,60.0,9.516666666666667
2026-01-20T23:09:32+00:00,SAT-53543,333.50119093772844,53.41836130802484,666.2133774505775,-0.47690533638800753,16703.242187880787,10.5,10500016703.242188,47.655,-122.3035,60.0,9.533333333333333
2026-01-20T23:09:33+00:00,SAT-53543,334.54726017907524,53.48151079095523,665.7377506315833,-0.40397804545129806,14149.019977142418,10.5,10500014149.019978,47.655,-122.3035,60.0,9.55
2026-01-20T23:09:34+00:00,SAT-53543,335.5975872214425,53.535262075309355,665.3348555955229,-0.3309181186923007,11590.152298858557,10.5,10500011590.152298,47.655,-122.3035,60.0,9.566666666666666
2026-01-20T23:09:35+00:00,SAT-53543,336.65149729300737,53.57952901014522,665.0048246226401,-0.2577493728741169,9027.473316817823,10.5,10500009027.473316,47.655,-122.3035,60.0,9.583333333333334
2026-01-20T23:09:36+00:00,SAT-53543,337.70830139759283,53.61424030429481,664.7477662402653,-0.1844957969276799,6461.823224854572,10.5,10500006461.823225,47.655,-122.3035,60.0,9.6
2026-01-20T23:09:37+00:00,SAT-53543,338.7672989294507,53.63933989408753,664.5637650511086,-0.1111815227281023,3894.0472233129835,10.5,10500003894.047224,47.655,-122.3035,60.0,9.616666666666667
2026-01-20T23:09:38+00:00,SAT-53543,339.8277804261447,53.65478723607552,664.4528815906999,-0.03783078200958241,1324.9940100248132,10.5,10500001324.99401,47.655,-122.3035,60.0,9.633333333333333
2026-01-20T23:09:39+00:00,SAT-53543,340.88903040480193,53.6605575196885,664.415152227796,0.03553213406004766,-1244.48563556092,10.5,10499998755.514364,47.655,-122.3035,60.0,9.65
2026-01-20T23:09:40+00:00,SAT-53543,341.95033025105477,53.656641797764046,664.4505891051082,0.10888291349614708,-3813.540204902501,10.5,10499996186.459795,47.655,-122.3035,60.0,9.666666666666666
2026-01-20T23:09:41+00:00,SAT-53543,343.01096115533653,53.643047033745574,664.5591801185391,0.18219726372718079,-6381.318869387296,10.5,10499993618.681131,47.655,-122.3035,60.0,9.683333333333334
2026-01-20T23:09:42+00:00,SAT-53543,344.0702070275199,53.61979606476568,664.7408889365453,0.25545095288325576,-8946.972926430943,10.5,10499991053.027073,47.655,-122.3035,60.0,9.7
2026-01-20T23:09:43+00:00,SAT-53543,345.127357415672,53.58692748093435,664.9956550606761,0.3286198483545008,-11509.657149954914,10.5,10499988490.34285,47.655,-122.3035,60.0,9.716666666666667
2026-01-20T23:09:44+00:00,SAT-53543,346.1817103396367,53.54449542250524,665.3233939245669,0.40167995785471544,-14068.531228609201,10.5,10499985931.468771,47.655,-122.3035,60.0,9.733333333333333
2026-01-20T23:09:45+00:00,SAT-53543,347.2325750556757,53.492569296895994,665.7239970338861,0.4746074632248459,-16622.760949713025,10.5,10499983377.23905,47.655,-122.3035,60.0,9.75
2026-01-20T23:09:46+00:00,SAT-53543,348.2792746932692,53.431233419622785,666.1973321399979,0.5473787686333097,-19171.5198874341,10.5,10499980828.480112,47.655,-122.3035,60.0,9.766666666666667
2026-01-20T23:09:47+00:00,SAT-53543,349.32114878339365,53.36058658125421,666.7432434616907,0.6199705266732083,-21713.9903168234,10.5,10499978286.009684,47.655,-122.3035,60.0,9.783333333333333
2026-01-20T23:09:48+00:00,SAT-53543,350.3575555969793,53.28074154787557,667.3615519329379,0.6923596847207364,-24249.364837482775,10.5,10499975750.635162,47.655,-122.3035,60.0,9.8
2026-01-20T23:09:49+00:00,SAT-53543,351.38787432988306,53.191824497777034,668.0520554968895,0.7645235100301848,-26776.847252498064,10.5,10499973223.152748,47.655,-122.3035,60.0,9.816666666666666
2026-01-20T23:09:50+00:00,SAT-53543,352.41150707455904,53.093974402905744,668.8145294248935,0.8364396342452258,-29295.65412741261,10.5,10499970704.345873,47.655,-122.3035,60.0,9.833333333333334
2026-01-20T23:09:51+00:00,SAT-53543,353.4278806022799,52.987342358849006,669.6487266799078,0.9080860807345295,-31805.015747636182,10.5,10499968194.984253,47.655,-122.3035,60.0,9.85
2026-01-20T23:09:52+00:00,SAT-53543,354.4364479196688,52.872090872105225,670.5543783071759,0.9794412981515467,-34304.17729385054,10.5,10499965695.822706,47.655,-122.3035,60.0,9.866666666666667
2026-01-20T23:09:53+00:00,SAT-53543,355.43668960439663,52.74839311059356,671.5311938583699,1.0504841787914103,-36792.39948494571,10.5,10499963207.600515,47.655,-122.3035,60.0,9.883333333333333
2026-01-20T23:09:54+00:00,SAT-53543,356.428114904478,52.61643212615029,672.5788618340447,1.121194114044188,-39268.96052022754,10.5,10499960731.03948,47.655,-122.3035,60.0,9.9
2026-01-20T23:09:55+00:00,SAT-53543,357.4102626400641,52.476400051149824,673.6970501813939,1.1915509951929169,-41733.15610736821,10.5,10499958266.843893,47.655,-122.3035,60.0,9.916666666666666
2026-01-20T23:09:56+00:00,SAT-53543,358.3827018541897,52.32849728283743,674.8854067928025,1.261535240330954,-44184.30040516569,10.5,10499955815.699594,47.655,-122.3035,60.0,9.933333333333334
2026-01-20T23:09:57+00:00,SAT-53543,359.3450322520143,52.17293165851242,676.143560031246,1.3311278344518775,-46621.72742766169,10.5,10499953378.272572,47.655,-122.3035,60.0,9.95
2026-01-20T23:09:58+00:00,SAT-53543,0.2968844459289384,52.00991762613961,677.4711192956695,1.4003103390937177,-49044.79138192341,10.5,10499950955.208618,47.655,-122.3035,60.0,9.966666666666667
2026-01-20T23:09:59+00:00,SAT-53543,1.2379199909044931,51.83967541999982,678.8676755959867,1.4690649071336168,-51452.867186215124,10.5,10499948547.132814,47.655,-122.3035,60.0,9.983333333333333
2026-01-20T23:10:00+00:00,SAT-53543,2.167831231416924,51.66243024610025,680.3328021428354,1.5373743101732504,-53845.351429151466,10.5,10499946154.648571,47.655,-122.3035,60.0,10.0
2026-01-20T23:10:01+00:00,SAT-53543,3.0863409826420076,51.47841148075823,681.8660549646407,1.6052219485350028,-56221.66271980575,10.5,10499943778.33728,47.655,-122.3035,60.0,10.016666666666667
2026-01-20T23:10:02+00:00,SAT-53543,3.9932020493284126,51.287851888914005,683.4669735346522,1.6725918643793725,-58581.24214713705,10.5,10499941418.757853,47.655,-122.3035,60.0,10.033333333333333
2026-01-20T23:10:03+00:00,SAT-53543,4.8881966013828615,51.090986865712814,685.1350814110608,1.7394687619166187,-60923.5539878875,10.5,10499939076.446012,47.655,-122.3035,60.0,10.05
2026-01-20T23:10:04+00:00,SAT-53543,5.7711354269087956,50.88805370393553,686.8698868972734,1.8058379940013227,-63248.08523706719,10.5,10499936751.914762,47.655,-122.3035,60.0,10.066666666666666
2026-01-20T23:10:05+00:00,SAT-53543,6.641857061007842,50.67929089408653,688.6708836888183,1.8716856062074891,-65554.34715165061,10.5,10499934445.65285,47.655,-122.3035,60.0,10.083333333333334
2026-01-20T23:10:06+00:00,SAT-53543,7.500226838254208,50.46493745278506,690.5375515642083,1.936998306046951,-67841.87417247496,10.5,10499932158.125828,47.655,-122.3035,60.0,10.1
2026-01-20T23:10:07+00:00,SAT-53543,8.346135845337797,50.24523229005258,692.4693570451022,2.001763490815234,-70110.22489952018,10.5,10499929889.7751,47.655,-122.3035,60.0,10.116666666666667
2026-01-20T23:10:08+00:00,SAT-53543,9.179499820544748,50.020413610055115,694.465754084242,2.0659692372820673,-72358.98173082696,10.5,10499927641.018269,47.655,-122.3035,60.0,10.133333333333333
2026-01-20T23:10:09+00:00,SAT-53543,10.000257995570287,49.79071835065122,696.5261847431027,2.129604321646377,-74587.75156140506,10.5,10499925412.248438,47.655,-122.3035,60.0,10.15
2026-01-20T23:10:10+00:00,SAT-53543,10.808371907500431,49.55638165886407,698.650079889448,2.1926581851958784,-76796.16458048696,10.5,10499923203.835419,47.655,-122.3035,60.0,10.166666666666666
2026-01-20T23:10:11+00:00,SAT-53543,11.603824171275066,49.31763640846446,700.8368598606363,2.2551209552159968,-78983.87500384671,10.5,10499921016.124996,47.655,-122.3035,60.0,10.183333333333334
2026-01-20T23:10:12+00:00,SAT-53543,12.386617248276309,49.07471275328495,703.0859351477782,2.316983451669401,-81150.56130774548,10.5,10499918849.438692,47.655,-122.3035,60.0,10.2
2026-01-20T23:10:13+00:00,SAT-53543,13.156772214160219,48.82783771746167,705.3967070865572,2.378237147762471,-83295.92484780237,10.5,10499916704.075151,47.655,-122.3035,60.0,10.216666666666667
2026-01-20T23:10:14+00:00,SAT-53543,13.914327520211316,48.577234826766336,707.7685685087232,2.43887419063124,-85419.69058350367,10.5,10499914580.309416,47.655,-122.3035,60.0,10.233333333333333
2026-01-20T23:10:15+00:00,SAT-53543,14.659337778396342,48.32312377351952,710.2009044142139,2.4988873781370904,-87521.60626549,10.5,10499912478.393734,47.655,-122.3035,60.0,10.25
2026-01-20T23:10:16+00:00,SAT-53543,15.391872562650613,48.06572011862026,712.6930926201368,2.558270172079206,-89601.4428983122,10.5,10499910398.557102,47.655,-122.3035,60.0,10.266666666666667
2026-01-20T23:10:17+00:00,SAT-53543,16.112015244163103,47.80523502552405,715.2445044229257,2.617016645504118,-91658.99289498883,10.5,10499908341.007105,47.655,-122.3035,60.0,10.283333333333333
2026-01-20T23:10:18+00:00,SAT-53543,16.819861846864672,47.5418750314717,717.8545052079514,2.6751215154402734,-93694.07122350913,10.5,10499906305.928776,47.655,-122.3035,60.0,10.3
2026-01-20T23:10:19+00:00,SAT-53543,17.515519953275234,47.275841845590314,720.5224550917756,2.732580095649473,-95706.5137519886,10.5,10499904293.486248,47.655,-122.3035,60.0,10.316666666666666
2026-01-20T23:10:20+00:00,SAT-53543,18.199107641088478,47.007332180388595,723.2477095172845,2.7893883215987603,-97696.17812329016,10.5,10499902303.821877,47.655,-122.3035,60.0,10.333333333333334
2026-01-20T23:10:21+00:00,SAT-53543,18.870752473408622,46.73653760768648,726.0296198737288,2.8455426858677226,-99662.94149271456,10.5,10499900337.058508,47.655,-122.3035,60.0,10.35
2026-01-20T23:10:22+00:00,SAT-53543,19.530590521610623,46.463644446103984,728.8675340523404,2.9010402863350926,-101606.70221569907,10.5,10499898393.297785,47.655,-122.3035,60.0,10.366666666666667
2026-01-20T23:10:23+00:00,SAT-53543,20.178765450766033,46.188833667333995,731.7607970500115,2.955878721590171,-103527.37618468306,10.5,10499896472.623816,47.655,-122.3035,60.0,10.383333333333333
2026-01-20T23:10:24+00:00,SAT-53543,20.8154276319428,45.91228083419675,734.7087514686604,3.0100561844847773,-105424.90010569298,10.5,10499894575.099894,47.655,-122.3035,60.0,10.4
2026-01-20T23:10:25+00:00,SAT-53543,21.440733328248562,45.634156049840804,737.7107381079021,3.0635713603600787,-107299.22793381556,10.5,10499892700.772066,47.655,-122.3035,60.0,10.416666666666666
2026-01-20T23:10:26+00:00,SAT-53543,22.054843909265568,45.354623935038205,740.7660964562181,3.116423438416743,-109150.33127142845,10.5,10499890849.668728,47.655,-122.3035,60.0,10.433333333333334
2026-01-20T23:10:27+00:00,SAT-53543,22.65792512005086,45.07384362110969,743.8741651934625,3.1686121030829453,-110978.19906587152,10.5,10499889021.800934,47.655,-122.3035,60.0,10.45
2026-01-20T23:10:28+00:00,SAT-53543,23.250146398792612,44.791968758928604,747.0342826847657,3.2201375030252946,-112782.83652407823,10.5,10499887217.163475,47.655,-122.3035,60.0,10.466666666666667
2026-01-20T23:10:29+00:00,SAT-53543,23.831680237550593,44.50914754450237,750.2457874435245,3.271000250199978,-114564.26507934289,10.5,10499885435.73492,47.655,-122.3035,60.0,10.483333333333333
2026-01-20T23:10:30+00:00,SAT-53543,24.40270159087556,44.22552275700048,753.5080185934514,3.3212013710336876,-116322.52068146999,10.5,10499883677.479319,47.655,-122.3035,60.0,10.5
2026-01-20T23:10:31+00:00,SAT-53543,24.963387321868783,43.941231812059115,756.8203162819352,3.3707423319523824,-118057.65469089958,10.5,10499881942.345308,47.655,-122.3035,60.0,10.516666666666667
2026-01-20T23:10:32+00:00,SAT-53543,25.513915697738636,43.65640682258176,760.1820221188582,3.419624976139694,-119769.73166371914,10.5,10499880230.268335,47.655,-122.3035,60.0,10.533333333333333
2026-01-20T23:10:33+00:00,SAT-53543,26.05446591714637,43.37117467350167,763.5924795523448,3.467851540209962,-121458.82993562367,10.5,10499878541.170065,47.655,-122.3035,60.0,10.55
2026-01-20T23:10:34+00:00,SAT-53543,26.58521768174339,43.08565710246862,767.0510342611391,3.51542461709765,-123125.04032214622,10.5,10499876874.959679,47.655,-122.3035,60.0,10.566666666666666
2026-01-20T23:10:35+00:00,SAT-53543,27.106350800570677,42.799970789994816,770.5570345099669,3.562347154686675,-124768.46607065108,10.5,10499875231.53393,47.655,-122.3035,60.0,10.583333333333334
2026-01-20T23:10:36+00:00,SAT-53543,27.618044831534085,42.51422745505144,774.1098315035358,3.6086224221919205,-126389.22168287223,10.5,10499873610.778316,47.655,-122.3035,60.0,10.6
2026-01-20T23:10:37+00:00,SAT-53543,28.120478752686218,42.22853395785207,777.7087797070036,3.654253993749716,-127987.43234018254,10.5,10499872012.56766,47.655,-122.3035,60.0,10.616666666666667
2026-01-20T23:10:38+00:00,SAT-53543,28.613830664618327,41.94299240749319,781.3532371500827,3.699245742909999,-129563.23371068592,10.5,10499870436.766289,47.655,-122.3035,60.0,10.633333333333333
2026-01-20T23:10:39+00:00,SAT-53543,29.098277523234316,41.65770027283676,785.0425657256521,3.7436018301882386,-131116.77151323302,10.5,10499868883.228487,47.655,-122.3035,60.0,10.65
2026-01-20T23:10:40+00:00,SAT-53543,29.57399490001081,41.372750496506015,788.7761314759507,3.7873266576820432,-132648.19992790296,10.5,10499867351.800072,47.655,-122.3035,60.0,10.666666666666666
2026-01-20T23:10:41+00:00,SAT-53543,30.04115676366425,41.088231613810166,792.5533048335145,3.830424885074366,-134157.68215650323,10.5,10499865842.317844,47.655,-122.3035,60.0,10.683333333333334
2026-01-20T23:10:42+00:00,SAT-53543,30.499935289764554,40.80422787126744,796.3734608780707,3.872901394483756,-135645.38919147672,10.5,10499864354.61081,47.655,-122.3035,60.0,10.7
2026-01-20T23:10:43+00:00,SAT-53543,30.950500689690525,40.52081934810959,800.2359795583759,3.9147612921229324,-137111.4998739921,10.5,10499862888.500126,47.655,-122.3035,60.0,10.716666666666667
2026-01-20T23:10:44+00:00,SAT-53543,31.39302106210525,40.23808207749187,804.1402459157118,3.956009876488166,-138556.19977980148,10.5,10499861443.80022,47.655,-122.3035,60.0,10.733333333333333
2026-01-20T23:10:45+00:00,SAT-53543,31.827662261211426,39.956088169438445,808.0856502756504,3.9966526276115752,-139979.68084281005,10.5,10499860020.319157,47.655,-122.3035,60.0,10.75
2026-01-20T23:10:46+00:00,SAT-53543,32.25458778307616,39.674905933534944,812.0715884291056,4.036695192179179,-141382.14083384775,10.5,10499858617.859167,47.655,-122.3035,60.0,10.766666666666667
2026-01-20T23:10:47+00:00,SAT-53543,32.673958668000715,39.394600001313826,816.0974617985382,4.076143387917219,-142763.78351429643,10.5,10499857236.216486,47.655,-122.3035,60.0,10.783333333333333
2026-01-20T23:10:48+00:00,SAT-53543,33.085933419680394,39.115231446699745,820.1626776085403,4.11500317665371,-144124.81769259172,10.5,10499855875.182308,47.655,-122.3035,60.0,10.8
2026-01-20T23:10:49+00:00,SAT-53543,33.49066793637373,38.83685790643902,824.2666490295477,4.1532806340952515,-145465.45616567892,10.5,10499854534.543835,47.655,-122.3035,60.0,10.816666666666666
2026-01-20T23:10:50+00:00,SAT-53543,33.888315452906284,38.559533700409865,828.4087952914158,4.190981968780188,-146785.916382833,10.5,10499853214.083616,47.655,-122.3035,60.0,10.833333333333334
2026-01-20T23:10:51+00:00,SAT-53543,34.279026497313,38.28330994825672,832.588541815893,4.228113489568564,-148086.41930701912,10.5,10499851913.580692,47.655,-122.3035,60.0,10.85
2026-01-20T23:10:52+00:00,SAT-53543,34.662948855820076,38.00823468568849,836.8053203166759,4.264681615741071,-149367.18976860069,10.5,10499850632.810232,47.655,-122.3035,60.0,10.866666666666667
2026-01-20T23:10:53+00:00,SAT-53543,35.040227549335086,37.73435297743484,841.058568909531,4.300692830108928,-150628.45482304879,10.5,10499849371.545177,47.655,-122.3035,60.0,10.883333333333333
2026-01-20T23:10:54+00:00,SAT-53543,35.4110048152459,37.46170703044575,845.347732175658,4.336153700814592,-151870.44451449547,10.5,10499848129.555485,47.655,-122.3035,60.0,10.9
2026-01-20T23:10:55+00:00,SAT-53543,35.77542010005382,37.19033630273776,849.67226124679,4.371070879602674,-153093.3918151739,10.5,10499846906.608185,47.655,-122.3035,60.0,10.916666666666666
2026-01-20T23:10:56+00:00,SAT-53543,36.133610059614405,36.92027760943783,854.0316138885722,4.405451009652118,-154297.5293973114,10.5,10499845702.470602,47.655,-122.3035,60.0,10.933333333333334
2026-01-20T23:10:57+00:00,SAT-53543,36.4857085588349,36.651565231472645,858.4252544920196,4.439300881887587,-155483.0951078151,10.5,10499844516.904892,47.655,-122.3035,60.0,10.95
2026-01-20T23:10:58+00:00,SAT-53543,36.83184669088856,36.38423101153305,862.8526542208665,4.472627238055473,-156650.3250711613,10.5,10499843349.674929,47.655,-122.3035,60.0,10.966666666666667
2026-01-20T23:10:59+00:00,SAT-53543,37.17215278585334,36.118304459041795,867.3132909625191,4.505436879324494,-157799.45749304738,10.5,10499842200.542507,47.655,-122.3035,60.0,10.983333333333333
2026-01-20T23:11:00+00:00,SAT-53543,37.50675243370143,35.85381284527083,871.8066493873204,4.537736631862063,-158930.7314547308,10.5,10499841069.268545,47.655,-122.3035,60.0,11.0
2026-01-20T23:11:01+00:00,SAT-53543,37.83576850901299,35.5907812974581,876.3322209734803,4.569533332457894,-160044.386409507,10.5,10499839955.61359,47.655,-122.3035,60.0,11.016666666666667
2026-01-20T23:11:02+00:00,SAT-53543,38.15932119875292,35.32923289064605,880.8895040176695,4.600833819926327,-161140.66188158217,10.5,10499838859.338118,47.655,-122.3035,60.0,11.033333333333333
2026-01-20T23:11:03+00:00,SAT-53543,38.47752803306285,35.06918873689195,885.4780036370395,4.631644950271844,-162219.79799723436,10.5,10499837780.202003,47.655,-122.3035,60.0,11.05
2026-01-20T23:11:04+00:00,SAT-53543,38.790503920414466,34.81066807054775,890.0972317863666,4.661973544902001,-163282.03367101055,10.5,10499836717.96633,47.655,-122.3035,60.0,11.066666666666666
2026-01-20T23:11:05+00:00,SAT-53543,39.09836118186268,34.553688333411095,894.7467072235471,4.691826449597812,-164327.6086711195,10.5,10499835672.391329,47.655,-122.3035,60.0,11.083333333333334
2026-01-20T23:11:06+00:00,SAT-53543,39.401209591893725,34.29826525357578,899.4259555339054,4.72121044793025,-165356.7605869112,10.5,10499834643.239412,47.655,-122.3035,60.0,11.1
2026-01-20T23:11:07+00:00,SAT-53543,39.69915641548385,34.0444129261045,904.1345090681516,4.750132341685902,-166369.72764572335,10.5,10499833630.272354,47.655,-122.3035,60.0,11.116666666666667
2026-01-20T23:11:08+00:00,SAT-53543,39.992306452399234,33.79214388638655,908.8719069605478,4.778598879437564,-167366.74621112194,10.5,10499832633.253788,47.655,-122.3035,60.0,11.133333333333333
2026-01-20T23:11:09+00:00,SAT-53543,40.28076207822497,33.54146918453461,913.6376950758363,4.8066167948746985,-168348.05212539516,10.5,10499831651.947874,47.655,-122.3035,60.0,11.15
2026-01-20T23:11:10+00:00,SAT-53543,40.5646232892301,33.29239845493116,918.431425994397,4.834192784473513,-169313.87992746595,10.5,10499830686.120073,47.655,-122.3035,60.0,11.166666666666666
2026-01-20T23:11:11+00:00,SAT-53543,40.84398774674924,33.044939984253894,923.252658975134,4.861333454419763,-170264.46099390372,10.5,10499829735.539005,47.655,-122.3035,60.0,11.183333333333334
2026-01-20T23:11:12+00:00,SAT-53543,41.11895081938898,32.799100779514326,928.1009598654265,4.888045457868243,-171200.028346332,10.5,10499828799.971653,47.655,-122.3035,60.0,11.2
2026-01-20T23:11:13+00:00,SAT-53543,41.389605633884585,32.55488662650651,932.9759011479725,4.91433532506575,-172120.8107016167,10.5,10499827879.189299,47.655,-122.3035,60.0,11.216666666666667
2026-01-20T23:11:14+00:00,SAT-53543,41.65604311643347,32.31230215440632,937.8770618182098,4.940209572763813,-173027.0363039621,10.5,10499826972.963696,47.655,-122.3035,60.0,11.233333333333333
2026-01-20T23:11:15+00:00,SAT-53543,41.91835204073462,32.07135089234055,942.8040273708579,4.965674634351689,-173918.93047787328,10.5,10499826081.069523,47.655,-122.3035,60.0,11.25
2026-01-20T23:11:16+00:00,SAT-53543,42.17661907225775,31.83203532705804,947.7563897167781,4.990736902709583,-174796.71712905672,10.5,10499825203.282871,47.655,-122.3035,60.0,11.266666666666667
2026-01-20T23:11:17+00:00,SAT-53543,42.43092881491958,31.594356956158595,952.733747142573,5.01540272481389,-175660.6185554736,10.5,10499824339.381445,47.655,-122.3035,60.0,11.283333333333333
2026-01-20T23:11:18+00:00,SAT-53543,42.681363857319084,31.358316339389788,957.7357042648072,5.0396783815345705,-176510.85473975798,10.5,10499823489.14526,47.655,-122.3035,60.0,11.3
2026-01-20T23:11:19+00:00,SAT-53543,42.92800481768021,31.12391314875077,962.7618719640767,5.0635700604066525,-177347.6423955597,10.5,10499822652.357605,47.655,-122.3035,60.0,11.316666666666666
2026-01-20T23:11:20+00:00,SAT-53543,43.170930387265415,30.89114621772495,967.8118672919236,5.087083912769489,-178171.1969688031,10.5,10499821828.803032,47.655,-122.3035,60.0,11.333333333333334
2026-01-20T23:11:21+00:00,SAT-53543,43.41021737628101,30.66001358580351,972.8853134347409,5.110226014795587,-178981.73127275158,10.5,10499821018.268726,47.655,-122.3035,60.0,11.35
2026-01-20T23:11:22+00:00,SAT-53543,43.645940757412006,30.43051254288116,977.9818396388018,5.13300237331786,-179779.45569210258,10.5,10499820220.544308,47.655,-122.3035,60.0,11.366666666666667
2026-01-20T23:11:23+00:00,SAT-53543,43.87817370915086,30.20263967146964,983.1010811411112,5.155418921222729,-180564.57802163475,10.5,10499819435.421978,47.655,-122.3035,60.0,11.383333333333333
