DopplerPredictor/satellites_20260205_234138/SAT-52849.csv

timestamp,satellite,azimuth_deg,elevation_deg,distance_km,relative_velocity_kms,doppler_shift_hz,tx_freq_ghz,rx_freq_hz,ue_lat,ue_lon,ue_alt_m,time_minutes
2026-01-20T23:06:25+00:00,SAT-52849,322.02624997389165,30.161371980041135,983.790846960754,-4.523415065442402,158429.12961854838,10.5,10500158429.129618,47.655,-122.3035,60.0,6.416666666666667
2026-01-20T23:06:26+00:00,SAT-52849,322.33635864169156,30.361701864345534,979.279558546871,-4.494773994668324,157425.99816843093,10.5,10500157425.998169,47.655,-122.3035,60.0,6.433333333333334
2026-01-20T23:06:27+00:00,SAT-52849,322.6505705095973,30.562795141777407,974.7968344210033,-4.465730802882867,156408.78273952476,10.5,10500156408.78274,47.655,-122.3035,60.0,6.45
2026-01-20T23:06:28+00:00,SAT-52849,322.96895050965946,30.76463196664634,970.3430756261323,-4.436280708866129,155377.31587328445,10.5,10500155377.315874,47.655,-122.3035,60.0,6.466666666666667
2026-01-20T23:06:29+00:00,SAT-52849,323.29156433684494,30.96719132911116,965.9186879736396,-4.406418953368935,154331.43088067218,10.5,10500154331.430882,47.655,-122.3035,60.0,6.483333333333333
2026-01-20T23:06:30+00:00,SAT-52849,323.6184784311323,31.17045101738001,961.5240820213991,-4.376140800733921,153270.96189893535,10.5,10500153270.961899,47.655,-122.3035,60.0,6.5
2026-01-20T23:06:31+00:00,SAT-52849,323.9497599569726,31.374387579246015,957.1596730502444,-4.345441526230324,152195.743448017,10.5,10500152195.743448,47.655,-122.3035,60.0,6.516666666666667
2026-01-20T23:06:32+00:00,SAT-52849,324.2854767788957,31.578976282309313,952.825881053075,-4.314316438667598,151105.61122258045,10.5,10500151105.611223,47.655,-122.3035,60.0,6.533333333333333
2026-01-20T23:06:33+00:00,SAT-52849,324.62569743566996,31.784191074554723,948.5231307014035,-4.282760863869505,150000.4015132022,10.5,10500150000.401514,47.655,-122.3035,60.0,6.55
2026-01-20T23:06:34+00:00,SAT-52849,324.9704911098486,31.990004543491636,944.2518513283893,-4.250770185667251,148879.95264212458,10.5,10500148879.952642,47.655,-122.3035,60.0,6.566666666666666
2026-01-20T23:06:35+00:00,SAT-52849,325.31992759704906,32.19638787664342,940.0124768709835,-4.218339819206379,147744.10402835076,10.5,10500147744.104029,47.655,-122.3035,60.0,6.583333333333333
2026-01-20T23:06:36+00:00,SAT-52849,325.67407726945123,32.4033108202265,935.8054458387015,-4.185465215307432,146592.69634037305,10.5,10500146592.69634,47.655,-122.3035,60.0,6.6
2026-01-20T23:06:37+00:00,SAT-52849,326.03301103555253,32.61074163751169,931.6312012780421,-4.152141900294749,145425.57289114615,10.5,10500145425.572891,47.655,-122.3035,60.0,6.616666666666666
2026-01-20T23:06:38+00:00,SAT-52849,326.39680029921607,32.818647068720296,927.4901906971866,-4.118365448108414,144242.57866132958,10.5,10500144242.578661,47.655,-122.3035,60.0,6.633333333333334
2026-01-20T23:06:39+00:00,SAT-52849,326.7655169119591,33.026992289205275,923.3828660185098,-4.084131494824093,143043.56080783386,10.5,10500143043.560808,47.655,-122.3035,60.0,6.65
2026-01-20T23:06:40+00:00,SAT-52849,327.1392331218284,33.2357408680535,919.3096835166133,-4.049435737724776,141828.36863130878,10.5,10500141828.368631,47.655,-122.3035,60.0,6.666666666666667
2026-01-20T23:06:41+00:00,SAT-52849,327.51802151722114,33.4448547264323,915.2711037572791,-4.014273994115649,140596.85563608914,10.5,10500140596.855637,47.655,-122.3035,60.0,6.683333333333334
2026-01-20T23:06:42+00:00,SAT-52849,327.9019549711634,33.65429409887502,911.2675914777717,-3.9786421250142596,139348.87685750163,10.5,10500139348.876858,47.655,-122.3035,60.0,6.7
2026-01-20T23:06:43+00:00,SAT-52849,328.2911065730914,33.86401749065713,907.2996155432422,-3.942536090698942,138084.29080740546,10.5,10500138084.290808,47.655,-122.3035,60.0,6.716666666666667
2026-01-20T23:06:44+00:00,SAT-52849,328.68554956005744,34.07398163811303,903.3676488477323,-3.9059519712227213,136802.96019267626,10.5,10500136802.960192,47.655,-122.3035,60.0,6.733333333333333
2026-01-20T23:06:45+00:00,SAT-52849,329.08535724423774,34.2841414703154,899.4721681947229,-3.8688859341010895,135504.75078349514,10.5,10500135504.750784,47.655,-122.3035,60.0,6.75
2026-01-20T23:06:46+00:00,SAT-52849,329.49060293105885,34.494450069406845,895.613654209905,-3.831334257883863,134189.53223893497,10.5,10500134189.532238,47.655,-122.3035,60.0,6.766666666666667
2026-01-20T23:06:47+00:00,SAT-52849,329.9013598330787,34.70485863266313,891.7925912304423,-3.7932933712342445,132857.17947567438,10.5,10500132857.179476,47.655,-122.3035,60.0,6.783333333333333
2026-01-20T23:06:48+00:00,SAT-52849,330.31770098149264,34.9153164373676,888.0094671552619,-3.754759813230119,131507.57127758113,10.5,10500131507.571278,47.655,-122.3035,60.0,6.8
2026-01-20T23:06:49+00:00,SAT-52849,330.73969912639143,35.12577080434331,884.2647733349341,-3.7157302564538726,130140.59110441552,10.5,10500130140.591105,47.655,-122.3035,60.0,6.816666666666666
2026-01-20T23:06:50+00:00,SAT-52849,331.1674266321356,35.33616706370104,880.5590044385269,-3.6762015499135945,128756.1285951121,10.5,10500128756.128595,47.655,-122.3035,60.0,6.833333333333333
2026-01-20T23:06:51+00:00,SAT-52849,331.60095537021016,35.54644852419148,876.8926582776529,-3.6361706489931045,127354.07711433353,10.5,10500127354.077114,47.655,-122.3035,60.0,6.85
2026-01-20T23:06:52+00:00,SAT-52849,332.0403565960611,35.75655643993061,873.2662357003782,-3.5956347342990207,125934.33791499758,10.5,10500125934.337915,47.655,-122.3035,60.0,6.866666666666666
2026-01-20T23:06:53+00:00,SAT-52849,332.48570083200025,35.96642998547287,869.6802403666039,-3.554591123324165,124496.81704435585,10.5,10500124496.817045,47.655,-122.3035,60.0,6.883333333333334
2026-01-20T23:06:54+00:00,SAT-52849,332.9370577313573,36.176006227617364,866.135178611548,-3.513037332967099,123041.42753369246,10.5,10500123041.427534,47.655,-122.3035,60.0,6.9
2026-01-20T23:06:55+00:00,SAT-52849,333.3944959416957,36.38522010281416,862.6315592468715,-3.4709710493187185,121568.08834012278,10.5,10500121568.08834,47.655,-122.3035,60.0,6.916666666666667
2026-01-20T23:06:56+00:00,SAT-52849,333.8580829553702,36.59400439501838,859.1698933919422,-3.4283902000863637,120076.72688319204,10.5,10500120076.726883,47.655,-122.3035,60.0,6.933333333333334
2026-01-20T23:06:57+00:00,SAT-52849,334.3278849607687,36.80228972035176,855.750694232864,-3.3852928897472627,118567.27677367473,10.5,10500118567.276773,47.655,-122.3035,60.0,6.95
2026-01-20T23:06:58+00:00,SAT-52849,334.8039666758394,37.01000451062964,852.3744768461837,-3.3416774766663115,117039.68051456542,10.5,10500117039.680515,47.655,-122.3035,60.0,6.966666666666667
2026-01-20T23:06:59+00:00,SAT-52849,335.28639118291375,37.21707500455675,849.0417579456808,-3.297542505223064,115493.88712387878,10.5,10500115493.887123,47.655,-122.3035,60.0,6.983333333333333
2026-01-20T23:07:00+00:00,SAT-52849,335.77521974446876,37.423425238042306,845.7530556968535,-3.2528868159499487,113929.85599215596,10.5,10500113929.855991,47.655,-122.3035,60.0,7.0
2026-01-20T23:07:01+00:00,SAT-52849,336.2705116254771,37.62897704489378,842.5088894215587,-3.207709468846097,112347.5541965903,10.5,10500112347.554197,47.655,-122.3035,60.0,7.016666666666667
2026-01-20T23:07:02+00:00,SAT-52849,336.77232389510124,37.83365005664721,839.3097793791345,-3.16200978853381,110746.95808259794,10.5,10500110746.958082,47.655,-122.3035,60.0,7.033333333333333
2026-01-20T23:07:03+00:00,SAT-52849,337.2807112254655,38.03736170935594,836.1562465024863,-3.1157873683428727,109128.05340686778,10.5,10500109128.053408,47.655,-122.3035,60.0,7.05
2026-01-20T23:07:04+00:00,SAT-52849,337.7957256815703,38.240027255113624,833.0488121300995,-3.0690420936398692,107490.83615445264,10.5,10500107490.836155,47.655,-122.3035,60.0,7.066666666666666
2026-01-20T23:07:05+00:00,SAT-52849,338.31741650570854,38.44155977988441,829.9879977147848,-3.02177414263295,105835.3125669558,10.5,10500105835.312567,47.655,-122.3035,60.0,7.083333333333333
2026-01-20T23:07:06+00:00,SAT-52849,338.8458298929348,38.6418702265146,826.9743245316234,-2.9739839684066456,104161.49851331409,10.5,10500104161.498514,47.655,-122.3035,60.0,7.1
2026-01-20T23:07:07+00:00,SAT-52849,339.3810087541092,38.84086742195233,824.0083134038262,-2.9256723677005176,102469.42189871712,10.5,10500102469.421898,47.655,-122.3035,60.0,7.116666666666666
2026-01-20T23:07:08+00:00,SAT-52849,339.92299248233115,39.0384581147684,821.0904843600008,-2.876840438618921,100759.12118342439,10.5,10500100759.121183,47.655,-122.3035,60.0,7.133333333333334
2026-01-20T23:07:09+00:00,SAT-52849,340.4718167035546,39.23454701594797,818.2213563335938,-2.8274896057595487,99030.64626287317,10.5,10500099030.646263,47.655,-122.3035,60.0,7.15
2026-01-20T23:07:10+00:00,SAT-52849,341.02751302352357,39.42903684771443,815.4014468372735,-2.777621643930907,97284.05929836477,10.5,10500097284.059298,47.655,-122.3035,60.0,7.166666666666667
2026-01-20T23:07:11+00:00,SAT-52849,341.59010877192014,39.62182840066482,812.6312716136583,-2.7272386507707025,95519.43375804463,10.5,10500095519.433758,47.655,-122.3035,60.0,7.183333333333334
2026-01-20T23:07:12+00:00,SAT-52849,342.1596267339279,39.812820595993145,809.9113443133512,-2.67634311466751,93736.85679580655,10.5,10500093736.856796,47.655,-122.3035,60.0,7.2
2026-01-20T23:07:13+00:00,SAT-52849,342.7360848896004,40.00191055970133,807.2421761052389,-2.6249378658100584,91936.42753683156,10.5,10500091936.427536,47.655,-122.3035,60.0,7.216666666666667
2026-01-20T23:07:14+00:00,SAT-52849,343.3194961377627,40.18899370096894,804.6242753356057,-2.5730260969912115,90118.25780623115,10.5,10500090118.257807,47.655,-122.3035,60.0,7.233333333333333
2026-01-20T23:07:15+00:00,SAT-52849,343.90986801914175,40.37396379973369,802.0581471665025,-2.520611400337896,88282.47341548502,10.5,10500088282.473415,47.655,-122.3035,60.0,7.25
2026-01-20T23:07:16+00:00,SAT-52849,344.50720244437105,40.5567131049364,799.5442931774849,-2.46769774671054,86429.21344092207,10.5,10500086429.213442,47.655,-122.3035,60.0,7.266666666666667
2026-01-20T23:07:17+00:00,SAT-52849,345.11149541496155,40.73713243956952,797.0832109878908,-2.4142894829284502,84558.6301265415,10.5,10500084558.630127,47.655,-122.3035,60.0,7.283333333333333
2026-01-20T23:07:18+00:00,SAT-52849,345.72273674167286,40.91511131391214,794.6753938818941,-2.36039138598047,82670.8907826992,10.5,10500082670.890783,47.655,-122.3035,60.0,7.3
2026-01-20T23:07:19+00:00,SAT-52849,346.3409097765714,41.09053805133106,792.3213303794854,-2.306008615888865,80766.1761352018,10.5,10500080766.176136,47.655,-122.3035,60.0,7.316666666666666
2026-01-20T23:07:20+00:00,SAT-52849,346.9659911346805,41.26329991934274,790.0215038544663,-2.2511467444679574,78844.68133255558,10.5,10500078844.681332,47.655,-122.3035,60.0,7.333333333333333
2026-01-20T23:07:21+00:00,SAT-52849,347.5979504256389,41.43328327155617,787.7763921237621,-2.195811757334132,76906.61601636551,10.5,10500076906.616016,47.655,-122.3035,60.0,7.35
2026-01-20T23:07:22+00:00,SAT-52849,348.23674999036984,41.600373698593316,785.5864670347273,-2.140010060131913,74952.20453939869,10.5,10500074952.20454,47.655,-122.3035,60.0,7.366666666666666
2026-01-20T23:07:23+00:00,SAT-52849,348.88234464597605,41.76445618829267,783.4521940462453,-2.083748480587551,72981.6860375096,10.5,10500072981.686037,47.655,-122.3035,60.0,7.383333333333334
2026-01-20T23:07:24+00:00,SAT-52849,349.5346814392473,41.92541529483553,781.3740318077769,-2.027034274856942,70995.3146519713,10.5,10500070995.314651,47.655,-122.3035,60.0,7.4
2026-01-20T23:07:25+00:00,SAT-52849,350.193699412573,42.08313531700213,779.35243173208,-1.96987510130403,68993.35861108392,10.5,10500068993.35861,47.655,-122.3035,60.0,7.416666666666667
2026-01-20T23:07:26+00:00,SAT-52849,350.8593293728011,42.2375004828601,777.3878375940798,-1.9122790721187817,66976.10203805463,10.5,10500066976.102037,47.655,-122.3035,60.0,7.433333333333334
2026-01-20T23:07:27+00:00,SAT-52849,351.5314936915553,42.388395146707595,775.480685078259,-1.8542547111124565,64943.84347280942,10.5,10500064943.843473,47.655,-122.3035,60.0,7.45
2026-01-20T23:07:28+00:00,SAT-52849,352.21010610782764,42.53570399069664,773.6314013681397,-1.795810964907336,62896.89626390477,10.5,10500062896.896263,47.655,-122.3035,60.0,7.466666666666667
2026-01-20T23:07:29+00:00,SAT-52849,352.8950715526555,42.67931223490821,771.8404047246074,-1.7369572129811808,60835.588920327005,10.5,10500060835.58892,47.655,-122.3035,60.0,7.483333333333333
2026-01-20T23:07:30+00:00,SAT-52849,353.58628599838323,42.81910585541872,770.1081040542142,-1.6777032500308589,58760.26449379197,10.5,10500058760.264494,47.655,-122.3035,60.0,7.5
2026-01-20T23:07:31+00:00,SAT-52849,354.28363632467403,42.95497180764722,768.4348984950734,-1.6180592888831755,56671.28068069458,10.5,10500056671.280682,47.655,-122.3035,60.0,7.516666666666667
2026-01-20T23:07:32+00:00,SAT-52849,354.9870002106804,43.0867982560663,766.8211769998516,-1.558035964214914,54569.00995240046,10.5,10500054569.009953,47.655,-122.3035,60.0,7.533333333333333
2026-01-20T23:07:33+00:00,SAT-52849,355.6962460572644,43.21447480973399,765.2673179150476,-1.4976443007367553,52453.83844091211,10.5,10500052453.838442,47.655,-122.3035,60.0,7.55
2026-01-20T23:07:34+00:00,SAT-52849,356.4112329244707,43.337892760038464,763.7736885920064,-1.436895746985062,50326.167122400235,10.5,10500050326.167122,47.655,-122.3035,60.0,7.566666666666666
2026-01-20T23:07:35+00:00,SAT-52849,357.13181051733676,43.456945325271995,762.3406449642273,-1.3758021373182234,48186.41048615488,10.5,10500048186.410486,47.655,-122.3035,60.0,7.583333333333333
2026-01-20T23:07:36+00:00,SAT-52849,357.8578191886352,43.5715278953274,760.9685311625785,-1.3143756883173132,46034.99640852136,10.5,10500046034.996408,47.655,-122.3035,60.0,7.6
2026-01-20T23:07:37+00:00,SAT-52849,358.5890899754808,43.68153827843607,759.6576791340976,-1.252629003704007,43872.366325146424,10.5,10500043872.366325,47.655,-122.3035,60.0,7.616666666666666
2026-01-20T23:07:38+00:00,SAT-52849,359.3254446775667,43.78687694972949,758.4084082558898,-1.1905750583347086,41698.97467038494,10.5,10500041698.97467,47.655,-122.3035,60.0,7.633333333333334
2026-01-20T23:07:39+00:00,SAT-52849,0.06669596827058802,43.887447298907404,757.221024964987,-1.1282271737334515,39515.28802035854,10.5,10500039515.288021,47.655,-122.3035,60.0,7.65
2026-01-20T23:07:40+00:00,SAT-52849,0.8126475326780426,43.98315587522466,756.0958224126109,-1.0655990261487096,37321.785375139254,10.5,10500037321.785376,47.655,-122.3035,60.0,7.666666666666667
2026-01-20T23:07:41+00:00,SAT-52849,1.5630942549709779,44.07391263147336,755.0330801103987,-1.0027046225511902,35118.957318090695,10.5,10500035118.957317,47.655,-122.3035,60.0,7.683333333333334
2026-01-20T23:07:42+00:00,SAT-52849,2.3178224358637713,44.15963116314152,754.0330636005673,-0.9395582924873296,32907.30573054296,10.5,10500032907.30573,47.655,-122.3035,60.0,7.7
2026-01-20T23:07:43+00:00,SAT-52849,3.0766100519080646,44.2402289429593,753.0960241342029,-0.8761746686642773,30687.343111796734,10.5,10500030687.343111,47.655,-122.3035,60.0,7.716666666666667
2026-01-20T23:07:44+00:00,SAT-52849,3.839227048026941,44.315627548716144,752.2221983689133,-0.8125686757216726,28459.592185863334,10.5,10500028459.592186,47.655,-122.3035,60.0,7.733333333333333
2026-01-20T23:07:45+00:00,SAT-52849,4.605435671019077,44.385752883904956,751.4118080776767,-0.7487555096435331,26224.58518038201,10.5,10500026224.58518,47.655,-122.3035,60.0,7.75
2026-01-20T23:07:46+00:00,SAT-52849,5.374990834677084,44.45053538922537,750.6650598782262,-0.6847506313290214,23982.863601440982,10.5,10500023982.863602,47.655,-122.3035,60.0,7.766666666666667
2026-01-20T23:07:47+00:00,SAT-52849,6.1476405321244085,44.50991024505581,749.9821449688444,-0.6205697317018871,21734.977011562492,10.5,10500021734.97701,47.655,-122.3035,60.0,7.783333333333333
2026-01-20T23:07:48+00:00,SAT-52849,6.92312626305031,44.56381756131029,749.3632388989544,-0.5562287315597795,19481.48302442513,10.5,10500019481.483025,47.655,-122.3035,60.0,7.8
2026-01-20T23:07:49+00:00,SAT-52849,7.701183514866634,44.612202556627786,748.8085013398642,-0.4917437506293814,17222.94622104371,10.5,10500017222.94622,47.655,-122.3035,60.0,7.816666666666666
2026-01-20T23:07:50+00:00,SAT-52849,8.481542259717738,44.65501572319943,748.3180758863697,-0.4271310959767115,14959.937743849016,10.5,10500014959.937744,47.655,-122.3035,60.0,7.833333333333333
2026-01-20T23:07:51+00:00,SAT-52849,9.263927493649954,44.692212977960004,747.8920898699171,-0.36240723093825195,12693.034208524503,10.5,10500012693.034208,47.655,-122.3035,60.0,7.85
2026-01-20T23:07:52+00:00,SAT-52849,10.04805978028179,44.72375579754345,747.5306542027528,-0.29758876977231674,10422.817516674573,10.5,10500010422.817516,47.655,-122.3035,60.0,7.866666666666666
2026-01-20T23:07:53+00:00,SAT-52849,10.833655848910281,44.74961133844254,747.2338632274049,-0.23269244350985974,8149.873659775415,10.5,10500008149.87366,47.655,-122.3035,60.0,7.883333333333334
2026-01-20T23:07:54+00:00,SAT-52849,11.620429185676551,44.76975253912506,747.0017946002246,-0.16773508616164406,5874.792236091752,10.5,10500005874.792236,47.655,-122.3035,60.0,7.9
2026-01-20T23:07:55+00:00,SAT-52849,12.408090660917598,44.78415820526226,746.8345091886815,-0.10273360971573535,3598.165574983281,10.5,10500003598.165575,47.655,-122.3035,60.0,7.916666666666667
2026-01-20T23:07:56+00:00,SAT-52849,13.196349159304626,44.79281307655295,746.7320509935962,-0.03770498398925619,1320.58803122789,10.5,10500001320.588032,47.655,-122.3035,60.0,7.933333333333334
2026-01-20T23:07:57+00:00,SAT-52849,13.98491222797018,44.79570787516031,746.6944470914655,0.027333786225240554,-957.3448154090181,10.5,10499999042.655184,47.655,-122.3035,60.0,7.95
2026-01-20T23:07:58+00:00,SAT-52849,14.773486732000608,44.79283933521434,746.7217075995819,0.0923656829335582,-3235.0369227846318,10.5,10499996764.963078,47.655,-122.3035,60.0,7.966666666666667
2026-01-20T23:07:59+00:00,SAT-52849,15.561779507653934,44.784210213292305,746.8138256628662,0.1573736974337903,-5511.892574211451,10.5,10499994488.107426,47.655,-122.3035,60.0,7.983333333333333
2026-01-20T23:08:00+00:00,SAT-52849,16.349498023242138,44.769829279742886,746.9707774631346,0.2223408512833084,-7787.317112809884,10.5,10499992212.682888,47.655,-122.3035,60.0,8.0
2026-01-20T23:08:01+00:00,SAT-52849,17.136351029011394,44.74971129105847,747.1925222492786,0.2872502212399013,-10060.71781505245,10.5,10499989939.282185,47.655,-122.3035,60.0,8.016666666666667
2026-01-20T23:08:02+00:00,SAT-52849,17.922049210633784,44.72387694309273,747.4790023923159,0.3520849571722018,-12331.504518062688,10.5,10499987668.495481,47.655,-122.3035,60.0,8.033333333333333
2026-01-20T23:08:03+00:00,SAT-52849,18.706305818468614,44.69235280606521,747.8301434583057,0.41682830688431677,-14599.090489078702,10.5,10499985400.909512,47.655,-122.3035,60.0,8.05
2026-01-20T23:08:04+00:00,SAT-52849,19.488837292786254,44.65517124113127,748.2458543060216,0.48146363592026215,-16862.89311908825,10.5,10499983137.10688,47.655,-122.3035,60.0,8.066666666666666
2026-01-20T23:08:05+00:00,SAT-52849,20.269363867307863,44.61237029948502,748.7260272043756,0.5459744483590455,-19122.334651160494,10.5,10499980877.665348,47.655,-122.3035,60.0,8.083333333333334
2026-01-20T23:08:06+00:00,SAT-52849,21.047610152132275,44.56399360452369,749.2705379705832,0.6103444111681752,-21376.843033408928,10.5,10499978623.156967,47.655,-122.3035,60.0,8.1
2026-01-20T23:08:07+00:00,SAT-52849,21.823305697298697,44.510090217484255,749.8792461326127,0.6745573651532567,-23625.85230249253,10.5,10499976374.147697,47.655,-122.3035,60.0,8.116666666666667
2026-01-20T23:08:08+00:00,SAT-52849,22.596185519656384,44.450714488528405,750.5519951025587,0.7385973556788603,-25868.80365959051,10.5,10499974131.19634,47.655,-122.3035,60.0,8.133333333333333
2026-01-20T23:08:09+00:00,SAT-52849,23.36599061409967,44.385925892429285,751.2886123806535,0.8024486471474482,-28105.14597751557,10.5,10499971894.854023,47.655,-122.3035,60.0,8.15
2026-01-20T23:08:10+00:00,SAT-52849,24.132468427632112,44.31578885124444,752.0889097737158,0.8660957345542595,-30334.336205414897,10.5,10499969665.663795,47.655,-122.3035,60.0,8.166666666666666
2026-01-20T23:08:11+00:00,SAT-52849,24.895373294986896,44.24037254523629,752.9526836251268,0.9295233729211115,-32555.840399666333,10.5,10499967444.159601,47.655,-122.3035,60.0,8.183333333333334
2026-01-20T23:08:12+00:00,SAT-52849,25.654466851488746,44.15975071154344,753.8797150741594,0.9927165903144508,-34769.13417982561,10.5,10499965230.86582,47.655,-122.3035,60.0,8.2
2026-01-20T23:08:13+00:00,SAT-52849,26.40951840477797,44.07400143315367,754.8697703282901,1.0556606935870907,-36973.702929726314,10.5,10499963026.29707,47.655,-122.3035,60.0,8.216666666666667
2026-01-20T23:08:14+00:00,SAT-52849,27.160305263709944,43.98320691991351,755.9226009412388,1.1183413021102837,-39169.04297891971,10.5,10499960830.957022,47.655,-122.3035,60.0,8.233333333333333
2026-01-20T23:08:15+00:00,SAT-52849,27.906613042849497,43.88745328031575,757.0379441246491,1.1807443476314194,-41354.661597690705,10.5,10499958645.338402,47.655,-122.3035,60.0,8.25
2026-01-20T23:08:16+00:00,SAT-52849,28.648235919218394,43.78683028813994,758.2155230596272,1.2428560948454903,-43530.07771755769,10.5,10499956469.922283,47.655,-122.3035,60.0,8.266666666666667
2026-01-20T23:08:17+00:00,SAT-52849,29.38497685573443,43.68143114330841,759.4550472287967,1.3046631517091574,-45694.82229251462,10.5,10499954305.177708,47.655,-122.3035,60.0,8.283333333333333
2026-01-20T23:08:18+00:00,SAT-52849,30.11664778616875,43.57135222897547,760.7562127586395,1.3661524838773689,-47848.43880466257,10.5,10499952151.561195,47.655,-122.3035,60.0,8.3
2026-01-20T23:08:19+00:00,SAT-52849,30.84306976410301,43.45669286561359,762.1187027762367,1.4273114173650332,-49990.48335743272,10.5,10499950009.516642,47.655,-122.3035,60.0,8.316666666666666
2026-01-20T23:08:20+00:00,SAT-52849,31.56407307172182,43.33755506416512,763.5421877686607,1.4881276703713604,-52120.52579020945,10.5,10499947879.47421,47.655,-122.3035,60.0,8.333333333333334
2026-01-20T23:08:21+00:00,SAT-52849,32.279497303921936,43.21404327686917,765.0263259741095,1.5485893224361311,-54238.14859805238,10.5,10499945761.851402,47.655,-122.3035,60.0,8.35
2026-01-20T23:08:22+00:00,SAT-52849,32.98919139911477,43.086264151988175,766.5707637422774,1.6086848754396643,-56342.94906817327,10.5,10499943657.050932,47.655,-122.3035,60.0,8.366666666666667
2026-01-20T23:08:23+00:00,SAT-52849,33.69301366188011,42.954326285738986,768.1751359555645,1.6684032117688323,-58434.53781473295,10.5,10499941565.462185,47.655,-122.3035,60.0,8.383333333333333
2026-01-20T23:08:24+00:00,SAT-52849,34.39083173195177,42.81833998085739,769.8390664085622,1.7277336332446644,-60512.5401422506,10.5,10499939487.459858,47.655,-122.3035,60.0,8.4
2026-01-20T23:08:25+00:00,SAT-52849,35.08252253779078,42.678417005939394,771.5621682263634,1.7866658404273832,-62576.59532077863,10.5,10499937423.404678,47.655,-122.3035,60.0,8.416666666666666
2026-01-20T23:08:26+00:00,SAT-52849,35.767972211740805,42.5346703612262,773.3440442622326,1.8451899699906305,-64626.357894906156,10.5,10499935373.642105,47.655,-122.3035,60.0,8.433333333333334
2026-01-20T23:08:27+00:00,SAT-52849,36.4470759916147,42.38721404680766,775.1842875325497,1.9032965612315658,-66661.49651080095,10.5,10499933338.503489,47.655,-122.3035,60.0,8.45
2026-01-20T23:08:28+00:00,SAT-52849,37.119738084110686,42.236162839616384,777.0824816183556,1.9609766053225697,-68681.6956412125,10.5,10499931318.30436,47.655,-122.3035,60.0,8.466666666666667
2026-01-20T23:08:29+00:00,SAT-52849,37.78587152213418,42.08163207313749,779.0382011160136,2.018221472230766,-70686.65302588447,10.5,10499929313.346973,47.655,-122.3035,60.0,8.483333333333333
2026-01-20T23:08:30+00:00,SAT-52849,38.44539797661051,41.92373743004367,781.0510120149924,2.0750230016592486,-72676.08285670118,10.5,10499927323.917143,47.655,-122.3035,60.0,8.5
2026-01-20T23:08:31+00:00,SAT-52849,39.09824757989842,41.762594735209404,783.1204721663372,2.1313734306056893,-74649.71324048364,10.5,10499925350.28676,47.655,-122.3035,60.0,8.516666666666667
2026-01-20T23:08:32+00:00,SAT-52849,39.74435870882029,41.598319762360056,785.2461316789048,2.1872654478249483,-76607.28810650052,10.5,10499923392.711893,47.655,-122.3035,60.0,8.533333333333333
2026-01-20T23:08:33+00:00,SAT-52849,40.383677770190545,41.431028044703815,787.427533369907,2.2426921303395897,-78548.56498279783,10.5,10499921451.435017,47.655,-122.3035,60.0,8.55
2026-01-20T23:08:34+00:00,SAT-52849,41.01615895561021,41.26083469891395,789.6642131521368,2.2976470099705533,-80473.31732638455,10.5,10499919526.682674,47.655,-122.3035,60.0,8.566666666666666
2026-01-20T23:08:35+00:00,SAT-52849,41.64176400495159,41.087854252635225,791.9557004875486,2.3521240229746083,-82381.33275932308,10.5,10499917618.66724,47.655,-122.3035,60.0,8.583333333333334
2026-01-20T23:08:36+00:00,SAT-52849,42.26046194718667,40.91220048460992,794.3015187906108,2.4061175075233248,-84272.4129804323,10.5,10499915727.587019,47.655,-122.3035,60.0,8.6
2026-01-20T23:08:37+00:00,SAT-52849,42.87222883466816,40.73398627376252,796.7011858291405,2.459622238887897,-86146.3749976089,10.5,10499913853.625002,47.655,-122.3035,60.0,8.616666666666667
2026-01-20T23:08:38+00:00,SAT-52849,43.47704748150267,40.553323454495704,799.154214160234,2.512633372594885,-88003.04913690087,10.5,10499911996.950863,47.655,-122.3035,60.0,8.633333333333333
2026-01-20T23:08:39+00:00,SAT-52849,44.074907184456166,40.370322685013946,801.6601115095003,2.565146480660887,-89842.28031159914,10.5,10499910157.719688,47.655,-122.3035,60.0,8.65
2026-01-20T23:08:40+00:00,SAT-52849,44.66580345137618,40.185093321677655,804.2183811864367,2.6171575205982505,-91663.9269366864,10.5,10499908336.073063,47.655,-122.3035,60.0,8.666666666666666
2026-01-20T23:08:41+00:00,SAT-52849,45.249737721909625,39.99774330424048,806.8285224688902,2.6686628406254664,-93467.8611113272,10.5,10499906532.13889,47.655,-122.3035,60.0,8.683333333333334
2026-01-20T23:08:42+00:00,SAT-52849,45.8267170908227,39.8083790491572,809.4900309927156,2.719659163531574,-95253.96805373112,10.5,10499904746.031946,47.655,-122.3035,60.0,8.7
2026-01-20T23:08:43+00:00,SAT-52849,46.396754029938606,39.617105352316514,812.2023991253423,2.7701435877289367,-97022.14613802537,10.5,10499902977.853863,47.655,-122.3035,60.0,8.716666666666667
2026-01-20T23:08:44+00:00,SAT-52849,46.95986611410527,39.42402529975822,814.9651163403923,2.8201135850456645,-98772.30681693625,10.5,10499901227.693184,47.655,-122.3035,60.0,8.733333333333333
2026-01-20T23:08:45+00:00,SAT-52849,47.51607575068706,39.229240186395614,817.7776695900922,2.8695669636409415,-100504.37332292691,10.5,10499899495.626677,47.655,-122.3035,60.0,8.75
2026-01-20T23:08:46+00:00,SAT-52849,48.065409907322945,39.03284944488548,820.6395436407037,2.918501913015005,-102218.28224463723,10.5,10499897781.717756,47.655,-122.3035,60.0,8.766666666666667
2026-01-20T23:08:47+00:00,SAT-52849,48.60789985423152,38.83495057870107,823.5502214528434,2.966916915865412,-103913.98043971747,10.5,10499896086.01956,47.655,-122.3035,60.0,8.783333333333333
2026-01-20T23:08:48+00:00,SAT-52849,49.14358089698309,38.63563910825471,826.5091844738919,3.0148108347176734,-105591.42806899955,10.5,10499894408.571932,47.655,-122.3035,60.0,8.8
2026-01-20T23:08:49+00:00,SAT-52849,49.67249213237978,38.43500851784182,829.5159130168056,3.06218280824944,-107250.59496533137,10.5,10499892749.405035,47.655,-122.3035,60.0,8.816666666666666
2026-01-20T23:08:50+00:00,SAT-52849,50.19467619383811,38.23315021599764,832.5698865355272,3.10903232733504,-108891.46329697834,10.5,10499891108.536703,47.655,-122.3035,60.0,8.833333333333334
2026-01-20T23:08:51+00:00,SAT-52849,50.71017901818753,38.03015349685644,835.6705839762392,3.155359152489503,-110514.02467616375,10.5,10499889485.975325,47.655,-122.3035,60.0,8.85
2026-01-20T23:08:52+00:00,SAT-52849,51.21904960725664,37.826105512773765,838.8174840462804,3.20116335881742,-112118.28173336806,10.5,10499887881.718267,47.655,-122.3035,60.0,8.866666666666667
2026-01-20T23:08:53+00:00,SAT-52849,51.721339805830326,37.62109124943465,842.0100655278933,3.246445295716451,-113704.24670597528,10.5,10499886295.753294,47.655,-122.3035,60.0,8.883333333333333
2026-01-20T23:08:54+00:00,SAT-52849,52.21710408224911,37.415193508747834,845.2478075517813,3.291205583722678,-115271.9413277839,10.5,10499884728.058672,47.655,-122.3035,60.0,8.9
2026-01-20T23:08:55+00:00,SAT-52849,52.70639931785178,37.20849289674503,848.5301898675206,3.3354450991092617,-116821.3962895866,10.5,10499883178.60371,47.655,-122.3035,60.0,8.916666666666666
2026-01-20T23:08:56+00:00,SAT-52849,53.18928460377694,37.00106781695558,851.8566930986102,3.379165001632698,-118352.65221096165,10.5,10499881647.34779,47.655,-122.3035,60.0,8.933333333333334
2026-01-20T23:08:57+00:00,SAT-52849,53.665821050839526,36.79299446627036,855.2267990251986,3.4223666498033043,-119865.75667268685,10.5,10499880134.243328,47.655,-122.3035,60.0,8.95
2026-01-20T23:08:58+00:00,SAT-52849,54.136071597041756,36.5843468399741,858.6399907823005,3.465051680647778,-121360.76701036179,10.5,10499878639.23299,47.655,-122.3035,60.0,8.966666666666667
2026-01-20T23:08:59+00:00,SAT-52849,54.60010083546872,36.375196735445826,862.0957531375693,3.507221921479698,-122837.74722423746,10.5,10499877162.252775,47.655,-122.3035,60.0,8.983333333333333
2026-01-20T23:09:00+00:00,SAT-52849,55.05797483951891,36.165613764601424,865.5935726810743,3.548879429738747,-124296.7693745546,10.5,10499875703.230625,47.655,-122.3035,60.0,9.0
2026-01-20T23:09:01+00:00,SAT-52849,55.50976100264046,35.95566536692739,869.1329380548073,3.590026456512985,-125737.9123039391,10.5,10499874262.087696,47.655,-122.3035,60.0,9.016666666666667
2026-01-20T23:09:02+00:00,SAT-52849,55.955527882535456,35.745416827482345,872.7133401458138,3.6306654773946474,-127161.2627181028,10.5,10499872838.737282,47.655,-122.3035,60.0,9.033333333333333
2026-01-20T23:09:03+00:00,SAT-52849,56.39534505776429,35.534931295609454,876.3342723100956,3.670799102523087,-128566.91203516672,10.5,10499871433.087965,47.655,-122.3035,60.0,9.05
2026-01-20T23:09:04+00:00,SAT-52849,56.829282982348616,35.324269811170716,879.9952305067949,3.7104301628140437,-129954.95940577485,10.5,10499870045.040594,47.655,-122.3035,60.0,9.066666666666666
2026-01-20T23:09:05+00:00,SAT-52849,57.257412859121835,35.11349132776785,883.695713518382,3.749561636839012,-131325.50915210025,10.5,10499868674.490849,47.655,-122.3035,60.0,9.083333333333334
2026-01-20T23:09:06+00:00,SAT-52849,57.67980651266487,34.902652742026525,887.4352230979122,3.7881966691984092,-132678.67141135118,10.5,10499867321.328588,47.655,-122.3035,60.0,9.1
2026-01-20T23:09:07+00:00,SAT-52849,58.0965362723235,34.691808923394056,891.2132641346114,3.8263385356006436,-134014.56091269234,10.5,10499865985.439087,47.655,-122.3035,60.0,9.116666666666667
2026-01-20T23:09:08+00:00,SAT-52849,58.5076748593688,34.48101274727208,895.0293447846329,3.863990690817735,-135333.29865685353,10.5,10499864666.701344,47.655,-122.3035,60.0,9.133333333333333
2026-01-20T23:09:09+00:00,SAT-52849,58.91329528651246,34.270315126688,898.8829766496392,3.901156674419192,-136635.0086145313,10.5,10499863364.991386,47.655,-122.3035,60.0,9.15
2026-01-20T23:09:10+00:00,SAT-52849,59.31347075489857,34.05976505017375,902.773674861374,3.93784018440822,-137919.8203054405,10.5,10499862080.179695,47.655,-122.3035,60.0,9.166666666666666
2026-01-20T23:09:11+00:00,SAT-52849,59.70827456568333,33.84940961641552,906.7009582396698,3.974045031534423,-139187.8671981516,10.5,10499860812.132801,47.655,-122.3035,60.0,9.183333333333334
2026-01-20T23:09:12+00:00,SAT-52849,60.097780033554,33.639294072110935,910.6643494048928,4.009775114769527,-140439.28585114717,10.5,10499859560.71415,47.655,-122.3035,60.0,9.2
2026-01-20T23:09:13+00:00,SAT-52849,60.482060404376064,33.429461851618896,914.6633748659286,4.045034468837875,-141674.21757754055,10.5,10499858325.782423,47.655,-122.3035,60.0,9.216666666666667
2026-01-20T23:09:14+00:00,SAT-52849,60.86118878351712,33.21995461448813,918.6975651555703,4.0798271654714835,-142892.80498661034,10.5,10499857107.195013,47.655,-122.3035,60.0,9.233333333333333
2026-01-20T23:09:15+00:00,SAT-52849,61.235238060911854,33.01081228839553,922.7664548674271,4.114157433697527,-144095.19619677705,10.5,10499855904.803802,47.655,-122.3035,60.0,9.25
2026-01-20T23:09:16+00:00,SAT-52849,61.60428085272281,32.80207310597349,926.8695828127989,4.1480295256081074,-145281.54013429224,10.5,10499854718.459866,47.655,-122.3035,60.0,9.266666666666667
2026-01-20T23:09:17+00:00,SAT-52849,61.96838943620973,32.59377364858841,931.006492043677,4.181447809328878,-146451.98978939364,10.5,10499853548.01021,47.655,-122.3035,60.0,9.283333333333333
2026-01-20T23:09:18+00:00,SAT-52849,62.32763569798722,32.38594888527255,935.1767299684685,4.214416664186283,-147606.6985446177,10.5,10499852393.301455,47.655,-122.3035,60.0,9.3
2026-01-20T23:09:19+00:00,SAT-52849,62.682091078224964,32.1786322167438,939.3798483631679,4.246940589253502,-148745.82397653838,10.5,10499851254.176023,47.655,-122.3035,60.0,9.316666666666666
2026-01-20T23:09:20+00:00,SAT-52849,63.031826528502826,31.971855513737992,943.6154034907793,4.279024107223106,-149869.52448898033,10.5,10499850130.475512,47.655,-122.3035,60.0,9.333333333333334
2026-01-20T23:09:21+00:00,SAT-52849,63.376912466108486,31.765649159790925,947.8829561248763,4.310671786328854,-150977.96008081353,10.5,10499849022.039919,47.655,-122.3035,60.0,9.35
2026-01-20T23:09:22+00:00,SAT-52849,63.71741873431475,31.560042092471743,952.1820715950189,4.341888244224434,-152071.29248180272,10.5,10499847928.707518,47.655,-122.3035,60.0,9.366666666666667
2026-01-20T23:09:23+00:00,SAT-52849,64.05341456696607,31.35506184394889,956.5123198360409,4.372678136526025,-153149.68475131973,10.5,10499846850.315248,47.655,-122.3035,60.0,9.383333333333333
2026-01-20T23:09:24+00:00,SAT-52849,64.38496855580759,31.150734581567917,960.8732754259125,4.403046173827496,-154213.3018742877,10.5,10499845786.698126,47.655,-122.3035,60.0,9.4
2026-01-20T23:09:25+00:00,SAT-52849,64.71214862255732,30.94708514705594,965.2645176405683,4.43299704023608,-155262.30790795558,10.5,10499844737.692093,47.655,-122.3035,60.0,9.416666666666666
2026-01-20T23:09:26+00:00,SAT-52849,65.0350219883808,30.744137098862268,969.6856304274934,4.462535481057562,-156296.86905300466,10.5,10499843703.130947,47.655,-122.3035,60.0,9.433333333333334
2026-01-20T23:09:27+00:00,SAT-52849,65.35365515290098,30.54191274971001,974.1362024667558,4.491666263767803,-157317.152286606,10.5,10499842682.847713,47.655,-122.3035,60.0,9.45
2026-01-20T23:09:28+00:00,SAT-52849,65.66811387320423,30.340433205284857,978.6158271931204,4.520394141159174,-158323.3240716527,10.5,10499841676.675928,47.655,-122.3035,60.0,9.466666666666667
2026-01-20T23:09:29+00:00,SAT-52849,65.97846314318576,30.139718403806285,983.1241027814017,4.548723900655668,-159315.55208398376,10.5,10499840684.447916,47.655,-122.3035,60.0,9.483333333333333
