DopplerPredictor/satellites_20260205_234138/SAT-64303.csv

timestamp,satellite,azimuth_deg,elevation_deg,distance_km,relative_velocity_kms,doppler_shift_hz,tx_freq_ghz,rx_freq_hz,ue_lat,ue_lon,ue_alt_m,time_minutes
2026-01-20T23:00:31+00:00,SAT-64303,237.46912572813574,30.213064593840997,1033.285265325696,-5.277667977035438,184846.2570691892,10.5,10500184846.257069,47.655,-122.3035,60.0,0.5166666666666667
2026-01-20T23:00:32+00:00,SAT-64303,237.67847272335308,30.439763072074218,1028.0217460481888,-5.256140413641751,184092.2707376394,10.5,10500184092.270737,47.655,-122.3035,60.0,0.5333333333333333
2026-01-20T23:00:33+00:00,SAT-64303,237.89091595523487,30.668110474792154,1022.7796966216487,-5.23427466202049,183326.43962382516,10.5,10500183326.439623,47.655,-122.3035,60.0,0.55
2026-01-20T23:00:34+00:00,SAT-64303,238.1065203138556,30.898113553803974,1017.5594543276676,-5.212065177809712,182548.56954073868,10.5,10500182548.56954,47.655,-122.3035,60.0,0.5666666666666667
2026-01-20T23:00:35+00:00,SAT-64303,238.32535232726414,31.129778544289973,1012.3613619773342,-5.1895063999814255,181758.46571765648,10.5,10500181758.465717,47.655,-122.3035,60.0,0.5833333333333334
2026-01-20T23:00:36+00:00,SAT-64303,238.5474802071591,31.36311113353542,1007.1857679278596,-5.166592635238998,180955.9287512479,10.5,10500180955.928751,47.655,-122.3035,60.0,0.6
2026-01-20T23:00:37+00:00,SAT-64303,238.7729738914716,31.59811642296509,1002.033026214486,-5.143318175426592,180140.75871775005,10.5,10500180140.758718,47.655,-122.3035,60.0,0.6166666666666667
2026-01-20T23:00:38+00:00,SAT-64303,239.0019050919857,31.83479889377681,996.9034965653095,-5.119677250988691,179312.75354292354,10.5,10500179312.753544,47.655,-122.3035,60.0,0.6333333333333333
2026-01-20T23:00:39+00:00,SAT-64303,239.23434734138462,32.07316236886119,991.7975444625155,-5.095663993502861,178471.70768979134,10.5,10500178471.70769,47.655,-122.3035,60.0,0.65
2026-01-20T23:00:40+00:00,SAT-64303,239.47037603948618,32.313209971204536,986.7155412409778,-5.071272503079737,177617.41451927135,10.5,10500177617.414518,47.655,-122.3035,60.0,0.6666666666666666
2026-01-20T23:00:41+00:00,SAT-64303,239.71006850316553,32.55494408357452,981.6578641196429,-5.04649678543969,176749.66408633516,10.5,10500176749.664085,47.655,-122.3035,60.0,0.6833333333333333
2026-01-20T23:00:42+00:00,SAT-64303,239.95350401425213,32.79836630336659,976.6248962956687,-5.021330817177273,175868.24542584512,10.5,10500175868.245426,47.655,-122.3035,60.0,0.7
2026-01-20T23:00:43+00:00,SAT-64303,240.2007638712571,33.04347739856722,971.6170269734682,-4.995768545533153,174972.9465445662,10.5,10500174972.946545,47.655,-122.3035,60.0,0.7166666666666667
2026-01-20T23:00:44+00:00,SAT-64303,240.45193144164202,33.29027726177771,966.63465139399,-4.969803762384961,174063.5500077927,10.5,10500174063.550007,47.655,-122.3035,60.0,0.7333333333333333
2026-01-20T23:00:45+00:00,SAT-64303,240.70709220922242,33.5387648558919,961.678170989659,-4.943430322154393,173139.84057137667,10.5,10500173139.84057,47.655,-122.3035,60.0,0.75
2026-01-20T23:00:46+00:00,SAT-64303,240.9663338317791,33.7889381683182,956.7479933220053,-4.916641963808955,172201.59894747593,10.5,10500172201.598948,47.655,-122.3035,60.0,0.7666666666666667
2026-01-20T23:00:47+00:00,SAT-64303,241.2297461913591,34.04079415419589,951.8445321968047,-4.889432414949182,171248.60545012914,10.5,10500171248.60545,47.655,-122.3035,60.0,0.7833333333333333
2026-01-20T23:00:48+00:00,SAT-64303,241.49742144962133,34.29432868247053,946.968207675418,-4.861795321333674,170280.63752692397,10.5,10500170280.637527,47.655,-122.3035,60.0,0.8
2026-01-20T23:00:49+00:00,SAT-64303,241.76945410016992,34.54953647597514,942.1194461564132,-4.833724318566425,169297.47226979092,10.5,10500169297.47227,47.655,-122.3035,60.0,0.8166666666666667
2026-01-20T23:00:50+00:00,SAT-64303,242.04594102459455,34.80641105271956,937.298680385691,-4.805213001374925,168298.8853389925,10.5,10500168298.88534,47.655,-122.3035,60.0,0.8333333333333334
2026-01-20T23:00:51+00:00,SAT-64303,242.3269815471018,35.06494466308322,932.5063494972535,-4.776254911410231,167284.65053582977,10.5,10500167284.650536,47.655,-122.3035,60.0,0.85
2026-01-20T23:00:52+00:00,SAT-64303,242.61267748830522,35.325128223692445,927.7428990661375,-4.7468436031296415,166254.54211013284,10.5,10500166254.54211,47.655,-122.3035,60.0,0.8666666666666667
2026-01-20T23:00:53+00:00,SAT-64303,242.90313322241445,35.586951252174615,923.0087810956434,-4.716972565536836,165208.3320192691,10.5,10500165208.33202,47.655,-122.3035,60.0,0.8833333333333333
2026-01-20T23:00:54+00:00,SAT-64303,243.1984557296808,35.850401794910134,918.3044540826127,-4.686635296685491,164145.79253757498,10.5,10500164145.792538,47.655,-122.3035,60.0,0.9
2026-01-20T23:00:55+00:00,SAT-64303,243.49875465238512,36.115466356014046,913.6303830084019,-4.655825243764104,163066.69415787337,10.5,10500163066.694159,47.655,-122.3035,60.0,0.9166666666666666
2026-01-20T23:00:56+00:00,SAT-64303,243.8041423464389,36.382129820067924,908.9870393896126,-4.624535888965319,161970.80859898034,10.5,10500161970.8086,47.655,-122.3035,60.0,0.9333333333333333
2026-01-20T23:00:57+00:00,SAT-64303,244.11473393702653,36.650375376736285,904.3749012431797,-4.592760699396038,160857.9070513455,10.5,10500160857.907051,47.655,-122.3035,60.0,0.95
2026-01-20T23:00:58+00:00,SAT-64303,244.4306473697919,36.9201844395694,899.7944531014177,-4.560493118558643,159727.75987868832,10.5,10500159727.759878,47.655,-122.3035,60.0,0.9666666666666667
2026-01-20T23:00:59+00:00,SAT-64303,244.75200346003365,37.191536561154116,895.2461860355619,-4.52772660851621,158580.13809480224,10.5,10500158580.138094,47.655,-122.3035,60.0,0.9833333333333333
2026-01-20T23:01:00+00:00,SAT-64303,245.0789259419873,37.46440934754621,890.7305976372569,-4.494454672343623,157414.8141498878,10.5,10500157414.81415,47.655,-122.3035,60.0,1.0
2026-01-20T23:01:01+00:00,SAT-64303,245.41154151773986,37.73877837092756,886.248191977655,-4.4606708167686,156231.5606220831,10.5,10500156231.560621,47.655,-122.3035,60.0,1.0166666666666666
2026-01-20T23:01:02+00:00,SAT-64303,245.74997990048823,38.01461707681391,881.7994796037736,-4.426368560495053,155030.15050898332,10.5,10500155030.150509,47.655,-122.3035,60.0,1.0333333333333334
2026-01-20T23:01:03+00:00,SAT-64303,246.09437385540343,38.2918966884253,877.3849775265504,-4.391541480120627,153810.358835867,10.5,10500153810.358835,47.655,-122.3035,60.0,1.05
2026-01-20T23:01:04+00:00,SAT-64303,246.44485923951336,38.570586110590035,873.0052091631054,-4.356183204053935,152571.96244265194,10.5,10500152571.962442,47.655,-122.3035,60.0,1.0666666666666667
2026-01-20T23:01:05+00:00,SAT-64303,246.80157503727688,38.85065183003703,868.660704285068,-4.3202873913296775,151314.7392419112,10.5,10500151314.739243,47.655,-122.3035,60.0,1.0833333333333333
2026-01-20T23:01:06+00:00,SAT-64303,247.16466338956403,39.13205781099746,864.3519989880351,-4.283847770578677,150038.46958376822,10.5,10500150038.469584,47.655,-122.3035,60.0,1.1
2026-01-20T23:01:07+00:00,SAT-64303,247.53426962004704,39.414765389957104,860.0796356221583,-4.246858173050098,148742.93741247497,10.5,10500148742.937412,47.655,-122.3035,60.0,1.1166666666666667
2026-01-20T23:01:08+00:00,SAT-64303,247.91054225788724,39.698733169348955,855.8441626898039,-4.209312445715515,147427.9272229487,10.5,10500147427.927223,47.655,-122.3035,60.0,1.1333333333333333
2026-01-20T23:01:09+00:00,SAT-64303,248.29363304691728,39.983916902217224,851.6461348298706,-4.171204595197898,146093.2291017739,10.5,10500146093.229101,47.655,-122.3035,60.0,1.15
2026-01-20T23:01:10+00:00,SAT-64303,248.68369695819513,40.27026938324538,847.4861126585661,-4.132528691482646,144738.63535475527,10.5,10500144738.635355,47.655,-122.3035,60.0,1.1666666666666667
2026-01-20T23:01:11+00:00,SAT-64303,249.08089218649286,40.55774033025533,843.3646627062162,-4.09327890346654,143363.94175199253,10.5,10500143363.941751,47.655,-122.3035,60.0,1.1833333333333333
2026-01-20T23:01:12+00:00,SAT-64303,249.48538013966356,40.846276264956536,839.2823573186172,-4.053449581002836,141968.95040144667,10.5,10500141968.950401,47.655,-122.3035,60.0,1.2
2026-01-20T23:01:13+00:00,SAT-64303,249.89732542498442,41.13582039655022,835.2397744765652,-4.0130351485372255,140553.46602362115,10.5,10500140553.466024,47.655,-122.3035,60.0,1.2166666666666666
2026-01-20T23:01:14+00:00,SAT-64303,250.31689581406872,41.42631249509953,831.2374977214625,-3.9720302060655572,139117.29948752865,10.5,10500139117.299488,47.655,-122.3035,60.0,1.2333333333333334
2026-01-20T23:01:15+00:00,SAT-64303,250.74426220413793,41.717688769343425,827.2761159802391,-3.930429517624829,137660.2674075967,10.5,10500137660.267408,47.655,-122.3035,60.0,1.25
2026-01-20T23:01:16+00:00,SAT-64303,251.17959856400142,42.00988174135435,823.3562234017519,-3.8882280119278176,136182.19216589528,10.5,10500136182.192165,47.655,-122.3035,60.0,1.2666666666666666
2026-01-20T23:01:17+00:00,SAT-64303,251.62308186479615,42.30282011903544,819.4784191925482,-3.845420801271909,134682.90257440382,10.5,10500134682.902575,47.655,-122.3035,60.0,1.2833333333333334
2026-01-20T23:01:18+00:00,SAT-64303,252.0748919952221,42.59642866804989,815.6433074337768,-3.8020031902551956,133162.234180286,10.5,10500133162.23418,47.655,-122.3035,60.0,1.3
2026-01-20T23:01:19+00:00,SAT-64303,252.53521165931107,42.89062808274955,811.8514968893982,-3.757970727920201,131620.0310921835,10.5,10500131620.031092,47.655,-122.3035,60.0,1.3166666666666667
2026-01-20T23:01:20+00:00,SAT-64303,253.0042262595195,43.185334859841674,808.1036007623999,-3.713319163764793,130056.14443953198,10.5,10500130056.14444,47.655,-122.3035,60.0,1.3333333333333333
2026-01-20T23:01:21+00:00,SAT-64303,253.48212375321893,43.48046116780045,804.4002364948749,-3.668044480734925,128470.43352810667,10.5,10500128470.433529,47.655,-122.3035,60.0,1.35
2026-01-20T23:01:22+00:00,SAT-64303,253.9690944886492,43.77591471827537,800.7420255352029,-3.6221429551363697,126862.76793838451,10.5,10500126862.767939,47.655,-122.3035,60.0,1.3666666666666667
2026-01-20T23:01:23+00:00,SAT-64303,254.46533102244533,44.07159864235631,797.1295930454734,-3.5756111102908013,125233.02590238415,10.5,10500125233.025902,47.655,-122.3035,60.0,1.3833333333333333
2026-01-20T23:01:24+00:00,SAT-64303,254.97102790378005,44.36741136374753,793.563567655135,-3.5284457702220964,123581.09618398744,10.5,10500123581.096184,47.655,-122.3035,60.0,1.4
2026-01-20T23:01:25+00:00,SAT-64303,255.4863814352641,44.66324647744557,790.0445811610975,-3.4806440386519912,121906.87734327828,10.5,10500121906.877344,47.655,-122.3035,60.0,1.4166666666666667
2026-01-20T23:01:26+00:00,SAT-64303,256.0115893986605,44.958992628517905,786.5732682487841,-3.4322033828775593,120210.28067428693,10.5,10500120210.280674,47.655,-122.3035,60.0,1.4333333333333333
2026-01-20T23:01:27+00:00,SAT-64303,256.5468507575972,45.254533400526476,783.1502661295319,-3.383121554002061,118491.22741113667,10.5,10500118491.227411,47.655,-122.3035,60.0,1.45
2026-01-20T23:01:28+00:00,SAT-64303,257.0923653124173,45.5497472006023,779.7762142575456,-3.333396719528962,116749.65337204748,10.5,10500116749.653372,47.655,-122.3035,60.0,1.4666666666666666
2026-01-20T23:01:29+00:00,SAT-64303,257.64833333462144,45.84450716019547,776.4517539146129,-3.2830273382750836,114985.5045782652,10.5,10500114985.504578,47.655,-122.3035,60.0,1.4833333333333334
2026-01-20T23:01:30+00:00,SAT-64303,258.2149551410822,46.13868103018293,773.177527919574,-3.232012331246912,113198.74323887285,10.5,10500113198.743238,47.655,-122.3035,60.0,1.5
2026-01-20T23:01:31+00:00,SAT-64303,258.79243064998207,46.43213109727795,769.9541801673696,-3.1803509686684293,111389.34379402736,10.5,10500111389.343794,47.655,-122.3035,60.0,1.5166666666666666
2026-01-20T23:01:32+00:00,SAT-64303,259.38095887256793,46.7247140978863,766.7823552807598,-3.128042948390915,109557.29566120241,10.5,10500109557.295662,47.655,-122.3035,60.0,1.5333333333333334
2026-01-20T23:01:33+00:00,SAT-64303,259.9807373678453,47.01628114750677,763.6626981838435,-3.075088436416097,107702.60465448073,10.5,10500107702.604654,47.655,-122.3035,60.0,1.55
2026-01-20T23:01:34+00:00,SAT-64303,260.59196165314023,47.30667768390614,760.5958536351632,-3.0214880044396306,105825.29079706242,10.5,10500105825.290796,47.655,-122.3035,60.0,1.5666666666666667
2026-01-20T23:01:35+00:00,SAT-64303,261.21482454984096,47.595743415778934,757.5824658230982,-2.9672427193775666,103925.39145686063,10.5,10500103925.391457,47.655,-122.3035,60.0,1.5833333333333333
2026-01-20T23:01:36+00:00,SAT-64303,261.8495154886885,47.88331229250795,754.6231778719716,-2.9123541140024303,102002.96031805284,10.5,10500102002.960318,47.655,-122.3035,60.0,1.6
2026-01-20T23:01:37+00:00,SAT-64303,262.49621975201353,48.169212485512766,751.7186313774441,-2.8568242326783007,100058.0689829167,10.5,10500100058.068983,47.655,-122.3035,60.0,1.6166666666666667
2026-01-20T23:01:38+00:00,SAT-64303,263.15511766483314,48.453266389951956,748.869465896292,-2.800655634532988,98090.80708293326,10.5,10500098090.807083,47.655,-122.3035,60.0,1.6333333333333333
2026-01-20T23:01:39+00:00,SAT-64303,263.8263837258679,48.73529064447245,746.0763184330248,-2.7438513864937737,96101.282034869,10.5,10500096101.282034,47.655,-122.3035,60.0,1.65
2026-01-20T23:01:40+00:00,SAT-64303,264.5101856742682,49.01509616967267,743.3398229334467,-2.686415109316747,94089.62065291798,10.5,10500094089.620653,47.655,-122.3035,60.0,1.6666666666666667
2026-01-20T23:01:41+00:00,SAT-64303,265.2066835036108,49.29248823247025,740.6606097323127,-2.628350995864676,92055.96978887006,10.5,10500092055.96979,47.655,-122.3035,60.0,1.6833333333333333
2026-01-20T23:01:42+00:00,SAT-64303,265.91602841743463,49.56726653565741,738.0393049827554,-2.5696637654709034,90000.49473374171,10.5,10500090000.494734,47.655,-122.3035,60.0,1.7
2026-01-20T23:01:43+00:00,SAT-64303,266.63836171138735,49.839225327863105,735.4765301312264,-2.5103587604660365,87923.38259854884,10.5,10500087923.382599,47.655,-122.3035,60.0,1.7166666666666666
2026-01-20T23:01:44+00:00,SAT-64303,267.3738136174612,50.108153550707094,732.9729012961676,-2.45044188760168,85824.84026271813,10.5,10500085824.840263,47.655,-122.3035,60.0,1.7333333333333334
2026-01-20T23:01:45+00:00,SAT-64303,268.12250207497857,50.373835008996714,730.5290287051057,-2.3899196541293377,83705.09563772297,10.5,10500083705.095638,47.655,-122.3035,60.0,1.75
2026-01-20T23:01:46+00:00,SAT-64303,268.88453145366503,50.63604857576697,728.1455160957602,-2.3287992070565795,81564.39904200021,10.5,10500081564.399042,47.655,-122.3035,60.0,1.7666666666666666
2026-01-20T23:01:47+00:00,SAT-64303,269.6599912366465,50.89456843471209,725.8229600780032,-2.2670882740161797,79403.02112993745,10.5,10500079403.02113,47.655,-122.3035,60.0,1.7833333333333334
2026-01-20T23:01:48+00:00,SAT-64303,270.44895463824093,51.149164351043844,723.5619495547916,-2.2047952240312827,77221.25502012618,10.5,10500077221.25502,47.655,-122.3035,60.0,1.8
2026-01-20T23:01:49+00:00,SAT-64303,271.2514771983067,51.39960198565676,721.3630650824941,-2.141929070294736,75019.41639270567,10.5,10500075019.416393,47.655,-122.3035,60.0,1.8166666666666667
2026-01-20T23:01:50+00:00,SAT-64303,272.0675953445024,51.645643248039725,719.2268782284508,-2.0784994496727083,72797.84277149304,10.5,10500072797.842772,47.655,-122.3035,60.0,1.8333333333333333
2026-01-20T23:01:51+00:00,SAT-64303,272.89732492317,51.8870466866793,717.1539509489697,-2.0145166405222437,70556.89414802943,10.5,10500070556.894148,47.655,-122.3035,60.0,1.85
2026-01-20T23:01:52+00:00,SAT-64303,273.74065972039193,52.123567922521126,715.1448349495574,-1.9499915605007039,68296.95290485723,10.5,10500068296.952906,47.655,-122.3035,60.0,1.8666666666666667
2026-01-20T23:01:53+00:00,SAT-64303,274.59756997989206,52.35496012426376,713.2000710473318,-1.8849357783798477,66018.42422929933,10.5,10500066018.424229,47.655,-122.3035,60.0,1.8833333333333333
2026-01-20T23:01:54+00:00,SAT-64303,275.4680009346422,52.58097452785499,711.3201885216525,-1.8193615035334314,63721.735745270256,10.5,10500063721.735744,47.655,-122.3035,60.0,1.9
2026-01-20T23:01:55+00:00,SAT-64303,276.3518713599064,52.80136099795375,709.5057044752382,-1.7532815781788504,61407.33724154571,10.5,10500061407.337242,47.655,-122.3035,60.0,1.9166666666666667
2026-01-20T23:01:56+00:00,SAT-64303,277.2490721627257,53.01586863159856,707.7571232030174,-1.686709478161327,59075.700699228175,10.5,10500059075.700699,47.655,-122.3035,60.0,1.9333333333333333
2026-01-20T23:01:57+00:00,SAT-64303,278.1594650295143,53.22424640464788,706.0749355602012,-1.619659326564793,56727.32076845751,10.5,10500056727.320768,47.655,-122.3035,60.0,1.95
2026-01-20T23:01:58+00:00,SAT-64303,279.082881156839,53.42624386169562,704.4596183167781,-1.5521458383717166,54362.71283016407,10.5,10500054362.71283,47.655,-122.3035,60.0,1.9666666666666666
2026-01-20T23:01:59+00:00,SAT-64303,280.0191200518828,53.62161183946138,702.911633567203,-1.484184376395861,51982.41495507049,10.5,10500051982.414955,47.655,-122.3035,60.0,1.9833333333333334
2026-01-20T23:02:00+00:00,SAT-64303,280.9679484775808,53.8101032353893,701.4314280843026,-1.4157908730118682,49586.98516233059,10.5,10500049586.985163,47.655,-122.3035,60.0,2.0
2026-01-20T23:02:01+00:00,SAT-64303,281.9290994951127,53.99147380213421,700.0194327512422,-1.3469818705226453,47177.00283336606,10.5,10500047177.002832,47.655,-122.3035,60.0,2.0166666666666666
2026-01-20T23:02:02+00:00,SAT-64303,282.9022716873755,54.165482979507004,698.676061953231,-1.2777744822322727,44753.067348475,10.5,10500044753.067348,47.655,-122.3035,60.0,2.033333333333333
2026-01-20T23:02:03+00:00,SAT-64303,283.8871285430747,54.33189475006729,697.4017130080528,-1.2081863733970377,42315.79741965655,10.5,10500042315.79742,47.655,-122.3035,60.0,2.05
2026-01-20T23:02:04+00:00,SAT-64303,284.88329803017615,54.49047851625532,696.1967656155931,-1.138235761908226,39865.83111452514,10.5,10500039865.831114,47.655,-122.3035,60.0,2.066666666666667
2026-01-20T23:02:05+00:00,SAT-64303,285.89037239437835,54.64100999653745,695.0615813066861,-1.067941371388268,37403.824213539134,10.5,10500037403.824213,47.655,-122.3035,60.0,2.0833333333333335
2026-01-20T23:02:06+00:00,SAT-64303,286.90790816672256,54.783272128557726,693.9965029387383,-0.9973224393155184,34930.45049456495,10.5,10500034930.450495,47.655,-122.3035,60.0,2.1
2026-01-20T23:02:07+00:00,SAT-64303,287.93542643802755,54.91705598021855,693.0018541832524,-0.9263986780114035,32446.40036648199,10.5,10500032446.400366,47.655,-122.3035,60.0,2.1166666666666667
2026-01-20T23:02:08+00:00,SAT-64303,288.9724133800424,55.04216165564965,692.0779390522536,-0.8551902468670977,29952.37989644331,10.5,10500029952.379896,47.655,-122.3035,60.0,2.1333333333333333
2026-01-20T23:02:09+00:00,SAT-64303,290.01832103183955,55.15839919022395,691.2250414524223,-0.7837177408409879,27449.11040700821,10.5,10500027449.110407,47.655,-122.3035,60.0,2.15
2026-01-20T23:02:10+00:00,SAT-64303,291.07256837581417,55.26558942921018,690.4434247506913,-0.7120021449140488,24937.326880976816,10.5,10500024937.326881,47.655,-122.3035,60.0,2.1666666666666665
2026-01-20T23:02:11+00:00,SAT-64303,292.1345426761667,55.36356487755138,689.7333313852715,-0.6400648223075311,22417.777548723647,10.5,10500022417.777548,47.655,-122.3035,60.0,2.183333333333333
2026-01-20T23:02:12+00:00,SAT-64303,293.203601114345,55.45217051734339,689.0949824884235,-0.5679274783789016,19891.22262368077,10.5,10500019891.222624,47.655,-122.3035,60.0,2.2
2026-01-20T23:02:13+00:00,SAT-64303,294.2790726968032,55.531264581652785,688.5285775452403,-0.4956121197387394,17358.432870438533,10.5,10500017358.43287,47.655,-122.3035,60.0,2.216666666666667
2026-01-20T23:02:14+00:00,SAT-64303,295.36026041430074,55.60071927609135,688.0342940932001,-0.42314103422242977,14820.188903269584,10.5,10500014820.188904,47.655,-122.3035,60.0,2.2333333333333334
2026-01-20T23:02:15+00:00,SAT-64303,296.44644367114665,55.66042144333836,687.6122874416968,-0.35053675822865904,12277.280042184784,10.5,10500012277.280043,47.655,-122.3035,60.0,2.25
2026-01-20T23:02:16+00:00,SAT-64303,297.5368809555282,55.71027316167909,687.2626904241429,-0.2778220305922443,9730.502697364605,10.5,10500009730.502697,47.655,-122.3035,60.0,2.2666666666666666
2026-01-20T23:02:17+00:00,SAT-64303,298.6308127028336,55.750192268918774,686.9856131960753,-0.2050197685796436,7180.65952842035,10.5,10500007180.659529,47.655,-122.3035,60.0,2.283333333333333
2026-01-20T23:02:18+00:00,SAT-64303,299.72746436677375,55.78011280877539,686.7811430572025,-0.13215302490487094,4628.557938909673,10.5,10500004628.55794,47.655,-122.3035,60.0,2.3
2026-01-20T23:02:19+00:00,SAT-64303,300.82604963441526,55.799985391873655,686.6493443163201,-0.05924495837929715,2075.0090483684553,10.5,10500002075.009048,47.655,-122.3035,60.0,2.316666666666667
2026-01-20T23:02:20+00:00,SAT-64303,301.9257737826179,55.80977746896336,686.5902581854984,0.013681207758560025,-479.1737671562113,10.5,10499999520.826233,47.655,-122.3035,60.0,2.3333333333333335
2026-01-20T23:02:21+00:00,SAT-64303,303.0258371180102,55.809473511369085,686.6039027158272,0.08660222197860475,-3033.176140726495,10.5,10499996966.82386,47.655,-122.3035,60.0,2.35
2026-01-20T23:02:22+00:00,SAT-64303,304.12543846376695,55.799075097228446,686.6902727691997,0.15949483932380157,-5586.183935620943,10.5,10499994413.816065,47.655,-122.3035,60.0,2.3666666666666667
2026-01-20T23:02:23+00:00,SAT-64303,305.2237786756267,55.778600902673844,686.8493400248697,0.23233585957303307,-8137.384581959187,10.5,10499991862.615417,47.655,-122.3035,60.0,2.3833333333333333
2026-01-20T23:02:24+00:00,SAT-64303,306.3200641311101,55.748086597584546,687.0810530240655,0.30510216460465495,-10685.968385331686,10.5,10499989314.031614,47.655,-122.3035,60.0,2.4
2026-01-20T23:02:25+00:00,SAT-64303,307.4135101546729,55.70758464727578,687.385337251871,0.37777075394443593,-13231.129771838947,10.5,10499986768.870228,47.655,-122.3035,60.0,2.4166666666666665
2026-01-20T23:02:26+00:00,SAT-64303,308.5033443518352,55.65716402277588,687.7620952545564,0.45031877989078584,-15772.068518325605,10.5,10499984227.931482,47.655,-122.3035,60.0,2.433333333333333
2026-01-20T23:02:27+00:00,SAT-64303,309.5888098022051,55.596909823190934,688.2112067919422,0.5227235849354853,-18307.99106301265,10.5,10499981692.008938,47.655,-122.3035,60.0,2.45
2026-01-20T23:02:28+00:00,SAT-64303,310.66916810289706,55.52692281435176,688.7325290270823,0.5949627368656631,-20838.11173491717,10.5,10499979161.888266,47.655,-122.3035,60.0,2.466666666666667
2026-01-20T23:02:29+00:00,SAT-64303,311.74370221154675,55.44731888937158,689.3258967509554,0.6670140573174884,-23361.65375392342,10.5,10499976638.346247,47.655,-122.3035,60.0,2.4833333333333334
2026-01-20T23:02:30+00:00,SAT-64303,312.8117190632976,55.35822845818301,689.9911226356331,0.7388556632557975,-25877.85068357482,10.5,10499974122.149317,47.655,-122.3035,60.0,2.5
2026-01-20T23:02:31+00:00,SAT-64303,313.8725519657479,55.259795771123045,690.7279975288177,0.8104659920149717,-28385.94730811141,10.5,10499971614.052692,47.655,-122.3035,60.0,2.5166666666666666
2026-01-20T23:02:32+00:00,SAT-64303,314.92556272422064,55.15217818611964,691.5362907733523,0.8818238358820212,-30885.200843715764,10.5,10499969114.799156,47.655,-122.3035,60.0,2.533333333333333
2026-01-20T23:02:33+00:00,SAT-64303,315.9701435045753,55.03554538590432,692.4157505612219,0.9529083675399733,-33374.88182964803,10.5,10499966625.11817,47.655,-122.3035,60.0,2.55
2026-01-20T23:02:34+00:00,SAT-64303,317.0057184140398,54.9100785544414,693.36610431293,1.0236991768275356,-35854.27541572484,10.5,10499964145.724585,47.655,-122.3035,60.0,2.566666666666667
2026-01-20T23:02:35+00:00,SAT-64303,318.0317448122652,54.775969519135316,694.3870590935348,1.094176283376741,-38322.68180494314,10.5,10499961677.318195,47.655,-122.3035,60.0,2.5833333333333335
2026-01-20T23:02:36+00:00,SAT-64303,319.0477143258629,54.633419870003415,695.4783020412923,1.1643201785367607,-40779.41772182938,10.5,10499959220.582277,47.655,-122.3035,60.0,2.6
2026-01-20T23:02:37+00:00,SAT-64303,320.05315360572314,54.48264005983725,696.6395008381064,1.2341118354159453,-43223.816764154304,10.5,10499956776.183235,47.655,-122.3035,60.0,2.6166666666666667
2026-01-20T23:02:38+00:00,SAT-64303,321.0476248031877,54.3238484971106,697.8703041899993,1.3035327409997886,-45655.23052783996,10.5,10499954344.769472,47.655,-122.3035,60.0,2.6333333333333333
2026-01-20T23:02:39+00:00,SAT-64303,322.03072579805985,54.15727063596867,699.1703423396078,1.3725649120197094,-48073.02916275148,10.5,10499951926.970837,47.655,-122.3035,60.0,2.65
2026-01-20T23:02:40+00:00,SAT-64303,323.0020901809242,53.98313807217292,700.5392275945122,1.441190902970981,-50476.60165351893,10.5,10499949523.398346,47.655,-122.3035,60.0,2.6666666666666665
2026-01-20T23:02:41+00:00,SAT-64303,323.96138699926485,53.8016876521919,701.9765548635567,1.5093938546493695,-52865.35751949564,10.5,10499947134.64248,47.655,-122.3035,60.0,2.683333333333333
2026-01-20T23:02:42+00:00,SAT-64303,324.9083203212251,53.61316059599509,703.481902241578,1.5771574705557623,-55238.72598834859,10.5,10499944761.274012,47.655,-122.3035,60.0,2.7
2026-01-20T23:02:43+00:00,SAT-64303,325.8426285772733,53.41780164771248,705.054831570603,1.6444660574487995,-57596.15741638302,10.5,10499942403.842583,47.655,-122.3035,60.0,2.716666666666667
2026-01-20T23:02:44+00:00,SAT-64303,326.7640837540033,53.21585825046628,706.6948890414883,1.7113045315269908,-59937.1235050663,10.5,10499940062.876495,47.655,-122.3035,60.0,2.7333333333333334
2026-01-20T23:02:45+00:00,SAT-64303,327.67249043327934,53.00757975350866,708.401605801726,1.777658418765278,-62261.11731281585,10.5,10499937738.882687,47.655,-122.3035,60.0,2.75
2026-01-20T23:02:46+00:00,SAT-64303,328.5676846955642,52.79321665548342,710.1744985635875,1.8435138753506841,-64567.65397074193,10.5,10499935432.34603,47.655,-122.3035,60.0,2.7666666666666666
2026-01-20T23:02:47+00:00,SAT-64303,329.4495329223744,52.57301988388205,712.0130702326431,1.9088576900745018,-66856.27076643225,10.5,10499933143.729233,47.655,-122.3035,60.0,2.783333333333333
2026-01-20T23:02:48+00:00,SAT-64303,330.31793050565824,52.347240114833475,713.916810538673,1.9736772825428504,-69126.52708127811,10.5,10499930873.47292,47.655,-122.3035,60.0,2.8
2026-01-20T23:02:49+00:00,SAT-64303,331.1728004833843,52.11612713508264,715.8851966647887,2.037960722561705,-71378.00506942006,10.5,10499928621.99493,47.655,-122.3035,60.0,2.816666666666667
2026-01-20T23:02:50+00:00,SAT-64303,332.0140921289979,51.87992924450834,717.9176938958917,2.1016967193989733,-73610.3092816605,10.5,10499926389.690718,47.655,-122.3035,60.0,2.8333333333333335
2026-01-20T23:02:51+00:00,SAT-64303,332.8417794981205,51.63889270313294,720.01375625642,2.1648746133622776,-75823.06637048192,10.5,10499924176.93363,47.655,-122.3035,60.0,2.85
2026-01-20T23:02:52+00:00,SAT-64303,333.6558599497646,51.39326122221295,722.1728271396968,2.2274844081125846,-78015.92622180689,10.5,10499921984.073778,47.655,-122.3035,60.0,2.8666666666666667
2026-01-20T23:02:53+00:00,SAT-64303,334.4563526740242,51.143275494347655,724.3943399695041,2.2895167241666723,-80188.56032645778,10.5,10499919811.439674,47.655,-122.3035,60.0,2.8833333333333333
2026-01-20T23:02:54+00:00,SAT-64303,335.24329720529926,50.88917277082218,726.6777188152864,2.350962842158826,-82340.6632953644,10.5,10499917659.336704,47.655,-122.3035,60.0,2.9
2026-01-20T23:02:55+00:00,SAT-64303,336.0167519699553,50.63118647495224,729.0223790504982,2.4118146412944106,-84471.9507039477,10.5,10499915528.049295,47.655,-122.3035,60.0,2.9166666666666665
2026-01-20T23:02:56+00:00,SAT-64303,336.77679283729395,50.369545861826204,731.4277279495698,2.472064649853446,-86582.16086096864,10.5,10499913417.83914,47.655,-122.3035,60.0,2.933333333333333
2026-01-20T23:02:57+00:00,SAT-64303,337.5235117250125,50.104475710503806,733.8931653352419,2.5317060007959618,-88671.05325363988,10.5,10499911328.946747,47.655,-122.3035,60.0,2.95
2026-01-20T23:02:58+00:00,SAT-64303,338.25701523088617,49.836196057488614,736.4180841816251,2.590732442051536,-90738.40890800905,10.5,10499909261.591091,47.655,-122.3035,60.0,2.966666666666667
2026-01-20T23:02:59+00:00,SAT-64303,338.9774233170771,49.56492196365851,739.0018712275205,2.6491382891726594,-92784.02873067914,10.5,10499907215.97127,47.655,-122.3035,60.0,2.9833333333333334
2026-01-20T23:03:00+00:00,SAT-64303,339.6848680333787,49.29086331884919,741.643907542521,2.7069185012456094,-94807.73616752861,10.5,10499905192.263832,47.655,-122.3035,60.0,3.0
2026-01-20T23:03:01+00:00,SAT-64303,340.3794923203736,49.01422466929875,744.3435691688196,2.7640685528824744,-96809.37272033034,10.5,10499903190.62728,47.655,-122.3035,60.0,3.0166666666666666
2026-01-20T23:03:02+00:00,SAT-64303,341.06144883463156,48.735205087169376,747.1002276353531,2.8205845244821246,-98788.80110807292,10.5,10499901211.198893,47.655,-122.3035,60.0,3.033333333333333
2026-01-20T23:03:03+00:00,SAT-64303,341.73089886243645,48.453998057510084,749.9132505619657,2.8764630054102818,-100745.90187591696,10.5,10499899254.098124,47.655,-122.3035,60.0,3.05
2026-01-20T23:03:04+00:00,SAT-64303,342.38801126983094,48.17079139986865,752.7820021670103,2.9317011667206856,-102680.57594219799,10.5,10499897319.424057,47.655,-122.3035,60.0,3.066666666666667
2026-01-20T23:03:05+00:00,SAT-64303,343.032961535198,47.885767205489394,755.7058438474779,2.9862966690340365,-104592.74137195734,10.5,10499895407.258629,47.655,-122.3035,60.0,3.0833333333333335
2026-01-20T23:03:06+00:00,SAT-64303,343.66593082148563,47.599101804652484,758.6841346672511,3.0402476811350243,-106482.33402828884,10.5,10499893517.665972,47.655,-122.3035,60.0,3.1
2026-01-20T23:03:07+00:00,SAT-64303,344.2871051166823,47.310965751199674,761.716231863907,3.0935528859492503,-108349.30778167583,10.5,10499891650.692219,47.655,-122.3035,60.0,3.1166666666666667
2026-01-20T23:03:08+00:00,SAT-64303,344.89667443618157,47.02152382390142,764.8014913614793,3.146211422970436,-110193.63249354852,10.5,10499889806.367506,47.655,-122.3035,60.0,3.1333333333333333
2026-01-20T23:03:09+00:00,SAT-64303,345.4948320724859,46.73093504897659,767.9392682258019,3.1982228835929387,-112015.29385280886,10.5,10499887984.706146,47.655,-122.3035,60.0,3.15
2026-01-20T23:03:10+00:00,SAT-64303,346.08177390261466,46.43935273695698,771.1289171151988,3.249587337113031,-113814.29428650545,10.5,10499886185.705713,47.655,-122.3035,60.0,3.1666666666666665
2026-01-20T23:03:11+00:00,SAT-64303,346.65769775670486,46.14692452969892,774.3697927571037,3.3003052389019785,-115590.64974366625,10.5,10499884409.350256,47.655,-122.3035,60.0,3.183333333333333
2026-01-20T23:03:12+00:00,SAT-64303,347.2228028221361,45.85379246681805,777.6612503331023,3.35037749288683,-117344.3918836401,10.5,10499882655.608116,47.655,-122.3035,60.0,3.2
2026-01-20T23:03:13+00:00,SAT-64303,347.77728911171863,45.56009305609787,781.002645926283,3.3998053853216335,-119075.5657564846,10.5,10499880924.434244,47.655,-122.3035,60.0,3.216666666666667
2026-01-20T23:03:14+00:00,SAT-64303,348.32135696810167,45.26595735827581,784.3933369025398,3.4485905526111496,-120784.2286760165,10.5,10499879215.771324,47.655,-122.3035,60.0,3.2333333333333334
2026-01-20T23:03:15+00:00,SAT-64303,348.8552066099939,44.97151108171692,787.8326822597846,3.496735046757619,-122470.45251203417,10.5,10499877529.547487,47.655,-122.3035,60.0,3.25
2026-01-20T23:03:16+00:00,SAT-64303,349.37903773337143,44.676874677532474,791.3200430424313,3.544241226295017,-124134.31987037405,10.5,10499875865.68013,47.655,-122.3035,60.0,3.2666666666666666
2026-01-20T23:03:17+00:00,SAT-64303,349.89304913605156,44.38216344918316,794.8547826471039,3.5911117875668097,-125775.92518838983,10.5,10499874224.074812,47.655,-122.3035,60.0,3.283333333333333
2026-01-20T23:03:18+00:00,SAT-64303,350.3974383868878,44.087487663421676,798.4362671595417,3.6373497461891393,-127395.37408571487,10.5,10499872604.625914,47.655,-122.3035,60.0,3.3
2026-01-20T23:03:19+00:00,SAT-64303,350.89240152874737,43.7929526660714,802.0638656730156,3.6829584095243746,-128992.78240016942,10.5,10499871007.2176,47.655,-122.3035,60.0,3.316666666666667
2026-01-20T23:03:20+00:00,SAT-64303,351.37813281155957,43.49865900251807,805.7369505792919,3.727941375836577,-130568.27615818159,10.5,10499869431.723843,47.655,-122.3035,60.0,3.3333333333333335
2026-01-20T23:03:21+00:00,SAT-64303,351.8548244575247,43.20470254000256,809.4548978587558,3.7723025103974206,-132121.99073791548,10.5,10499867878.009262,47.655,-122.3035,60.0,3.35
2026-01-20T23:03:22+00:00,SAT-64303,352.3226664523975,42.911174592923686,813.2170873467009,3.816045898250595,-133654.06921488082,10.5,10499866345.930784,47.655,-122.3035,60.0,3.3666666666666667
2026-01-20T23:03:23+00:00,SAT-64303,352.78184635861766,42.61816205225558,817.0229029525123,3.8591759044973437,-135164.66447338747,10.5,10499864835.335527,47.655,-122.3035,60.0,3.3833333333333333
2026-01-20T23:03:24+00:00,SAT-64303,353.23254916192354,42.325747510214526,820.871732938976,3.901697107474834,-136653.93686616945,10.5,10499863346.063133,47.655,-122.3035,60.0,3.4
2026-01-20T23:03:25+00:00,SAT-64303,353.6749571327504,42.034009389645696,824.7629701349398,3.943614254343221,-138122.05265885583,10.5,10499861877.947342,47.655,-122.3035,60.0,3.4166666666666665
2026-01-20T23:03:26+00:00,SAT-64303,354.10924970430426,41.743022075669714,828.696012103686,3.984932340997232,-139569.18682881256,10.5,10499860430.813171,47.655,-122.3035,60.0,3.433333333333333
2026-01-20T23:03:27+00:00,SAT-64303,354.535603380646,41.45285604000596,832.6702613909977,4.025656501520482,-140995.51919336498,10.5,10499859004.480806,47.655,-122.3035,60.0,3.45
2026-01-20T23:03:28+00:00,SAT-64303,354.95419164977676,41.16357797184605,836.685125662978,4.065792063528076,-142401.2363481299,10.5,10499857598.763653,47.655,-122.3035,60.0,3.466666666666667
2026-01-20T23:03:29+00:00,SAT-64303,355.36518492046497,40.875250902629205,840.7400178990631,4.105344502943558,-143786.53008311288,10.5,10499856213.469917,47.655,-122.3035,60.0,3.4833333333333334
2026-01-20T23:03:30+00:00,SAT-64303,355.7687504691464,40.587934331903824,844.8343565399317,4.144319417300089,-145151.59644760287,10.5,10499854848.403553,47.655,-122.3035,60.0,3.5
2026-01-20T23:03:31+00:00,SAT-64303,356.16505239845,40.3016843525404,848.9675656087901,4.182722565200418,-146496.63713222696,10.5,10499853503.362867,47.655,-122.3035,60.0,3.5166666666666666
2026-01-20T23:03:32+00:00,SAT-64303,356.5542516125753,40.0165537705408,853.1390748720089,4.220559810592229,-147821.85751723748,10.5,10499852178.142483,47.655,-122.3035,60.0,3.533333333333333
2026-01-20T23:03:33+00:00,SAT-64303,356.9365057986806,39.73259222594711,857.3483199441863,4.257837111067652,-149127.4662627115,10.5,10499850872.533737,47.655,-122.3035,60.0,3.55
2026-01-20T23:03:34+00:00,SAT-64303,357.3119694175445,39.44984631152464,861.5947423815406,4.294560563652979,-150413.67691230006,10.5,10499849586.323088,47.655,-122.3035,60.0,3.566666666666667
2026-01-20T23:03:35+00:00,SAT-64303,357.6807937085466,39.168359685359874,865.8777898209718,4.330736291999627,-151680.7039421788,10.5,10499848319.296059,47.655,-122.3035,60.0,3.5833333333333335
2026-01-20T23:03:36+00:00,SAT-64303,358.04312669214596,38.8881731878082,870.1969160066142,4.3663705426966075,-152928.76613431808,10.5,10499847071.233866,47.655,-122.3035,60.0,3.6
2026-01-20T23:03:37+00:00,SAT-64303,358.3991131896217,38.60932494883676,874.5515809124448,4.401469623175359,-154158.08440164718,10.5,10499845841.915598,47.655,-122.3035,60.0,3.6166666666666667
2026-01-20T23:03:38+00:00,SAT-64303,358.74889484339013,38.331850496249444,878.941250802963,4.436039877255214,-155368.8809315535,10.5,10499844631.119068,47.655,-122.3035,60.0,3.6333333333333333
2026-01-20T23:03:39+00:00,SAT-64303,359.0926101419871,38.055782862127565,883.3653982694808,4.470087731644884,-156561.38081456098,10.5,10499843438.619184,47.655,-122.3035,60.0,3.65
2026-01-20T23:03:40+00:00,SAT-64303,359.4303944540885,37.7811526830342,887.8235023127892,4.503619617553742,-157735.80929882595,10.5,10499842264.1907,47.655,-122.3035,60.0,3.6666666666666665
2026-01-20T23:03:41+00:00,SAT-64303,359.76238006109406,37.50798830181371,892.3150483476477,4.536642018064902,-158892.39344934243,10.5,10499841107.60655,47.655,-122.3035,60.0,3.683333333333333
2026-01-20T23:03:42+00:00,SAT-64303,0.08869619781745565,37.23631586311308,896.8395282545188,4.569161465310021,-160031.36204899198,10.5,10499839968.63795,47.655,-122.3035,60.0,3.7
2026-01-20T23:03:43+00:00,SAT-64303,0.4094690965838926,36.96615940589368,901.3964404284845,4.601184461084357,-161152.94281814704,10.5,10499838847.057182,47.655,-122.3035,60.0,3.716666666666667
2026-01-20T23:03:44+00:00,SAT-64303,0.7248220283961824,36.69754095741017,905.9852897489924,4.6327175688132,-162257.36563572453,10.5,10499837742.634365,47.655,-122.3035,60.0,3.7333333333333334
2026-01-20T23:03:45+00:00,SAT-64303,1.0348753540511406,36.430480618501214,910.6055876413185,4.663767307628705,-163344.8588293085,10.5,10499836655.14117,47.655,-122.3035,60.0,3.75
2026-01-20T23:03:46+00:00,SAT-64303,1.3397465696999986,36.16499665192652,915.2568520323953,4.69434024651037,-164415.65247234766,10.5,10499835584.347528,47.655,-122.3035,60.0,3.7666666666666666
2026-01-20T23:03:47+00:00,SAT-64303,1.639550361278074,35.90110556212038,919.9386074005237,4.724442925294465,-165469.97561757168,10.5,10499834530.024382,47.655,-122.3035,60.0,3.783333333333333
2026-01-20T23:03:48+00:00,SAT-64303,1.934398654913106,35.638822176458135,924.6503847463084,4.754081848294348,-166508.05607354754,10.5,10499833491.943926,47.655,-122.3035,60.0,3.8
2026-01-20T23:03:49+00:00,SAT-64303,2.224400668480335,35.37815972377012,929.3917215572308,4.783263558508176,-167530.12300374766,10.5,10499832469.876997,47.655,-122.3035,60.0,3.816666666666667
2026-01-20T23:03:50+00:00,SAT-64303,2.509662969191455,35.119129905831684,934.1621618462286,4.81199452192433,-168536.4028744361,10.5,10499831463.597126,47.655,-122.3035,60.0,3.8333333333333335
2026-01-20T23:03:51+00:00,SAT-64303,2.7902895243888413,34.86174297235071,938.9612560748951,4.84028120607605,-169527.12220598466,10.5,10499830472.877794,47.655,-122.3035,60.0,3.85
2026-01-20T23:03:52+00:00,SAT-64303,3.06638175806223,34.60600778880583,943.7885611550165,4.868130056538176,-170502.506749689,10.5,10499829497.49325,47.655,-122.3035,60.0,3.8666666666666667
2026-01-20T23:03:53+00:00,SAT-64303,3.3380386063110623,34.35193190287792,948.6436404266752,4.8955474561427765,-171462.7800593274,10.5,10499828537.21994,47.655,-122.3035,60.0,3.8833333333333333
2026-01-20T23:03:54+00:00,SAT-64303,3.6053565704986688,34.09952161033829,953.5260635956735,4.922539782367432,-172408.1655011416,10.5,10499827591.8345,47.655,-122.3035,60.0,3.9
2026-01-20T23:03:55+00:00,SAT-64303,3.8684297740483333,33.84878201533501,958.4354067281946,4.949113346704891,-173338.88413030512,10.5,10499826661.11587,47.655,-122.3035,60.0,3.9166666666666665
2026-01-20T23:03:56+00:00,SAT-64303,4.127350015442465,33.59971709131125,963.3712521849948,4.975274411643572,-174255.15528565267,10.5,10499825744.844715,47.655,-122.3035,60.0,3.933333333333333
2026-01-20T23:03:57+00:00,SAT-64303,4.382206822224189,33.35232973855517,968.3331885725283,5.001029225252298,-175157.1978009838,10.5,10499824842.802198,47.655,-122.3035,60.0,3.95
2026-01-20T23:03:58+00:00,SAT-64303,4.633087506491562,33.10662183766984,973.32081072857,5.026383968898463,-176045.22817393177,10.5,10499823954.771826,47.655,-122.3035,60.0,3.966666666666667
2026-01-20T23:03:59+00:00,SAT-64303,4.880077217016771,32.86259430339294,978.3337196556886,5.051344732885499,-176919.45971268477,10.5,10499823080.540287,47.655,-122.3035,60.0,3.9833333333333334
2026-01-20T23:04:00+00:00,SAT-64303,5.123258989739103,32.62024713728998,983.3715224304308,5.075917619691244,-177780.10615183008,10.5,10499822219.893848,47.655,-122.3035,60.0,4.0
2026-01-20T23:04:01+00:00,SAT-64303,5.362713803120428,32.37957947330587,988.4338322154604,5.100108610877506,-178627.37699096423,10.5,10499821372.623009,47.655,-122.3035,60.0,4.016666666666667
2026-01-20T23:04:02+00:00,SAT-64303,5.598520625790219,32.14058962766214,993.520268138967,5.123923701220824,-179461.48219251953,10.5,10499820538.517807,47.655,-122.3035,60.0,4.033333333333333
2026-01-20T23:04:03+00:00,SAT-64303,5.830756470452707,31.903275140359664,998.6304553078462,5.147368747391938,-180282.6268818789,10.5,10499819717.373117,47.655,-122.3035,60.0,4.05
2026-01-20T23:04:04+00:00,SAT-64303,6.059496439313572,31.667632821864803,1003.7640246699633,5.170449573063004,-181091.01502867544,10.5,10499818908.984972,47.655,-122.3035,60.0,4.066666666666666
2026-01-20T23:04:05+00:00,SAT-64303,6.284813774164556,31.433658792949345,1008.920612981243,5.193171976854757,-181886.84972513534,10.5,10499818113.150274,47.655,-122.3035,60.0,4.083333333333333
2026-01-20T23:04:06+00:00,SAT-64303,6.506779905668261,31.20134852247079,1014.0998627806854,5.215541609412755,-182670.32888076833,10.5,10499817329.67112,47.655,-122.3035,60.0,4.1
2026-01-20T23:04:07+00:00,SAT-64303,6.725464496194722,30.97069686893809,1019.3014222427881,5.2375641462171,-183441.6512748948,10.5,10499816558.348724,47.655,-122.3035,60.0,4.116666666666666
2026-01-20T23:04:08+00:00,SAT-64303,6.9409354896890045,30.741698112642116,1024.524945202313,5.2592451341901425,-184201.01118419896,10.5,10499815798.988815,47.655,-122.3035,60.0,4.133333333333334
2026-01-20T23:04:09+00:00,SAT-64303,7.153259153615882,30.51434599304473,1029.7700910260742,5.280590064673037,-184948.60093867636,10.5,10499815051.399061,47.655,-122.3035,60.0,4.15
2026-01-20T23:04:10+00:00,SAT-64303,7.3625001232917695,30.288633741334415,1035.0365245575051,5.301604364224159,-185684.6105993556,10.5,10499814315.3894,47.655,-122.3035,60.0,4.166666666666667
2026-01-20T23:04:11+00:00,SAT-64303,7.56872144491433,30.064554111918447,1040.3239160520502,5.322293398452868,-186409.22809257303,10.5,10499813590.771908,47.655,-122.3035,60.0,4.183333333333334
