DopplerPredictor/satellites_20260205_234138/SAT-57531.csv

timestamp,satellite,azimuth_deg,elevation_deg,distance_km,relative_velocity_kms,doppler_shift_hz,tx_freq_ghz,rx_freq_hz,ue_lat,ue_lon,ue_alt_m,time_minutes
2026-01-20T23:06:15+00:00,SAT-57531,222.0261214512509,30.01940267827437,1012.8704416503467,-4.309044096328071,150920.95149186422,10.5,10500150920.951492,47.655,-122.3035,60.0,6.25
2026-01-20T23:06:16+00:00,SAT-57531,221.7129736156337,30.205442562921732,1008.572949506593,-4.2797093792916625,149893.52561551917,10.5,10500149893.525616,47.655,-122.3035,60.0,6.266666666666667
2026-01-20T23:06:17+00:00,SAT-57531,221.39592224384623,30.39195606008493,1004.3047134375473,-4.249994370792718,148852.78032352484,10.5,10500148852.780323,47.655,-122.3035,60.0,6.283333333333333
2026-01-20T23:06:18+00:00,SAT-57531,221.074914148465,30.578920113574643,1000.0661127151633,-4.219895245695459,147798.58164344585,10.5,10500147798.581644,47.655,-122.3035,60.0,6.3
2026-01-20T23:06:19+00:00,SAT-57531,220.74989581470783,30.766310613715092,995.8575304262763,-4.189408272951082,146730.79889817096,10.5,10500146730.798899,47.655,-122.3035,60.0,6.316666666666666
2026-01-20T23:06:20+00:00,SAT-57531,220.4208134251056,30.954102372738358,991.6793533787662,-4.158529722330677,145649.30143930475,10.5,10500145649.30144,47.655,-122.3035,60.0,6.333333333333333
2026-01-20T23:06:21+00:00,SAT-57531,220.0876128939969,31.142269095856708,987.5319721007444,-4.127255932923071,144553.96104625234,10.5,10500144553.961046,47.655,-122.3035,60.0,6.35
2026-01-20T23:06:22+00:00,SAT-57531,219.7502398993182,31.33078335519665,983.4157807714162,-4.0955832542272175,143444.64986302552,10.5,10500143444.649862,47.655,-122.3035,60.0,6.366666666666666
2026-01-20T23:06:23+00:00,SAT-57531,219.40863992215716,31.519616560932796,979.3311772107029,-4.0635081279417715,142321.24326285953,10.5,10500142321.243263,47.655,-122.3035,60.0,6.383333333333334
2026-01-20T23:06:24+00:00,SAT-57531,219.0627582824825,31.70873893606199,975.2785627872881,-4.031027018989509,141183.61743239668,10.5,10500141183.617432,47.655,-122.3035,60.0,6.4
2026-01-20T23:06:25+00:00,SAT-57531,218.71254018386708,31.898119487996315,971.2583423954549,-3.998136483245359,140031.6517438083,10.5,10500140031.651743,47.655,-122.3035,60.0,6.416666666666667
2026-01-20T23:06:26+00:00,SAT-57531,218.35793075559423,32.087725983321455,967.2709243643781,-3.9648331103244523,138865.22675099035,10.5,10500138865.226751,47.655,-122.3035,60.0,6.433333333333334
2026-01-20T23:06:27+00:00,SAT-57531,217.99887510331558,32.277524919975725,963.3167204244753,-3.931113600623918,137684.22688789302,10.5,10500137684.226889,47.655,-122.3035,60.0,6.45
2026-01-20T23:06:28+00:00,SAT-57531,217.63531835623732,32.46748150324537,959.3961455969213,-3.896974702402738,136488.53826479102,10.5,10500136488.538265,47.655,-122.3035,60.0,6.466666666666667
2026-01-20T23:06:29+00:00,SAT-57531,217.2672057237904,32.65755961901649,955.5096181459131,-3.862413234500945,135278.04946400595,10.5,10500135278.049463,47.655,-122.3035,60.0,6.483333333333333
2026-01-20T23:06:30+00:00,SAT-57531,216.89448255415581,32.84772180839115,951.657559508281,-3.8274261529437346,134052.65387266417,10.5,10500134052.653873,47.655,-122.3035,60.0,6.5
2026-01-20T23:06:31+00:00,SAT-57531,216.51709439030873,33.03792924599481,947.8403941566685,-3.792010464182372,132812.24664402634,10.5,10500132812.246645,47.655,-122.3035,60.0,6.516666666666667
2026-01-20T23:06:32+00:00,SAT-57531,216.13498703850283,33.22814171453942,944.0585495492431,-3.7561632809808407,131556.7266548741,10.5,10500131556.726654,47.655,-122.3035,60.0,6.533333333333333
2026-01-20T23:06:33+00:00,SAT-57531,215.74810663573624,33.41831758269689,940.312456023668,-3.7198818416236215,130285.99717824797,10.5,10500130285.997179,47.655,-122.3035,60.0,6.55
2026-01-20T23:06:34+00:00,SAT-57531,215.3563997194561,33.608413784660165,936.6025466719179,-3.6831634695450037,128999.9644694949,10.5,10500128999.96447,47.655,-122.3035,60.0,6.566666666666666
2026-01-20T23:06:35+00:00,SAT-57531,214.95981330606858,33.79838579846891,932.9292572553586,-3.646005632678228,127698.53984492632,10.5,10500127698.539845,47.655,-122.3035,60.0,6.583333333333333
2026-01-20T23:06:36+00:00,SAT-57531,214.55829496775374,33.988187628262594,929.2930260606327,-3.6084058938625097,126381.63794486235,10.5,10500126381.637945,47.655,-122.3035,60.0,6.6
2026-01-20T23:06:37+00:00,SAT-57531,214.15179291953578,34.177771785019566,925.6942938050116,-3.570361985279323,125049.17934070539,10.5,10500125049.17934,47.655,-122.3035,60.0,6.616666666666666
2026-01-20T23:06:38+00:00,SAT-57531,213.74025610285656,34.36708927232165,922.1335034675047,-3.5318717355292137,123701.08798086156,10.5,10500123701.08798,47.655,-122.3035,60.0,6.633333333333334
2026-01-20T23:06:39+00:00,SAT-57531,213.3236342825037,34.55608956958441,918.6111001927002,-3.4929331458811563,122337.29386131569,10.5,10500122337.293861,47.655,-122.3035,60.0,6.65
2026-01-20T23:06:40+00:00,SAT-57531,212.90187813986347,34.74472062071545,915.1275311185586,-3.4535443441602505,120957.7314105835,10.5,10500120957.731411,47.655,-122.3035,60.0,6.666666666666667
2026-01-20T23:06:41+00:00,SAT-57531,212.474939376852,34.932928821883486,911.6832452501958,-3.4137036581040365,119562.34205895994,10.5,10500119562.342058,47.655,-122.3035,60.0,6.683333333333334
2026-01-20T23:06:42+00:00,SAT-57531,212.04277081605923,35.120659014956274,908.2786932605081,-3.3734095270943714,118151.0711469963,10.5,10500118151.071148,47.655,-122.3035,60.0,6.7
2026-01-20T23:06:43+00:00,SAT-57531,211.60532651727667,35.30785447799331,904.9143273788253,-3.3326606152748326,116723.87188734996,10.5,10500116723.871887,47.655,-122.3035,60.0,6.716666666666667
2026-01-20T23:06:44+00:00,SAT-57531,211.16256188507325,35.49445692393852,901.5906011667529,-3.2914557103528503,115280.70182040714,10.5,10500115280.70182,47.655,-122.3035,60.0,6.733333333333333
2026-01-20T23:06:45+00:00,SAT-57531,210.71443379500715,35.680406495888455,898.3079693949386,-3.2497938390728294,113821.52685864002,10.5,10500113821.52686,47.655,-122.3035,60.0,6.75
2026-01-20T23:06:46+00:00,SAT-57531,210.26090070984048,35.865641771124515,895.0668878046768,-3.2076741833597615,112346.31834960137,10.5,10500112346.31835,47.655,-122.3035,60.0,6.766666666666667
2026-01-20T23:06:47+00:00,SAT-57531,209.80192281261284,36.05009976295203,891.8678129531436,-3.165096151938317,110855.05558432805,10.5,10500110855.055584,47.655,-122.3035,60.0,6.783333333333333
2026-01-20T23:06:48+00:00,SAT-57531,209.33746213509474,36.23371592925276,888.7112019872054,-3.122059341173114,109347.72442580159,10.5,10500109347.724426,47.655,-122.3035,60.0,6.8
2026-01-20T23:06:49+00:00,SAT-57531,208.8674826972466,36.416424181648885,885.5975124562817,-3.078563571058681,107824.31856946899,10.5,10500107824.31857,47.655,-122.3035,60.0,6.816666666666666
2026-01-20T23:06:50+00:00,SAT-57531,208.39195064672472,36.59815689974307,882.5272020893152,-3.0346088885989952,106284.83966160833,10.5,10500106284.839663,47.655,-122.3035,60.0,6.833333333333333
2026-01-20T23:06:51+00:00,SAT-57531,207.91083440291092,36.77884494876859,879.5007285683705,-2.9901955671709324,104729.2972770342,10.5,10500104729.297277,47.655,-122.3035,60.0,6.85
2026-01-20T23:06:52+00:00,SAT-57531,207.42410480600012,36.95841770057115,876.5185493028685,-2.945324098049324,103157.7086222693,10.5,10500103157.708622,47.655,-122.3035,60.0,6.866666666666666
2026-01-20T23:06:53+00:00,SAT-57531,206.93173527258517,37.13680305759919,873.5811212122711,-2.8999952465878596,101570.10050323723,10.5,10500101570.100504,47.655,-122.3035,60.0,6.883333333333334
2026-01-20T23:06:54+00:00,SAT-57531,206.43370194650714,37.31392748399067,870.6889004527402,-2.8542100145342024,99966.5080053786,10.5,10500099966.508005,47.655,-122.3035,60.0,6.9
2026-01-20T23:06:55+00:00,SAT-57531,205.92998386017808,37.48971603829726,867.8423421813741,-2.8079696357328716,98346.9743431476,10.5,10500098346.974342,47.655,-122.3035,60.0,6.916666666666667
2026-01-20T23:06:56+00:00,SAT-57531,205.42056310128552,37.664092409943024,865.0419003247347,-2.7612756536174463,96711.55357411687,10.5,10500096711.553574,47.655,-122.3035,60.0,6.933333333333334
2026-01-20T23:06:57+00:00,SAT-57531,204.90542496921807,37.83697896468859,862.2880272700884,-2.7141298419581386,95060.30782322233,10.5,10500095060.307823,47.655,-122.3035,60.0,6.95
2026-01-20T23:06:58+00:00,SAT-57531,204.3845581491834,38.00829678957011,859.5811736356868,-2.6665342737437423,93393.30969530025,10.5,10500093393.309696,47.655,-122.3035,60.0,6.966666666666667
2026-01-20T23:06:59+00:00,SAT-57531,203.85795487665945,38.17796574663764,856.9217879723491,-2.618491289292622,91710.64115819927,10.5,10500091710.64116,47.655,-122.3035,60.0,6.983333333333333
2026-01-20T23:07:00+00:00,SAT-57531,203.32561111031418,38.34590452935076,854.3103164968512,-2.5700035121878138,90012.39410089511,10.5,10500090012.3941,47.655,-122.3035,60.0,7.0
2026-01-20T23:07:01+00:00,SAT-57531,202.78752670405913,38.51203072475286,851.7472028094194,-2.5210738871164042,88298.67165878552,10.5,10500088298.67166,47.655,-122.3035,60.0,7.016666666666667
2026-01-20T23:07:02+00:00,SAT-57531,202.24370557240496,38.67626088299691,849.232887573486,-2.4717056231397527,86569.5862267736,10.5,10500086569.586227,47.655,-122.3035,60.0,7.033333333333333
2026-01-20T23:07:03+00:00,SAT-57531,201.6941558685696,38.83851058821423,846.7678082520264,-2.421902241402874,84825.26113025224,10.5,10500084825.26113,47.655,-122.3035,60.0,7.05
2026-01-20T23:07:04+00:00,SAT-57531,201.13889015287754,38.99869453753792,844.3523987963106,-2.371667586964016,83065.83103942586,10.5,10500083065.83104,47.655,-122.3035,60.0,7.066666666666666
2026-01-20T23:07:05+00:00,SAT-57531,200.5779255573832,39.15672662609959,841.987089322857,-2.3210057949675558,81291.44078454214,10.5,10500081291.440784,47.655,-122.3035,60.0,7.083333333333333
2026-01-20T23:07:06+00:00,SAT-57531,200.01128395700732,39.31252003499883,839.6723058241271,-2.2699213283054918,79502.24667495693,10.5,10500079502.246675,47.655,-122.3035,60.0,7.1
2026-01-20T23:07:07+00:00,SAT-57531,199.4389921297099,39.46598732700372,837.4084698416534,-2.218418956555046,77698.41576143981,10.5,10500077698.415762,47.655,-122.3035,60.0,7.116666666666666
2026-01-20T23:07:08+00:00,SAT-57531,198.86108191875158,39.617040546092134,835.1959981601793,-2.1665037902146262,75880.12703526244,10.5,10500075880.127035,47.655,-122.3035,60.0,7.133333333333334
2026-01-20T23:07:09+00:00,SAT-57531,198.2775903820948,39.76559132454383,833.0353024676485,-2.114181244419101,74047.57015735385,10.5,10500074047.570158,47.655,-122.3035,60.0,7.15
2026-01-20T23:07:10+00:00,SAT-57531,197.6885599463215,39.91155099275977,830.9267890513888,-2.0614570702761195,72200.94655583115,10.5,10500072200.946556,47.655,-122.3035,60.0,7.166666666666667
2026-01-20T23:07:11+00:00,SAT-57531,197.0940385463195,40.05483069633035,828.8708584630368,-2.0083373462089678,70340.46912278948,10.5,10500070340.469122,47.655,-122.3035,60.0,7.183333333333334
2026-01-20T23:07:12+00:00,SAT-57531,196.49407976011221,40.19534151754887,826.8679051921026,-1.9548284693788394,68466.3619138738,10.5,10500068466.361914,47.655,-122.3035,60.0,7.2
2026-01-20T23:07:13+00:00,SAT-57531,195.88874293831017,40.332994601207645,824.9183173480842,-1.9009371933019874,66578.86146579067,10.5,10500066578.861465,47.655,-122.3035,60.0,7.216666666666667
2026-01-20T23:07:14+00:00,SAT-57531,195.27809331248218,40.46770128777896,823.022476305068,-1.8466705587069367,64678.21437463525,10.5,10500064678.214375,47.655,-122.3035,60.0,7.233333333333333
2026-01-20T23:07:15+00:00,SAT-57531,194.6622021150971,40.599373246275945,821.1807564152884,-1.792035977219602,62764.680226898236,10.5,10500062764.680227,47.655,-122.3035,60.0,7.25
2026-01-20T23:07:16+00:00,SAT-57531,194.04114666086878,40.72792261733784,819.3935246392228,-1.737041159464292,60838.52908125883,10.5,10500060838.529081,47.655,-122.3035,60.0,7.266666666666667
2026-01-20T23:07:17+00:00,SAT-57531,193.4150104388427,40.853262155296754,817.6611402473953,-1.6816941595725825,58900.04302747375,10.5,10500058900.043028,47.655,-122.3035,60.0,7.283333333333333
2026-01-20T23:07:18+00:00,SAT-57531,192.7838831754621,40.97530537718644,815.9839544777909,-1.6260033388835902,56949.51491500729,10.5,10500056949.514915,47.655,-122.3035,60.0,7.3
2026-01-20T23:07:19+00:00,SAT-57531,192.1478608954355,41.09396671258966,814.3623102294703,-1.5699773925406402,54987.249284559126,10.5,10500054987.249285,47.655,-122.3035,60.0,7.316666666666666
2026-01-20T23:07:20+00:00,SAT-57531,191.507045956387,41.209161658502055,812.7965417296622,-1.5136253320276896,53013.56175641597,10.5,10500053013.561756,47.655,-122.3035,60.0,7.333333333333333
2026-01-20T23:07:21+00:00,SAT-57531,190.86154707203767,41.3208069356404,811.2869742182696,-1.456956469613229,51028.77848561122,10.5,10500051028.778486,47.655,-122.3035,60.0,7.35
2026-01-20T23:07:22+00:00,SAT-57531,190.2114793237176,41.42882064587317,809.8339236478912,-1.3999804400779485,49033.23692291972,10.5,10500049033.236923,47.655,-122.3035,60.0,7.366666666666666
2026-01-20T23:07:23+00:00,SAT-57531,189.55696414233293,41.53312243308045,808.4376963621758,-1.3427071677781575,47027.28466127942,10.5,10500047027.28466,47.655,-122.3035,60.0,7.383333333333334
2026-01-20T23:07:24+00:00,SAT-57531,188.89812928412206,41.63363364291377,807.098588807021,-1.285146887632339,45011.280170829246,10.5,10500045011.28017,47.655,-122.3035,60.0,7.4
2026-01-20T23:07:25+00:00,SAT-57531,188.23510877407085,41.730277484949006,805.8168872208441,-1.227310107570189,42985.59148371566,10.5,10500042985.591484,47.655,-122.3035,60.0,7.416666666666667
2026-01-20T23:07:26+00:00,SAT-57531,187.56804284499287,41.82297919232272,804.5928673623034,-1.1692076311050703,40950.59698467544,10.5,10500040950.596985,47.655,-122.3035,60.0,7.433333333333334
2026-01-20T23:07:27+00:00,SAT-57531,186.89707784076282,41.91166618279041,803.4267942155068,-1.1108505239222461,38906.684240814306,10.5,10500038906.68424,47.655,-122.3035,60.0,7.45
2026-01-20T23:07:28+00:00,SAT-57531,186.2223661127793,41.9962682164231,802.3189217285418,-1.0522501333456051,36854.25068341397,10.5,10500036854.250683,47.655,-122.3035,60.0,7.466666666666667
2026-01-20T23:07:29+00:00,SAT-57531,185.5440658785076,42.0767175533393,801.2694925325931,-0.9934180397792938,34793.7019072127,10.5,10500034793.701908,47.655,-122.3035,60.0,7.483333333333333
2026-01-20T23:07:30+00:00,SAT-57531,184.86234108368308,42.15294910569532,800.278737709487,-0.9343660898318297,32725.452830551898,10.5,10500032725.452831,47.655,-122.3035,60.0,7.5
2026-01-20T23:07:31+00:00,SAT-57531,184.17736121572125,42.224900589530314,799.3468765261995,-0.8751063522435378,30649.926151768457,10.5,10500030649.926151,47.655,-122.3035,60.0,7.516666666666667
2026-01-20T23:07:32+00:00,SAT-57531,183.4893011184795,42.292512669963855,798.4741162133215,-0.8156511302096084,28567.552780800404,10.5,10500028567.55278,47.655,-122.3035,60.0,7.533333333333333
2026-01-20T23:07:33+00:00,SAT-57531,182.7983407692122,42.35572910343004,797.6606517312324,-0.7560129296295766,26478.77072714936,10.5,10500026478.770727,47.655,-122.3035,60.0,7.55
2026-01-20T23:07:34+00:00,SAT-57531,182.1046650512084,42.414496872944575,796.9066655679371,-0.6962044623070719,24384.025211949313,10.5,10500024384.025211,47.655,-122.3035,60.0,7.566666666666666
2026-01-20T23:07:35+00:00,SAT-57531,181.40846349419607,42.46876631849045,796.2123275337174,-0.6362386274349933,22283.768019499108,10.5,10500022283.768019,47.655,-122.3035,60.0,7.583333333333333
2026-01-20T23:07:36+00:00,SAT-57531,180.70993000006413,42.518491260257804,795.5777945742417,-0.5761285003352632,20178.45710288103,10.5,10500020178.457104,47.655,-122.3035,60.0,7.6
2026-01-20T23:07:37+00:00,SAT-57531,180.00926254771713,42.56362911471453,795.00321059491,-0.5158873087281414,18068.555752811786,10.5,10500018068.555754,47.655,-122.3035,60.0,7.616666666666666
2026-01-20T23:07:38+00:00,SAT-57531,179.30666289405104,42.604141001987166,794.4887063088643,-0.45552844007612786,15954.532854857018,10.5,10500015954.532854,47.655,-122.3035,60.0,7.633333333333334
2026-01-20T23:07:39+00:00,SAT-57531,178.60233623097264,42.6399918464675,794.0343990776731,-0.3950654039023888,13836.861569663246,10.5,10500013836.86157,47.655,-122.3035,60.0,7.65
2026-01-20T23:07:40+00:00,SAT-57531,177.89649085831994,42.671150466621654,793.6403927895996,-0.33451183329864514,11716.019385770453,10.5,10500011716.019386,47.655,-122.3035,60.0,7.666666666666667
2026-01-20T23:07:41+00:00,SAT-57531,177.18933781993132,42.69758965662793,793.3067777363633,-0.27388146108432854,9592.487284604904,10.5,10500009592.487284,47.655,-122.3035,60.0,7.683333333333334
2026-01-20T23:07:42+00:00,SAT-57531,176.48109054195479,42.71928625744962,793.0336305136806,-0.21318810975361355,7466.749388381686,10.5,10500007466.749388,47.655,-122.3035,60.0,7.7
2026-01-20T23:07:43+00:00,SAT-57531,175.7719644489143,42.73622121805797,792.8210139318292,-0.1524456713455951,5339.292255073171,10.5,10500005339.292255,47.655,-122.3035,60.0,7.716666666666667
2026-01-20T23:07:44+00:00,SAT-57531,175.06217658477576,42.74837964570354,792.6689769462911,-0.09166809664233114,3210.6045000787744,10.5,10500003210.6045,47.655,-122.3035,60.0,7.733333333333333
2026-01-20T23:07:45+00:00,SAT-57531,174.35194520629264,42.75575084571301,792.5775545991658,-0.030869374308072732,1081.176065592563,10.5,10500001081.176065,47.655,-122.3035,60.0,7.75
2026-01-20T23:07:46+00:00,SAT-57531,173.64148939658813,42.75832834980487,792.54676798139,0.02993648123228524,-1048.5022039446872,10.5,10499998951.497795,47.655,-122.3035,60.0,7.766666666666667
2026-01-20T23:07:47+00:00,SAT-57531,172.93102864987785,42.756109933475315,792.5766242070474,0.09073544823789735,-3177.939207856664,10.5,10499996822.060793,47.655,-122.3035,60.0,7.783333333333333
2026-01-20T23:07:48+00:00,SAT-57531,172.22078247003932,42.749097621858425,792.66711640607,0.1515135119755064,-5306.644090902438,10.5,10499994693.35591,47.655,-122.3035,60.0,7.8
2026-01-20T23:07:49+00:00,SAT-57531,171.51096996810116,42.7372976843521,792.818223731229,0.2122566826738315,-7434.126872115078,10.5,10499992565.873127,47.655,-122.3035,60.0,7.816666666666666
2026-01-20T23:07:50+00:00,SAT-57531,170.8018094509479,42.72072061776433,793.029911383028,0.272951010337666,-9559.898963654025,10.5,10499990440.101036,47.655,-122.3035,60.0,7.833333333333333
2026-01-20T23:07:51+00:00,SAT-57531,170.09351802496624,42.699381118299286,793.302130649374,0.3335825997401066,-11683.473695896379,10.5,10499988316.526304,47.655,-122.3035,60.0,7.85
2026-01-20T23:07:52+00:00,SAT-57531,169.38631120251046,42.673298042525914,793.6348189601988,0.3941376293107952,-13804.366978983006,10.5,10499986195.63302,47.655,-122.3035,60.0,7.866666666666666
2026-01-20T23:07:53+00:00,SAT-57531,168.68040250986687,42.64249435722397,794.0278999609162,0.4546023625102584,-15922.097701196048,10.5,10499984077.902298,47.655,-122.3035,60.0,7.883333333333334
2026-01-20T23:07:54+00:00,SAT-57531,167.9760031130114,42.606997078948616,794.4812835972277,0.5149631670868624,-18036.188403418928,10.5,10499981963.811596,47.655,-122.3035,60.0,7.9
2026-01-20T23:07:55+00:00,SAT-57531,167.27332144650322,42.56683720301564,794.9948662191289,0.575206524921031,-20146.165623922487,10.5,10499979853.834375,47.655,-122.3035,60.0,7.916666666666667
2026-01-20T23:07:56+00:00,SAT-57531,166.57256286212083,42.522049622998594,795.5685306947349,0.6353190573735945,-22251.560786171423,10.5,10499977748.439215,47.655,-122.3035,60.0,7.933333333333334
2026-01-20T23:07:57+00:00,SAT-57531,165.87392927813045,42.472673039930164,796.2021465493899,0.6952875237188223,-24351.910143942427,10.5,10499975648.089855,47.655,-122.3035,60.0,7.95
2026-01-20T23:07:58+00:00,SAT-57531,165.177618862672,42.41874986376386,796.895570103207,0.7550988523777032,-26446.755875245814,10.5,10499973553.244125,47.655,-122.3035,60.0,7.966666666666667
2026-01-20T23:07:59+00:00,SAT-57531,164.48382571377246,42.36032610501689,797.6486446397653,0.814740135094891,-28535.645878377487,10.5,10499971464.354122,47.655,-122.3035,60.0,7.983333333333333
2026-01-20T23:08:00+00:00,SAT-57531,163.7927395761441,42.297451260005204,798.4612005689922,0.8741986638966994,-30618.135066344275,10.5,10499969381.864933,47.655,-122.3035,60.0,8.0
2026-01-20T23:08:01+00:00,SAT-57531,163.1045455543899,42.230178186894825,799.3330556269104,0.9334619245913537,-32693.78513921525,10.5,10499967306.21486,47.655,-122.3035,60.0,8.016666666666667
2026-01-20T23:08:02+00:00,SAT-57531,162.4194238630287,42.15856297651563,800.2640150688999,0.9925176105770653,-34762.16506773891,10.5,10499965237.834932,47.655,-122.3035,60.0,8.033333333333333
2026-01-20T23:08:03+00:00,SAT-57531,161.7375495930608,42.082664816945446,801.2538718767304,1.0513536494002023,-36822.85202352264,10.5,10499963177.147976,47.655,-122.3035,60.0,8.05
2026-01-20T23:08:04+00:00,SAT-57531,161.05909248871188,42.00254585151375,802.3024069920833,1.1099581989525331,-38875.431245844076,10.5,10499961124.568754,47.655,-122.3035,60.0,8.066666666666666
2026-01-20T23:08:05+00:00,SAT-57531,160.38421675583294,41.918271033158106,803.4093895462787,1.1683196574020949,-40919.4963894722,10.5,10499959080.50361,47.655,-122.3035,60.0,8.083333333333334
2026-01-20T23:08:06+00:00,SAT-57531,159.71308089050868,41.8299079747059,804.5745770999075,1.226426686588075,-42954.65034405498,10.5,10499957045.349655,47.655,-122.3035,60.0,8.1
2026-01-20T23:08:07+00:00,SAT-57531,159.04583752090997,41.73752679468443,805.7977159057955,1.284268213491725,-44980.50528563701,10.5,10499955019.494715,47.655,-122.3035,60.0,8.116666666666667
2026-01-20T23:08:08+00:00,SAT-57531,158.38263327541006,41.64119996094212,807.0785411734362,1.3418334289877931,-46996.682632929434,10.5,10499953003.317368,47.655,-122.3035,60.0,8.133333333333333
2026-01-20T23:08:09+00:00,SAT-57531,157.7236086764392,41.54100213289547,808.4167773321739,1.3991118166042982,-49002.814054598835,10.5,10499950997.185946,47.655,-122.3035,60.0,8.15
2026-01-20T23:08:10+00:00,SAT-57531,157.0688980442456,41.43701000073293,809.8121383230751,1.4560931439447982,-50998.54116883881,10.5,10499949001.458832,47.655,-122.3035,60.0,8.166666666666666
2026-01-20T23:08:11+00:00,SAT-57531,156.41862942945681,41.32930212497676,811.2643278822418,1.5127674737118018,-52983.5159294565,10.5,10499947016.48407,47.655,-122.3035,60.0,8.183333333333334
2026-01-20T23:08:12+00:00,SAT-57531,155.77292456294958,41.21795877547732,812.7730398351184,1.5691251770408057,-54957.40109288694,10.5,10499945042.598907,47.655,-122.3035,60.0,8.2
2026-01-20T23:08:13+00:00,SAT-57531,155.13189882224825,41.103061770233914,814.3379584040991,1.6251569269788175,-56919.86998978335,10.5,10499943080.13001,47.655,-122.3035,60.0,8.216666666666667
2026-01-20T23:08:14+00:00,SAT-57531,154.49566122159882,40.98469431600886,815.9587585096282,1.6808537006359037,-58870.606600373474,10.5,10499941129.3934,47.655,-122.3035,60.0,8.233333333333333
2026-01-20T23:08:15+00:00,SAT-57531,153.86431442045554,40.86294085056916,817.6351060734504,1.7362068191540068,-60809.30695433662,10.5,10499939190.693047,47.655,-122.3035,60.0,8.25
2026-01-20T23:08:16+00:00,SAT-57531,153.23795473575746,40.73788688428872,819.3666583617191,1.7912078974227916,-62735.677369639874,10.5,10499937264.32263,47.655,-122.3035,60.0,8.266666666666667
2026-01-20T23:08:17+00:00,SAT-57531,152.61667219099422,40.609618848086384,821.1530642779557,1.845848882887308,-64649.43581174659,10.5,10499935350.564188,47.655,-122.3035,60.0,8.283333333333333
2026-01-20T23:08:18+00:00,SAT-57531,152.00055056667884,40.47822394161103,822.9939646947148,1.9001220460047656,-66550.31155937232,10.5,10499933449.68844,47.655,-122.3035,60.0,8.3
2026-01-20T23:08:19+00:00,SAT-57531,151.38966746980432,40.3437899855597,824.8889927757313,1.9540200033100896,-68438.04601233812,10.5,10499931561.953987,47.655,-122.3035,60.0,8.316666666666666
2026-01-20T23:08:20+00:00,SAT-57531,150.78409441008097,40.206405276126176,826.8377743210672,2.007535666324585,-70312.39090213586,10.5,10499929687.609098,47.655,-122.3035,60.0,8.333333333333334
2026-01-20T23:08:21+00:00,SAT-57531,150.1838969050536,40.06615844711026,828.8399280613104,2.0606623138547753,-72173.11082413935,10.5,10499927826.889175,47.655,-122.3035,60.0,8.35
2026-01-20T23:08:22+00:00,SAT-57531,149.5891345743963,39.923138331244715,830.895066023873,2.113393507921035,-74019.9802930695,10.5,10499925980.019707,47.655,-122.3035,60.0,8.366666666666667
2026-01-20T23:08:23+00:00,SAT-57531,148.99986126983774,39.77743383194421,833.0027938154477,2.165723195051253,-75852.78729072685,10.5,10499924147.21271,47.655,-122.3035,60.0,8.383333333333333
2026-01-20T23:08:24+00:00,SAT-57531,148.41612518513747,39.629133792736276,835.1627110054828,2.2176456083435827,-77671.32983581469,10.5,10499922328.670164,47.655,-122.3035,60.0,8.4
2026-01-20T23:08:25+00:00,SAT-57531,147.83796900229524,39.47832687838405,837.3744114119855,2.269155311139031,-79475.41751353806,10.5,10499920524.582487,47.655,-122.3035,60.0,8.416666666666666
2026-01-20T23:08:26+00:00,SAT-57531,147.26543003192396,39.32510145796858,839.6374834308789,2.320247206890202,-81264.87182124882,10.5,10499918735.12818,47.655,-122.3035,60.0,8.433333333333334
2026-01-20T23:08:27+00:00,SAT-57531,146.69854035766633,39.16954549244665,841.9515103752012,2.370916525184617,-83039.52567892312,10.5,10499916960.474321,47.655,-122.3035,60.0,8.45
2026-01-20T23:08:28+00:00,SAT-57531,146.13732698966277,39.01174642837442,844.3160708003686,2.4211587796529366,-84799.22195492935,10.5,10499915200.778046,47.655,-122.3035,60.0,8.466666666666667
2026-01-20T23:08:29+00:00,SAT-57531,145.58181203177358,38.85179109964359,846.7307387874532,2.4709698291112288,-86543.81560748903,10.5,10499913456.184393,47.655,-122.3035,60.0,8.483333333333333
2026-01-20T23:08:30+00:00,SAT-57531,145.0320128372304,38.689765630383825,849.1950842874465,2.52034584705838,-88273.17261634712,10.5,10499911726.827383,47.655,-122.3035,60.0,8.5
2026-01-20T23:08:31+00:00,SAT-57531,144.4879421743392,38.52575534517118,851.7086734350967,2.569283287737437,-89987.16879409652,10.5,10499910012.831205,47.655,-122.3035,60.0,8.516666666666667
2026-01-20T23:08:32+00:00,SAT-57531,143.94960840073298,38.359844686651854,854.2710688289006,2.617778935080342,-91685.69150042991,10.5,10499908314.3085,47.655,-122.3035,60.0,8.533333333333333
2026-01-20T23:08:33+00:00,SAT-57531,143.41701562765724,38.19211713513143,856.8818298599097,2.665829849659066,-93368.63778414398,10.5,10499906631.362215,47.655,-122.3035,60.0,8.55
2026-01-20T23:08:34+00:00,SAT-57531,142.89016389547587,38.02265513670528,859.5405129876265,2.7134333993017856,-95035.91545544735,10.5,10499904964.084545,47.655,-122.3035,60.0,8.566666666666666
2026-01-20T23:08:35+00:00,SAT-57531,142.36904934207516,37.85154003441726,862.2466720464386,2.760587241209262,-96687.44245960069,10.5,10499903312.55754,47.655,-122.3035,60.0,8.583333333333334
2026-01-20T23:08:36+00:00,SAT-57531,141.85366437371488,37.67885200549308,864.9998585342152,2.8072892976507564,-98323.14602568468,10.5,10499901676.853973,47.655,-122.3035,60.0,8.6
2026-01-20T23:08:37+00:00,SAT-57531,141.34399783843452,37.50467000487974,867.7996218766648,2.8535377679173597,-99942.96308525639,10.5,10499900057.036915,47.655,-122.3035,60.0,8.616666666666667
2026-01-20T23:08:38+00:00,SAT-57531,140.84003519451196,37.329071712675336,870.6455097036147,2.89933115120916,-101546.8410739545,10.5,10499898453.158926,47.655,-122.3035,60.0,8.633333333333333
2026-01-20T23:08:39+00:00,SAT-57531,140.34175867230553,37.152133484704784,873.537068148115,2.9446681721449637,-103134.73532253476,10.5,10499896865.264677,47.655,-122.3035,60.0,8.65
2026-01-20T23:08:40+00:00,SAT-57531,139.84914744588917,36.973930312067296,876.4738420712547,2.989547816426746,-104706.61030598986,10.5,10499895293.389694,47.655,-122.3035,60.0,8.666666666666666
2026-01-20T23:08:41+00:00,SAT-57531,139.3621777943303,36.79453578266732,879.4553753225432,3.033969360887888,-106262.44069596582,10.5,10499893737.559303,47.655,-122.3035,60.0,8.683333333333334
2026-01-20T23:08:42+00:00,SAT-57531,138.88082325444088,36.614022045047975,882.4812110302624,3.077932266571236,-107802.2076159033,10.5,10499892197.792383,47.655,-122.3035,60.0,8.7
2026-01-20T23:08:43+00:00,SAT-57531,138.40505478653586,36.432459782535155,885.5508917851814,3.1214362740344086,-109325.90197903274,10.5,10499890674.09802,47.655,-122.3035,60.0,8.716666666666667
2026-01-20T23:08:44+00:00,SAT-57531,137.93484092010695,36.249918185387166,888.6639599193236,3.164481332715639,-110833.52201446712,10.5,10499889166.477985,47.655,-122.3035,60.0,8.733333333333333
2026-01-20T23:08:45+00:00,SAT-57531,137.47014790600622,36.06646493071056,891.8199577142847,3.207067607589035,-112325.07350029756,10.5,10499887674.9265,47.655,-122.3035,60.0,8.75
2026-01-20T23:08:46+00:00,SAT-57531,137.01093986229642,35.88216616531898,895.018427616193,3.249195515586533,-113800.57103924408,10.5,10499886199.42896,47.655,-122.3035,60.0,8.766666666666667
2026-01-20T23:08:47+00:00,SAT-57531,136.55717890992324,35.69708648971699,898.2589124869913,3.2908656391057525,-115260.03502933487,10.5,10499884739.964972,47.655,-122.3035,60.0,8.783333333333333
2026-01-20T23:08:48+00:00,SAT-57531,136.10882531555862,35.511288950089785,901.5409557694579,3.3320787695716736,-116703.49318962044,10.5,10499883296.506811,47.655,-122.3035,60.0,8.8
2026-01-20T23:08:49+00:00,SAT-57531,135.6658376226361,35.324835030601044,904.8641016956753,3.3728359233727576,-118130.98111832404,10.5,10499881869.01888,47.655,-122.3035,60.0,8.816666666666666
2026-01-20T23:08:50+00:00,SAT-57531,135.22817277520124,35.13778464751755,908.227895511389,3.413138266202267,-119542.53964295461,10.5,10499880457.460358,47.655,-122.3035,60.0,8.833333333333334
2026-01-20T23:08:51+00:00,SAT-57531,134.79578624645296,34.95019615009342,911.6318836249126,3.4529871659643314,-120938.21667330095,10.5,10499879061.783327,47.655,-122.3035,60.0,8.85
2026-01-20T23:08:52+00:00,SAT-57531,134.36863215478047,34.762126320817465,915.0756138087974,3.492384141986138,-122318.06542262796,10.5,10499877681.934578,47.655,-122.3035,60.0,8.866666666666667
2026-01-20T23:08:53+00:00,SAT-57531,133.94666338091824,34.57363038064782,918.5586353508477,3.5313308868585596,-123682.14517262764,10.5,10499876317.854828,47.655,-122.3035,60.0,8.883333333333333
2026-01-20T23:08:54+00:00,SAT-57531,133.52983167688453,34.38476199505035,922.0804992269223,3.569829280441161,-125030.52176393372,10.5,10499874969.478235,47.655,-122.3035,60.0,8.9
2026-01-20T23:08:55+00:00,SAT-57531,133.1180877682124,34.19557328119301,925.640758287699,3.6078813125526974,-126363.26488841597,10.5,10499873636.735111,47.655,-122.3035,60.0,8.916666666666666
2026-01-20T23:08:56+00:00,SAT-57531,132.71138145999498,34.006114820987904,929.2389673683405,3.6454891174797472,-127680.44929781837,10.5,10499872319.550703,47.655,-122.3035,60.0,8.933333333333334
2026-01-20T23:08:57+00:00,SAT-57531,132.30966173342085,33.81643567380234,932.8746834325739,3.6826550047355675,-128982.15588106443,10.5,10499871017.844118,47.655,-122.3035,60.0,8.95
2026-01-20T23:08:58+00:00,SAT-57531,131.9128768340025,33.626583389027665,936.5474657474481,3.7193814000720447,-130268.4695982461,10.5,10499869731.530401,47.655,-122.3035,60.0,8.966666666666667
2026-01-20T23:08:59+00:00,SAT-57531,131.5209743615327,33.4366040230548,940.256875999261,3.755670820388501,-131539.4786018241,10.5,10499868460.521399,47.655,-122.3035,60.0,8.983333333333333
2026-01-20T23:09:00+00:00,SAT-57531,131.13390135752033,33.24654215864132,944.002478384463,3.7915259405425195,-132795.27657662574,10.5,10499867204.723423,47.655,-122.3035,60.0,9.0
2026-01-20T23:09:01+00:00,SAT-57531,130.7516043808149,33.05644092190004,947.7838397671891,3.8269495396804127,-134035.96086011056,10.5,10499865964.03914,47.655,-122.3035,60.0,9.016666666666667
2026-01-20T23:09:02+00:00,SAT-57531,130.37402958436715,32.866342002977575,951.6005297832728,3.8619444836329997,-135261.6318257963,10.5,10499864738.368174,47.655,-122.3035,60.0,9.033333333333333
2026-01-20T23:09:03+00:00,SAT-57531,130.00112278909597,32.67628567839307,955.4521209266936,3.896513771067549,-136472.39449969507,10.5,10499863527.605501,47.655,-122.3035,60.0,9.05
2026-01-20T23:09:04+00:00,SAT-57531,129.63282954885267,32.48631083179112,959.3381886820597,3.9306604402772223,-137668.35529568538,10.5,10499862331.644705,47.655,-122.3035,60.0,9.066666666666666
2026-01-20T23:09:05+00:00,SAT-57531,129.2690952200887,32.29645497987428,963.2583115641279,3.964387681735369,-138849.6259576396,10.5,10499861150.374043,47.655,-122.3035,60.0,9.083333333333334
2026-01-20T23:09:06+00:00,SAT-57531,128.9098650167357,32.10675429333859,967.2120712695742,3.9976987357129943,-140016.31997355464,10.5,10499859983.680027,47.655,-122.3035,60.0,9.1
2026-01-20T23:09:07+00:00,SAT-57531,128.5550840708567,31.917243623234548,971.1990527266589,4.030596903458966,-141168.55296713018,10.5,10499858831.447033,47.655,-122.3035,60.0,9.116666666666667
2026-01-20T23:09:08+00:00,SAT-57531,128.20469748815057,31.72795652704802,975.2188441560422,4.063085587053842,-142306.44409361808,10.5,10499857693.555906,47.655,-122.3035,60.0,9.133333333333333
2026-01-20T23:09:09+00:00,SAT-57531,127.85865039628231,31.53892529315449,979.2710371713429,4.0951682546619965,-143430.11482280507,10.5,10499856569.885178,47.655,-122.3035,60.0,9.15
2026-01-20T23:09:10+00:00,SAT-57531,127.5168879928525,31.350180967116238,983.3552268450474,4.126848400681602,-144539.68754329646,10.5,10499855460.312456,47.655,-122.3035,60.0,9.166666666666666
2026-01-20T23:09:11+00:00,SAT-57531,127.17935559319655,31.16175337990511,987.4710117346718,4.158129625718342,-145635.2883635338,10.5,10499854364.711636,47.655,-122.3035,60.0,9.183333333333334
2026-01-20T23:09:12+00:00,SAT-57531,126.84599866823913,30.973671172472855,991.6179939886857,4.189015543211338,-146717.04384143997,10.5,10499853282.956158,47.655,-122.3035,60.0,9.2
2026-01-20T23:09:13+00:00,SAT-57531,126.51676288697216,30.785961824596292,995.7957793593098,4.219509831761872,-147785.08281719233,10.5,10499852214.917183,47.655,-122.3035,60.0,9.216666666666667
2026-01-20T23:09:14+00:00,SAT-57531,126.1915941515875,30.598651681240444,1000.003977267505,4.249616212941718,-148839.53563597667,10.5,10499851160.464363,47.655,-122.3035,60.0,9.233333333333333
2026-01-20T23:09:15+00:00,SAT-57531,125.87043863157913,30.411765979808703,1004.2422008458267,4.279338432042787,-149880.5334737583,10.5,10499850119.466526,47.655,-122.3035,60.0,9.25
2026-01-20T23:09:16+00:00,SAT-57531,125.55324279652969,30.225328878055524,1008.5100669620821,4.30868028771232,-150908.2093752317,10.5,10499849091.790625,47.655,-122.3035,60.0,9.266666666666667
2026-01-20T23:09:17+00:00,SAT-57531,125.23995344403211,30.039363480470158,1012.8071962725409,4.337645617119215,-151922.69773428308,10.5,10499848077.302265,47.655,-122.3035,60.0,9.283333333333333
