DopplerPredictor/satellites_20260205_234138/SAT-66140.csv

timestamp,satellite,azimuth_deg,elevation_deg,distance_km,relative_velocity_kms,doppler_shift_hz,tx_freq_ghz,rx_freq_hz,ue_lat,ue_lon,ue_alt_m,time_minutes
2026-01-20T23:01:49+00:00,SAT-66140,327.5083518513753,30.127808865479814,813.767995343873,-2.520392476424017,88274.80577397373,10.5,10500088274.805775,47.655,-122.3035,60.0,1.8166666666666667
2026-01-20T23:01:50+00:00,SAT-66140,328.0519090587084,30.257228132196598,811.2543596918641,-2.466521204069609,86388.00594086623,10.5,10500086388.005941,47.655,-122.3035,60.0,1.8333333333333333
2026-01-20T23:01:51+00:00,SAT-66140,328.60021189774733,30.384751002294166,808.7944508907627,-2.412154223224491,84483.84429956926,10.5,10500084483.8443,47.655,-122.3035,60.0,1.85
2026-01-20T23:01:52+00:00,SAT-66140,329.15322456111534,30.51030548050198,806.3887633201334,-2.357296585701666,82562.49778594328,10.5,10500082562.497786,47.655,-122.3035,60.0,1.8666666666666667
2026-01-20T23:01:53+00:00,SAT-66140,329.7109071707398,30.633819234427392,804.0377863212713,-2.3019537965341073,80624.15920952932,10.5,10500080624.15921,47.655,-122.3035,60.0,1.8833333333333333
2026-01-20T23:01:54+00:00,SAT-66140,330.2732156994946,30.755219687218062,801.7420037451958,-2.246131731529824,78669.03436597844,10.5,10500078669.034367,47.655,-122.3035,60.0,1.9
2026-01-20T23:01:55+00:00,SAT-66140,330.8401018785999,30.874434109781856,799.5018935828722,-2.189836711171587,76697.34462533299,10.5,10500076697.344625,47.655,-122.3035,60.0,1.9166666666666667
2026-01-20T23:01:56+00:00,SAT-66140,331.4115131271359,30.99138972063837,797.3179275217256,-2.133075465181819,74709.32569093883,10.5,10500074709.325691,47.655,-122.3035,60.0,1.9333333333333333
2026-01-20T23:01:57+00:00,SAT-66140,331.9873924791673,31.10601378757001,795.1905705375015,-2.0758551536024017,72705.22833774962,10.5,10500072705.228338,47.655,-122.3035,60.0,1.95
2026-01-20T23:01:58+00:00,SAT-66140,332.56767852252153,31.218233733921373,793.1202804650978,-2.018183361799258,70685.3182373661,10.5,10500070685.318237,47.655,-122.3035,60.0,1.9666666666666666
2026-01-20T23:01:59+00:00,SAT-66140,333.152305343794,31.327977248005617,791.1075075743822,-1.9600680990817765,68649.87590968233,10.5,10500068649.87591,47.655,-122.3035,60.0,1.9833333333333334
2026-01-20T23:02:00+00:00,SAT-66140,333.74120248086416,31.435172395629543,789.1526941473845,-1.9015178025396113,66599.1968572669,10.5,10500066599.196857,47.655,-122.3035,60.0,2.0
2026-01-20T23:02:01+00:00,SAT-66140,334.3342948852312,31.53974773581775,787.256274051664,-1.8425413431401794,64533.59177892288,10.5,10500064533.59178,47.655,-122.3035,60.0,2.0166666666666666
2026-01-20T23:02:02+00:00,SAT-66140,334.93150289588357,31.64163243964282,785.4186723075944,-1.783148004695984,62453.38583303464,10.5,10500062453.385834,47.655,-122.3035,60.0,2.033333333333333
2026-01-20T23:02:03+00:00,SAT-66140,335.53274221706664,31.740756410414715,783.6403046766243,-1.7233475095613513,60358.919537576185,10.5,10500060358.919538,47.655,-122.3035,60.0,2.05
2026-01-20T23:02:04+00:00,SAT-66140,336.13792391516444,31.837050407531443,781.9215772239141,-1.663149992731896,58250.547862964944,10.5,10500058250.547863,47.655,-122.3035,60.0,2.066666666666667
2026-01-20T23:02:05+00:00,SAT-66140,336.7469544194461,31.93044617085398,780.2628859067979,-1.6025660119041003,56128.640584390734,10.5,10500056128.640585,47.655,-122.3035,60.0,2.0833333333333335
2026-01-20T23:02:06+00:00,SAT-66140,337.3597355387975,32.02087654726516,778.6646161532175,-1.5416065229249925,53993.58142195966,10.5,10500053993.581423,47.655,-122.3035,60.0,2.1
2026-01-20T23:02:07+00:00,SAT-66140,337.9761644829989,32.108275617147484,777.1271424646388,-1.4802829076129884,51845.76901509769,10.5,10500051845.769014,47.655,-122.3035,60.0,2.1166666666666667
2026-01-20T23:02:08+00:00,SAT-66140,338.59613390860267,32.19257882335963,775.6508279912221,-1.4186069297553336,49685.61538139496,10.5,10500049685.615381,47.655,-122.3035,60.0,2.1333333333333333
2026-01-20T23:02:09+00:00,SAT-66140,339.2195319632036,32.27372309829015,774.2360241508778,-1.3565907596337732,47513.54677559839,10.5,10500047513.546776,47.655,-122.3035,60.0,2.15
2026-01-20T23:02:10+00:00,SAT-66140,339.84624235501127,32.35164699246392,772.883070223861,-1.2942469428234147,45330.002596816004,10.5,10500045330.002596,47.655,-122.3035,60.0,2.1666666666666665
2026-01-20T23:02:11+00:00,SAT-66140,340.4761444263512,32.42629080113128,771.592292978485,-1.2315883961896108,43135.43524831073,10.5,10500043135.435247,47.655,-122.3035,60.0,2.183333333333333
2026-01-20T23:02:12+00:00,SAT-66140,341.1091132418588,32.49759668995922,770.3640063008265,-1.1686284087765781,40930.310168623626,10.5,10500040930.31017,47.655,-122.3035,60.0,2.2
2026-01-20T23:02:13+00:00,SAT-66140,341.7450196955228,32.56550881968076,769.1985108235431,-1.1053806180098817,38715.10499808424,10.5,10500038715.104998,47.655,-122.3035,60.0,2.216666666666667
2026-01-20T23:02:14+00:00,SAT-66140,342.38373062519076,32.629973467845275,768.0960935784275,-1.0418589961156581,36490.30910315432,10.5,10500036490.309103,47.655,-122.3035,60.0,2.2333333333333334
2026-01-20T23:02:15+00:00,SAT-66140,343.02510893888575,32.690939147800925,767.0570276625037,-0.9780778480732532,34256.42350472058,10.5,10500034256.423504,47.655,-122.3035,60.0,2.25
2026-01-20T23:02:16+00:00,SAT-66140,343.66901376010486,32.748356725135636,766.0815719061663,-0.9140517890110035,32013.960086399296,10.5,10500032013.960087,47.655,-122.3035,60.0,2.2666666666666666
2026-01-20T23:02:17+00:00,SAT-66140,344.31530058146063,32.80217952994309,765.1699705638628,-0.8497957338565955,29763.441232048113,10.5,10500029763.441233,47.655,-122.3035,60.0,2.283333333333333
2026-01-20T23:02:18+00:00,SAT-66140,344.9638214335892,32.852363465172225,764.3224530150967,-0.785324870782709,27505.3988957202,10.5,10500027505.398895,47.655,-122.3035,60.0,2.3
2026-01-20T23:02:19+00:00,SAT-66140,345.6144250583221,32.89886710968115,763.5392334919176,-0.7206546666355672,25240.37479179498,10.5,10500025240.374792,47.655,-122.3035,60.0,2.316666666666667
2026-01-20T23:02:20+00:00,SAT-66140,346.26695710962673,32.941651817451536,762.8205108009928,-0.6558008220229202,22968.91882196937,10.5,10500022968.918821,47.655,-122.3035,60.0,2.3333333333333335
2026-01-20T23:02:21+00:00,SAT-66140,346.9212603446526,32.98068180958126,762.1664680904734,-0.5907792802193262,20691.589387158383,10.5,10500020691.589388,47.655,-122.3035,60.0,2.35
2026-01-20T23:02:22+00:00,SAT-66140,347.57717484745336,33.01592426184378,761.5772726079765,-0.5256061839930087,18408.951875389044,10.5,10500018408.951876,47.655,-122.3035,60.0,2.3666666666666667
2026-01-20T23:02:23+00:00,SAT-66140,348.2345382405324,33.0473493843517,761.0530755016292,-0.46029787867690186,16121.578769361402,10.5,10500016121.57877,47.655,-122.3035,60.0,2.3833333333333333
2026-01-20T23:02:24+00:00,SAT-66140,348.8931859277672,33.074930495716494,760.5940116180439,-0.39487087198790655,13830.048239148893,10.5,10500013830.048239,47.655,-122.3035,60.0,2.4
2026-01-20T23:02:25+00:00,SAT-66140,349.55295132344776,33.09864408881336,760.2001993403716,-0.32934183187470567,11534.944066819751,10.5,10500011534.944067,47.655,-122.3035,60.0,2.4166666666666665
2026-01-20T23:02:26+00:00,SAT-66140,350.2136661112821,33.118469890110305,759.8717404284989,-0.26372755028855693,9236.854377536902,10.5,10500009236.854378,47.655,-122.3035,60.0,2.433333333333333
2026-01-20T23:02:27+00:00,SAT-66140,350.8751604888078,33.134390910264955,759.6087198953782,-0.19804493288409106,6936.371278836361,10.5,10500006936.371279,47.655,-122.3035,60.0,2.45
2026-01-20T23:02:28+00:00,SAT-66140,351.537263433265,33.14639348730856,759.4112058936289,-0.13231097305893855,4634.08995138515,10.5,10500004634.08995,47.655,-122.3035,60.0,2.466666666666667
2026-01-20T23:02:29+00:00,SAT-66140,352.19980296764044,33.154467321279554,759.2792496280299,-0.06654272919513989,2330.6078518792115,10.5,10500002330.607851,47.655,-122.3035,60.0,2.4833333333333334
2026-01-20T23:02:30+00:00,SAT-66140,352.8626064245373,33.1586055003405,759.2128852907088,-0.0007573052689097528,26.524033915330868,10.5,10500000026.524035,47.655,-122.3035,60.0,2.5
2026-01-20T23:02:31+00:00,SAT-66140,353.525500721362,33.158804518452634,759.2121300156707,0.0650281727015376,-2277.5616769056437,10.5,10499997722.438324,47.655,-122.3035,60.0,2.5166666666666666
2026-01-20T23:02:32+00:00,SAT-66140,354.1883126324467,33.15506428428735,759.2769838568154,0.1307965790933829,-4581.049468831269,10.5,10499995418.950531,47.655,-122.3035,60.0,2.533333333333333
2026-01-20T23:02:33+00:00,SAT-66140,354.8508690648954,33.147388121389135,759.4074297883298,0.19653080903823167,-6883.340257016848,10.5,10499993116.659742,47.655,-122.3035,60.0,2.55
2026-01-20T23:02:34+00:00,SAT-66140,355.51299732394517,33.13578275971657,759.60343372539,0.262213803172544,-9183.836550390177,10.5,10499990816.16345,47.655,-122.3035,60.0,2.566666666666667
2026-01-20T23:02:35+00:00,SAT-66140,356.1745253945118,33.12025831834497,759.8649445695419,0.3278285681613275,-11481.943170478085,10.5,10499988518.05683,47.655,-122.3035,60.0,2.5833333333333335
2026-01-20T23:02:36+00:00,SAT-66140,356.8352822057641,33.10082827965437,760.1918942745524,0.3933581974143187,-13777.067976974746,10.5,10499986222.932022,47.655,-122.3035,60.0,2.6
2026-01-20T23:02:37+00:00,SAT-66140,357.4950978938876,33.07750945511599,760.5841979329227,0.4587858952913471,-16068.622715515894,10.5,10499983931.377285,47.655,-122.3035,60.0,2.6166666666666667
2026-01-20T23:02:38+00:00,SAT-66140,358.1538040666911,33.0503219426273,761.0417538865414,0.5240949950672683,-18356.0236468868,10.5,10499981643.976353,47.655,-122.3035,60.0,2.6333333333333333
2026-01-20T23:02:39+00:00,SAT-66140,358.81123405484533,33.01928907596368,761.5644438552517,0.5892689845767342,-20638.692445210578,10.5,10499979361.307554,47.655,-122.3035,60.0,2.65
2026-01-20T23:02:40+00:00,SAT-66140,359.46722316465457,32.98443736611963,762.1521330909999,0.6542915204678513,-22916.056697171614,10.5,10499977083.943302,47.655,-122.3035,60.0,2.6666666666666665
2026-01-20T23:02:41+00:00,SAT-66140,0.1216089139932487,32.94579643548344,762.8046705461937,0.7191464489521586,-25187.550628767534,10.5,10499974812.449371,47.655,-122.3035,60.0,2.683333333333333
2026-01-20T23:02:42+00:00,SAT-66140,0.7742312636576454,32.90339894475331,763.5218890627582,0.7838178365111386,-27452.616180781155,10.5,10499972547.38382,47.655,-122.3035,60.0,2.7
2026-01-20T23:02:43+00:00,SAT-66140,1.424932849039941,32.85728051233304,764.3036055918167,0.8482899663752714,-29710.702885462015,10.5,10499970289.297115,47.655,-122.3035,60.0,2.716666666666667
2026-01-20T23:02:44+00:00,SAT-66140,2.0735591811930303,32.807479628581234,765.1496214098562,0.9125473827395356,-31961.26941514027,10.5,10499968038.730585,47.655,-122.3035,60.0,2.7333333333333334
2026-01-20T23:02:45+00:00,SAT-66140,2.7199588610849226,32.75403756247109,766.0597223789938,0.9765748824789171,-34203.78329206877,10.5,10499965796.216707,47.655,-122.3035,60.0,2.75
2026-01-20T23:02:46+00:00,SAT-66140,3.3639837610916716,32.69699826414308,767.0336791989799,1.0403575515807792,-36437.722164438776,10.5,10499963562.277836,47.655,-122.3035,60.0,2.7666666666666666
2026-01-20T23:02:47+00:00,SAT-66140,4.005489210943928,32.63640826114205,768.0712476955345,1.103880773134332,-38662.57408620495,10.5,10499961337.425913,47.655,-122.3035,60.0,2.783333333333333
2026-01-20T23:02:48+00:00,SAT-66140,4.644334164879448,32.572316550422265,769.1721691166513,1.167130236139731,-40877.837825617265,10.5,10499959122.162174,47.655,-122.3035,60.0,2.8
2026-01-20T23:02:49+00:00,SAT-66140,5.2803813532825234,32.50477448651326,770.3361704376921,1.2300919659908462,-43083.02393285653,10.5,10499956916.976067,47.655,-122.3035,60.0,2.816666666666667
2026-01-20T23:02:50+00:00,SAT-66140,5.913497431093778,32.433835665028056,771.5629646968746,1.2927523150729419,-45277.654410725336,10.5,10499954722.345589,47.655,-122.3035,60.0,2.8333333333333335
2026-01-20T23:02:51+00:00,SAT-66140,6.543553100637839,32.359555804267124,772.8522513213907,1.355098005291904,-47461.264204201536,10.5,10499952538.735796,47.655,-122.3035,60.0,2.85
2026-01-20T23:02:52+00:00,SAT-66140,7.170423237215396,32.281992622374766,774.203716495934,1.417116098131329,-49633.40015171081,10.5,10499950366.599848,47.655,-122.3035,60.0,2.8666666666666667
2026-01-20T23:02:53+00:00,SAT-66140,7.79398698095065,32.201205714661796,775.6170335013683,1.4787940532378134,-51793.623037031306,10.5,10499948206.376963,47.655,-122.3035,60.0,2.8833333333333333
2026-01-20T23:02:54+00:00,SAT-66140,8.414127838729952,32.11725642644941,777.0918631118228,1.5401196941055713,-53941.506387423855,10.5,10499946058.493612,47.655,-122.3035,60.0,2.9
2026-01-20T23:02:55+00:00,SAT-66140,9.030733752579467,32.03020772719673,778.6278539575649,1.6010812519158537,-56076.63800907382,10.5,10499943923.36199,47.655,-122.3035,60.0,2.9166666666666665
2026-01-20T23:02:56+00:00,SAT-66140,9.643697170784918,31.94012408186433,780.2246429315936,1.6616673435837626,-58198.61921819764,10.5,10499941801.380781,47.655,-122.3035,60.0,2.933333333333333
2026-01-20T23:02:57+00:00,SAT-66140,10.252915093858133,31.84707132367006,781.8818555743392,1.7218669997347287,-60307.06582089751,10.5,10499939692.93418,47.655,-122.3035,60.0,2.95
2026-01-20T23:02:58+00:00,SAT-66140,10.85828911679301,31.7511165258026,783.5991064862651,1.7816696694537015,-62401.60827949804,10.5,10499937598.39172,47.655,-122.3035,60.0,2.966666666666667
2026-01-20T23:02:59+00:00,SAT-66140,11.459725458141799,31.65232787379134,785.3759997452056,1.8410651995927256,-64481.89098781003,10.5,10499935518.109013,47.655,-122.3035,60.0,2.9833333333333334
2026-01-20T23:03:00+00:00,SAT-66140,12.057134968534916,31.55077454030334,787.2121293030652,1.900043880173516,-66547.57386132081,10.5,10499933452.426138,47.655,-122.3035,60.0,3.0
2026-01-20T23:03:01+00:00,SAT-66140,12.650433142183992,31.44652655902969,789.107079427802,1.9585964033166954,-68598.33089872228,10.5,10499931401.669102,47.655,-122.3035,60.0,3.0166666666666666
2026-01-20T23:03:02+00:00,SAT-66140,13.23954010252223,31.339654702781687,791.0604251044476,2.016713914681384,-70633.851983543,10.5,10499929366.148016,47.655,-122.3035,60.0,3.033333333333333
2026-01-20T23:03:03+00:00,SAT-66140,13.824380593091488,31.23023036099115,793.0717324874303,2.074387950760154,-72653.84068795225,10.5,10499927346.159311,47.655,-122.3035,60.0,3.05
2026-01-20T23:03:04+00:00,SAT-66140,14.404883938841744,31.11832542313813,795.14055929036,2.1316105108284678,-74658.01679273369,10.5,10499925341.983208,47.655,-122.3035,60.0,3.066666666666667
2026-01-20T23:03:05+00:00,SAT-66140,14.98098401936053,31.004012161019013,797.2664552475711,2.1883740030334837,-76646.11439908732,10.5,10499923353.885601,47.655,-122.3035,60.0,3.0833333333333335
2026-01-20T23:03:06+00:00,SAT-66140,15.552619217207269,30.887363116927364,799.4489625218981,2.244671257632167,-78617.88239228404,10.5,10499921382.117607,47.655,-122.3035,60.0,3.1
2026-01-20T23:03:07+00:00,SAT-66140,16.11973236253784,30.76845099429032,801.687616125653,2.3004955472485467,-80573.08515116062,10.5,10499919426.914848,47.655,-122.3035,60.0,3.1166666666666667
2026-01-20T23:03:08+00:00,SAT-66140,16.682270675422785,30.647348550594742,803.9819443618078,2.355840541640126,-82511.50096384787,10.5,10499917488.499037,47.655,-122.3035,60.0,3.1333333333333333
2026-01-20T23:03:09+00:00,SAT-66140,17.240185690035254,30.524128496237562,806.3314692200616,2.410700359588133,-84432.9238451869,10.5,10499915567.076155,47.655,-122.3035,60.0,3.15
2026-01-20T23:03:10+00:00,SAT-66140,17.79343318585088,30.398863394289396,808.7357068246624,2.4650694965571422,-86337.16100306298,10.5,10499913662.838997,47.655,-122.3035,60.0,3.1666666666666665
2026-01-20T23:03:11+00:00,SAT-66140,18.34197309629964,30.271625567813985,811.1941678100789,2.518942897660185,-88224.03539395225,10.5,10499911775.964605,47.655,-122.3035,60.0,3.183333333333333
2026-01-20T23:03:12+00:00,SAT-66140,18.88576943004442,30.14248700723465,813.7063577694443,2.5723158754624578,-90093.3828440601,10.5,10499909906.617155,47.655,-122.3035,60.0,3.2
2026-01-20T23:03:13+00:00,SAT-66140,19.424790169675713,30.01151928587726,816.2717776210243,2.6251841612880185,-91945.05384629854,10.5,10499908054.946154,47.655,-122.3035,60.0,3.216666666666667
