DopplerPredictor/satellites_20260205_234138/SAT-62065.csv

timestamp,satellite,azimuth_deg,elevation_deg,distance_km,relative_velocity_kms,doppler_shift_hz,tx_freq_ghz,rx_freq_hz,ue_lat,ue_lon,ue_alt_m,time_minutes
2026-01-20T23:14:55+00:00,SAT-62065,164.61322064897897,30.04075203623412,591.1102484273538,-2.248699437091471,78758.96627613109,10.5,10500078758.966276,47.655,-122.3035,60.0,14.916666666666666
2026-01-20T23:14:56+00:00,SAT-62065,163.8367418468744,30.191447507060975,588.8675774431326,-2.166968674340109,75896.40924379474,10.5,10500075896.409245,47.655,-122.3035,60.0,14.933333333333334
2026-01-20T23:14:57+00:00,SAT-62065,163.0520398087218,30.337931074334545,586.7064181127666,-2.0843288161854217,73002.01184496417,10.5,10500073002.011845,47.655,-122.3035,60.0,14.95
2026-01-20T23:14:58+00:00,SAT-62065,162.25928397097317,30.480021732113713,584.6276770945,-2.000801810753961,70076.54279587176,10.5,10500070076.542795,47.655,-122.3035,60.0,14.966666666666667
2026-01-20T23:14:59+00:00,SAT-62065,161.4586596365186,30.61753974719355,582.6322391572901,-1.9164112796673034,67120.82942562447,10.5,10500067120.829426,47.655,-122.3035,60.0,14.983333333333333
