DopplerPredictor/satellites_20260205_234138/SAT-45578.csv

timestamp,satellite,azimuth_deg,elevation_deg,distance_km,relative_velocity_kms,doppler_shift_hz,tx_freq_ghz,rx_freq_hz,ue_lat,ue_lon,ue_alt_m,time_minutes
2026-01-20T23:00:33+00:00,SAT-45578,233.69084079204018,30.07653896229893,994.889420408488,-5.782152402461757,202515.4356146226,10.5,10500202515.435616,47.655,-122.3035,60.0,0.55
2026-01-20T23:00:34+00:00,SAT-45578,233.64385701707178,30.330917864956398,989.1227691586804,-5.766512363451419,201967.65529118112,10.5,10500201967.65529,47.655,-122.3035,60.0,0.5666666666666667
2026-01-20T23:00:35+00:00,SAT-45578,233.59602498835326,30.587901182126952,983.3717160190965,-5.750590005210703,201409.98695408268,10.5,10500201409.986954,47.655,-122.3035,60.0,0.5833333333333334
2026-01-20T23:00:36+00:00,SAT-45578,233.54732281669962,30.84752688898537,977.6365425521085,-5.734379495631513,200842.22633823194,10.5,10500200842.226337,47.655,-122.3035,60.0,0.6
2026-01-20T23:00:37+00:00,SAT-45578,233.49772785711508,31.109833481744978,971.9175361365604,-5.717874888129251,200264.1651690822,10.5,10500200264.165169,47.655,-122.3035,60.0,0.6166666666666667
2026-01-20T23:00:38+00:00,SAT-45578,233.44721667581,31.374859978247596,966.2149900819395,-5.7010700635827725,199675.58912912715,10.5,10500199675.589128,47.655,-122.3035,60.0,0.6333333333333333
2026-01-20T23:00:39+00:00,SAT-45578,233.39576501626507,31.642645915355963,960.5292038004494,-5.6839588524423155,199076.282134637,10.5,10500199076.282135,47.655,-122.3035,60.0,0.65
2026-01-20T23:00:40+00:00,SAT-45578,233.34334776196994,31.913231351496435,954.8604828573044,-5.666534864330914,198466.02036757907,10.5,10500198466.020367,47.655,-122.3035,60.0,0.6666666666666666
2026-01-20T23:00:41+00:00,SAT-45578,233.28993889926255,32.18665686063815,949.2091391909628,-5.6487916062850285,197844.57641690504,10.5,10500197844.576416,47.655,-122.3035,60.0,0.6833333333333333
2026-01-20T23:00:42+00:00,SAT-45578,233.23551147660254,32.46296353111822,943.5754912154412,-5.630722501480026,197211.71993439633,10.5,10500197211.719934,47.655,-122.3035,60.0,0.7
2026-01-20T23:00:43+00:00,SAT-45578,233.1800375615654,32.74219296482518,937.9598639039478,-5.612320753876652,196567.21289401097,10.5,10500196567.212894,47.655,-122.3035,60.0,0.7166666666666667
2026-01-20T23:00:44+00:00,SAT-45578,233.12348819697496,33.02438726900131,932.362589007512,-5.59357949059028,195910.81457825712,10.5,10500195910.814579,47.655,-122.3035,60.0,0.7333333333333333
2026-01-20T23:00:45+00:00,SAT-45578,233.0658333529067,33.30958905420427,926.7840051316219,-5.574491654583993,195242.27781985071,10.5,10500195242.27782,47.655,-122.3035,60.0,0.75
2026-01-20T23:00:46+00:00,SAT-45578,233.00704187729977,33.59784142607191,921.2244579198843,-5.555050083740849,194561.35177116067,10.5,10500194561.35177,47.655,-122.3035,60.0,0.7666666666666667
2026-01-20T23:00:47+00:00,SAT-45578,232.94708144282882,33.88918798013311,915.6843001588212,-5.535247437987575,193867.77935177254,10.5,10500193867.779352,47.655,-122.3035,60.0,0.7833333333333333
2026-01-20T23:00:48+00:00,SAT-45578,232.8859184916469,34.183672791868645,910.1638919553503,-5.515076240932001,193161.2987068074,10.5,10500193161.298706,47.655,-122.3035,60.0,0.8
2026-01-20T23:00:49+00:00,SAT-45578,232.82351817641816,34.48134040778544,904.66360087274,-5.49452890135961,192441.64395982205,10.5,10500192441.643959,47.655,-122.3035,60.0,0.8166666666666667
2026-01-20T23:00:50+00:00,SAT-45578,232.75984429762624,34.78223583654642,899.1838020451199,-5.473597622109862,191708.5420212724,10.5,10500191708.54202,47.655,-122.3035,60.0,0.8333333333333334
2026-01-20T23:00:51+00:00,SAT-45578,232.69485923852656,35.086404533891596,893.7248783828785,-5.452274489518676,190961.71572116768,10.5,10500190961.715721,47.655,-122.3035,60.0,0.85
2026-01-20T23:00:52+00:00,SAT-45578,232.62852389491977,35.3938923910051,888.2872206888522,-5.430551442762368,190200.88273536507,10.5,10500190200.882736,47.655,-122.3035,60.0,0.8666666666666667
2026-01-20T23:00:53+00:00,SAT-45578,232.56079760126062,35.70474571982052,882.8712278050918,-5.408420259816801,189425.7550938003,10.5,10500189425.755095,47.655,-122.3035,60.0,0.8833333333333333
2026-01-20T23:00:54+00:00,SAT-45578,232.49163805246494,36.01901123596855,877.4773067736297,-5.385872551341093,188636.0389662687,10.5,10500188636.038967,47.655,-122.3035,60.0,0.9
2026-01-20T23:00:55+00:00,SAT-45578,232.4210012211743,36.33673603964218,872.1058730033484,-5.362899812184416,187831.4364664116,10.5,10500187831.436466,47.655,-122.3035,60.0,0.9166666666666666
2026-01-20T23:00:56+00:00,SAT-45578,232.34884126902625,36.657967597700704,866.7573503854803,-5.33949332700641,187011.6423461437,10.5,10500187011.642345,47.655,-122.3035,60.0,0.9333333333333333
2026-01-20T23:00:57+00:00,SAT-45578,232.275110454138,36.98275371828462,861.4321715032337,-5.315644287653462,186176.34810666702,10.5,10500186176.348106,47.655,-122.3035,60.0,0.95
2026-01-20T23:00:58+00:00,SAT-45578,232.19975903066995,37.311142530378795,856.1307777243564,-5.291343698229986,185325.23867366556,10.5,10500185325.238674,47.655,-122.3035,60.0,0.9666666666666667
2026-01-20T23:00:59+00:00,SAT-45578,232.1227351439274,37.64318245553438,850.8536193883759,-5.266582401775768,184457.99333165868,10.5,10500184457.993332,47.655,-122.3035,60.0,0.9833333333333333
2026-01-20T23:01:00+00:00,SAT-45578,232.0439847181093,37.97892217878539,845.6011559672311,-5.241351114179088,183574.28691178226,10.5,10500183574.286911,47.655,-122.3035,60.0,1.0
2026-01-20T23:01:01+00:00,SAT-45578,231.96345133650428,38.31841061924206,840.3738561920827,-5.215640391655872,182673.78865277077,10.5,10500182673.788652,47.655,-122.3035,60.0,1.0166666666666666
2026-01-20T23:01:02+00:00,SAT-45578,231.88107611424107,38.66169689604253,835.1721982125584,-5.18944060684353,181756.16136366266,10.5,10500181756.161364,47.655,-122.3035,60.0,1.0333333333333334
2026-01-20T23:01:03+00:00,SAT-45578,231.79679756351126,39.00883028981946,829.996669779839,-5.162742038064941,180821.06455020254,10.5,10500180821.06455,47.655,-122.3035,60.0,1.05
2026-01-20T23:01:04+00:00,SAT-45578,231.7105514478998,39.35986020706963,824.8477683407199,-5.135534779939578,179868.15128406454,10.5,10500179868.151283,47.655,-122.3035,60.0,1.0666666666666667
2026-01-20T23:01:05+00:00,SAT-45578,231.62227062893683,39.714836135458455,819.7260012208213,-5.107808800317717,178897.07019692948,10.5,10500178897.070196,47.655,-122.3035,60.0,1.0833333333333333
2026-01-20T23:01:06+00:00,SAT-45578,231.53188490109198,40.07380759951253,814.6318857510198,-5.079553889341447,177907.4636963856,10.5,10500177907.463696,47.655,-122.3035,60.0,1.1
2026-01-20T23:01:07+00:00,SAT-45578,231.43932081671724,40.43682410915252,809.565949444677,-5.050759752167966,176898.9712134908,10.5,10500176898.971214,47.655,-122.3035,60.0,1.1166666666666667
2026-01-20T23:01:08+00:00,SAT-45578,231.34450149679188,40.80393511091757,804.5287300823998,-5.0214159265767355,175871.2263170267,10.5,10500175871.226316,47.655,-122.3035,60.0,1.1333333333333333
2026-01-20T23:01:09+00:00,SAT-45578,231.24734643057926,41.17518992935972,799.5207758789672,-4.991511816349488,174823.85788260764,10.5,10500174823.857883,47.655,-122.3035,60.0,1.15
2026-01-20T23:01:10+00:00,SAT-45578,231.14777126028238,41.55063770639274,794.5426456169685,-4.961036707323355,173756.49065492913,10.5,10500173756.490654,47.655,-122.3035,60.0,1.1666666666666667
2026-01-20T23:01:11+00:00,SAT-45578,231.04568755019926,41.93032733724847,789.5949087644345,-4.9299797777979535,172668.74561226793,10.5,10500172668.745613,47.655,-122.3035,60.0,1.1833333333333333
2026-01-20T23:01:12+00:00,SAT-45578,230.94100253896138,42.31430740242661,784.6781455820836,-4.8983300652222,171560.23879971355,10.5,10500171560.2388,47.655,-122.3035,60.0,1.2
2026-01-20T23:01:13+00:00,SAT-45578,230.83361887476914,42.702626091902985,779.7929472637967,-4.866076516634492,170430.58309579678,10.5,10500170430.583096,47.655,-122.3035,60.0,1.2166666666666666
2026-01-20T23:01:14+00:00,SAT-45578,230.72343432981864,43.09533112772656,774.939916026785,-4.833207969138305,169279.38752866225,10.5,10500169279.38753,47.655,-122.3035,60.0,1.2333333333333334
2026-01-20T23:01:15+00:00,SAT-45578,230.6103414942502,43.49246967930771,770.1196652212292,-4.799713176092409,168106.25819336085,10.5,10500168106.258194,47.655,-122.3035,60.0,1.25
2026-01-20T23:01:16+00:00,SAT-45578,230.49422744627233,43.89408827465529,765.3328194138013,-4.7655808264249915,166910.79892831197,10.5,10500166910.79893,47.655,-122.3035,60.0,1.2666666666666666
2026-01-20T23:01:17+00:00,SAT-45578,230.37497339686763,44.30023270679036,760.5800144519218,-4.730799445343023,165692.60783772534,10.5,10500165692.607838,47.655,-122.3035,60.0,1.2833333333333334
2026-01-20T23:01:18+00:00,SAT-45578,230.25245431009213,44.71094792469412,755.8618976270416,-4.695357624543742,164451.28535458117,10.5,10500164451.285355,47.655,-122.3035,60.0,1.3
2026-01-20T23:01:19+00:00,SAT-45578,230.12653848709672,45.12627793656862,751.17912760833,-4.659243813195164,163186.4269198834,10.5,10500163186.42692,47.655,-122.3035,60.0,1.3166666666666667
2026-01-20T23:01:20+00:00,SAT-45578,229.9970871237808,45.54626568753777,746.5323745848223,-4.622446444411154,161897.6274123518,10.5,10500161897.627413,47.655,-122.3035,60.0,1.3333333333333333
2026-01-20T23:01:21+00:00,SAT-45578,229.86395382943272,45.97095293989325,741.9223202814311,-4.584953908342329,160584.4802059512,10.5,10500160584.480206,47.655,-122.3035,60.0,1.35
2026-01-20T23:01:22+00:00,SAT-45578,229.7269841075057,46.40038014224436,737.3496580017933,-4.546754636901121,159246.5801373221,10.5,10500159246.580137,47.655,-122.3035,60.0,1.3666666666666667
2026-01-20T23:01:23+00:00,SAT-45578,229.58601479114745,46.83458629733013,732.8150925866216,-4.507836985453426,157883.5193621214,10.5,10500157883.519361,47.655,-122.3035,60.0,1.3833333333333333
2026-01-20T23:01:24+00:00,SAT-45578,229.4408734363742,47.27360880891406,728.3193404900447,-4.468189378551383,156494.89245920096,10.5,10500156494.89246,47.655,-122.3035,60.0,1.4
2026-01-20T23:01:25+00:00,SAT-45578,229.29137765937267,47.71748333188866,723.8631297106072,-4.427800287480735,155080.295644221,10.5,10500155080.295645,47.655,-122.3035,60.0,1.4166666666666667
2026-01-20T23:01:26+00:00,SAT-45578,229.1373344183417,48.16624360950137,719.4471997446608,-4.386658179996621,153639.32500918524,10.5,10500153639.325008,47.655,-122.3035,60.0,1.4333333333333333
2026-01-20T23:01:27+00:00,SAT-45578,228.97853923598237,48.61992129360689,715.0723015898858,-4.344751651002254,152171.58109936066,10.5,10500152171.581099,47.655,-122.3035,60.0,1.45
2026-01-20T23:01:28+00:00,SAT-45578,228.8147753491226,49.07854576550859,710.7391976184842,-4.302069359614798,150676.66670905837,10.5,10500150676.66671,47.655,-122.3035,60.0,1.4666666666666666
2026-01-20T23:01:29+00:00,SAT-45578,228.64581278611297,49.54214393717749,706.4486615131372,-4.258600114945236,149154.18988600766,10.5,10500149154.189886,47.655,-122.3035,60.0,1.4833333333333334
2026-01-20T23:01:30+00:00,SAT-45578,228.47140735813593,50.010740047291165,702.2014781174132,-4.214332821143174,147603.7620065923,10.5,10500147603.762007,47.655,-122.3035,60.0,1.5
2026-01-20T23:01:31+00:00,SAT-45578,228.29129956199358,50.48435543619921,697.9984433409855,-4.169256580322904,146025.00138075688,10.5,10500146025.00138,47.655,-122.3035,60.0,1.5166666666666666
2026-01-20T23:01:32+00:00,SAT-45578,228.10521337734727,50.96300831586914,693.8403639621971,-4.123360662853642,144417.5322114449,10.5,10500144417.532211,47.655,-122.3035,60.0,1.5333333333333334
2026-01-20T23:01:33+00:00,SAT-45578,227.91285495374382,51.44671351931244,689.7280574602568,-4.076634571116832,142780.98682764976,10.5,10500142780.986828,47.655,-122.3035,60.0,1.55
2026-01-20T23:01:34+00:00,SAT-45578,227.71391117059974,51.935482238678695,685.6623517838497,-4.029068063222235,141115.00651505205,10.5,10500141115.006516,47.655,-122.3035,60.0,1.5666666666666667
2026-01-20T23:01:35+00:00,SAT-45578,227.50804805823557,52.42932174639139,681.6440850960935,-3.9806511553334047,139419.24159746792,10.5,10500139419.241598,47.655,-122.3035,60.0,1.5833333333333333
2026-01-20T23:01:36+00:00,SAT-45578,227.29490906566124,52.928235095119,677.6741055171776,-3.9313741465578818,137693.35230860865,10.5,10500137693.352308,47.655,-122.3035,60.0,1.6
2026-01-20T23:01:37+00:00,SAT-45578,227.07411315689865,53.43222079734221,673.7532708421771,-3.8812277364639973,135937.01290801642,10.5,10500135937.012909,47.655,-122.3035,60.0,1.6166666666666667
2026-01-20T23:01:38+00:00,SAT-45578,226.84525270980618,53.94127249486144,669.8824481416651,-3.8302029424595774,134149.908787317,10.5,10500134149.908787,47.655,-122.3035,60.0,1.6333333333333333
2026-01-20T23:01:39+00:00,SAT-45578,226.60789120759017,54.45537859085631,666.0625134447263,-3.778291223109318,132331.74078931578,10.5,10500132331.74079,47.655,-122.3035,60.0,1.65
2026-01-20T23:01:40+00:00,SAT-45578,226.36156068480943,54.974521868377884,662.2943512989821,-3.725484459746246,130482.22456395347,10.5,10500130482.224564,47.655,-122.3035,60.0,1.6666666666666667
2026-01-20T23:01:41+00:00,SAT-45578,226.1057589085576,55.49867907448244,658.5788543489554,-3.671775014965655,128601.092617011,10.5,10500128601.092617,47.655,-122.3035,60.0,1.6833333333333333
2026-01-20T23:01:42+00:00,SAT-45578,225.83994625692625,56.02782047709715,654.9169228560999,-3.617155785407033,126688.09615875607,10.5,10500126688.096159,47.655,-122.3035,60.0,1.7
2026-01-20T23:01:43+00:00,SAT-45578,225.56354225818686,56.56190939093011,651.3094641661863,-3.561620209851145,124743.00538753721,10.5,10500124743.005388,47.655,-122.3035,60.0,1.7166666666666666
2026-01-20T23:01:44+00:00,SAT-45578,225.27592175194056,57.100901662198766,647.757392168614,-3.50516234003741,122765.61197010768,10.5,10500122765.61197,47.655,-122.3035,60.0,1.7333333333333334
2026-01-20T23:01:45+00:00,SAT-45578,224.97641061953738,57.64474511689737,644.2616266850979,-3.447776848444491,120755.72931413491,10.5,10500120755.729315,47.655,-122.3035,60.0,1.75
2026-01-20T23:01:46+00:00,SAT-45578,224.66428103427538,58.193378958286836,640.823092850591,-3.3894590995288563,118713.19506327604,10.5,10500118713.195063,47.655,-122.3035,60.0,1.7666666666666666
2026-01-20T23:01:47+00:00,SAT-45578,224.33874616378708,58.74673311741555,637.4427204231627,-3.330205177760599,116637.87207911111,10.5,10500116637.87208,47.655,-122.3035,60.0,1.7833333333333334
2026-01-20T23:01:48+00:00,SAT-45578,223.998954256559,59.30472754353243,634.1214430659152,-3.2700119324226242,114529.65001019991,10.5,10500114529.650011,47.655,-122.3035,60.0,1.8
2026-01-20T23:01:49+00:00,SAT-45578,223.6439820301439,59.867271429146456,630.8601975842219,-3.2088770182883097,112388.44671678582,10.5,10500112388.446716,47.655,-122.3035,60.0,1.8166666666666667
2026-01-20T23:01:50+00:00,SAT-45578,223.27282726772657,60.434262360068345,627.6599231223945,-3.146798954630519,110214.21033754108,10.5,10500110214.210337,47.655,-122.3035,60.0,1.8333333333333333
2026-01-20T23:01:51+00:00,SAT-45578,222.88440051400735,61.00558538317424,624.5215603015032,-3.0837771281096873,108006.91939071969,10.5,10500108006.919392,47.655,-122.3035,60.0,1.85
2026-01-20T23:01:52+00:00,SAT-45578,222.47751575471716,61.5811119695444,621.4460503543128,-3.0198118862082493,105766.58604662635,10.5,10500105766.586046,47.655,-122.3035,60.0,1.8666666666666667
2026-01-20T23:01:53+00:00,SAT-45578,222.05087992834612,62.16069887465842,618.4343341670374,-2.954904552684075,103493.2566688612,10.5,10500103493.256668,47.655,-122.3035,60.0,1.8833333333333333
2026-01-20T23:01:54+00:00,SAT-45578,221.60308111802811,62.74418686493406,615.4873513056823,-2.889057461335578,101187.01299691659,10.5,10500101187.012997,47.655,-122.3035,60.0,1.9
2026-01-20T23:01:55+00:00,SAT-45578,221.13257523864655,63.3313992933458,612.6060390087106,-2.822274005687689,98847.97388639023,10.5,10500098847.973886,47.655,-122.3035,60.0,1.9166666666666667
2026-01-20T23:01:56+00:00,SAT-45578,220.6376710056285,63.92214050353778,609.7913311301584,-2.754558699388192,96476.29742432018,10.5,10500096476.297424,47.655,-122.3035,60.0,1.9333333333333333
2026-01-20T23:01:57+00:00,SAT-45578,220.1165129426156,64.51619403718762,607.044157022514,-2.6859171847926913,94072.1812298669,10.5,10500094072.18123,47.655,-122.3035,60.0,1.95
2026-01-20T23:01:58+00:00,SAT-45578,219.56706216357307,65.11332060080738,604.3654404110373,-2.6163562567393934,91635.86328700648,10.5,10500091635.863287,47.655,-122.3035,60.0,1.9666666666666666
2026-01-20T23:01:59+00:00,SAT-45578,218.98707461951366,65.71325575504169,601.756098244365,-2.5458839657012,89167.6255573534,10.5,10500089167.625557,47.655,-122.3035,60.0,1.9833333333333334
2026-01-20T23:02:00+00:00,SAT-45578,218.3740764412511,66.31570729828323,599.2170394422438,-2.474509558828149,86667.79191521743,10.5,10500086667.791916,47.655,-122.3035,60.0,2.0
2026-01-20T23:02:01+00:00,SAT-45578,217.72533602596317,66.92035225284954,596.7491637020605,-2.4022435899823287,84136.73200149168,10.5,10500084136.732002,47.655,-122.3035,60.0,2.0166666666666666
2026-01-20T23:02:02+00:00,SAT-45578,217.03783239709907,67.52683342671175,594.3533601956335,-2.3290978873464976,81574.8600891695,10.5,10500081574.860088,47.655,-122.3035,60.0,2.033333333333333
2026-01-20T23:02:03+00:00,SAT-45578,216.3082194054164,68.1347554399057,592.0305062983074,-2.255085611952316,78982.63713325076,10.5,10500078982.637133,47.655,-122.3035,60.0,2.05
2026-01-20T23:02:04+00:00,SAT-45578,215.532785250091,68.74368014515221,589.781466259679,-2.1802212629339466,76360.5709547451,10.5,10500076360.570955,47.655,-122.3035,60.0,2.066666666666667
2026-01-20T23:02:05+00:00,SAT-45578,214.70740682547492,69.35312132107724,587.6070898690804,-2.104520707398036,73709.21728684509,10.5,10500073709.217287,47.655,-122.3035,60.0,2.0833333333333335
2026-01-20T23:02:06+00:00,SAT-45578,213.82749839203984,69.9625385163755,585.5082110912751,-2.0280011637561337,71029.17919115697,10.5,10500071029.179192,47.655,-122.3035,60.0,2.1
2026-01-20T23:02:07+00:00,SAT-45578,212.8879541626662,70.5713298818814,583.4856467187749,-1.9506812571972678,68321.10900058504,10.5,10500068321.109001,47.655,-122.3035,60.0,2.1166666666666667
2026-01-20T23:02:08+00:00,SAT-45578,211.8830844848019,71.17882383701578,581.540194968834,-1.8725809719085493,65585.70664589491,10.5,10500065585.706646,47.655,-122.3035,60.0,2.1333333333333333
2026-01-20T23:02:09+00:00,SAT-45578,210.8065456365948,71.78426934023251,579.6726341280951,-1.7937216862493175,62823.72088766101,10.5,10500062823.720888,47.655,-122.3035,60.0,2.15
2026-01-20T23:02:10+00:00,SAT-45578,209.65126360562252,72.38682456112512,577.883721162153,-1.7141261629531697,60035.94897310019,10.5,10500060035.948973,47.655,-122.3035,60.0,2.1666666666666665
2026-01-20T23:02:11+00:00,SAT-45578,208.40935297626663,72.98554369114241,576.1741903348933,-1.6338185175759,57223.23553098507,10.5,10500057223.23553,47.655,-122.3035,60.0,2.183333333333333
2026-01-20T23:02:12+00:00,SAT-45578,207.07203313646332,73.57936161816978,574.544751859296,-1.552824226614438,54386.4728560036,10.5,10500054386.472857,47.655,-122.3035,60.0,2.2
2026-01-20T23:02:13+00:00,SAT-45578,205.6295456056642,74.16707621083488,572.9960905401433,-1.4711700827508551,51526.599341214845,10.5,10500051526.59934,47.655,-122.3035,60.0,2.216666666666667
2026-01-20T23:02:14+00:00,SAT-45578,204.07107876202932,74.74732795373478,571.5288644613629,-1.3888842007938984,48644.59968614665,10.5,10500048644.599686,47.655,-122.3035,60.0,2.2333333333333334
2026-01-20T23:02:15+00:00,SAT-45578,202.38470961936903,75.31857678745635,570.1437036674454,-1.3059959521914435,45741.50260314473,10.5,10500045741.502604,47.655,-122.3035,60.0,2.25
2026-01-20T23:02:16+00:00,SAT-45578,200.5573772627807,75.87907611418696,568.8412089101741,-1.222535942416874,42818.380025347986,10.5,10500042818.380026,47.655,-122.3035,60.0,2.2666666666666666
2026-01-20T23:02:17+00:00,SAT-45578,198.57490900424966,76.42684424534491,567.6219504179091,-1.1385359653606142,39876.34550928712,10.5,10500039876.345509,47.655,-122.3035,60.0,2.283333333333333
2026-01-20T23:02:18+00:00,SAT-45578,196.42212889029742,76.95963399409769,566.4864667103537,-1.0540289599149475,36916.552714301266,10.5,10500036916.552713,47.655,-122.3035,60.0,2.3
2026-01-20T23:02:19+00:00,SAT-45578,194.08308853757043,77.47490182837406,565.4352634566243,-0.9690489459759323,33940.193161054405,10.5,10500033940.193161,47.655,-122.3035,60.0,2.316666666666667
2026-01-20T23:02:20+00:00,SAT-45578,191.54147173534687,77.96977902713547,564.4688123971437,-0.8836309755208352,30948.49451806012,10.5,10500030948.494518,47.655,-122.3035,60.0,2.3333333333333335
2026-01-20T23:02:21+00:00,SAT-45578,188.7812344729287,78.44104874414077,563.5875503143272,-0.7978110512484337,27942.71775212088,10.5,10500027942.717752,47.655,-122.3035,60.0,2.35
2026-01-20T23:02:22+00:00,SAT-45578,185.78754688894188,78.88513472770596,562.7918780844093,-0.7116260834971635,24924.15561941927,10.5,10500024924.155619,47.655,-122.3035,60.0,2.3666666666666667
2026-01-20T23:02:23+00:00,SAT-45578,182.54809501841922,79.29810965107394,562.0821597722376,-0.6251137906945219,21894.129178835043,10.5,10500021894.129179,47.655,-122.3035,60.0,2.3833333333333333
2026-01-20T23:02:24+00:00,SAT-45578,179.0547680422939,79.67573304782523,561.4587218253503,-0.5383126370313457,18853.985609034666,10.5,10500018853.98561,47.655,-122.3035,60.0,2.4
2026-01-20T23:02:25+00:00,SAT-45578,175.30568742811707,80.01353012938243,560.9218523302117,-0.4512617432036827,15805.09508227411,10.5,10500015805.095081,47.655,-122.3035,60.0,2.4166666666666665
2026-01-20T23:02:26+00:00,SAT-45578,171.30742088479255,80.306921855979,560.4718003574673,-0.36400080794727874,12748.848016204687,10.5,10500012748.848017,47.655,-122.3035,60.0,2.433333333333333
2026-01-20T23:02:27+00:00,SAT-45578,167.07707272647644,80.5514121372587,560.108775385454,-0.27657001185749613,9686.651705239728,10.5,10500009686.651705,47.655,-122.3035,60.0,2.45
2026-01-20T23:02:28+00:00,SAT-45578,162.64379021325087,80.74282864038103,559.8329468196315,-0.1890099305776261,6619.927280042096,10.5,10500006619.92728,47.655,-122.3035,60.0,2.466666666666667
2026-01-20T23:02:29+00:00,SAT-45578,158.04914364874736,80.87759969385495,559.6444435985945,-0.1013614439437425,3550.106525392631,10.5,10500003550.106525,47.655,-122.3035,60.0,2.4833333333333334
2026-01-20T23:02:30+00:00,SAT-45578,153.34591592395137,80.95303404413504,559.543353890694,-0.013665636002435895,478.6283783882812,10.5,10500000478.628378,47.655,-122.3035,60.0,2.5
2026-01-20T23:02:31+00:00,SAT-45578,148.59512904754757,80.96755857294502,559.5297248903759,0.07403629715789066,-2593.064299695798,10.5,10499997406.9357,47.655,-122.3035,60.0,2.5166666666666666
2026-01-20T23:02:32+00:00,SAT-45578,143.86159454593607,80.9208682557618,559.603562706438,0.16170314439612687,-5663.52812037497,10.5,10499994336.47188,47.655,-122.3035,60.0,2.533333333333333
2026-01-20T23:02:33+00:00,SAT-45578,139.20873652094502,80.81395629478978,559.764832347019,0.24929377759635785,-8731.322603058137,10.5,10499991268.677397,47.655,-122.3035,60.0,2.55
2026-01-20T23:02:34+00:00,SAT-45578,134.6936844451306,80.64901769342399,560.0134578024002,0.33676724630187904,-11795.013489531248,10.5,10499988204.986511,47.655,-122.3035,60.0,2.566666666666667
2026-01-20T23:02:35+00:00,SAT-45578,130.3635392629483,80.42924745643778,560.3493222221887,0.4240828734625934,-14853.176097436148,10.5,10499985146.823902,47.655,-122.3035,60.0,2.5833333333333335
2026-01-20T23:02:36+00:00,SAT-45578,126.25333004269471,80.1585745381836,560.772268187991,0.5112003464705763,-17904.398508721162,10.5,10499982095.601492,47.655,-122.3035,60.0,2.6
2026-01-20T23:02:37+00:00,SAT-45578,122.38569142350865,79.84137851961309,561.2820980768782,0.5980798133976513,-20947.28494028805,10.5,10499979052.71506,47.655,-122.3035,60.0,2.6166666666666667
2026-01-20T23:02:38+00:00,SAT-45578,118.77190786942653,79.48222865835835,561.8785745208312,0.6846819716410502,-23980.45884873804,10.5,10499976019.541151,47.655,-122.3035,60.0,2.6333333333333333
2026-01-20T23:02:39+00:00,SAT-45578,115.41379448594687,79.08567030010246,562.5614209545924,0.7709681499261987,-27002.565802456196,10.5,10499972997.434198,47.655,-122.3035,60.0,2.65
2026-01-20T23:02:40+00:00,SAT-45578,112.3059012258753,78.65606826862272,563.3303222453023,0.8569003894136358,-30012.276322318874,10.5,10499969987.723679,47.655,-122.3035,60.0,2.6666666666666665
2026-01-20T23:02:41+00:00,SAT-45578,109.43765710169214,78.19750512456159,564.1849254030242,0.9424415385103333,-33008.28920238714,10.5,10499966991.710798,47.655,-122.3035,60.0,2.683333333333333
2026-01-20T23:02:42+00:00,SAT-45578,106.7952294096043,77.71372546879735,565.1248403858265,1.0275553082285516,-35989.33344880809,10.5,10499964010.666552,47.655,-122.3035,60.0,2.7
2026-01-20T23:02:43+00:00,SAT-45578,104.36300680208511,77.20811510586373,566.1496409600765,1.112206347107216,-38954.17090387834,10.5,10499961045.829096,47.655,-122.3035,60.0,2.716666666666667
2026-01-20T23:02:44+00:00,SAT-45578,102.12470444999444,76.68370427679127,567.2588656354516,1.19636032678882,-41901.59924330922,10.5,10499958098.400757,47.655,-122.3035,60.0,2.7333333333333334
2026-01-20T23:02:45+00:00,SAT-45578,100.06413779934485,76.14318599291602,568.4520186853019,1.2799839686690093,-44830.45290960788,10.5,10499955169.54709,47.655,-122.3035,60.0,2.75
2026-01-20T23:02:46+00:00,SAT-45578,98.1657297235097,75.58894273565798,569.7285711935888,1.363045135163132,-47739.606308617964,10.5,10499952260.393692,47.655,-122.3035,60.0,2.7666666666666666
2026-01-20T23:02:47+00:00,SAT-45578,96.41481593034331,75.02307676672218,571.0879621928448,1.4455128528133403,-50627.97461882804,10.5,10499949372.025381,47.655,-122.3035,60.0,2.783333333333333
2026-01-20T23:02:48+00:00,SAT-45578,94.79780533152753,74.44744100293383,572.5295998251804,1.5273573699411034,-53494.5158106065,10.5,10499946505.48419,47.655,-122.3035,60.0,2.8
2026-01-20T23:02:49+00:00,SAT-45578,93.30224062733564,73.86366858488783,574.052862560788,1.6085501935337367,-56338.2319381238,10.5,10499943661.768063,47.655,-122.3035,60.0,2.816666666666667
2026-01-20T23:02:50+00:00,SAT-45578,91.91679342029686,73.27320014375924,575.6571004532326,1.6890641345836388,-59158.17072732432,10.5,10499940841.829273,47.655,-122.3035,60.0,2.8333333333333335
2026-01-20T23:02:51+00:00,SAT-45578,90.63121870478538,72.67730831769173,577.3416364399624,1.7688733072100242,-61953.42554516583,10.5,10499938046.574455,47.655,-122.3035,60.0,2.85
2026-01-20T23:02:52+00:00,SAT-45578,89.43628615940372,72.07711943709583,579.1057676419405,1.847953186339708,-64723.13741984441,10.5,10499935276.86258,47.655,-122.3035,60.0,2.8666666666666667
2026-01-20T23:02:53+00:00,SAT-45578,88.32369997869073,71.47363246315413,580.948766720805,1.9262806036165703,-67466.4948975267,10.5,10499932533.505102,47.655,-122.3035,60.0,2.8833333333333333
2026-01-20T23:02:54+00:00,SAT-45578,87.28601500708676,70.86773541481453,582.8698832319499,2.0038337620833926,-70182.73455656986,10.5,10499929817.265444,47.655,-122.3035,60.0,2.9
2026-01-20T23:02:55+00:00,SAT-45578,86.3165540079246,70.26021953655294,584.8683449922463,2.0805922494615112,-72871.14147263127,10.5,10499927128.858528,47.655,-122.3035,60.0,2.9166666666666665
2026-01-20T23:02:56+00:00,SAT-45578,85.40932895172756,69.65179147769625,586.9433594610086,2.156537039789192,-75531.04927605121,10.5,10499924468.950724,47.655,-122.3035,60.0,2.933333333333333
2026-01-20T23:02:57+00:00,SAT-45578,84.55896789220651,69.04308374670092,589.0941151225962,2.2316504966424704,-78161.8402646605,10.5,10499921838.159735,47.655,-122.3035,60.0,2.95
2026-01-20T23:02:58+00:00,SAT-45578,83.76064812644857,68.43466367851923,591.319782872225,2.3059163251978356,-80762.94372481269,10.5,10499919237.056274,47.655,-122.3035,60.0,2.966666666666667
2026-01-20T23:02:59+00:00,SAT-45578,83.01003580579723,67.82704114172233,593.6195173539714,2.3793196359300763,-83333.8381623523,10.5,10499916666.161839,47.655,-122.3035,60.0,2.9833333333333334
2026-01-20T23:03:00+00:00,SAT-45578,82.30323177615654,67.22067514150427,595.9924583623038,2.451846862407483,-85874.04842345491,10.5,10499914125.951576,47.655,-122.3035,60.0,3.0
2026-01-20T23:03:01+00:00,SAT-45578,81.63672332480682,66.6159795198328,598.4377321616278,2.523485774155904,-88383.14614518086,10.5,10499911616.853855,47.655,-122.3035,60.0,3.0166666666666666
2026-01-20T23:03:02+00:00,SAT-45578,81.00734133035473,66.01332786464742,600.9544528186643,2.5942254380933805,-90860.74840475305,10.5,10499909139.251595,47.655,-122.3035,60.0,3.033333333333333
2026-01-20T23:03:03+00:00,SAT-45578,80.41222232665042,65.41305775927385,603.5417234963614,2.6640562163539463,-93306.51764333723,10.5,10499906693.482357,47.655,-122.3035,60.0,3.05
2026-01-20T23:03:04+00:00,SAT-45578,79.84877496581828,64.81547446291304,606.198637745639,2.7329697042881236,-95720.15949455705,10.5,10499904279.840506,47.655,-122.3035,60.0,3.066666666666667
2026-01-20T23:03:05+00:00,SAT-45578,79.3146504112049,64.22085412040789,608.9242807352997,2.800958732840625,-98101.42286777128,10.5,10499901898.577133,47.655,-122.3035,60.0,3.0833333333333335
2026-01-20T23:03:06+00:00,SAT-45578,78.80771619745911,63.62944655744575,611.7177304843098,2.8680173127243203,-100450.09799280996,10.5,10499899549.902008,47.655,-122.3035,60.0,3.1
2026-01-20T23:03:07+00:00,SAT-45578,78.32603316132172,63.04147773438693,614.578059038405,2.934140596542109,-102766.01509332213,10.5,10499897233.984907,47.655,-122.3035,60.0,3.1166666666666667
2026-01-20T23:03:08+00:00,SAT-45578,77.8678350703447,62.45715190472732,617.5043336089193,2.9993248673749693,-105049.04398708115,10.5,10499894950.956013,47.655,-122.3035,60.0,3.1333333333333333
2026-01-20T23:03:09+00:00,SAT-45578,77.43151061894355,61.87665351565703,620.4956177002315,3.0635674611433896,-107299.09136675345,10.5,10499892700.908634,47.655,-122.3035,60.0,3.15
2026-01-20T23:03:10+00:00,SAT-45578,77.01558751131518,61.300148899907484,623.5509721597839,3.126866768070148,-109516.10085113134,10.5,10499890483.899149,47.655,-122.3035,60.0,3.1666666666666665
2026-01-20T23:03:11+00:00,SAT-45578,76.61871836466129,60.727787773477544,626.6694562295563,3.1892221485281387,-111700.05003776799,10.5,10499888299.949963,47.655,-122.3035,60.0,3.183333333333333
2026-01-20T23:03:12+00:00,SAT-45578,76.23966821995454,60.159704581406615,629.8501285136168,3.250633937491364,-113850.95065886989,10.5,10499886149.049341,47.655,-122.3035,60.0,3.2
2026-01-20T23:03:13+00:00,SAT-45578,75.87730345324626,59.596019696646195,633.0920479501094,3.3111033403835504,-115968.84493347487,10.5,10499884031.155067,47.655,-122.3035,60.0,3.216666666666667
2026-01-20T23:03:14+00:00,SAT-45578,75.53058192824687,59.03684051006627,636.3942746793697,3.370632472319192,-118053.80694183946,10.5,10499881946.193058,47.655,-122.3035,60.0,3.2333333333333334
2026-01-20T23:03:15+00:00,SAT-45578,75.19854422537395,58.48226240199201,639.7558709511776,3.4292242499031853,-120105.93883580435,10.5,10499879894.061165,47.655,-122.3035,60.0,3.25
2026-01-20T23:03:16+00:00,SAT-45578,74.88030583189432,57.93236963440903,643.1759019240999,3.4868823381879257,-122125.36898100759,10.5,10499877874.63102,47.655,-122.3035,60.0,3.2666666666666666
2026-01-20T23:03:17+00:00,SAT-45578,74.57505017262541,57.38723616470829,646.6534364119287,3.5436111722790082,-124112.25271360758,10.5,10499875887.747286,47.655,-122.3035,60.0,3.283333333333333
2026-01-20T23:03:18+00:00,SAT-45578,74.28202237567099,56.8469263792386,650.1875476516734,3.5994158876257645,-126066.76989876284,10.5,10499873933.2301,47.655,-122.3035,60.0,3.3
2026-01-20T23:03:19+00:00,SAT-45578,74.0005236949195,56.31149577012153,653.7773140020238,3.6543022525367936,-127989.12256704048,10.5,10499872010.877434,47.655,-122.3035,60.0,3.316666666666667
2026-01-20T23:03:20+00:00,SAT-45578,73.7299065120561,55.78099156138869,657.4218195745151,3.7082766360189314,-129879.5337880007,10.5,10499870120.466211,47.655,-122.3035,60.0,3.3333333333333335
2026-01-20T23:03:21+00:00,SAT-45578,73.46956984901978,55.2554532850046,661.1201548326151,3.7613459949464723,-131738.24722080887,10.5,10499868261.752779,47.655,-122.3035,60.0,3.35
2026-01-20T23:03:22+00:00,SAT-45578,73.21895533161842,54.73491330973309,664.8714171780149,3.813517810910422,-133565.5249024291,10.5,10499866434.475098,47.655,-122.3035,60.0,3.3666666666666667
2026-01-20T23:03:23+00:00,SAT-45578,72.97754355711474,54.21939733478923,668.6747114739396,3.8648000466339485,-135361.64572110903,10.5,10499864638.354279,47.655,-122.3035,60.0,3.3833333333333333
2026-01-20T23:03:24+00:00,SAT-45578,72.7448508191604,53.7089248491909,672.529150524991,3.9152011703065797,-137126.90626866632,10.5,10499862873.09373,47.655,-122.3035,60.0,3.4
2026-01-20T23:03:25+00:00,SAT-45578,72.5204261475411,53.20350955155848,676.4338555812576,3.964729962924951,-138861.61409274675,10.5,10499861138.385908,47.655,-122.3035,60.0,3.4166666666666665
2026-01-20T23:03:26+00:00,SAT-45578,72.30384863952501,52.70315976174734,680.3879566502848,4.013395696862938,-140566.0939511055,10.5,10499859433.90605,47.655,-122.3035,60.0,3.433333333333333
2026-01-20T23:03:27+00:00,SAT-45578,72.09472503285484,52.20787877858948,684.390592987133,4.061207949657007,-142240.68128958257,10.5,10499857759.31871,47.655,-122.3035,60.0,3.45
2026-01-20T23:03:28+00:00,SAT-45578,71.89268751287729,51.717665233869866,688.4409133987235,4.108176601086494,-143885.7221398418,10.5,10499856114.27786,47.655,-122.3035,60.0,3.466666666666667
2026-01-20T23:03:29+00:00,SAT-45578,71.69739172017627,51.2325134202656,692.538076545271,4.15431181809676,-145501.57259131578,10.5,10499854498.427408,47.655,-122.3035,60.0,3.4833333333333334
2026-01-20T23:03:30+00:00,SAT-45578,71.50851493857434,50.75241359712344,696.6812512266785,4.19962406246797,-147088.5990597992,10.5,10499852911.40094,47.655,-122.3035,60.0,3.5
2026-01-20T23:03:31+00:00,SAT-45578,71.32575444451301,50.27735227350409,700.869616676583,4.244123982000667,-148647.1744763072,10.5,10499851352.825523,47.655,-122.3035,60.0,3.5166666666666666
2026-01-20T23:03:32+00:00,SAT-45578,71.1488260058438,49.807312483363475,705.102362747877,4.287822415728962,-150177.6784696635,10.5,10499849822.32153,47.655,-122.3035,60.0,3.533333333333333
2026-01-20T23:03:33+00:00,SAT-45578,70.97746251075048,49.34227404066643,709.378690103429,4.330730417587951,-151680.4981954332,10.5,10499848319.501804,47.655,-122.3035,60.0,3.55
2026-01-20T23:03:34+00:00,SAT-45578,70.81141271322349,48.882213774272316,713.697810430408,4.372859145744031,-153156.02445980252,10.5,10499846843.97554,47.655,-122.3035,60.0,3.566666666666667
2026-01-20T23:03:35+00:00,SAT-45578,70.65044008887128,48.42710575829828,718.0589465442368,4.414219921650671,-154604.65378796167,10.5,10499845395.346212,47.655,-122.3035,60.0,3.5833333333333335
2026-01-20T23:03:36+00:00,SAT-45578,70.49432178410964,47.97692152053614,722.4613325514399,4.454824100414002,-156026.7838837594,10.5,10499843973.216116,47.655,-122.3035,60.0,3.6
2026-01-20T23:03:37+00:00,SAT-45578,70.34284765644674,47.53163024975101,726.9042138832064,4.494683226695707,-157422.81909008176,10.5,10499842577.18091,47.655,-122.3035,60.0,3.6166666666666667
2026-01-20T23:03:38+00:00,SAT-45578,70.19581938805644,47.091198973491665,731.3868474844376,4.533808783177281,-158793.16157900626,10.5,10499841206.83842,47.655,-122.3035,60.0,3.6333333333333333
2026-01-20T23:03:39+00:00,SAT-45578,70.0530496784565,46.65559274837884,735.9085017519328,4.572212389142821,-160138.21830701164,10.5,10499839861.781693,47.655,-122.3035,60.0,3.65
2026-01-20T23:03:40+00:00,SAT-45578,69.91436149546769,46.22477481852168,740.4684566706256,4.609905617401766,-161458.39460283733,10.5,10499838541.605396,47.655,-122.3035,60.0,3.6666666666666665
2026-01-20T23:03:41+00:00,SAT-45578,69.7795873903232,45.79870678049137,745.066003767234,4.646900102256876,-162754.0979489791,10.5,10499837245.902052,47.655,-122.3035,60.0,3.683333333333333
2026-01-20T23:03:42+00:00,SAT-45578,69.64856886300872,45.377348727250634,749.7004461715891,4.683207442174428,-164025.73457278736,10.5,10499835974.265427,47.655,-122.3035,60.0,3.7
2026-01-20T23:03:43+00:00,SAT-45578,69.52115577894874,44.960659391258154,754.3710985808937,4.718839215801778,-165273.71000747016,10.5,10499834726.289993,47.655,-122.3035,60.0,3.716666666666667
2026-01-20T23:03:44+00:00,SAT-45578,69.39720582946052,44.54859627649021,759.0772872399575,4.753806932441097,-166498.42735747382,10.5,10499833501.572643,47.655,-122.3035,60.0,3.7333333333333334
2026-01-20T23:03:45+00:00,SAT-45578,69.27658403388541,44.141115785839865,763.818349872038,4.788122146838546,-167700.2913188855,10.5,10499832299.708681,47.655,-122.3035,60.0,3.75
2026-01-20T23:03:46+00:00,SAT-45578,69.15916227612057,43.73817333026614,768.5936357241618,4.821796250140154,-168879.70085782348,10.5,10499831120.299143,47.655,-122.3035,60.0,3.7666666666666666
2026-01-20T23:03:47+00:00,SAT-45578,69.04481887970361,43.33972344804741,773.4025054039632,4.854840594489382,-170037.05357437147,10.5,10499829962.946426,47.655,-122.3035,60.0,3.783333333333333
2026-01-20T23:03:48+00:00,SAT-45578,68.93343821101573,42.94571990562278,778.2443308407868,4.887266501472855,-171172.74599838324,10.5,10499828827.254002,47.655,-122.3035,60.0,3.8
2026-01-20T23:03:49+00:00,SAT-45578,68.82491031088036,42.556115791040874,783.118495255212,4.919085118346378,-172287.16855390996,10.5,10499827712.831446,47.655,-122.3035,60.0,3.816666666666667
2026-01-20T23:03:50+00:00,SAT-45578,68.71913055512468,42.170863612362254,788.0243929851897,4.950307548959727,-173380.71014473998,10.5,10499826619.289856,47.655,-122.3035,60.0,3.8333333333333335
2026-01-20T23:03:51+00:00,SAT-45578,68.61599933645611,41.78991537911782,792.9614294427532,4.980944803564601,-174453.75639646116,10.5,10499825546.243603,47.655,-122.3035,60.0,3.85
2026-01-20T23:03:52+00:00,SAT-45578,68.51542176936773,41.413222682078064,797.9290210206697,5.011007715699987,-175506.6867454346,10.5,10499824493.313255,47.655,-122.3035,60.0,3.8666666666666667
2026-01-20T23:03:53+00:00,SAT-45578,68.4173074168439,41.04073677366963,802.926594916203,5.0405070552791855,-176539.87839958086,10.5,10499823460.121601,47.655,-122.3035,60.0,3.8833333333333333
2026-01-20T23:03:54+00:00,SAT-45578,68.32157003363531,40.67240863445666,807.9535890676569,5.069453459823234,-177553.70392988322,10.5,10499822446.29607,47.655,-122.3035,60.0,3.9
2026-01-20T23:03:55+00:00,SAT-45578,68.22812732806732,40.30818903998712,813.0094520223389,5.097857419296386,-178548.53073926247,10.5,10499821451.469261,47.655,-122.3035,60.0,3.9166666666666665
2026-01-20T23:03:56+00:00,SAT-45578,68.13690073988278,39.948028623967375,818.0936427893987,5.12572928110509,-179524.72123766184,10.5,10499820475.278763,47.655,-122.3035,60.0,3.933333333333333
2026-01-20T23:03:57+00:00,SAT-45578,68.04781523269861,39.59187793656756,823.2056306976515,5.153079321306442,-180482.63533606852,10.5,10499819517.364664,47.655,-122.3035,60.0,3.95
2026-01-20T23:03:58+00:00,SAT-45578,67.96079909894007,39.239687493690035,828.3448953244225,5.179917567986184,-181422.62426046398,10.5,10499818577.37574,47.655,-122.3035,60.0,3.966666666666667
2026-01-20T23:03:59+00:00,SAT-45578,67.87578377997696,38.89140783456741,833.5109262482374,5.20625398961715,-182345.03714893348,10.5,10499817654.96285,47.655,-122.3035,60.0,3.9833333333333334
2026-01-20T23:04:00+00:00,SAT-45578,67.79270369506509,38.546989562604224,838.7032229893714,5.232098399977575,-183250.217721503,10.5,10499816749.782278,47.655,-122.3035,60.0,4.0
2026-01-20T23:04:01+00:00,SAT-45578,67.71149608252563,38.20638338946247,843.9212948555684,5.257460427536948,-184138.50320790245,10.5,10499815861.496792,47.655,-122.3035,60.0,4.016666666666667
2026-01-20T23:04:02+00:00,SAT-45578,67.63210085124732,37.86954017776967,849.1646607572286,5.282349545963305,-185010.22541606,10.5,10499814989.774584,47.655,-122.3035,60.0,4.033333333333333
2026-01-20T23:04:03+00:00,SAT-45578,67.55446044104254,37.53641097863673,854.4328490530233,5.306775140533319,-185865.7130580645,10.5,10499814134.286942,47.655,-122.3035,60.0,4.05
2026-01-20T23:04:04+00:00,SAT-45578,67.4785196907497,37.20694706218855,859.7253974617397,5.330746376175711,-186705.28712848728,10.5,10499813294.712872,47.655,-122.3035,60.0,4.066666666666666
2026-01-20T23:04:05+00:00,SAT-45578,67.40422571609211,36.8810999537603,865.041852842524,5.354272313863099,-187529.26498091736,10.5,10499812470.73502,47.655,-122.3035,60.0,4.083333333333333
2026-01-20T23:04:06+00:00,SAT-45578,67.33152779342129,36.55882146022082,870.3817710912033,5.377361806025076,-188337.9566648848,10.5,10499811662.043335,47.655,-122.3035,60.0,4.1
2026-01-20T23:04:07+00:00,SAT-45578,67.26037725174037,36.24006370034302,875.744716932302,5.400023615357283,-189131.66908705715,10.5,10499810868.330914,47.655,-122.3035,60.0,4.116666666666666
2026-01-20T23:04:08+00:00,SAT-45578,67.1907273697196,35.924779125761646,881.1302638295499,5.4222662953322125,-189910.70182622215,10.5,10499810089.298174,47.655,-122.3035,60.0,4.133333333333334
2026-01-20T23:04:09+00:00,SAT-45578,67.1225332801648,35.612920547001046,886.537993777217,5.444098291950389,-190675.3506970448,10.5,10499809324.649303,47.655,-122.3035,60.0,4.15
2026-01-20T23:04:10+00:00,SAT-45578,67.05575187889782,35.30444115153547,891.9674971929322,5.465527846929718,-191425.9043593486,10.5,10499808574.09564,47.655,-122.3035,60.0,4.166666666666667
2026-01-20T23:04:11+00:00,SAT-45578,66.99034173997886,34.99929452561207,897.4183727139473,5.48656309597321,-192162.64775986693,10.5,10499807837.35224,47.655,-122.3035,60.0,4.183333333333334
2026-01-20T23:04:12+00:00,SAT-45578,66.92626303472379,34.697434668740954,902.8902270914057,5.507212000275306,-192885.85973330497,10.5,10499807114.140266,47.655,-122.3035,60.0,4.2
2026-01-20T23:04:13+00:00,SAT-45578,66.86347745607081,34.398816010493626,908.3826750163037,5.5274823697664575,-193595.813816463,10.5,10499806404.186184,47.655,-122.3035,60.0,4.216666666666667
2026-01-20T23:04:14+00:00,SAT-45578,66.80194814692435,34.103393424465146,913.8953389686292,5.547381889530645,-194292.77917348998,10.5,10499805707.220827,47.655,-122.3035,60.0,4.233333333333333
2026-01-20T23:04:15+00:00,SAT-45578,66.74163963230163,33.81112223944784,919.4278490928526,5.566918043080579,-194977.01790865624,10.5,10499805022.982092,47.655,-122.3035,60.0,4.25
2026-01-20T23:04:16+00:00,SAT-45578,66.6825177558941,33.521958253375935,924.9798429968946,5.586098240588663,-195648.7895575444,10.5,10499804351.210442,47.655,-122.3035,60.0,4.266666666666667
2026-01-20T23:04:17+00:00,SAT-45578,66.62454961902887,33.23585773929822,930.5509656789819,5.604929672987015,-196308.34597701472,10.5,10499803691.654022,47.655,-122.3035,60.0,4.283333333333333
2026-01-20T23:04:18+00:00,SAT-45578,66.56770352413218,32.952777457852385,936.1408693089958,5.623419437876362,-196955.93575506762,10.5,10499803044.064245,47.655,-122.3035,60.0,4.3
2026-01-20T23:04:19+00:00,SAT-45578,66.51194892029098,32.67267466215406,941.7492131353911,5.641574484756609,-197591.802292586,10.5,10499802408.197708,47.655,-122.3035,60.0,4.316666666666666
2026-01-20T23:04:20+00:00,SAT-45578,66.45725635207675,32.395507104585754,947.3756633374911,5.659401609587472,-198216.1836128261,10.5,10499801783.816387,47.655,-122.3035,60.0,4.333333333333333
2026-01-20T23:04:21+00:00,SAT-45578,66.40359741122587,32.12123304292112,953.0198928723606,5.676907445015044,-198829.31201911013,10.5,10499801170.68798,47.655,-122.3035,60.0,4.35
2026-01-20T23:04:22+00:00,SAT-45578,66.35094469087504,31.849811246017715,958.6815813119291,5.694098556353668,-199431.4174565176,10.5,10499800568.582544,47.655,-122.3035,60.0,4.366666666666666
2026-01-20T23:04:23+00:00,SAT-45578,66.2992717414805,31.581200994143394,964.3604147758388,5.7109813304052395,-200022.72361786704,10.5,10499799977.276382,47.655,-122.3035,60.0,4.383333333333334
2026-01-20T23:04:24+00:00,SAT-45578,66.24855302986572,31.31536208398962,970.0560857534124,5.727561997294232,-200603.44870847094,10.5,10499799396.551292,47.655,-122.3035,60.0,4.4
2026-01-20T23:04:25+00:00,SAT-45578,66.19876390021564,31.05225483185714,975.7682929473954,5.7438467201465055,-201173.80858706695,10.5,10499798826.191414,47.655,-122.3035,60.0,4.416666666666667
2026-01-20T23:04:26+00:00,SAT-45578,66.14988053637197,30.791840072109242,981.496741207136,5.759841480776202,-201734.0127620893,10.5,10499798265.987238,47.655,-122.3035,60.0,4.433333333333334
2026-01-20T23:04:27+00:00,SAT-45578,66.10187992693109,30.53407916037229,987.2411413477604,5.77555215867859,-202284.26715833257,10.5,10499797715.732841,47.655,-122.3035,60.0,4.45
2026-01-20T23:04:28+00:00,SAT-45578,66.05473983146695,30.27893397256606,993.0012100481279,5.790984505004518,-202824.77320542678,10.5,10499797175.226795,47.655,-122.3035,60.0,4.466666666666667
2026-01-20T23:04:29+00:00,SAT-45578,66.0084387486696,30.026366904679058,998.7766697228304,5.806144154076543,-203355.72824118115,10.5,10499796644.271759,47.655,-122.3035,60.0,4.483333333333333
