DopplerPredictor/satellites_20260205_234138/SAT-45581.csv

timestamp,satellite,azimuth_deg,elevation_deg,distance_km,relative_velocity_kms,doppler_shift_hz,tx_freq_ghz,rx_freq_hz,ue_lat,ue_lon,ue_alt_m,time_minutes
2026-01-20T23:08:53+00:00,SAT-45581,240.84220768459113,30.24627393652275,989.4206338436347,-5.800445541503839,203156.13872377775,10.5,10500203156.138723,47.655,-122.3035,60.0,8.883333333333333
2026-01-20T23:08:54+00:00,SAT-45581,240.84252166977177,30.50398165151825,983.6357384961661,-5.784970359808286,202614.1324008458,10.5,10500202614.1324,47.655,-122.3035,60.0,8.9
2026-01-20T23:08:55+00:00,SAT-45581,240.84279067865202,30.764377612297146,977.8662768435665,-5.7692133728924,202062.25606706287,10.5,10500202062.256067,47.655,-122.3035,60.0,8.916666666666666
2026-01-20T23:08:56+00:00,SAT-45581,240.84301350678052,31.027502303004344,972.1125299355755,-5.753168680072972,201500.30305554322,10.5,10500201500.303055,47.655,-122.3035,60.0,8.933333333333334
2026-01-20T23:08:57+00:00,SAT-45581,240.8431889072783,31.293396814933086,966.3747847067966,-5.73683023121639,200928.06146501558,10.5,10500200928.061464,47.655,-122.3035,60.0,8.95
2026-01-20T23:08:58+00:00,SAT-45581,240.84331558904162,31.56210284899822,960.6533341257475,-5.720191895132433,200345.31655526353,10.5,10500200345.316555,47.655,-122.3035,60.0,8.966666666666667
2026-01-20T23:08:59+00:00,SAT-45581,240.84339221460422,31.83366272106218,954.9484772756994,-5.703247391213251,199751.84835283324,10.5,10500199751.848352,47.655,-122.3035,60.0,8.983333333333333
2026-01-20T23:09:00+00:00,SAT-45581,240.84341739812396,32.10811936377244,949.2605195036938,-5.6859902600005805,199147.4306201729,10.5,10500199147.43062,47.655,-122.3035,60.0,9.0
2026-01-20T23:09:01+00:00,SAT-45581,240.8433897032065,32.385516326488826,943.5897725989139,-5.668413981190944,198531.83498867374,10.5,10500198531.83499,47.655,-122.3035,60.0,9.016666666666667
2026-01-20T23:09:02+00:00,SAT-45581,240.8433076404828,32.66589778045949,937.9365548533652,-5.650511807173347,197904.8251284565,10.5,10500197904.825129,47.655,-122.3035,60.0,9.033333333333333
2026-01-20T23:09:03+00:00,SAT-45581,240.84316966529332,32.94930851541219,932.3011912885764,-5.632276916238734,197266.16211441418,10.5,10500197266.162115,47.655,-122.3035,60.0,9.05
2026-01-20T23:09:04+00:00,SAT-45581,240.84297417494878,33.23579394308844,926.6840137294959,-5.613702313283247,196615.60094842044,10.5,10500196615.600948,47.655,-122.3035,60.0,9.066666666666666
2026-01-20T23:09:05+00:00,SAT-45581,240.8427195060357,33.52540009531572,921.0853609774236,-5.594780851420147,195952.89131627037,10.5,10500195952.891315,47.655,-122.3035,60.0,9.083333333333334
2026-01-20T23:09:06+00:00,SAT-45581,240.84240393157546,33.818173622445514,915.5055789613863,-5.575505275535261,195277.77911317648,10.5,10500195277.779114,47.655,-122.3035,60.0,9.1
2026-01-20T23:09:07+00:00,SAT-45581,240.84202565774953,34.11416179339714,909.9450208460752,-5.555868120586234,194590.0028817785,10.5,10500194590.002882,47.655,-122.3035,60.0,9.116666666666667
2026-01-20T23:09:08+00:00,SAT-45581,240.84158282093136,34.41341248960377,904.4040472412105,-5.535861809681455,193889.2972472819,10.5,10500193889.297247,47.655,-122.3035,60.0,9.133333333333333
2026-01-20T23:09:09+00:00,SAT-45581,240.84107348404032,34.71597420325832,898.8830263130918,-5.515478606740139,193175.3912594141,10.5,10500193175.39126,47.655,-122.3035,60.0,9.15
2026-01-20T23:09:10+00:00,SAT-45581,240.84049563295855,35.021896032205895,893.3823339433604,-5.494710597228136,192448.0077177106,10.5,10500192448.007717,47.655,-122.3035,60.0,9.166666666666666
2026-01-20T23:09:11+00:00,SAT-45581,240.839847172691,35.331227672760804,887.9023539069731,-5.473549757091206,191706.86558585026,10.5,10500191706.865585,47.655,-122.3035,60.0,9.183333333333334
2026-01-20T23:09:12+00:00,SAT-45581,240.83912592316298,35.6440194153296,882.4434779814312,-5.451987857272596,190951.67664745674,10.5,10500190951.676647,47.655,-122.3035,60.0,9.2
2026-01-20T23:09:13+00:00,SAT-45581,240.8383296149634,35.960322133585365,877.0061061512293,-5.430016533239915,190182.14794122372,10.5,10500190182.147942,47.655,-122.3035,60.0,9.216666666666667
2026-01-20T23:09:14+00:00,SAT-45581,240.83745588466635,36.28018727631645,871.5906467429729,-5.407627264927357,189397.9810584069,10.5,10500189397.981058,47.655,-122.3035,60.0,9.233333333333333
2026-01-20T23:09:15+00:00,SAT-45581,240.83650226989826,36.60366685690465,866.1975165804903,-5.384811324672138,188598.87031933753,10.5,10500188598.87032,47.655,-122.3035,60.0,9.25
2026-01-20T23:09:16+00:00,SAT-45581,240.83546620426188,36.93081343826042,860.8271411918757,-5.3615599261460165,187784.50798963453,10.5,10500187784.50799,47.655,-122.3035,60.0,9.266666666666667
2026-01-20T23:09:17+00:00,SAT-45581,240.8343450114223,37.261680125272946,855.4799548679964,-5.337863995478264,186954.5762639625,10.5,10500186954.576263,47.655,-122.3035,60.0,9.283333333333333
2026-01-20T23:09:18+00:00,SAT-45581,240.83313589958274,37.59632054181532,850.1564009492648,-5.313714384533774,186108.75473593344,10.5,10500186108.754736,47.655,-122.3035,60.0,9.3
2026-01-20T23:09:19+00:00,SAT-45581,240.83183595492622,37.93478881900714,844.8569318997035,-5.289101747274252,185246.71606775257,10.5,10500185246.716068,47.655,-122.3035,60.0,9.316666666666666
2026-01-20T23:09:20+00:00,SAT-45581,240.8304421349172,38.27713957413711,839.5820095043174,-5.264016597606956,184368.12801632602,10.5,10500184368.128016,47.655,-122.3035,60.0,9.333333333333334
2026-01-20T23:09:21+00:00,SAT-45581,240.828951261145,38.623427891274325,834.3321050087746,-5.2384492531903435,183472.65146509657,10.5,10500183472.651464,47.655,-122.3035,60.0,9.35
2026-01-20T23:09:22+00:00,SAT-45581,240.82736001169465,38.973709296183216,829.1076993151261,-5.212389934519121,182559.94389442168,10.5,10500182559.943895,47.655,-122.3035,60.0,9.366666666666667
2026-01-20T23:09:23+00:00,SAT-45581,240.82566491277453,39.32803973562002,823.9092830787115,-5.185828600240597,181629.65361365516,10.5,10500181629.653614,47.655,-122.3035,60.0,9.383333333333333
2026-01-20T23:09:24+00:00,SAT-45581,240.8238623302846,39.68647554326031,818.7373569693038,-5.158755182311899,180681.4279973479,10.5,10500180681.427998,47.655,-122.3035,60.0,9.4
2026-01-20T23:09:25+00:00,SAT-45581,240.82194845999035,40.049073419119566,813.5924316977274,-5.1311593323125555,179714.9046000411,10.5,10500179714.9046,47.655,-122.3035,60.0,9.416666666666666
2026-01-20T23:09:26+00:00,SAT-45581,240.81991931794727,40.415890389002264,808.475028295485,-5.10303065718845,178729.71941301716,10.5,10500178729.719414,47.655,-122.3035,60.0,9.433333333333334
2026-01-20T23:09:27+00:00,SAT-45581,240.8177707292929,40.78698377756637,803.3856781592702,-5.074358538946387,177725.50054924018,10.5,10500177725.50055,47.655,-122.3035,60.0,9.45
2026-01-20T23:09:28+00:00,SAT-45581,240.81549831698388,41.162411165811534,798.3249232753052,-5.045132235597705,176701.87177882873,10.5,10500176701.871778,47.655,-122.3035,60.0,9.466666666666667
2026-01-20T23:09:29+00:00,SAT-45581,240.81309748939395,41.54223035256762,793.293316343003,-5.015340886641596,175658.45272110467,10.5,10500175658.45272,47.655,-122.3035,60.0,9.483333333333333
2026-01-20T23:09:30+00:00,SAT-45581,240.81056342676956,41.9264993133038,788.2914208931613,-4.984973462394832,174594.8570699058,10.5,10500174594.857069,47.655,-122.3035,60.0,9.5
2026-01-20T23:09:31+00:00,SAT-45581,240.8078910671687,42.315276151696686,783.3198114566931,-4.954018815914034,173510.69441212344,10.5,10500173510.694412,47.655,-122.3035,60.0,9.516666666666667
2026-01-20T23:09:32+00:00,SAT-45581,240.8050750908551,42.70861905145891,778.3790736815696,-4.922465677461032,172405.570033856,10.5,10500172405.570034,47.655,-122.3035,60.0,9.533333333333333
2026-01-20T23:09:33+00:00,SAT-45581,240.80210990375218,43.10658622401398,773.4698044552899,-4.890302666447049,171279.08533874463,10.5,10500171279.085339,47.655,-122.3035,60.0,9.55
2026-01-20T23:09:34+00:00,SAT-45581,240.79898961944193,43.5092358531689,768.5926120154298,-4.857518251563366,170130.8364515806,10.5,10500170130.836452,47.655,-122.3035,60.0,9.566666666666666
2026-01-20T23:09:35+00:00,SAT-45581,240.79570804002574,43.916626032260126,763.7481160999612,-4.824100847942903,168960.4176213148,10.5,10500168960.417622,47.655,-122.3035,60.0,9.583333333333334
2026-01-20T23:09:36+00:00,SAT-45581,240.7922586349659,44.32881470488942,758.9369480006658,-4.790038720148312,167767.4178232905,10.5,10500167767.417824,47.655,-122.3035,60.0,9.6
2026-01-20T23:09:37+00:00,SAT-45581,240.7886345187814,44.74585959295271,754.159750713301,-4.755320105308921,166551.42507201986,10.5,10500166551.425072,47.655,-122.3035,60.0,9.616666666666667
2026-01-20T23:09:38+00:00,SAT-45581,240.78482842624555,45.16781813029123,749.4171789649603,-4.719933118841142,165312.02311911393,10.5,10500165312.023119,47.655,-122.3035,60.0,9.633333333333333
2026-01-20T23:09:39+00:00,SAT-45581,240.78083268610592,45.59474738321161,744.7098993354601,-4.683865824170124,164048.7938952297,10.5,10500164048.793896,47.655,-122.3035,60.0,9.65
2026-01-20T23:09:40+00:00,SAT-45581,240.77663919226413,46.02670397170492,740.038590309191,-4.647106260681076,162761.31848904383,10.5,10500162761.31849,47.655,-122.3035,60.0,9.666666666666666
2026-01-20T23:09:41+00:00,SAT-45581,240.77223937236872,46.46374398786622,735.4039422990942,-4.609642388505002,161449.17521341555,10.5,10500161449.175213,47.655,-122.3035,60.0,9.683333333333334
2026-01-20T23:09:42+00:00,SAT-45581,240.76762415399133,46.90592290348867,730.8066577257022,-4.571462135438062,160111.94124870098,10.5,10500160111.941248,47.655,-122.3035,60.0,9.7
2026-01-20T23:09:43+00:00,SAT-45581,240.76278392771843,47.35329547579484,726.2474510493873,-4.532553491681099,158749.19596093218,10.5,10500158749.195961,47.655,-122.3035,60.0,9.716666666666667
2026-01-20T23:09:44+00:00,SAT-45581,240.75770850634171,47.80591565633455,721.7270487081253,-4.492904378682223,157360.51630812988,10.5,10500157360.516308,47.655,-122.3035,60.0,9.733333333333333
2026-01-20T23:09:45+00:00,SAT-45581,240.7523870812999,48.263836480731875,717.2461891860612,-4.4525027714629,155945.48112468008,10.5,10500155945.481125,47.655,-122.3035,60.0,9.75
2026-01-20T23:09:46+00:00,SAT-45581,240.74680817430468,48.72710996359336,712.8056229600836,-4.411336688106178,154503.67075316774,10.5,10500154503.670753,47.655,-122.3035,60.0,9.766666666666667
2026-01-20T23:09:47+00:00,SAT-45581,240.74095958475218,49.19578698564054,708.4061124568735,-4.369394218584702,153034.66805405548,10.5,10500153034.668055,47.655,-122.3035,60.0,9.783333333333333
2026-01-20T23:09:48+00:00,SAT-45581,240.73482833187595,49.669917176759704,704.0484319812124,-4.326663526124641,151538.05845345426,10.5,10500151538.058453,47.655,-122.3035,60.0,9.8
2026-01-20T23:09:49+00:00,SAT-45581,240.72840059151605,50.14954879185565,699.7333676429218,-4.283132886550035,150013.43132112874,10.5,10500150013.43132,47.655,-122.3035,60.0,9.816666666666666
2026-01-20T23:09:50+00:00,SAT-45581,240.72166162634954,50.63472858335074,695.4617172445683,-4.238790710017316,148460.38073173215,10.5,10500148460.380732,47.655,-122.3035,60.0,9.833333333333334
2026-01-20T23:09:51+00:00,SAT-45581,240.7145957093825,51.125501668391315,691.2342901474915,-4.193625550749882,146878.50580575233,10.5,10500146878.505806,47.655,-122.3035,60.0,9.85
2026-01-20T23:09:52+00:00,SAT-45581,240.70718603935106,51.62191138914491,687.0519071281228,-4.147626174782899,145267.41308222117,10.5,10500145267.413082,47.655,-122.3035,60.0,9.866666666666667
2026-01-20T23:09:53+00:00,SAT-45581,240.6994146473779,52.12399917287385,682.9154001667422,-4.100781514360107,143626.71492149789,10.5,10500143626.714922,47.655,-122.3035,60.0,9.883333333333333
2026-01-20T23:09:54+00:00,SAT-45581,240.6912622939951,52.6318043782588,678.825612281714,-4.053080803665601,141956.0342591701,10.5,10500141956.03426,47.655,-122.3035,60.0,9.9
2026-01-20T23:09:55+00:00,SAT-45581,240.6827083543879,53.14536414969212,674.7833972283582,-4.004513503336798,140255.00196217874,10.5,10500140255.001963,47.655,-122.3035,60.0,9.916666666666666
2026-01-20T23:09:56+00:00,SAT-45581,240.67373069176145,53.664713253909056,670.7896192731007,-3.955069392904414,138523.26006645686,10.5,10500138523.260067,47.655,-122.3035,60.0,9.933333333333334
2026-01-20T23:09:57+00:00,SAT-45581,240.66430551615179,54.189883919296875,666.8451528754392,-3.9047385842398206,136760.46224791324,10.5,10500136760.462248,47.655,-122.3035,60.0,9.95
2026-01-20T23:09:58+00:00,SAT-45581,240.6544072271562,54.72090566826091,662.9508823564898,-3.8535115761734335,134966.2757353991,10.5,10500134966.275736,47.655,-122.3035,60.0,9.966666666666667
2026-01-20T23:09:59+00:00,SAT-45581,240.6440082383278,55.25780514806723,659.1077015130676,-3.801379280958091,133140.38223756768,10.5,10500133140.382238,47.655,-122.3035,60.0,9.983333333333333
2026-01-20T23:10:00+00:00,SAT-45581,240.6330787806688,55.80060595659621,655.3165132053715,-3.748333028623864,131282.47809539814,10.5,10500131282.478096,47.655,-122.3035,60.0,10.0
2026-01-20T23:10:01+00:00,SAT-45581,240.62158668283772,56.34932845966535,651.5782289403274,-3.6943646695547194,129392.2778748642,10.5,10500129392.277874,47.655,-122.3035,60.0,10.016666666666667
2026-01-20T23:10:02+00:00,SAT-45581,240.60949712338925,56.90398961410149,647.8937683526293,-3.6394665641561605,127469.51400505108,10.5,10500127469.514006,47.655,-122.3035,60.0,10.033333333333333
2026-01-20T23:10:03+00:00,SAT-45581,240.59677235245508,57.464602780854314,644.2640586960854,-3.5836316449845818,125513.93895418846,10.5,10500125513.938953,47.655,-122.3035,60.0,10.05
2026-01-20T23:10:04+00:00,SAT-45581,240.58337137714324,58.031177538652784,640.6900342729997,-3.526853457591877,123525.3266602014,10.5,10500123525.32666,47.655,-122.3035,60.0,10.066666666666666
2026-01-20T23:10:05+00:00,SAT-45581,240.56924960576958,58.60371949559086,637.172635822822,-3.4691261897473145,121503.47355418396,10.5,10500121503.473555,47.655,-122.3035,60.0,10.083333333333334
2026-01-20T23:10:06+00:00,SAT-45581,240.554358444133,59.18223009702282,633.71280988165,-3.410444744987355,119448.20113642495,10.5,10500119448.201136,47.655,-122.3035,60.0,10.1
2026-01-20T23:10:07+00:00,SAT-45581,240.53864483599187,59.76670643745988,630.3115080683826,-3.3508047604860556,117359.35660230514,10.5,10500117359.356602,47.655,-122.3035,60.0,10.116666666666667
2026-01-20T23:10:08+00:00,SAT-45581,240.52205073896758,60.35714106798247,626.9696863530484,-3.2902026550635446,115236.81452375703,10.5,10500115236.814524,47.655,-122.3035,60.0,10.133333333333333
2026-01-20T23:10:09+00:00,SAT-45581,240.5045125249895,60.95352180439718,623.6883042772549,-3.2286356850675766,113080.47880647336,10.5,10500113080.478806,47.655,-122.3035,60.0,10.15
2026-01-20T23:10:10+00:00,SAT-45581,240.48596029162792,61.555831538318046,620.4683241189074,-3.1661020022529063,110890.28471708758,10.5,10500110890.284718,47.655,-122.3035,60.0,10.166666666666666
2026-01-20T23:10:11+00:00,SAT-45581,240.46631706904972,62.164048052675795,617.3107099992005,-3.1026006637482393,108666.19923225857,10.5,10500108666.199232,47.655,-122.3035,60.0,10.183333333333334
2026-01-20T23:10:12+00:00,SAT-45581,240.44549790409877,62.77814383330798,614.216426979673,-3.038131692685071,106408.22316214921,10.5,10500106408.223162,47.655,-122.3035,60.0,10.2
2026-01-20T23:10:13+00:00,SAT-45581,240.42340879796427,63.39808588652845,611.1864400987938,-2.9726961528460234,104116.39376492669,10.5,10500104116.393764,47.655,-122.3035,60.0,10.216666666666667
2026-01-20T23:10:14+00:00,SAT-45581,240.39994546871634,64.02383556718056,608.2217133341013,-2.9062961416042747,101790.78449947159,10.5,10500101790.7845,47.655,-122.3035,60.0,10.233333333333333
2026-01-20T23:10:15+00:00,SAT-45581,240.3749919066212,64.65534840151808,605.3232085713839,-2.8389348895312048,99431.5085140589,10.5,10500099431.508514,47.655,-122.3035,60.0,10.25
2026-01-20T23:10:16+00:00,SAT-45581,240.3484186770049,65.29257392786249,602.4918844745185,-2.7706167480099326,97038.71821253186,10.5,10500097038.718212,47.655,-122.3035,60.0,10.266666666666667
2026-01-20T23:10:17+00:00,SAT-45581,240.32008092152034,65.93545553257444,599.7286953676648,-2.7013472714135673,94612.60813253166,10.5,10500094612.608133,47.655,-122.3035,60.0,10.283333333333333
2026-01-20T23:10:18+00:00,SAT-45581,240.28981599000875,66.58393030270281,597.0345900355001,-2.631133231481217,92153.41544900632,10.5,10500092153.41545,47.655,-122.3035,60.0,10.3
2026-01-20T23:10:19+00:00,SAT-45581,240.25744062313794,67.23792888165892,594.4105105091163,-2.559982664865891,89661.42163953923,10.5,10500089661.42164,47.655,-122.3035,60.0,10.316666666666666
2026-01-20T23:10:20+00:00,SAT-45581,240.22274758183167,67.8973753364034,591.8573908044973,-2.487904928888873,87136.95443710317,10.5,10500087136.954437,47.655,-122.3035,60.0,10.333333333333334
2026-01-20T23:10:21+00:00,SAT-45581,240.18550159238748,68.56218704021475,589.3761556053918,-2.4149106792352257,84580.38704886255,10.5,10500084580.387049,47.655,-122.3035,60.0,10.35
2026-01-20T23:10:22+00:00,SAT-45581,240.14543444178642,69.23227455169922,586.9677189684297,-2.341011953662039,81992.14108799031,10.5,10500081992.141088,47.655,-122.3035,60.0,10.366666666666667
2026-01-20T23:10:23+00:00,SAT-45581,240.10223900448725,69.90754151835282,584.6329829447558,-2.266222164008446,79372.68629382491,10.5,10500079372.686295,47.655,-122.3035,60.0,10.383333333333333
2026-01-20T23:10:24+00:00,SAT-45581,240.05556192181436,70.58788458161933,582.3728362096306,-2.190556142672197,76722.54215967657,10.5,10500076722.54216,47.655,-122.3035,60.0,10.4
2026-01-20T23:10:25+00:00,SAT-45581,240.00499456351022,71.2731932988159,580.1881526456801,-2.114030142852209,74042.2779413223,10.5,10500074042.27794,47.655,-122.3035,60.0,10.416666666666666
2026-01-20T23:10:26+00:00,SAT-45581,239.9500617838107,71.96335006891755,578.079789925905,-2.036661855131265,71332.51323780228,10.5,10500071332.513237,47.655,-122.3035,60.0,10.433333333333334
2026-01-20T23:10:27+00:00,SAT-45581,239.89020781713,72.65823006596769,576.0485880801477,-1.958470426644161,68593.91866276933,10.5,10500068593.918663,47.655,-122.3035,60.0,10.45
2026-01-20T23:10:28+00:00,SAT-45581,239.82477842598072,73.35770118000522,574.0953680424486,-1.8794764579226744,65827.21573398648,10.5,10500065827.215734,47.655,-122.3035,60.0,10.466666666666667
2026-01-20T23:10:29+00:00,SAT-45581,239.75299808770583,74.06162395562967,572.2209302015419,-1.7997020034968556,63033.17689438666,10.5,10500063033.176895,47.655,-122.3035,60.0,10.483333333333333
2026-01-20T23:10:30+00:00,SAT-45581,239.67394053249143,74.76985152449019,570.4260529507574,-1.7191705751314943,60212.62562542748,10.5,10500060212.625626,47.655,-122.3035,60.0,10.5
2026-01-20T23:10:31+00:00,SAT-45581,239.58649025753948,75.48222952576107,568.7114912346923,-1.637907107153337,57366.43523270369,10.5,10500057366.435232,47.655,-122.3035,60.0,10.516666666666667
2026-01-20T23:10:32+00:00,SAT-45581,239.48929162314155,76.19859598767808,567.077975130462,-1.5559379767860393,54495.529558163245,10.5,10500054495.529558,47.655,-122.3035,60.0,10.533333333333333
2026-01-20T23:10:33+00:00,SAT-45581,239.38068058638467,76.91878117464792,565.5262084086723,-1.4732909478070788,51600.88100673409,10.5,10500051600.881006,47.655,-122.3035,60.0,10.55
2026-01-20T23:10:34+00:00,SAT-45581,239.2585917589026,77.64260734023591,564.0568671505822,-1.3899951514746494,48683.50987830327,10.5,10500048683.509878,47.655,-122.3035,60.0,10.566666666666666
2026-01-20T23:10:35+00:00,SAT-45581,239.12042971673065,78.36988835634855,562.6705983842894,-1.306081074384767,45744.483942421444,10.5,10500045744.483942,47.655,-122.3035,60.0,10.583333333333334
2026-01-20T23:10:36+00:00,SAT-45581,238.9628874285994,79.10042915535425,561.3680187330258,-1.2215804858914503,42784.91589625056,10.5,10500042784.915895,47.655,-122.3035,60.0,10.6
2026-01-20T23:10:37+00:00,SAT-45581,238.7816846216353,79.83402484280738,560.1497131358391,-1.1365264144898752,39805.96253740209,10.5,10500039805.962538,47.655,-122.3035,60.0,10.616666666666667
2026-01-20T23:10:38+00:00,SAT-45581,238.5711816517408,80.57045932094437,559.0162335918255,-1.050953072188192,36808.822115118106,10.5,10500036808.822115,47.655,-122.3035,60.0,10.633333333333333
2026-01-20T23:10:39+00:00,SAT-45581,238.32379390707652,81.30950307978969,557.9680979797924,-0.9648958375024913,33794.733734683075,10.5,10500033794.733734,47.655,-122.3035,60.0,10.65
2026-01-20T23:10:40+00:00,SAT-45581,238.0290753371188,82.05090964240723,557.0057888948747,-0.8783911441548959,30764.973459160232,10.5,10500030764.97346,47.655,-122.3035,60.0,10.666666666666666
2026-01-20T23:10:41+00:00,SAT-45581,237.67223072986476,82.79440958886141,556.1297525961594,-0.7914764508539887,27720.853250974316,10.5,10500027720.85325,47.655,-122.3035,60.0,10.683333333333334
2026-01-20T23:10:42+00:00,SAT-45581,237.23159396830033,83.5397002594203,555.3403979844463,-0.7041901369388054,24663.717316922815,10.5,10500024663.717318,47.655,-122.3035,60.0,10.7
2026-01-20T23:10:43+00:00,SAT-45581,236.67412628955196,84.28642707328345,554.6380956840862,-0.6165714504686978,21594.940290063354,10.5,10500021594.94029,47.655,-122.3035,60.0,10.716666666666667
2026-01-20T23:10:44+00:00,SAT-45581,235.94685430840818,85.03414766791674,554.0231771765895,-0.5286604044175395,18515.923593995696,10.5,10500018515.923594,47.655,-122.3035,60.0,10.733333333333333
2026-01-20T23:10:45+00:00,SAT-45581,234.95924210451273,85.78225745837933,553.495934037761,-0.4404976976451704,15428.092674947444,10.5,10500015428.092674,47.655,-122.3035,60.0,10.75
2026-01-20T23:10:46+00:00,SAT-45581,233.54298830074177,86.52981867935075,553.0566172536546,-0.3521246277701064,12332.893950207768,10.5,10500012332.89395,47.655,-122.3035,60.0,10.766666666666667
2026-01-20T23:10:47+00:00,SAT-45581,231.34683598643744,87.27510924651618,552.7054366234182,-0.26358298509403494,9231.791092914575,10.5,10500009231.791094,47.655,-122.3035,60.0,10.783333333333333
2026-01-20T23:10:48+00:00,SAT-45581,227.50217795073283,88.01416781406344,552.4425602679329,-0.1749149666636326,6126.262022135801,10.5,10500006126.262022,47.655,-122.3035,60.0,10.8
2026-01-20T23:10:49+00:00,SAT-45581,219.1941619854381,88.73436037987783,552.2681142241565,-0.08616306938870669,3017.7951594146516,10.5,10500003017.79516,47.655,-122.3035,60.0,10.816666666666666
2026-01-20T23:10:50+00:00,SAT-45581,192.29726636120824,89.36536251044386,552.1821821460665,0.0026300063571840396,-92.11394754444561,10.5,10499999907.886053,47.655,-122.3035,60.0,10.833333333333334
2026-01-20T23:10:51+00:00,SAT-45581,116.08254392222177,89.41035426722249,552.1848051017395,0.09142146216463337,-3201.9663174069924,10.5,10499996798.033682,47.655,-122.3035,60.0,10.85
2026-01-20T23:10:52+00:00,SAT-45581,85.14239461270202,88.80142720129169,552.2759814755802,0.1801685028284972,-6310.263081065303,10.5,10499993689.73692,47.655,-122.3035,60.0,10.866666666666667
2026-01-20T23:10:53+00:00,SAT-45581,76.03986115874625,88.08479201049326,552.4556669715157,0.26882843899513653,-9415.509076779155,10.5,10499990584.490923,47.655,-122.3035,60.0,10.883333333333333
2026-01-20T23:10:54+00:00,SAT-45581,71.94540286888389,87.34685342179151,552.7237747185644,0.3573587920490675,-12516.216523749938,10.5,10499987483.783476,47.655,-122.3035,60.0,10.9
2026-01-20T23:10:55+00:00,SAT-45581,69.64198026976374,86.60208157556124,553.0801754810076,0.4457173894213838,-15610.908360224757,10.5,10499984389.09164,47.655,-122.3035,60.0,10.916666666666666
2026-01-20T23:10:56+00:00,SAT-45581,68.17038732137298,85.85483286926697,553.5246979636169,0.5338624724627057,-18698.122021663432,10.5,10499981301.87798,47.655,-122.3035,60.0,10.933333333333334
2026-01-20T23:10:57+00:00,SAT-45581,67.15062759758953,85.10695257703028,554.0571292244638,0.6217527830534216,-21776.412474195487,10.5,10499978223.587526,47.655,-122.3035,60.0,10.95
2026-01-20T23:10:58+00:00,SAT-45581,66.40306948913783,84.3594265346714,554.6772151741078,0.709347669156614,-24844.355911530125,10.5,10499975155.644089,47.655,-122.3035,60.0,10.966666666666667
2026-01-20T23:10:59+00:00,SAT-45581,65.83199756631821,83.61288108104986,555.3846611800533,0.7966071644233804,-27900.552543071295,10.5,10499972099.447456,47.655,-122.3035,60.0,10.983333333333333
2026-01-20T23:11:00+00:00,SAT-45581,65.38180287465576,82.86776949555089,556.1791327506006,0.8834920815684961,-30943.62986432837,10.5,10499969056.370136,47.655,-122.3035,60.0,11.0
2026-01-20T23:11:01+00:00,SAT-45581,65.01799214354344,82.12445224177868,557.0602563118205,0.9699641057862894,-33972.24592873527,10.5,10499966027.754072,47.655,-122.3035,60.0,11.016666666666667
2026-01-20T23:11:02+00:00,SAT-45581,64.7180437964291,81.38323530462804,558.0276200776941,1.0559858455184308,-36985.09112575315,10.5,10499963014.908875,47.655,-122.3035,60.0,11.033333333333333
2026-01-20T23:11:03+00:00,SAT-45581,64.46663301685909,80.64439003213879,559.0807749708868,1.1415209378117006,-39980.89187094512,10.5,10499960019.10813,47.655,-122.3035,60.0,11.05
2026-01-20T23:11:04+00:00,SAT-45581,64.25297175571004,79.90816401861153,560.219235648594,1.2265340891697762,-42958.41203677862,10.5,10499957041.587963,47.655,-122.3035,60.0,11.066666666666666
2026-01-20T23:11:05+00:00,SAT-45581,64.069246602769,79.17478738994576,561.4424815691324,1.3109911656443953,-45916.45610799905,10.5,10499954083.543892,47.655,-122.3035,60.0,11.083333333333334
2026-01-20T23:11:06+00:00,SAT-45581,63.909660184064045,78.44447654517326,562.7499581483784,1.394859224936551,-48853.870305949415,10.5,10499951146.129694,47.655,-122.3035,60.0,11.1
2026-01-20T23:11:07+00:00,SAT-45581,63.76982064107655,77.71743646871252,564.1410779482234,1.478106587486145,-51769.54507843063,10.5,10499948230.454922,47.655,-122.3035,60.0,11.116666666666667
2026-01-20T23:11:08+00:00,SAT-45581,63.64634020852461,76.99386217281594,565.6152219359273,1.5607028622150978,-54662.416001334255,10.5,10499945337.583998,47.655,-122.3035,60.0,11.133333333333333
2026-01-20T23:11:09+00:00,SAT-45581,63.536563884171116,76.27393962601526,567.1717407691457,1.6426190125317564,-57531.46609039592,10.5,10499942468.533909,47.655,-122.3035,60.0,11.15
2026-01-20T23:11:10+00:00,SAT-45581,63.43838154140125,75.55784634103013,568.8099561467864,1.7238273711662095,-60375.7263207909,10.5,10499939624.27368,47.655,-122.3035,60.0,11.166666666666666
2026-01-20T23:11:11+00:00,SAT-45581,63.35009501527888,74.84575176495119,570.5291621746586,1.804301668359143,-63194.27661442705,10.5,10499936805.723385,47.655,-122.3035,60.0,11.183333333333334
2026-01-20T23:11:12+00:00,SAT-45581,63.270322274822504,74.13781753632121,572.3286267592385,1.8840170590771979,-65986.24679314173,10.5,10499934013.753206,47.655,-122.3035,60.0,11.2
2026-01-20T23:11:13+00:00,SAT-45581,63.197927148082414,73.43419765595046,574.2075930285746,1.9629501395267461,-68750.81715708417,10.5,10499931249.182842,47.655,-122.3035,60.0,11.216666666666667
2026-01-20T23:11:14+00:00,SAT-45581,63.131966990902406,72.73503860567182,576.1652807696645,2.0410789618389016,-71487.21899904656,10.5,10499928512.781,47.655,-122.3035,60.0,11.233333333333333
2026-01-20T23:11:15+00:00,SAT-45581,63.071653173522236,72.04047943490177,578.2008878804753,2.118383018063391,-74194.73404386178,10.5,10499925805.265957,47.655,-122.3035,60.0,11.25
2026-01-20T23:11:16+00:00,SAT-45581,63.0163208667638,71.35065183762106,580.3135918060044,2.1948432863558227,-76872.69606607695,10.5,10499923127.303934,47.655,-122.3035,60.0,11.266666666666667
2026-01-20T23:11:17+00:00,SAT-45581,62.965405670631796,70.66568020684232,582.5025510203977,2.270442151033318,-79520.48808996334,10.5,10499920479.51191,47.655,-122.3035,60.0,11.283333333333333
2026-01-20T23:11:18+00:00,SAT-45581,62.91842534435821,69.98568171289521,584.766906429345,2.3451634796600143,-82137.54508937696,10.5,10499917862.45491,47.655,-122.3035,60.0,11.3
2026-01-20T23:11:19+00:00,SAT-45581,62.87496538372716,69.31076635783148,587.1057828493487,2.4189925309887745,-84723.35076348763,10.5,10499915276.649237,47.655,-122.3035,60.0,11.316666666666666
2026-01-20T23:11:20+00:00,SAT-45581,62.83466753348204,68.64103706076102,589.5182903951828,2.4919160009412242,-87277.43914719447,10.5,10499912722.560852,47.655,-122.3035,60.0,11.333333333333334
2026-01-20T23:11:21+00:00,SAT-45581,62.79722056020775,67.97658973271498,592.0035259132098,2.563921945668108,-89799.39191637414,10.5,10499910200.608084,47.655,-122.3035,60.0,11.35
2026-01-20T23:11:22+00:00,SAT-45581,62.76235278391878,67.31751337679893,594.5605743379629,2.6349998012085,-92288.83907642952,10.5,10499907711.160923,47.655,-122.3035,60.0,11.366666666666667
2026-01-20T23:11:23+00:00,SAT-45581,62.729825988871475,66.66389018608047,597.1885100683343,2.7051403109296186,-94745.45642092501,10.5,10499905254.54358,47.655,-122.3035,60.0,11.383333333333333
2026-01-20T23:11:24+00:00,SAT-45581,62.699430425716066,66.01579566313139,599.8863982713997,2.774335527424767,-97168.9655980607,10.5,10499902831.034403,47.655,-122.3035,60.0,11.4
2026-01-20T23:11:25+00:00,SAT-45581,62.67098068302647,65.37329874084779,602.6532961881337,2.842578766385282,-99559.13249507251,10.5,10499900440.867504,47.655,-122.3035,60.0,11.416666666666666
2026-01-20T23:11:26+00:00,SAT-45581,62.64431225742695,64.73646191609633,605.4882543931222,2.909864574849625,-101915.7661261814,10.5,10499898084.233873,47.655,-122.3035,60.0,11.433333333333334
2026-01-20T23:11:27+00:00,SAT-45581,62.619278687334294,64.1053413913641,608.3903180226077,2.976188652716465,-104238.71588364935,10.5,10499895761.284117,47.655,-122.3035,60.0,11.45
2026-01-20T23:11:28+00:00,SAT-45581,62.5957491458332,63.47998723325599,611.3585279242603,3.0415478810847896,-106527.87253036996,10.5,10499893472.12747,47.655,-122.3035,60.0,11.466666666666667
2026-01-20T23:11:29+00:00,SAT-45581,62.573606408927645,62.86044352347511,614.3919218352095,3.1059402357402925,-108783.1651697958,10.5,10499891216.83483,47.655,-122.3035,60.0,11.483333333333333
2026-01-20T23:11:30+00:00,SAT-45581,62.55274513244429,62.24674852671127,617.4895354737977,3.169364715197294,-111004.55872566211,10.5,10499888995.441275,47.655,-122.3035,60.0,11.5
2026-01-20T23:11:31+00:00,SAT-45581,62.53307038439684,61.638934869589825,620.6504035595657,3.2318213843418646,-113192.0554705535,10.5,10499886807.944529,47.655,-122.3035,60.0,11.516666666666667
2026-01-20T23:11:32+00:00,SAT-45581,62.514496389731704,61.03702970743719,623.8735608767673,3.293311238695216,-115345.69027183388,10.5,10499884654.309729,47.655,-122.3035,60.0,11.533333333333333
2026-01-20T23:11:33+00:00,SAT-45581,62.49694545234088,60.44105491326476,627.1580432025087,3.353836205952461,-117465.53064554028,10.5,10499882534.469355,47.655,-122.3035,60.0,11.55
2026-01-20T23:11:34+00:00,SAT-45581,62.48034702575773,59.85102726085921,630.5028882364225,3.413399081592828,-119551.67450118007,10.5,10499880448.325499,47.655,-122.3035,60.0,11.566666666666666
2026-01-20T23:11:35+00:00,SAT-45581,62.46463690938925,59.266958613982574,633.9071364661263,3.47200351417965,-121604.2496268746,10.5,10499878395.750374,47.655,-122.3035,60.0,11.583333333333334
2026-01-20T23:11:36+00:00,SAT-45581,62.44975655064061,58.688856112130075,637.3698320180209,3.529653920882427,-123623.41073058444,10.5,10499876376.58927,47.655,-122.3035,60.0,11.6
2026-01-20T23:11:37+00:00,SAT-45581,62.435652437359295,58.11672236424479,640.8900234238339,3.5863554568797102,-125609.33836846877,10.5,10499874390.66163,47.655,-122.3035,60.0,11.616666666666667
2026-01-20T23:11:38+00:00,SAT-45581,62.42227556672183,57.550555640148225,644.4667643566506,3.64211396997406,-127562.23735530941,10.5,10499872437.762644,47.655,-122.3035,60.0,11.633333333333333
2026-01-20T23:11:39+00:00,SAT-45581,62.40958098024567,56.99035006181001,648.0991143216829,3.6969359700644215,-129482.33569530433,10.5,10499870517.664305,47.655,-122.3035,60.0,11.65
2026-01-20T23:11:40+00:00,SAT-45581,62.39752735487931,56.436095791728924,651.7861393165887,3.7508285726700854,-131369.88260403767,10.5,10499868630.117395,47.655,-122.3035,60.0,11.666666666666666
2026-01-20T23:11:41+00:00,SAT-45581,62.386076642941354,55.8877792220675,655.5269124354699,3.803799458425312,-133225.14708981029,10.5,10499866774.852911,47.655,-122.3035,60.0,11.683333333333334
2026-01-20T23:11:42+00:00,SAT-45581,62.375193753864124,55.34538316152141,659.3205144324717,3.8558568092935595,-135048.41571959216,10.5,10499864951.58428,47.655,-122.3035,60.0,11.7
2026-01-20T23:11:43+00:00,SAT-45581,62.36484627238124,54.80888702285388,663.1660342217674,3.9070093370608263,-136839.99361697977,10.5,10499863160.006384,47.655,-122.3035,60.0,11.716666666666667
2026-01-20T23:11:44+00:00,SAT-45581,62.35500420840687,54.27826699788668,667.0625694059628,3.9572661565767437,-138600.200022563,10.5,10499861399.799978,47.655,-122.3035,60.0,11.733333333333333
2026-01-20T23:11:45+00:00,SAT-45581,62.34563977440269,53.75349624164588,671.0092266780765,4.006636794955773,-140329.36861618984,10.5,10499859670.631384,47.655,-122.3035,60.0,11.75
2026-01-20T23:11:46+00:00,SAT-45581,62.33672718670959,53.23454504608196,675.0051222327007,4.055131189627157,-142027.8474486678,10.5,10499857972.152552,47.655,-122.3035,60.0,11.766666666666667
2026-01-20T23:11:47+00:00,SAT-45581,62.32824248830987,52.721381005686816,679.0493821752169,4.10275957266386,-143695.99489047364,10.5,10499856304.00511,47.655,-122.3035,60.0,11.783333333333333
2026-01-20T23:11:48+00:00,SAT-45581,62.32016338975038,52.21396918945886,683.141142815647,4.1495324890113805,-145334.1802702038,10.5,10499854665.819729,47.655,-122.3035,60.0,11.8
2026-01-20T23:11:49+00:00,SAT-45581,62.31246912658374,51.7122723015524,687.2795509806909,4.195460760672754,-146942.78262018156,10.5,10499853057.21738,47.655,-122.3035,60.0,11.816666666666666
2026-01-20T23:11:50+00:00,SAT-45581,62.30514033112573,51.216250837914565,691.463764290038,4.240555438726753,-148522.18899593168,10.5,10499851477.811005,47.655,-122.3035,60.0,11.833333333333334
2026-01-20T23:11:51+00:00,SAT-45581,62.29815891696263,50.72586324024926,695.69295138483,4.2848278135133775,-150072.79483291894,10.5,10499849927.205168,47.655,-122.3035,60.0,11.85
2026-01-20T23:11:52+00:00,SAT-45581,62.291507974774866,50.24106604049746,699.9662921662815,4.3282893135691465,-151595.0004068349,10.5,10499848404.999594,47.655,-122.3035,60.0,11.866666666666667
2026-01-20T23:11:53+00:00,SAT-45581,62.2851716780267,49.7618140087754,704.282977933505,4.370951551889323,-153089.21245389665,10.5,10499846910.787546,47.655,-122.3035,60.0,11.883333333333333
2026-01-20T23:11:54+00:00,SAT-45581,62.27913519770507,49.288060287824635,708.6422115674749,4.412826268538598,-154555.84216083007,10.5,10499845444.157839,47.655,-122.3035,60.0,11.9
2026-01-20T23:11:55+00:00,SAT-45581,62.273384624979236,48.81975652616502,713.0432076577574,4.453925286384003,-155995.30361444928,10.5,10499844004.696386,47.655,-122.3035,60.0,11.916666666666666
2026-01-20T23:11:56+00:00,SAT-45581,62.267906900826475,48.35685300820157,717.4851925850903,4.494260570063522,-157408.01586698683,10.5,10499842591.984133,47.655,-122.3035,60.0,11.933333333333334
2026-01-20T23:11:57+00:00,SAT-45581,62.26268975227391,47.89929877072055,721.9674046627734,4.533844069142741,-158794.39744277613,10.5,10499841205.602558,47.655,-122.3035,60.0,11.95
2026-01-20T23:11:58+00:00,SAT-45581,62.2577216339307,47.44704172842551,726.4890941216373,4.57268783384385,-160154.87039157076,10.5,10499839845.129608,47.655,-122.3035,60.0,11.966666666666667
2026-01-20T23:11:59+00:00,SAT-45581,62.25299167501718,47.000028780360374,731.0495232104295,4.61080391837997,-161489.85690290344,10.5,10499838510.143097,47.655,-122.3035,60.0,11.983333333333333
2026-01-20T23:12:00+00:00,SAT-45581,62.24848963072549,46.558205919457876,735.6479661997951,4.648204371303157,-162799.77896803245,10.5,10499837200.221031,47.655,-122.3035,60.0,12.0
2026-01-20T23:12:01+00:00,SAT-45581,62.244205837817276,46.121518336203394,740.283709376631,4.684901254209816,-164085.05903508444,10.5,10499835914.940966,47.655,-122.3035,60.0,12.016666666666667
2026-01-20T23:12:02+00:00,SAT-45581,62.24013117394458,45.68991051416121,744.9560510570947,4.720906587443394,-165346.11810733288,10.5,10499834653.881893,47.655,-122.3035,60.0,12.033333333333333
2026-01-20T23:12:03+00:00,SAT-45581,62.2362570203266,45.263326324513756,749.6643015454622,4.756232359226448,-166583.37606304194,10.5,10499833416.623938,47.655,-122.3035,60.0,12.05
2026-01-20T23:12:04+00:00,SAT-45581,62.23257522747154,44.841709113764814,754.4077831020936,4.7908904885437105,-167797.25035547413,10.5,10499832202.749645,47.655,-122.3035,60.0,12.066666666666666
2026-01-20T23:12:05+00:00,SAT-45581,62.22907808366277,44.425001789070286,759.1858298743805,4.824892856959563,-168988.15712727304,10.5,10499831011.842873,47.655,-122.3035,60.0,12.083333333333334
2026-01-20T23:12:06+00:00,SAT-45581,62.22575828594511,44.01314689529591,763.9977878594258,4.858251237655181,-170156.50872504406,10.5,10499829843.491276,47.655,-122.3035,60.0,12.1
2026-01-20T23:12:07+00:00,SAT-45581,62.22260891342435,43.60608669302814,768.8430147959515,4.890977353095991,-171302.71571911228,10.5,10499828697.28428,47.655,-122.3035,60.0,12.116666666666667
2026-01-20T23:12:08+00:00,SAT-45581,62.21962340258696,43.2037632266003,773.7208801137185,4.9230827839540945,-172427.18371360094,10.5,10499827572.816286,47.655,-122.3035,60.0,12.133333333333333
2026-01-20T23:12:09+00:00,SAT-45581,62.21679552449849,42.80611839496167,778.6307647921142,4.954579038857509,-173530.31578934466,10.5,10499826469.68421,47.655,-122.3035,60.0,12.15
2026-01-20T23:12:10+00:00,SAT-45581,62.21411936378361,42.413094012099236,783.5720612883005,4.985477527263163,-174612.51155378702,10.5,10499825387.488445,47.655,-122.3035,60.0,12.166666666666666
2026-01-20T23:12:11+00:00,SAT-45581,62.21158929920074,42.02463186549479,788.5441734383089,5.015789490512321,-175674.16472624996,10.5,10499824325.835274,47.655,-122.3035,60.0,12.183333333333334
2026-01-20T23:12:12+00:00,SAT-45581,62.20919998545077,41.64067377575574,793.5465162893761,5.045526078390072,-176715.6658193708,10.5,10499823284.33418,47.655,-122.3035,60.0,12.2
2026-01-20T23:12:13+00:00,SAT-45581,62.20694633655467,41.26116164620189,798.5785160086325,5.074698299251314,-177737.4003923034,10.5,10499822262.599607,47.655,-122.3035,60.0,12.216666666666667
2026-01-20T23:12:14+00:00,SAT-45581,62.20482351026901,40.88603751261482,803.6396097420519,5.103317033233958,-178739.7495135003,10.5,10499821260.250486,47.655,-122.3035,60.0,12.233333333333333
2026-01-20T23:12:15+00:00,SAT-45581,62.20282689369422,40.515243588391634,808.7292454865776,5.131392978639837,-179723.0878827455,10.5,10499820276.912117,47.655,-122.3035,60.0,12.25
2026-01-20T23:12:16+00:00,SAT-45581,62.20095208978302,40.148722310160025,813.8468819087738,5.158936758509027,-180687.78756383786,10.5,10499819312.212437,47.655,-122.3035,60.0,12.266666666666667
2026-01-20T23:12:17+00:00,SAT-45581,62.199194904983,39.78641637246552,818.9919882697666,5.185958784244153,-181634.2132081375,10.5,10499818365.786793,47.655,-122.3035,60.0,12.283333333333333
2026-01-20T23:12:18+00:00,SAT-45581,62.197551337477364,39.42826876924775,824.1640442141722,5.212469346304369,-182562.72523105258,10.5,10499817437.274769,47.655,-122.3035,60.0,12.3
2026-01-20T23:12:19+00:00,SAT-45581,62.196017566424366,39.07422282587943,829.36253964948,5.238478561770163,-183473.67797553702,10.5,10499816526.322025,47.655,-122.3035,60.0,12.316666666666666
2026-01-20T23:12:20+00:00,SAT-45581,62.194589941787676,38.724222232163164,834.5869745731362,5.263996396014738,-184367.42047111387,10.5,10499815632.579529,47.655,-122.3035,60.0,12.333333333333334
2026-01-20T23:12:21+00:00,SAT-45581,62.19326497494857,38.37821107121172,839.8368589212447,5.289032686151744,-185244.2972551141,10.5,10499814755.702745,47.655,-122.3035,60.0,12.35
2026-01-20T23:12:22+00:00,SAT-45581,62.1920393298654,38.0361338444272,845.1117124406513,5.3135970564257144,-186104.64540929178,10.5,10499813895.354591,47.655,-122.3035,60.0,12.366666666666667
2026-01-20T23:12:23+00:00,SAT-45581,62.190909814813246,37.697935499708166,850.4110644766452,5.337699000165166,-186948.79743016834,10.5,10499813051.20257,47.655,-122.3035,60.0,12.383333333333333
2026-01-20T23:12:24+00:00,SAT-45581,62.18987337464047,37.3635614520795,855.7344538423932,5.361347854955051,-187777.08035946666,10.5,10499812222.91964,47.655,-122.3035,60.0,12.4
2026-01-20T23:12:25+00:00,SAT-45581,62.188927083598266,37.03295760399121,861.0814286636154,5.384552781882833,-188589.8150572212,10.5,10499811410.184942,47.655,-122.3035,60.0,12.416666666666666
2026-01-20T23:12:26+00:00,SAT-45581,62.188068138511326,36.70607036498411,866.4515462025581,5.407322794459379,-189387.31721470953,10.5,10499810612.682785,47.655,-122.3035,60.0,12.433333333333334
2026-01-20T23:12:27+00:00,SAT-45581,62.187293852469146,36.382846667761235,871.8443727108161,5.429666710900164,-190169.89568313863,10.5,10499809830.104317,47.655,-122.3035,60.0,12.45
2026-01-20T23:12:28+00:00,SAT-45581,62.186601648781306,36.06323398544606,877.2594832345582,5.45159323114763,-190937.8551712936,10.5,10499809062.144829,47.655,-122.3035,60.0,12.466666666666667
2026-01-20T23:12:29+00:00,SAT-45581,62.185989055495305,35.74718034264837,882.696461496573,5.473110869331071,-191691.49387999697,10.5,10499808308.50612,47.655,-122.3035,60.0,12.483333333333333
2026-01-20T23:12:30+00:00,SAT-45581,62.18545370002802,35.43463432911348,888.1548997109527,5.4942279902813285,-192431.10478100803,10.5,10499807568.89522,47.655,-122.3035,60.0,12.5
2026-01-20T23:12:31+00:00,SAT-45581,62.1849933042874,35.1255451098232,893.6343984341954,5.514952775436617,-193156.9744229005,10.5,10499806843.025578,47.655,-122.3035,60.0,12.516666666666667
2026-01-20T23:12:32+00:00,SAT-45581,62.18460567995567,34.81986243573494,899.1345663823047,5.535293296327538,-193869.38550481864,10.5,10499806130.614494,47.655,-122.3035,60.0,12.533333333333333
2026-01-20T23:12:33+00:00,SAT-45581,62.184288724195426,34.517536649221725,904.6550203211754,5.555257424701986,-194568.6137286711,10.5,10499805431.38627,47.655,-122.3035,60.0,12.55
2026-01-20T23:12:34+00:00,SAT-45581,62.184040415434374,34.2185186934223,910.1953848673471,5.574852877448332,-195254.92937253107,10.5,10499804745.070627,47.655,-122.3035,60.0,12.566666666666666
2026-01-20T23:12:35+00:00,SAT-45581,62.18385880949391,33.922760117984375,915.7552923335604,5.594087265887283,-195928.59901704558,10.5,10499804071.400984,47.655,-122.3035,60.0,12.583333333333334
2026-01-20T23:12:36+00:00,SAT-45581,62.183742035981616,33.63021308128241,921.3343826234719,5.61296799192899,-196589.88190841812,10.5,10499803410.118092,47.655,-122.3035,60.0,12.6
2026-01-20T23:12:37+00:00,SAT-45581,62.183688294745856,33.34083035727492,926.9323030228039,5.631502321371802,-197239.0325256412,10.5,10499802760.967474,47.655,-122.3035,60.0,12.616666666666667
2026-01-20T23:12:38+00:00,SAT-45581,62.18369585261632,33.05456533757545,932.5487080635996,5.649697406438641,-197876.3013698154,10.5,10499802123.69863,47.655,-122.3035,60.0,12.633333333333333
2026-01-20T23:12:39+00:00,SAT-45581,62.183763040386005,32.77137203170022,938.1832594109499,5.667560218699485,-198501.93261481108,10.5,10499801498.067385,47.655,-122.3035,60.0,12.65
2026-01-20T23:12:40+00:00,SAT-45581,62.183888249821294,32.491205070048025,943.8356256828266,5.6850976003283815,-199116.1659025058,10.5,10499800883.834097,47.655,-122.3035,60.0,12.666666666666666
2026-01-20T23:12:41+00:00,SAT-45581,62.184069930931294,32.214019703605416,949.5054823210318,5.702316231837724,-199719.23521270204,10.5,10499800280.764788,47.655,-122.3035,60.0,12.683333333333334
2026-01-20T23:12:42+00:00,SAT-45581,62.18430658933099,31.939771804653155,955.1925114299717,5.719222688018372,-200311.3708223871,10.5,10499799688.629177,47.655,-122.3035,60.0,12.7
2026-01-20T23:12:43+00:00,SAT-45581,62.18459678381406,31.66841786421626,960.8964016712159,5.735823371125916,-200892.79696563317,10.5,10499799107.203033,47.655,-122.3035,60.0,12.716666666666667
2026-01-20T23:12:44+00:00,SAT-45581,62.18493912395265,31.399914992251304,966.6168480914276,5.75212456796772,-201463.73383302745,10.5,10499798536.266167,47.655,-122.3035,60.0,12.733333333333333
2026-01-20T23:12:45+00:00,SAT-45581,62.18533226792488,31.134220914627498,972.3535520072217,5.768132431387728,-202024.39692319123,10.5,10499797975.603077,47.655,-122.3035,60.0,12.75
2026-01-20T23:12:46+00:00,SAT-45581,62.18577492038849,30.871293970606327,978.1062208715631,5.783852963675745,-202574.99646170324,10.5,10499797425.003538,47.655,-122.3035,60.0,12.766666666666667
2026-01-20T23:12:47+00:00,SAT-45581,62.18626583048001,30.61109311068466,983.8745681236147,5.7992920623865025,-203115.7390058768,10.5,10499796884.260994,47.655,-122.3035,60.0,12.783333333333333
2026-01-20T23:12:48+00:00,SAT-45581,62.18680378992975,30.353577892013938,989.6583130842845,5.814455499762986,-203646.82672407775,10.5,10499796353.173275,47.655,-122.3035,60.0,12.8
2026-01-20T23:12:49+00:00,SAT-45581,62.18738763130408,30.098708474487744,995.4571808312475,5.8293489018028595,-204168.45666254227,10.5,10499795831.543337,47.655,-122.3035,60.0,12.816666666666666
