DopplerPredictor/satellites_20260205_234138/SAT-52871.csv

timestamp,satellite,azimuth_deg,elevation_deg,distance_km,relative_velocity_kms,doppler_shift_hz,tx_freq_ghz,rx_freq_hz,ue_lat,ue_lon,ue_alt_m,time_minutes
2026-01-20T23:00:00+00:00,SAT-52871,51.85985408216784,52.49477164799881,673.4137622047261,2.1558232222094187,-75506.0483649622,10.5,10499924493.951635,47.655,-122.3035,60.0,0.0
2026-01-20T23:00:01+00:00,SAT-52871,52.7232563979829,52.2255031255586,675.5638059623803,2.220954559781656,-77787.2233120267,10.5,10499922212.776688,47.655,-122.3035,60.0,0.016666666666666666
2026-01-20T23:00:02+00:00,SAT-52871,53.570725231580056,51.951486331486834,677.778806449479,2.285447411797225,-80046.0357941055,10.5,10499919953.964207,47.655,-122.3035,60.0,0.03333333333333333
2026-01-20T23:00:03+00:00,SAT-52871,54.40234452367612,51.6730092831039,680.0581268921568,2.349291864240313,-82282.1385804285,10.5,10499917717.86142,47.655,-122.3035,60.0,0.05
2026-01-20T23:00:04+00:00,SAT-52871,55.21822152468149,51.390354399226474,682.4011206291115,2.4124787826489573,-84495.21174349907,10.5,10499915504.788256,47.655,-122.3035,60.0,0.06666666666666667
2026-01-20T23:00:05+00:00,SAT-52871,56.018484713876404,51.10379807869834,684.8071318890662,2.4749998020101196,-86684.96230517667,10.5,10499913315.037695,47.655,-122.3035,60.0,0.08333333333333333
2026-01-20T23:00:06+00:00,SAT-52871,56.80328178848964,50.81361033558721,687.2754965581571,2.536847285250074,-88851.12278283457,10.5,10499911148.877216,47.655,-122.3035,60.0,0.1
2026-01-20T23:00:07+00:00,SAT-52871,57.57277772261216,50.52005449153497,689.8055429059201,2.598014362330223,-90993.45255866091,10.5,10499909006.547441,47.655,-122.3035,60.0,0.11666666666666667
2026-01-20T23:00:08+00:00,SAT-52871,58.327152928681734,50.22338691257413,692.396592350271,2.6584948766674,-93111.73600307082,10.5,10499906888.263996,47.655,-122.3035,60.0,0.13333333333333333
2026-01-20T23:00:09+00:00,SAT-52871,59.066601497916714,49.92385679798644,695.0479601690464,2.718283370261702,-95205.78195382045,10.5,10499904794.218046,47.655,-122.3035,60.0,0.15
2026-01-20T23:00:10+00:00,SAT-52871,59.79132953688055,49.62170601318264,697.7589561967156,2.77737509713014,-97275.42418650996,10.5,10499902724.575813,47.655,-122.3035,60.0,0.16666666666666666
2026-01-20T23:00:11+00:00,SAT-52871,60.50155360884311,49.317168960176026,700.5288855344882,2.835766002738982,-99320.52069421744,10.5,10499900679.479305,47.655,-122.3035,60.0,0.18333333333333332
2026-01-20T23:00:12+00:00,SAT-52871,61.197499271142036,49.01047248633593,703.3570492399094,2.8934526418438016,-101340.9508099097,10.5,10499898659.04919,47.655,-122.3035,60.0,0.2
2026-01-20T23:00:13+00:00,SAT-52871,61.87939969481743,48.701835834690876,706.2427449345168,2.950432281581481,-103336.61881716033,10.5,10499896663.381184,47.655,-122.3035,60.0,0.21666666666666667
2026-01-20T23:00:14+00:00,SAT-52871,62.54749440925607,48.39147061267493,709.1852675143112,3.0067027551810486,-105307.44882648451,10.5,10499894692.551174,47.655,-122.3035,60.0,0.23333333333333334
2026-01-20T23:00:15+00:00,SAT-52871,63.20202811086383,48.079580803261855,712.1839097143308,3.0622625380391044,-107253.38743982211,10.5,10499892746.61256,47.655,-122.3035,60.0,0.25
2026-01-20T23:00:16+00:00,SAT-52871,63.84324958497451,47.76636279177161,715.2379627490975,3.1171106555193493,-109174.40052128717,10.5,10499890825.599478,47.655,-122.3035,60.0,0.26666666666666666
2026-01-20T23:00:17+00:00,SAT-52871,64.47141070005269,47.452005423461735,718.3467168611105,3.171246730400866,-111070.4748590076,10.5,10499888929.52514,47.655,-122.3035,60.0,0.2833333333333333
2026-01-20T23:00:18+00:00,SAT-52871,65.0867655004743,47.13669007485453,721.5094619166591,3.2246709070762627,-112941.61551022327,10.5,10499887058.38449,47.655,-122.3035,60.0,0.3
2026-01-20T23:00:19+00:00,SAT-52871,65.6895693684247,46.82059074907816,724.7254879260382,3.2773838617882256,-114787.84615981358,10.5,10499885212.153841,47.655,-122.3035,60.0,0.31666666666666665
2026-01-20T23:00:20+00:00,SAT-52871,66.28007826854763,46.503874184196484,727.994085573972,3.3293867482568698,-116609.20721593715,10.5,10499883390.792784,47.655,-122.3035,60.0,0.3333333333333333
2026-01-20T23:00:21+00:00,SAT-52871,66.8585480588166,46.1866999788605,731.3145466958119,3.3806812353325957,-118405.75712879427,10.5,10499881594.24287,47.655,-122.3035,60.0,0.35
2026-01-20T23:00:22+00:00,SAT-52871,67.42523387964923,45.869220724471916,734.6861647912868,3.431269415725032,-120177.56919392827,10.5,10499879822.430805,47.655,-122.3035,60.0,0.36666666666666664
2026-01-20T23:00:23+00:00,SAT-52871,67.98038959446876,45.551582154492685,738.1082354472234,3.481153846676492,-121924.7329767821,10.5,10499878075.267023,47.655,-122.3035,60.0,0.38333333333333336
2026-01-20T23:00:24+00:00,SAT-52871,68.52426730029731,45.233923296655504,741.5800568008362,3.5303374644603576,-123647.35131807004,10.5,10499876352.648682,47.655,-122.3035,60.0,0.4
2026-01-20T23:00:25+00:00,SAT-52871,69.05711688343695,44.91637663844294,745.100929917741,3.5788236416355907,-125345.5423390728,10.5,10499874654.45766,47.655,-122.3035,60.0,0.4166666666666667
2026-01-20T23:00:26+00:00,SAT-52871,69.57918563849536,44.59906829131441,748.6701592270709,3.626616084180637,-127019.43583883184,10.5,10499872980.564161,47.655,-122.3035,60.0,0.43333333333333335
2026-01-20T23:00:27+00:00,SAT-52871,70.09071792265013,44.282118167059906,752.2870528540029,3.6737188944168793,-128669.1754979948,10.5,10499871330.824503,47.655,-122.3035,60.0,0.45
2026-01-20T23:00:28+00:00,SAT-52871,70.59195486570663,43.96564015025546,755.9509230150371,3.7201364469168707,-130294.91453259689,10.5,10499869705.085468,47.655,-122.3035,60.0,0.4666666666666667
2026-01-20T23:00:29+00:00,SAT-52871,71.08313410623886,43.64974228231589,759.6610862895187,3.7658734995847842,-131896.81958456818,10.5,10499868103.180416,47.655,-122.3035,60.0,0.48333333333333334
2026-01-20T23:00:30+00:00,SAT-52871,71.56448958209076,43.33452693581946,763.4168640019417,3.8109350493048497,-133475.0656659312,10.5,10499866524.934334,47.655,-122.3035,60.0,0.5
2026-01-20T23:00:31+00:00,SAT-52871,72.0362513382674,43.0200910003368,767.2175824602883,3.8553263756163587,-135029.83768848437,10.5,10499864970.162312,47.655,-122.3035,60.0,0.5166666666666667
2026-01-20T23:00:32+00:00,SAT-52871,72.49864537415466,42.70652606282864,771.0625732379266,3.8990530522478415,-136561.33086777767,10.5,10499863438.669132,47.655,-122.3035,60.0,0.5333333333333333
2026-01-20T23:00:33+00:00,SAT-52871,72.95189352170954,42.39391858506791,774.9511734670108,3.942120850521265,-138069.747339919,10.5,10499861930.25266,47.655,-122.3035,60.0,0.55
2026-01-20T23:00:34+00:00,SAT-52871,73.39621334001247,42.082350086267404,778.8827260355445,3.9845357682154727,-139555.29717249412,10.5,10499860444.702827,47.655,-122.3035,60.0,0.5666666666666667
2026-01-20T23:00:35+00:00,SAT-52871,73.83181803845656,41.771897320096656,782.8565798132313,4.026304028953664,-141018.19834311336,10.5,10499858981.801657,47.655,-122.3035,60.0,0.5833333333333334
2026-01-20T23:00:36+00:00,SAT-52871,74.258916422053,41.4626324483026,786.8720898767133,4.067432017713609,-142458.67448070657,10.5,10499857541.32552,47.655,-122.3035,60.0,0.6
2026-01-20T23:00:37+00:00,SAT-52871,74.67771285051982,41.15462321550591,790.928617670493,4.107926298732603,-143876.9554926306,10.5,10499856123.044508,47.655,-122.3035,60.0,0.6166666666666667
2026-01-20T23:00:38+00:00,SAT-52871,75.08840721752979,40.84793311840087,795.0255311857125,4.147793624324071,-145273.27787346387,10.5,10499854726.722126,47.655,-122.3035,60.0,0.6333333333333333
2026-01-20T23:00:39+00:00,SAT-52871,75.49119494710183,40.54262157003393,799.1622051477253,4.187040805371098,-146647.88016914198,10.5,10499853352.119831,47.655,-122.3035,60.0,0.65
2026-01-20T23:00:40+00:00,SAT-52871,75.8862669924464,40.23874406909718,803.3380210745089,4.2256748954559775,-148001.00942595347,10.5,10499851998.990574,47.655,-122.3035,60.0,0.6666666666666666
2026-01-20T23:00:41+00:00,SAT-52871,76.27380986516438,39.936352350962295,807.5523675187133,4.263702964767589,-149332.91327181982,10.5,10499850667.08673,47.655,-122.3035,60.0,0.6833333333333333
2026-01-20T23:00:42+00:00,SAT-52871,76.65400565503857,39.63549455048531,811.8046400842234,4.301132210750251,-150643.84379168614,10.5,10499849356.156208,47.655,-122.3035,60.0,0.7
2026-01-20T23:00:43+00:00,SAT-52871,77.02703207075714,39.33621535171965,816.0942415530728,4.337969957715431,-151934.05751392193,10.5,10499848065.942486,47.655,-122.3035,60.0,0.7166666666666667
2026-01-20T23:00:44+00:00,SAT-52871,77.39306248896683,39.03855613291407,820.4205820119715,4.374223560473886,-153203.81203511063,10.5,10499846796.187965,47.655,-122.3035,60.0,0.7333333333333333
2026-01-20T23:00:45+00:00,SAT-52871,77.75226600333157,38.74255511327051,824.7830788827227,4.409900450117236,-154453.36762351435,10.5,10499845546.632376,47.655,-122.3035,60.0,0.75
2026-01-20T23:00:46+00:00,SAT-52871,78.10480748439596,38.448247491464016,829.1811569982995,4.445008114290657,-155682.9865281397,10.5,10499844317.013472,47.655,-122.3035,60.0,0.7666666666666667
2026-01-20T23:00:47+00:00,SAT-52871,78.4508476438502,38.155665580595326,833.6142486592468,4.479554088352641,-156892.9326691158,10.5,10499843107.067331,47.655,-122.3035,60.0,0.7833333333333333
2026-01-20T23:00:48+00:00,SAT-52871,78.79054310311294,37.86483893883922,838.0817936812668,4.513545949216785,-158083.47142200702,10.5,10499841916.528578,47.655,-122.3035,60.0,0.8
2026-01-20T23:00:49+00:00,SAT-52871,79.12404646576888,37.57579449565651,842.5832394366631,4.546991266139714,-159254.86789419834,10.5,10499840745.132105,47.655,-122.3035,60.0,0.8166666666666667
2026-01-20T23:00:50+00:00,SAT-52871,79.45150639022394,37.288556676352044,847.1180408467031,4.579897651010076,-160407.38868622837,10.5,10499839592.611313,47.655,-122.3035,60.0,0.8333333333333334
2026-01-20T23:00:51+00:00,SAT-52871,79.77306766899173,37.003147518645946,851.6856604241367,4.61227270722492,-161541.30010122422,10.5,10499838458.6999,47.655,-122.3035,60.0,0.85
2026-01-20T23:00:52+00:00,SAT-52871,80.08887130680404,36.719586787870945,856.2855682647272,4.644124072938831,-162656.86965966877,10.5,10499837343.13034,47.655,-122.3035,60.0,0.8666666666666667
2026-01-20T23:00:53+00:00,SAT-52871,80.39905460357873,36.437892084954846,860.9172420819158,4.675459309821734,-163754.3622032286,10.5,10499836245.637796,47.655,-122.3035,60.0,0.8833333333333333
2026-01-20T23:00:54+00:00,SAT-52871,80.70375123163087,36.15807895673488,865.5801671305413,4.7062860322771956,-164834.0444205256,10.5,10499835165.95558,47.655,-122.3035,60.0,0.9
2026-01-20T23:00:55+00:00,SAT-52871,81.00309132238803,35.880160994035585,870.2738362594336,4.736611792872036,-165896.18083439703,10.5,10499834103.819166,47.655,-122.3035,60.0,0.9166666666666666
2026-01-20T23:00:56+00:00,SAT-52871,81.2972015464272,35.60414993246223,874.9977498497412,4.766444148054472,-166941.03610362325,10.5,10499833058.963896,47.655,-122.3035,60.0,0.9333333333333333
2026-01-20T23:00:57+00:00,SAT-52871,81.58620519809243,35.33005574513262,879.7514158188038,4.795790563720541,-167968.87171546413,10.5,10499832031.128284,47.655,-122.3035,60.0,0.95
2026-01-20T23:00:58+00:00,SAT-52871,81.87022227455047,35.0578867368719,884.5343495298423,4.824658526935153,-168979.9498986032,10.5,10499831020.050102,47.655,-122.3035,60.0,0.9666666666666667
2026-01-20T23:00:59+00:00,SAT-52871,82.14936956140642,34.787649628040526,889.3460738130696,4.853055466181746,-169974.53082995283,10.5,10499830025.46917,47.655,-122.3035,60.0,0.9833333333333333
2026-01-20T23:01:00+00:00,SAT-52871,82.42376071302928,34.51934963923739,894.186118907268,4.8809887336640365,-170952.87201478693,10.5,10499829047.127985,47.655,-122.3035,60.0,1.0
2026-01-20T23:01:01+00:00,SAT-52871,82.69350633171324,34.252990573239636,899.0540223837138,4.908465634343535,-171915.22930375757,10.5,10499828084.770697,47.655,-122.3035,60.0,1.0166666666666666
2026-01-20T23:01:02+00:00,SAT-52871,82.95871404755727,33.988574891725655,903.9493290990599,4.935493465461259,-172861.85827711257,10.5,10499827138.141724,47.655,-122.3035,60.0,1.0333333333333334
2026-01-20T23:01:03+00:00,SAT-52871,83.2194885995788,33.72610378652338,908.8715911876382,4.962079392034053,-173793.0098840497,10.5,10499826206.990116,47.655,-122.3035,60.0,1.05
2026-01-20T23:01:04+00:00,SAT-52871,83.47593190926999,33.465577254237175,913.8203679295893,4.988230565558848,-174708.93460024236,10.5,10499825291.0654,47.655,-122.3035,60.0,1.0666666666666667
2026-01-20T23:01:05+00:00,SAT-52871,83.72814315924091,33.20699416128875,918.7952257373776,5.013954044777129,-175609.87965267577,10.5,10499824390.120348,47.655,-122.3035,60.0,1.0833333333333333
2026-01-20T23:01:06+00:00,SAT-52871,83.9762188665798,32.95035231010746,923.7957380632864,5.039256848216219,-176496.09085986513,10.5,10499823503.90914,47.655,-122.3035,60.0,1.1
2026-01-20T23:01:07+00:00,SAT-52871,84.22025295751673,32.695648499618095,928.8214853593098,5.064145857394638,-177367.80924169777,10.5,10499822632.190758,47.655,-122.3035,60.0,1.1166666666666667
2026-01-20T23:01:08+00:00,SAT-52871,84.46033683614544,32.442878587788194,933.8720549405132,5.088627973676758,-178225.27651314682,10.5,10499821774.723486,47.655,-122.3035,60.0,1.1333333333333333
2026-01-20T23:01:09+00:00,SAT-52871,84.69655945908235,32.19203754350235,938.9470410048233,5.112709916762397,-179068.7280265242,10.5,10499820931.271973,47.655,-122.3035,60.0,1.15
2026-01-20T23:01:10+00:00,SAT-52871,84.92900739939991,31.943119505895883,944.0460444518527,5.136398428663749,-179898.39991561548,10.5,10499820101.600084,47.655,-122.3035,60.0,1.1666666666666667
2026-01-20T23:01:11+00:00,SAT-52871,85.15776491825567,31.69611783101996,949.1686729051522,5.159700086771854,-180714.5225484774,10.5,10499819285.477451,47.655,-122.3035,60.0,1.1833333333333333
2026-01-20T23:01:12+00:00,SAT-52871,85.38291402676316,31.451025145257248,954.3145405480299,5.182621439419525,-181517.3252754244,10.5,10499818482.674725,47.655,-122.3035,60.0,1.2
2026-01-20T23:01:13+00:00,SAT-52871,85.60453455225841,31.207833389778557,959.4832680945722,5.205168925571573,-182307.03361624098,10.5,10499817692.966383,47.655,-122.3035,60.0,1.2166666666666666
2026-01-20T23:01:14+00:00,SAT-52871,85.82270419953157,30.96653386664118,964.6744826805678,5.227348925971532,-183083.8710515562,10.5,10499816916.128948,47.655,-122.3035,60.0,1.2333333333333334
2026-01-20T23:01:15+00:00,SAT-52871,86.03749861270599,30.72711728031443,969.8878178054428,5.249167691621923,-183848.05651792014,10.5,10499816151.943481,47.655,-122.3035,60.0,1.25
2026-01-20T23:01:16+00:00,SAT-52871,86.24899143265974,30.48957378045072,975.1229132028685,5.270631436458391,-184599.80765364386,10.5,10499815400.192347,47.655,-122.3035,60.0,1.2666666666666666
2026-01-20T23:01:17+00:00,SAT-52871,86.45725435662985,30.253892998413626,980.3794148037929,5.291746247779136,-185339.3376616597,10.5,10499814660.662338,47.655,-122.3035,60.0,1.2833333333333334
2026-01-20T23:01:18+00:00,SAT-52871,86.66235719273234,30.020064086012443,985.6569746101429,5.312518152263937,-186066.85762178627,10.5,10499813933.142378,47.655,-122.3035,60.0,1.3
