DopplerPredictor/satellites_20260205_234138/SAT-45225.csv

timestamp,satellite,azimuth_deg,elevation_deg,distance_km,relative_velocity_kms,doppler_shift_hz,tx_freq_ghz,rx_freq_hz,ue_lat,ue_lon,ue_alt_m,time_minutes
2026-01-20T23:00:00+00:00,SAT-45225,301.83679898541493,31.260373044114026,972.9968856167867,-5.710833232989561,200017.53661991854,10.5,10500200017.53662,47.655,-122.3035,60.0,0.0
2026-01-20T23:00:01+00:00,SAT-45225,301.8889765227845,31.525120455375465,967.3013623395999,-5.694153032067897,199433.3254264619,10.5,10500199433.325426,47.655,-122.3035,60.0,0.016666666666666666
2026-01-20T23:00:02+00:00,SAT-45225,301.942015112814,31.792622809613686,961.6224745460177,-5.6771689868503685,198838.47232050402,10.5,10500198838.47232,47.655,-122.3035,60.0,0.03333333333333333
2026-01-20T23:00:03+00:00,SAT-45225,301.99593776358273,32.062920180996045,955.9605252657717,-5.659874838536455,198232.75809237597,10.5,10500198232.758093,47.655,-122.3035,60.0,0.05
2026-01-20T23:00:04+00:00,SAT-45225,302.05076830686545,32.33605317029364,950.3158237706147,-5.642264129347814,197615.95656336375,10.5,10500197615.956564,47.655,-122.3035,60.0,0.06666666666666667
2026-01-20T23:00:05+00:00,SAT-45225,302.10653143450423,32.61206289974576,944.6886857727653,-5.624330309813348,196987.83834328532,10.5,10500196987.838343,47.655,-122.3035,60.0,0.08333333333333333
2026-01-20T23:00:06+00:00,SAT-45225,302.1632527378512,32.89099101236375,939.0794335163549,-5.6060667098897365,196348.16981900937,10.5,10500196348.169819,47.655,-122.3035,60.0,0.1
2026-01-20T23:00:07+00:00,SAT-45225,302.22095874917835,33.172879669243066,933.4883958976769,-5.5874664963549705,195696.7116621966,10.5,10500195696.711662,47.655,-122.3035,60.0,0.11666666666666667
2026-01-20T23:00:08+00:00,SAT-45225,302.27967698483695,33.45777154399073,927.9159086279285,-5.568522696879661,195033.21967237897,10.5,10500195033.219673,47.655,-122.3035,60.0,0.13333333333333333
2026-01-20T23:00:09+00:00,SAT-45225,302.33943599116355,33.745709817482876,922.3623143719431,-5.54922818268583,194357.44416959689,10.5,10500194357.44417,47.655,-122.3035,60.0,0.15
2026-01-20T23:00:10+00:00,SAT-45225,302.40026539273094,34.036738170813464,916.8279629042216,-5.52957573983006,193669.13249103696,10.5,10500193669.13249,47.655,-122.3035,60.0,0.16666666666666666
2026-01-20T23:00:11+00:00,SAT-45225,302.4621959443026,34.33090078104273,911.3132111938685,-5.509557956185459,192968.02503266218,10.5,10500192968.025032,47.655,-122.3035,60.0,0.18333333333333332
2026-01-20T23:00:12+00:00,SAT-45225,302.5252595843148,34.62824231002719,905.8184236022444,-5.489167259895602,192253.85659603158,10.5,10500192253.856596,47.655,-122.3035,60.0,0.2
2026-01-20T23:00:13+00:00,SAT-45225,302.58948949198003,34.92880789402178,900.3439720422676,-5.4683960116713015,191526.3596209237,10.5,10500191526.359621,47.655,-122.3035,60.0,0.21666666666666667
2026-01-20T23:00:14+00:00,SAT-45225,302.6549201489455,35.232643137179316,894.890236045665,-5.447236319636753,190785.25770046524,10.5,10500190785.2577,47.655,-122.3035,60.0,0.23333333333333334
2026-01-20T23:00:15+00:00,SAT-45225,302.72158740214167,35.53979409364333,889.4576030148827,-5.4256802218476325,190030.27197368702,10.5,10500190030.271975,47.655,-122.3035,60.0,0.25
2026-01-20T23:00:16+00:00,SAT-45225,302.78952853283835,35.85030725827461,884.0464682929655,-5.403719582467018,189261.11748916542,10.5,10500189261.117489,47.655,-122.3035,60.0,0.26666666666666666
2026-01-20T23:00:17+00:00,SAT-45225,302.85878232848955,36.164229550223894,878.6572353369861,-5.381346094369373,188477.5032962251,10.5,10500188477.503296,47.655,-122.3035,60.0,0.2833333333333333
2026-01-20T23:00:18+00:00,SAT-45225,302.9293891588932,36.48160829497176,873.2903158888698,-5.35855132240873,187679.13396037355,10.5,10500187679.13396,47.655,-122.3035,60.0,0.3
2026-01-20T23:00:19+00:00,SAT-45225,303.00139105773354,36.80249120717263,867.9461301030763,-5.335326659559574,186865.7080271697,10.5,10500186865.708027,47.655,-122.3035,60.0,0.31666666666666665
2026-01-20T23:00:20+00:00,SAT-45225,303.07483180846475,37.12692636913977,862.6251067180162,-5.31166335583519,186036.91903506624,10.5,10500186036.919035,47.655,-122.3035,60.0,0.3333333333333333
2026-01-20T23:00:21+00:00,SAT-45225,303.1497570360533,37.45496220909604,857.327683198628,-5.28755251208483,185192.4552981607,10.5,10500185192.455297,47.655,-122.3035,60.0,0.35
2026-01-20T23:00:22+00:00,SAT-45225,303.22621430435004,37.78664747700916,852.0543058851462,-5.262985077796821,184331.99982925062,10.5,10500184331.999828,47.655,-122.3035,60.0,0.36666666666666664
2026-01-20T23:00:23+00:00,SAT-45225,303.3042532197495,38.12203121812246,846.8054301440509,-5.237951849268194,183455.2302757264,10.5,10500183455.230276,47.655,-122.3035,60.0,0.38333333333333336
2026-01-20T23:00:24+00:00,SAT-45225,303.3839255413738,38.46116274401709,841.581520520853,-5.212443445199479,182561.8180647978,10.5,10500182561.818066,47.655,-122.3035,60.0,0.4
2026-01-20T23:00:25+00:00,SAT-45225,303.4652852980571,38.80409159954797,836.3830509172132,-5.1864503701367815,181651.4306255036,10.5,10500181651.430626,47.655,-122.3035,60.0,0.4166666666666667
2026-01-20T23:00:26+00:00,SAT-45225,303.54838891408167,39.150867531225664,831.2105047047885,-5.15996297592332,180723.73003858177,10.5,10500180723.730038,47.655,-122.3035,60.0,0.43333333333333335
2026-01-20T23:00:27+00:00,SAT-45225,303.63329534262266,39.50154045034116,826.0643748775285,-5.132971444904165,179778.37244822795,10.5,10500179778.372448,47.655,-122.3035,60.0,0.45
2026-01-20T23:00:28+00:00,SAT-45225,303.7200662077558,39.85616039188691,820.9451642207182,-5.1054658246113345,178815.00927691453,10.5,10500178815.009277,47.655,-122.3035,60.0,0.4666666666666667
2026-01-20T23:00:29+00:00,SAT-45225,303.80876595675716,40.21477747255948,815.8533854454283,-5.0774360512946375,177833.28804954025,10.5,10500177833.28805,47.655,-122.3035,60.0,0.48333333333333334
2026-01-20T23:00:30+00:00,SAT-45225,303.8994620232713,40.57744184711125,810.789561299501,-5.048871870121255,176832.84959848184,10.5,10500176832.849598,47.655,-122.3035,60.0,0.5
2026-01-20T23:00:31+00:00,SAT-45225,303.99222500018476,40.94420365545433,805.7542247581193,-5.019762925726903,175813.33123507892,10.5,10500175813.331236,47.655,-122.3035,60.0,0.5166666666666667
2026-01-20T23:00:32+00:00,SAT-45225,304.08712882633364,41.31511297227218,800.7479191240689,-4.9900987194737985,174774.36525262715,10.5,10500174774.365253,47.655,-122.3035,60.0,0.5333333333333333
2026-01-20T23:00:33+00:00,SAT-45225,304.18425098560124,41.69021974956109,795.7711981706286,-4.959868634646402,173715.57980883968,10.5,10500173715.57981,47.655,-122.3035,60.0,0.55
2026-01-20T23:00:34+00:00,SAT-45225,304.2836727207001,42.06957375669291,790.8246262593295,-4.9290619456857865,172636.59924927383,10.5,10500172636.599249,47.655,-122.3035,60.0,0.5666666666666667
2026-01-20T23:00:35+00:00,SAT-45225,304.3854792626,42.453224516653144,785.9087784485097,-4.897667753040427,171537.04182553012,10.5,10500171537.041826,47.655,-122.3035,60.0,0.5833333333333334
2026-01-20T23:00:36+00:00,SAT-45225,304.4897600752386,42.84122123231364,781.0242406668372,-4.865675131955798,170416.5249064934,10.5,10500170416.524906,47.655,-122.3035,60.0,0.6
2026-01-20T23:00:37+00:00,SAT-45225,304.59660912166237,43.23361271913602,776.1716097384468,-4.833072997057695,169274.66023546795,10.5,10500169274.660236,47.655,-122.3035,60.0,0.6166666666666667
2026-01-20T23:00:38+00:00,SAT-45225,304.7061251469356,43.63044732190457,771.3514935431301,-4.799850172964537,168111.05640331897,10.5,10500168111.056404,47.655,-122.3035,60.0,0.6333333333333333
2026-01-20T23:00:39+00:00,SAT-45225,304.81841198399223,44.0317728310907,766.5645111060999,-4.765995444629211,166925.32061165702,10.5,10500166925.320612,47.655,-122.3035,60.0,0.65
2026-01-20T23:00:40+00:00,SAT-45225,304.93357888428704,44.43763639742911,761.8112926375504,-4.731497441440691,165717.05461358622,10.5,10500165717.054613,47.655,-122.3035,60.0,0.6666666666666666
2026-01-20T23:00:41+00:00,SAT-45225,305.05174087081053,44.84808443026655,757.0924796878035,-4.696344814207507,164485.86091241435,10.5,10500164485.860912,47.655,-122.3035,60.0,0.6833333333333333
2026-01-20T23:00:42+00:00,SAT-45225,305.17301912370715,45.263162504033716,752.4087251259473,-4.660526091337906,163231.33772447341,10.5,10500163231.337725,47.655,-122.3035,60.0,0.7
2026-01-20T23:00:43+00:00,SAT-45225,305.2975413922224,45.68291524519757,747.7606932619077,-4.624029795462819,161953.0830637494,10.5,10500161953.083063,47.655,-122.3035,60.0,0.7166666666666667
2026-01-20T23:00:44+00:00,SAT-45225,305.4254424432122,46.10738622161149,743.1490598522105,-4.586844409726282,160650.69356123017,10.5,10500160650.693562,47.655,-122.3035,60.0,0.7333333333333333
2026-01-20T23:00:45+00:00,SAT-45225,305.5568645449998,46.53661782086303,738.574512139362,-4.54895837337904,159323.7643105749,10.5,10500159323.76431,47.655,-122.3035,60.0,0.75
2026-01-20T23:00:46+00:00,SAT-45225,305.6919579908982,46.970651119430734,734.0377488956258,-4.510360174258663,157971.89210715887,10.5,10500157971.892107,47.655,-122.3035,60.0,0.7666666666666667
2026-01-20T23:00:47+00:00,SAT-45225,305.83088166929633,47.40952575141451,729.5394803745646,-4.471038267059422,156594.67258553894,10.5,10500156594.672586,47.655,-122.3035,60.0,0.7833333333333333
2026-01-20T23:00:48+00:00,SAT-45225,305.9738036792007,47.85327975989428,725.0804283440957,-4.43098116825047,155191.70354388945,10.5,10500155191.703545,47.655,-122.3035,60.0,0.8
2026-01-20T23:00:49+00:00,SAT-45225,306.12090200166097,48.30194944711292,720.6613260248821,-4.390177430810441,153762.5840591014,10.5,10500153762.584059,47.655,-122.3035,60.0,0.8166666666666667
2026-01-20T23:00:50+00:00,SAT-45225,306.27236522849665,48.75556921140045,716.2829180539189,-4.3486156679824255,152306.91531878186,10.5,10500152306.91532,47.655,-122.3035,60.0,0.8333333333333334
2026-01-20T23:00:51+00:00,SAT-45225,306.42839335590827,49.21417137484452,711.9459604244337,-4.306284589011079,150824.30187291876,10.5,10500150824.301872,47.655,-122.3035,60.0,0.85
2026-01-20T23:00:52+00:00,SAT-45225,306.58919865018703,49.677786002345,707.6512203901382,-4.2631730269338615,149314.35260724786,10.5,10500149314.352608,47.655,-122.3035,60.0,0.8666666666666667
2026-01-20T23:00:53+00:00,SAT-45225,306.7550065927304,50.14644071068588,703.3994763417717,-4.21926990325342,147776.6795059298,10.5,10500147776.679506,47.655,-122.3035,60.0,0.8833333333333333
2026-01-20T23:00:54+00:00,SAT-45225,306.92605691011715,50.62016045976631,699.1915177188697,-4.174564354173775,146210.90207287547,10.5,10500146210.902073,47.655,-122.3035,60.0,0.9
2026-01-20T23:00:55+00:00,SAT-45225,307.10260470536855,51.09896734287547,695.0281447956396,-4.129045664443074,144616.6450146397,10.5,10500144616.645014,47.655,-122.3035,60.0,0.9166666666666666
2026-01-20T23:00:56+00:00,SAT-45225,307.2849216929966,51.58288035400104,690.9101685328146,-4.082703315949186,142993.53994244398,10.5,10500142993.539942,47.655,-122.3035,60.0,0.9333333333333333
2026-01-20T23:00:57+00:00,SAT-45225,307.4732975542111,52.07191514346256,686.8384103810424,-4.035527042044833,141341.22727487274,10.5,10500141341.227274,47.655,-122.3035,60.0,0.95
2026-01-20T23:00:58+00:00,SAT-45225,307.6680414265249,52.566083761762584,682.8137020300944,-3.987506857064738,139659.35727168876,10.5,10500139659.357271,47.655,-122.3035,60.0,0.9666666666666667
2026-01-20T23:00:59+00:00,SAT-45225,307.86948354155294,53.06539438778073,678.8368851286375,-3.9386330405281296,137947.58948053778,10.5,10500137947.589481,47.655,-122.3035,60.0,0.9833333333333333
2026-01-20T23:01:00+00:00,SAT-45225,308.07797702595883,53.56985103403103,674.9088110197596,-3.88889621863673,136205.59559135296,10.5,10500136205.59559,47.655,-122.3035,60.0,1.0
2026-01-20T23:01:01+00:00,SAT-45225,308.29389988956603,54.079453239393004,671.0303403952173,-3.8382873587045445,134433.05924126256,10.5,10500134433.05924,47.655,-122.3035,60.0,1.0166666666666666
2026-01-20T23:01:02+00:00,SAT-45225,308.51765721847283,54.59419573676154,667.2023429552379,-3.7867978510967304,132629.67888443568,10.5,10500132629.678885,47.655,-122.3035,60.0,1.0333333333333334
2026-01-20T23:01:03+00:00,SAT-45225,308.7496836026938,55.11406810494231,663.4256969866019,-3.734419496068493,130795.1673311247,10.5,10500130795.167332,47.655,-122.3035,60.0,1.05
2026-01-20T23:01:04+00:00,SAT-45225,308.99044582155716,55.63905439012261,659.7012889538526,-3.681144556490715,128929.25359433994,10.5,10500128929.253593,47.655,-122.3035,60.0,1.0666666666666667
2026-01-20T23:01:05+00:00,SAT-45225,309.2404458226636,56.16913270284728,656.0300130379196,-3.6269658085927916,127031.6846670783,10.5,10500127031.684668,47.655,-122.3035,60.0,1.0833333333333333
2026-01-20T23:01:06+00:00,SAT-45225,309.50022403178025,56.704274787666655,652.4127706241384,-3.5718765670141686,125102.22639973406,10.5,10500125102.2264,47.655,-122.3035,60.0,1.1
2026-01-20T23:01:07+00:00,SAT-45225,309.77036303397455,57.24444555852769,648.8504697652814,-3.5158707255285058,123140.66492643158,10.5,10500123140.664927,47.655,-122.3035,60.0,1.1166666666666667
2026-01-20T23:01:08+00:00,SAT-45225,310.0514916756043,57.789602598201775,645.3440246039779,-3.4589428078369435,121146.80844401999,10.5,10500121146.808443,47.655,-122.3035,60.0,1.1333333333333333
2026-01-20T23:01:09+00:00,SAT-45225,310.344289643166,58.339695618995584,641.8943547444745,-3.401087991953239,119120.4880661441,10.5,10500119120.488066,47.655,-122.3035,60.0,1.15
2026-01-20T23:01:10+00:00,SAT-45225,310.6494925809912,58.89466587552383,638.5023846000776,-3.3423021658436762,117061.55977198933,10.5,10500117061.559772,47.655,-122.3035,60.0,1.1666666666666667
2026-01-20T23:01:11+00:00,SAT-45225,310.96789782332763,59.45444552846346,635.169042685103,-3.2825819528825204,114969.9052978393,10.5,10500114969.905298,47.655,-122.3035,60.0,1.1833333333333333
2026-01-20T23:01:12+00:00,SAT-45225,311.30037082272884,60.01895694747687,631.8952608814398,-3.2219247851947355,112845.43470584814,10.5,10500112845.434706,47.655,-122.3035,60.0,1.2
2026-01-20T23:01:13+00:00,SAT-45225,311.64785237685453,60.58811195322051,628.6819736319684,-3.160328901664527,110688.08631429124,10.5,10500110688.086315,47.655,-122.3035,60.0,1.2166666666666666
2026-01-20T23:01:14+00:00,SAT-45225,312.0113667585097,61.161810976100284,625.5301171359638,-3.0977934453540827,108497.83010958158,10.5,10500108497.830109,47.655,-122.3035,60.0,1.2333333333333334
2026-01-20T23:01:15+00:00,SAT-45225,312.39203088981867,61.739942137796234,622.4406284473413,-3.034318451680731,106274.66733218377,10.5,10500106274.667332,47.655,-122.3035,60.0,1.25
2026-01-20T23:01:16+00:00,SAT-45225,312.79106469906293,62.322380223059895,619.4144445846936,-2.9699049176837344,104018.6329026303,10.5,10500104018.632902,47.655,-122.3035,60.0,1.2666666666666666
2026-01-20T23:01:17+00:00,SAT-45225,313.2098028436707,62.9089855403371,616.4525015722472,-2.9045548515820734,101729.7971572446,10.5,10500101729.797157,47.655,-122.3035,60.0,1.2833333333333334
2026-01-20T23:01:18+00:00,SAT-45225,313.64970800076895,63.499602649576346,613.5557334313936,-2.838271299066685,99408.26676900654,10.5,10500099408.26677,47.655,-122.3035,60.0,1.3
2026-01-20T23:01:19+00:00,SAT-45225,314.1123859564724,64.09405893058418,610.7250711459984,-2.7710583884873006,97054.18633018664,10.5,10500097054.18633,47.655,-122.3035,60.0,1.3166666666666667
2026-01-20T23:01:20+00:00,SAT-45225,314.5996027694179,64.69216296912995,607.9614415826445,-2.702921340780518,94667.7387000691,10.5,10500094667.7387,47.655,-122.3035,60.0,1.3333333333333333
2026-01-20T23:01:21+00:00,SAT-45225,315.11330431746654,65.2937027216711,605.2657664009754,-2.6338665772496195,92249.14877985693,10.5,10500092249.148779,47.655,-122.3035,60.0,1.35
2026-01-20T23:01:22+00:00,SAT-45225,315.65563861259466,65.89844344251183,602.6389608565457,-2.563901673366509,89798.6818946204,10.5,10500089798.681894,47.655,-122.3035,60.0,1.3666666666666667
2026-01-20T23:01:23+00:00,SAT-45225,316.22898127737403,66.50612529480054,600.0819326497472,-2.4930354393677367,87316.64661611078,10.5,10500087316.646616,47.655,-122.3035,60.0,1.3833333333333333
2026-01-20T23:01:24+00:00,SAT-45225,316.83596469409923,67.11646061865599,597.5955806943534,-2.421277944118219,84803.39559856874,10.5,10500084803.3956,47.655,-122.3035,60.0,1.4
2026-01-20T23:01:25+00:00,SAT-45225,317.4795113746758,67.72913077927693,595.1807938622671,-2.3486405239754786,82259.32588918738,10.5,10500082259.32589,47.655,-122.3035,60.0,1.4166666666666667
2026-01-20T23:01:26+00:00,SAT-45225,318.1628721823707,68.34378251247927,592.838449719424,-2.2751358284802508,79684.88052839087,10.5,10500079684.880527,47.655,-122.3035,60.0,1.4333333333333333
2026-01-20T23:01:27+00:00,SAT-45225,318.88967013213323,68.96002368238075,590.569413216131,-2.200777827114796,77080.54878653871,10.5,10500077080.548786,47.655,-122.3035,60.0,1.45
2026-01-20T23:01:28+00:00,SAT-45225,319.66395055714634,69.57741832795028,588.3745353706635,-2.125581847903582,74446.8675158853,10.5,10500074446.867516,47.655,-122.3035,60.0,1.4666666666666666
2026-01-20T23:01:29+00:00,SAT-45225,320.4902385224903,70.19548087033228,586.2546519143638,-2.049564551832554,71784.42025463434,10.5,10500071784.420254,47.655,-122.3035,60.0,1.4833333333333334
2026-01-20T23:01:30+00:00,SAT-45225,321.37360438182355,70.81366929880609,584.2105819622547,-1.9727439891030916,69093.83919719042,10.5,10500069093.839197,47.655,-122.3035,60.0,1.5
2026-01-20T23:01:31+00:00,SAT-45225,322.31973843342655,71.43137716201201,582.2431266275476,-1.8951395664929889,66375.80405100246,10.5,10500066375.80405,47.655,-122.3035,60.0,1.5166666666666666
2026-01-20T23:01:32+00:00,SAT-45225,323.3350354921251,72.04792410487751,580.3530676687034,-1.8167720775571634,63631.04309432032,10.5,10500063631.043095,47.655,-122.3035,60.0,1.5333333333333334
2026-01-20T23:01:33+00:00,SAT-45225,324.42669004811734,72.66254469307711,578.5411661063713,-1.7376636693761052,60860.33201158485,10.5,10500060860.332012,47.655,-122.3035,60.0,1.55
2026-01-20T23:01:34+00:00,SAT-45225,325.60280219956763,73.27437518162712,576.8081608734954,-1.6578378735599515,58064.49497932163,10.5,10500058064.49498,47.655,-122.3035,60.0,1.5666666666666667
2026-01-20T23:01:35+00:00,SAT-45225,326.8724938488956,73.8824378772898,575.1547674344928,-1.577319539838012,55244.40234016536,10.5,10500055244.40234,47.655,-122.3035,60.0,1.5833333333333333
2026-01-20T23:01:36+00:00,SAT-45225,328.2460332497568,74.48562264480019,573.5816764706709,-1.4961348603867406,52400.97145492825,10.5,10500052400.971455,47.655,-122.3035,60.0,1.6
2026-01-20T23:01:37+00:00,SAT-45225,329.73496401598203,75.08266514085854,572.0895525413782,-1.414311335339528,49535.16549460709,10.5,10500049535.165495,47.655,-122.3035,60.0,1.6166666666666667
2026-01-20T23:01:38+00:00,SAT-45225,331.3522313183567,75.67212130746294,570.6790327795537,-1.3318777194450997,46647.991572134706,10.5,10500046647.991571,47.655,-122.3035,60.0,1.6333333333333333
2026-01-20T23:01:39+00:00,SAT-45225,333.1122929970221,76.25233772421656,569.3507256404754,-1.2488640212918425,43740.500715212605,10.5,10500043740.500715,47.655,-122.3035,60.0,1.65
2026-01-20T23:01:40+00:00,SAT-45225,335.031196018423,76.82141761045723,568.1052096512813,-1.1653014369682928,40813.785542820675,10.5,10500040813.785543,47.655,-122.3035,60.0,1.6666666666666667
2026-01-20T23:01:41+00:00,SAT-45225,337.126588007583,77.37718255239963,566.9430322266538,-1.0812223071104334,37868.97876083177,10.5,10500037868.978762,47.655,-122.3035,60.0,1.6833333333333333
2026-01-20T23:01:42+00:00,SAT-45225,339.41761919729083,77.91713067245291,565.8647085273402,-0.9966600776443847,34907.25178705476,10.5,10500034907.251787,47.655,-122.3035,60.0,1.7
2026-01-20T23:01:43+00:00,SAT-45225,341.9246714253481,78.43839297018519,564.8707203578249,-0.9116492319311886,31929.812374657806,10.5,10500031929.812374,47.655,-122.3035,60.0,1.7166666666666666
2026-01-20T23:01:44+00:00,SAT-45225,344.66882873102736,78.93769114934693,563.961515131677,-0.8262252294139456,28937.90246333158,10.5,10500028937.902464,47.655,-122.3035,60.0,1.7333333333333334
2026-01-20T23:01:45+00:00,SAT-45225,347.67098242519023,79.41130261562627,563.1375048980839,-0.7404244431929273,25932.795992905656,10.5,10500025932.795994,47.655,-122.3035,60.0,1.75
2026-01-20T23:01:46+00:00,SAT-45225,350.950450514884,79.85504152034099,562.3990654306444,-0.6542840783150817,22915.796041501344,10.5,10500022915.796041,47.655,-122.3035,60.0,1.7666666666666666
2026-01-20T23:01:47+00:00,SAT-45225,354.5230028232107,80.26426857231856,561.7465353976522,-0.5678421142996498,19888.232812535673,10.5,10500019888.232813,47.655,-122.3035,60.0,1.7833333333333334
2026-01-20T23:01:48+00:00,SAT-45225,358.3982437667865,80.63394617070493,561.1802155896986,-0.4811372084614887,16851.46024869522,10.5,10500016851.460249,47.655,-122.3035,60.0,1.8
2026-01-20T23:01:49+00:00,SAT-45225,2.5764424739108427,80.95875752098229,560.7003682436963,-0.3942086180312845,13806.853304256529,10.5,10500013806.853304,47.655,-122.3035,60.0,1.8166666666666667
2026-01-20T23:01:50+00:00,SAT-45225,7.045133314854309,81.23330625348616,560.307216444569,-0.30709611541015835,10755.804976943959,10.5,10500010755.804977,47.655,-122.3035,60.0,1.8333333333333333
2026-01-20T23:01:51+00:00,SAT-45225,11.776113992725403,81.45240330199577,560.000943611465,-0.21983989714464885,7699.723119848509,10.5,10500007699.72312,47.655,-122.3035,60.0,1.85
2026-01-20T23:01:52+00:00,SAT-45225,16.723742058117157,81.61142837957603,559.7816930747466,-0.13248049534877013,4640.027339053627,10.5,10500004640.02734,47.655,-122.3035,60.0,1.8666666666666667
2026-01-20T23:01:53+00:00,SAT-45225,21.825490830906286,81.70672629693941,559.6495677413237,-0.04505867887940743,1578.1455323795303,10.5,10500001578.145533,47.655,-122.3035,60.0,1.8833333333333333
2026-01-20T23:01:54+00:00,SAT-45225,27.00538344851679,81.73597216573452,559.6046298585442,0.04238463609295548,-1484.4892428082114,10.5,10499998515.510757,47.655,-122.3035,60.0,1.9
2026-01-20T23:01:55+00:00,SAT-45225,32.18015015371302,81.69842804132695,559.6469008672769,0.12980848435767647,-4546.442211550241,10.5,10499995453.557789,47.655,-122.3035,60.0,1.9166666666666667
2026-01-20T23:01:56+00:00,SAT-45225,37.26700939142598,81.59502829378691,559.7763613530014,0.21717194612593757,-7606.28018975162,10.5,10499992393.71981,47.655,-122.3035,60.0,1.9333333333333333
2026-01-20T23:01:57+00:00,SAT-45225,42.191337145934035,81.4282714648676,559.9929510911095,0.3044342432332532,-10662.574953600597,10.5,10499989337.425047,47.655,-122.3035,60.0,1.95
2026-01-20T23:01:58+00:00,SAT-45225,46.89253405890133,81.2019466976831,560.2965691881487,0.3915548316861627,-13713.906480945254,10.5,10499986286.09352,47.655,-122.3035,60.0,1.9666666666666666
2026-01-20T23:01:59+00:00,SAT-45225,51.32709953204704,80.9207607533779,560.6870743153655,0.4784934989827586,-16758.866359870088,10.5,10499983241.13364,47.655,-122.3035,60.0,1.9833333333333334
2026-01-20T23:02:00+00:00,SAT-45225,55.468868925487726,80.58994290863697,561.1642850393097,0.565210454958622,-19796.060970504906,10.5,10499980203.93903,47.655,-122.3035,60.0,2.0
2026-01-20T23:02:01+00:00,SAT-45225,59.3070991367943,80.21489100424617,561.7279802430376,0.6516664105821682,-22824.114244771183,10.5,10499977175.885756,47.655,-122.3035,60.0,2.0166666666666666
2026-01-20T23:02:02+00:00,SAT-45225,62.843374580383,79.800894943047,562.377899625903,0.7378226873581635,-25841.671498155953,10.5,10499974158.328503,47.655,-122.3035,60.0,2.033333333333333
2026-01-20T23:02:03+00:00,SAT-45225,66.0882086013927,79.35294742755039,563.1137443124558,0.8236412754799458,-28847.401466448602,10.5,10499971152.598534,47.655,-122.3035,60.0,2.05
2026-01-20T23:02:04+00:00,SAT-45225,69.0579289634528,78.87563353940004,563.9351775193387,0.9090849306243909,-31839.999695909974,10.5,10499968160.000303,47.655,-122.3035,60.0,2.066666666666667
2026-01-20T23:02:05+00:00,SAT-45225,71.77213746953932,78.37308203108269,564.8418253187178,0.9941172435399035,-34818.19098053823,10.5,10499965181.80902,47.655,-122.3035,60.0,2.0833333333333335
2026-01-20T23:02:06+00:00,SAT-45225,74.25181168363989,77.84895975985224,565.8332774711159,1.078702710772186,-37780.7318391844,10.5,10499962219.26816,47.655,-122.3035,60.0,2.1
2026-01-20T23:02:07+00:00,SAT-45225,76.5179897017369,77.30649314229896,566.9090883287815,1.1628068127542395,-40726.41325059456,10.5,10499959273.58675,47.655,-122.3035,60.0,2.1166666666666667
2026-01-20T23:02:08+00:00,SAT-45225,78.59092594317191,76.7485043807069,568.068777816938,1.2463960492774981,-43654.061895759,10.5,10499956345.938105,47.655,-122.3035,60.0,2.1333333333333333
2026-01-20T23:02:09+00:00,SAT-45225,80.48959842060295,76.1774540370059,569.3118324504101,1.3294380362297475,-46562.543546083296,10.5,10499953437.456453,47.655,-122.3035,60.0,2.15
2026-01-20T23:02:10+00:00,SAT-45225,82.23146287079399,75.5954845718586,570.6377064467272,1.41190152048285,-49450.763584819484,10.5,10499950549.236416,47.655,-122.3035,60.0,2.1666666666666665
2026-01-20T23:02:11+00:00,SAT-45225,83.83237096915599,75.00446179101735,572.0458228540759,1.493756450239002,-52317.66947088949,10.5,10499947682.330528,47.655,-122.3035,60.0,2.183333333333333
2026-01-20T23:02:12+00:00,SAT-45225,85.3065918195326,74.40601259590404,573.5355747494102,1.574974001930105,-55162.25168101495,10.5,10499944837.74832,47.655,-122.3035,60.0,2.2
2026-01-20T23:02:13+00:00,SAT-45225,86.66689396559931,73.80155844139149,575.1063264633877,1.655526629274445,-57983.545427889556,10.5,10499942016.454573,47.655,-122.3035,60.0,2.216666666666667
2026-01-20T23:02:14+00:00,SAT-45225,87.92465923171393,73.19234444135495,576.7574148542317,1.7353880859843926,-60780.631455498864,10.5,10499939219.368544,47.655,-122.3035,60.0,2.2333333333333334
2026-01-20T23:02:15+00:00,SAT-45225,89.09000978556135,72.5794643901035,578.4881506042412,1.814533453906977,-63552.63702472214,10.5,10499936447.362976,47.655,-122.3035,60.0,2.25
2026-01-20T23:02:16+00:00,SAT-45225,90.17193690696965,71.96388209958066,580.2978195443636,1.8929391424587476,-66298.73589353889,10.5,10499933701.264107,47.655,-122.3035,60.0,2.2666666666666666
2026-01-20T23:02:17+00:00,SAT-45225,91.1784246861004,71.34644951260104,582.1856839782071,1.9705829513871034,-69018.15051519603,10.5,10499930981.849485,47.655,-122.3035,60.0,2.283333333333333
2026-01-20T23:02:18+00:00,SAT-45225,92.11656504331798,70.72792201583196,584.150984068642,2.04744402138073,-71710.15030837656,10.5,10499928289.849691,47.655,-122.3035,60.0,2.3
2026-01-20T23:02:19+00:00,SAT-45225,92.99266235601144,70.10897140131135,586.1929391751486,2.1235028909481635,-74374.05364932734,10.5,10499925625.94635,47.655,-122.3035,60.0,2.316666666666667
2026-01-20T23:02:20+00:00,SAT-45225,93.81232731461958,69.49019680731892,588.3107492478896,2.1987414514736248,-77009.22629772447,10.5,10499922990.773703,47.655,-122.3035,60.0,2.3333333333333335
2026-01-20T23:02:21+00:00,SAT-45225,94.58056024682216,68.87213398846487,590.503596176958,2.2731429585531204,-79615.08179371132,10.5,10499920384.918207,47.655,-122.3035,60.0,2.35
2026-01-20T23:02:22+00:00,SAT-45225,95.30182461444859,68.25526316817682,592.7706451529331,2.3466920549399264,-82191.08226154651,10.5,10499917808.917738,47.655,-122.3035,60.0,2.3666666666666667
2026-01-20T23:02:23+00:00,SAT-45225,95.98011154753809,67.64001570111695,595.1110460503172,2.4193746881968496,-84736.7355254378,10.5,10499915263.264475,47.655,-122.3035,60.0,2.3833333333333333
2026-01-20T23:02:24+00:00,SAT-45225,96.6189963127617,67.02677976614115,597.5239347288486,2.4911781706310947,-87251.59720871462,10.5,10499912748.402792,47.655,-122.3035,60.0,2.4
2026-01-20T23:02:25+00:00,SAT-45225,97.22168767381925,66.41590521188031,600.008434394587,2.562091091691534,-89735.26766560988,10.5,10499910264.732334,47.655,-122.3035,60.0,2.4166666666666665
2026-01-20T23:02:26+00:00,SAT-45225,97.79107096405826,65.80770772766311,602.5636568736303,2.6321033363346245,-92187.39262451211,10.5,10499907812.607376,47.655,-122.3035,60.0,2.433333333333333
2026-01-20T23:02:27+00:00,SAT-45225,98.32974568859306,65.2024724231804,605.1887039041504,2.7012060347743057,-94607.66142799433,10.5,10499905392.338572,47.655,-122.3035,60.0,2.45
2026-01-20T23:02:28+00:00,SAT-45225,98.84005834562193,64.6004569265385,607.8826683783117,2.769391542426633,-96995.80633039022,10.5,10499903004.19367,47.655,-122.3035,60.0,2.466666666666667
2026-01-20T23:02:29+00:00,SAT-45225,99.32413110064621,64.00189406979051,610.6446355641893,2.836653421303849,-99351.60184613588,10.5,10499900648.398153,47.655,-122.3035,60.0,2.4833333333333334
2026-01-20T23:02:30+00:00,SAT-45225,99.78388686142533,63.406994225820625,613.4736843091288,2.9029863701473797,-101674.86230273172,10.5,10499898325.137697,47.655,-122.3035,60.0,2.5
2026-01-20T23:02:31+00:00,SAT-45225,100.22107122527768,62.815947360476784,616.3688881734299,2.9683862128455107,-103965.4414350806,10.5,10499896034.558565,47.655,-122.3035,60.0,2.5166666666666666
2026-01-20T23:02:32+00:00,SAT-45225,100.63727172312066,62.22892483122139,619.3293165524761,3.032849851938386,-106223.2307570361,10.5,10499893776.769243,47.655,-122.3035,60.0,2.533333333333333
2026-01-20T23:02:33+00:00,SAT-45225,101.03393471439063,61.646080976817,622.3540357524946,3.0963752621027627,-108448.15933321115,10.5,10499891551.840668,47.655,-122.3035,60.0,2.55
2026-01-20T23:02:34+00:00,SAT-45225,101.41238024760545,61.06755452116854,625.4421100598197,3.1589613691979923,-110640.1895426566,10.5,10499889359.810457,47.655,-122.3035,60.0,2.566666666666667
2026-01-20T23:02:35+00:00,SAT-45225,101.77381514132531,60.49346983874033,628.5926026895232,3.2206081001535054,-112799.31882613206,10.5,10499887200.681173,47.655,-122.3035,60.0,2.5833333333333335
2026-01-20T23:02:36+00:00,SAT-45225,102.11934453594735,59.923938070595234,631.8045767838042,3.281316283237168,-114925.57619308175,10.5,10499885074.423807,47.655,-122.3035,60.0,2.6
2026-01-20T23:02:37+00:00,SAT-45225,102.44998209833707,59.35905813780005,635.0770963109078,3.341087629683892,-117019.02157819082,10.5,10499882980.978422,47.655,-122.3035,60.0,2.6166666666666667
2026-01-20T23:02:38+00:00,SAT-45225,102.76665905933726,58.79891765213799,638.4092269457266,3.3999246653311883,-119079.74344697317,10.5,10499880920.256554,47.655,-122.3035,60.0,2.6333333333333333
2026-01-20T23:02:39+00:00,SAT-45225,103.0702322282862,58.24359374592218,641.8000368822197,3.4578307461432454,-121107.85933949039,10.5,10499878892.140661,47.655,-122.3035,60.0,2.65
2026-01-20T23:02:40+00:00,SAT-45225,103.36149111858276,57.69315381795273,645.2485976613132,3.5148099402228823,-123103.51173791125,10.5,10499876896.488262,47.655,-122.3035,60.0,2.6666666666666665
2026-01-20T23:02:41+00:00,SAT-45225,103.64116428464843,57.14765622706045,648.75398488113,3.5708670347634857,-125066.86830999798,10.5,10499874933.13169,47.655,-122.3035,60.0,2.683333333333333
2026-01-20T23:02:42+00:00,SAT-45225,103.90992497567855,56.60715092038775,652.3152789141529,3.6260074708098564,-126998.1196241551,10.5,10499873001.880375,47.655,-122.3035,60.0,2.7
2026-01-20T23:02:43+00:00,SAT-45225,104.16839618414382,56.07168001506901,655.9315655593224,3.6802373381785536,-128897.4789715184,10.5,10499871102.521029,47.655,-122.3035,60.0,2.716666666666667
2026-01-20T23:02:44+00:00,SAT-45225,104.41715516462804,55.54127832995312,659.6019366890702,3.7335632855524157,-130765.17921708479,10.5,10499869234.820784,47.655,-122.3035,60.0,2.7333333333333334
2026-01-20T23:02:45+00:00,SAT-45225,104.6567374802849,55.01597388503869,663.3254908066858,3.7859925301890893,-132601.47313974603,10.5,10499867398.526861,47.655,-122.3035,60.0,2.75
2026-01-20T23:02:46+00:00,SAT-45225,104.88764063817652,54.495788358186374,667.1013336133684,3.8375327490856326,-134406.62962041274,10.5,10499865593.37038,47.655,-122.3035,60.0,2.7666666666666666
2026-01-20T23:02:47+00:00,SAT-45225,105.11032735369395,53.98073751974164,670.9285784667333,3.8881921421357517,-136180.93585404803,10.5,10499863819.064146,47.655,-122.3035,60.0,2.783333333333333
2026-01-20T23:02:48+00:00,SAT-45225,105.32522849548077,53.4708316244303,674.8063469023066,3.9379792909274167,-137924.69240416272,10.5,10499862075.307596,47.655,-122.3035,60.0,2.8
2026-01-20T23:02:49+00:00,SAT-45225,105.53274573595493,52.9660757914391,678.733769014196,3.986903232958829,-139638.2158021724,10.5,10499860361.784199,47.655,-122.3035,60.0,2.816666666666667
2026-01-20T23:02:50+00:00,SAT-45225,105.73325395069543,52.46647034625382,682.7099839097798,4.034973285708495,-141321.83238558721,10.5,10499858678.167614,47.655,-122.3035,60.0,2.8333333333333335
2026-01-20T23:02:51+00:00,SAT-45225,105.92710338227748,51.97201115895533,686.7341399889358,4.08219916677736,-142975.88250589772,10.5,10499857024.117495,47.655,-122.3035,60.0,2.85
2026-01-20T23:02:52+00:00,SAT-45225,106.11462160724965,51.48268994306449,690.8053953430906,4.1285908565190415,-144600.71571730444,10.5,10499855399.284283,47.655,-122.3035,60.0,2.8666666666666667
2026-01-20T23:02:53+00:00,SAT-45225,106.29611531584567,50.99849454937805,694.9229180172689,4.174158604396379,-146196.69099935124,10.5,10499853803.309,47.655,-122.3035,60.0,2.8833333333333333
2026-01-20T23:02:54+00:00,SAT-45225,106.47187193035113,50.51940923808003,699.0858862784806,4.218912915704716,-147764.17629191832,10.5,10499852235.823708,47.655,-122.3035,60.0,2.9
2026-01-20T23:02:55+00:00,SAT-45225,106.64216107762381,50.04541493331777,703.2934888708685,4.2628644680872565,-149303.54557123713,10.5,10499850696.45443,47.655,-122.3035,60.0,2.9166666666666665
2026-01-20T23:02:56+00:00,SAT-45225,106.80723592848261,49.576489469376725,707.5449251875921,4.306024155001974,-150815.18037228513,10.5,10499849184.819628,47.655,-122.3035,60.0,2.933333333333333
2026-01-20T23:02:57+00:00,SAT-45225,106.96733442154238,49.11260781513499,711.8394054860655,4.348403023572798,-152299.46761207172,10.5,10499847700.532389,47.655,-122.3035,60.0,2.95
2026-01-20T23:02:58+00:00,SAT-45225,107.12268037956346,48.65374228993697,716.176151041212,4.39001223210665,-153756.79810170483,10.5,10499846243.201899,47.655,-122.3035,60.0,2.966666666666667
2026-01-20T23:02:59+00:00,SAT-45225,107.27348452950575,48.19986276922348,720.5543942563461,4.430863079016603,-155187.56755940247,10.5,10499844812.43244,47.655,-122.3035,60.0,2.9833333333333334
2026-01-20T23:03:00+00:00,SAT-45225,107.41994543790102,47.750936873320235,724.9733788029068,4.470966921934766,-156592.17377748387,10.5,10499843407.826223,47.655,-122.3035,60.0,3.0
2026-01-20T23:03:01+00:00,SAT-45225,107.5622503662346,47.30693015171712,729.4323596795173,4.510335216973532,-157971.0179974644,10.5,10499842028.982002,47.655,-122.3035,60.0,3.0166666666666666
2026-01-20T23:03:02+00:00,SAT-45225,107.70057605757907,46.86780625113346,733.9306033102004,4.548979439279783,-159324.50212752758,10.5,10499840675.497873,47.655,-122.3035,60.0,3.033333333333333
2026-01-20T23:03:03+00:00,SAT-45225,107.83508945738092,46.43352708006472,738.4673875633628,4.586911122231197,-160653.03011534593,10.5,10499839346.969885,47.655,-122.3035,60.0,3.05
2026-01-20T23:03:04+00:00,SAT-45225,107.96594837785001,46.004052958629494,743.0420018098691,4.624141802227588,-161957.00601443977,10.5,10499838042.993986,47.655,-122.3035,60.0,3.066666666666667
2026-01-20T23:03:05+00:00,SAT-45225,108.09330210850167,45.579342763623885,747.6537469260563,4.660683005727733,-163236.83353015236,10.5,10499836763.16647,47.655,-122.3035,60.0,3.0833333333333335
2026-01-20T23:03:06+00:00,SAT-45225,108.21729197893876,45.15935406506037,752.3019352838198,4.696546247573267,-164492.91596094557,10.5,10499835507.08404,47.655,-122.3035,60.0,3.1
2026-01-20T23:03:07+00:00,SAT-45225,108.33805187817809,44.74404325375242,756.9858907390269,4.731743036191715,-165725.65638063184,10.5,10499834274.34362,47.655,-122.3035,60.0,3.1166666666666667
2026-01-20T23:03:08+00:00,SAT-45225,108.45570873469553,44.33336565998913,761.7049486251192,4.766284805311563,-166935.45524674744,10.5,10499833064.544754,47.655,-122.3035,60.0,3.1333333333333333
2026-01-20T23:03:09+00:00,SAT-45225,108.57038295884071,43.92727567015705,766.4584556786149,4.800182937143578,-168122.7112124601,10.5,10499831877.288788,47.655,-122.3035,60.0,3.15
2026-01-20T23:03:10+00:00,SAT-45225,108.68218885296423,43.52572683352676,771.2457699877295,4.8334487694480925,-169287.8213740953,10.5,10499830712.178625,47.655,-122.3035,60.0,3.1666666666666665
2026-01-20T23:03:11+00:00,SAT-45225,108.79123499145688,43.128671961322695,776.0662609480423,4.866093547044116,-170431.17957278038,10.5,10499829568.820427,47.655,-122.3035,60.0,3.183333333333333
2026-01-20T23:03:12+00:00,SAT-45225,108.89762457234363,42.73606322306256,780.9193091698075,4.898128434029989,-171553.17682246323,10.5,10499828446.823177,47.655,-122.3035,60.0,3.2
2026-01-20T23:03:13+00:00,SAT-45225,109.00145574378477,42.34785223537703,785.8043063974479,4.929564496170001,-172654.20069301745,10.5,10499827345.799307,47.655,-122.3035,60.0,3.216666666666667
2026-01-20T23:03:14+00:00,SAT-45225,109.10282190714219,41.963990146155425,790.7206554114838,4.960412719578209,-173734.63596462854,10.5,10499826265.364035,47.655,-122.3035,60.0,3.2333333333333334
2026-01-20T23:03:15+00:00,SAT-45225,109.2018119989887,41.58442771151082,795.6677699490975,4.990683937844677,-174794.8620754466,10.5,10499825205.137924,47.655,-122.3035,60.0,3.25
2026-01-20T23:03:16+00:00,SAT-45225,109.29851075244144,41.209115372944275,800.6450745520194,5.020388908954788,-175835.2558156259,10.5,10499824164.744184,47.655,-122.3035,60.0,3.2666666666666666
2026-01-20T23:03:17+00:00,SAT-45225,109.39299894162991,40.838003323409595,805.6520044911226,5.049538256632555,-176856.1892729197,10.5,10499823143.810726,47.655,-122.3035,60.0,3.283333333333333
2026-01-20T23:03:18+00:00,SAT-45225,109.4853536086987,40.471041573088485,810.6880056325256,5.07814249657721,-177858.03075159653,10.5,10499822141.969248,47.655,-122.3035,60.0,3.3
2026-01-20T23:03:19+00:00,SAT-45225,109.57564827586083,40.10818000865027,815.7525343298535,5.106211960380293,-178841.14210769464,10.5,10499821158.857893,47.655,-122.3035,60.0,3.316666666666667
2026-01-20T23:03:20+00:00,SAT-45225,109.66395314230412,39.74936845363746,820.845057240625,5.133756898216409,-179805.88234568693,10.5,10499820194.117655,47.655,-122.3035,60.0,3.3333333333333335
2026-01-20T23:03:21+00:00,SAT-45225,109.75033526947037,39.39455671738771,825.9650512450555,5.160787407919635,-180752.6051344366,10.5,10499819247.394865,47.655,-122.3035,60.0,3.35
2026-01-20T23:03:22+00:00,SAT-45225,109.8348587533593,39.04369464529054,831.1120032941236,5.187313446728481,-181681.65921855535,10.5,10499818318.340782,47.655,-122.3035,60.0,3.3666666666666667
2026-01-20T23:03:23+00:00,SAT-45225,109.91758488573531,38.69673216456043,836.2854102693503,5.213344795392235,-182593.38716125564,10.5,10499817406.612839,47.655,-122.3035,60.0,3.3833333333333333
2026-01-20T23:03:24+00:00,SAT-45225,109.99857230468268,38.353619328965266,841.4847788067881,5.238891138153691,-183488.12814568458,10.5,10499816511.871855,47.655,-122.3035,60.0,3.4
2026-01-20T23:03:25+00:00,SAT-45225,110.07787713652715,38.01430635502166,846.7096252007672,5.263961997198214,-184366.21567905234,10.5,10499815633.78432,47.655,-122.3035,60.0,3.4166666666666665
2026-01-20T23:03:26+00:00,SAT-45225,110.15555312810389,37.678743659641945,851.9594752422777,5.288566713396011,-185227.97691814555,10.5,10499814772.023083,47.655,-122.3035,60.0,3.433333333333333
2026-01-20T23:03:27+00:00,SAT-45225,110.23165177053515,37.34688189605701,857.2338640381372,5.312714498553995,-186073.7344994081,10.5,10499813926.265501,47.655,-122.3035,60.0,3.45
2026-01-20T23:03:28+00:00,SAT-45225,110.30622241606181,37.01867198370451,862.5323358822752,5.336414440984847,-186903.8067339936,10.5,10499813096.193266,47.655,-122.3035,60.0,3.466666666666667
2026-01-20T23:03:29+00:00,SAT-45225,110.37931238771887,36.69406513540423,867.8544441325688,5.359675416005078,-187718.50447302885,10.5,10499812281.495527,47.655,-122.3035,60.0,3.4833333333333334
2026-01-20T23:03:30+00:00,SAT-45225,110.450967081491,36.37301288767192,873.1997509984191,5.38250619746918,-188518.13501401155,10.5,10499811481.864986,47.655,-122.3035,60.0,3.5
2026-01-20T23:03:31+00:00,SAT-45225,110.52123006347328,36.05546712196651,878.5678274395585,5.404915377855259,-189302.99930187108,10.5,10499810697.000698,47.655,-122.3035,60.0,3.5166666666666666
2026-01-20T23:03:32+00:00,SAT-45225,110.59014316051552,35.7413800887599,883.9582529851641,5.426911421706874,-190073.3938007279,10.5,10499809926.6062,47.655,-122.3035,60.0,3.533333333333333
2026-01-20T23:03:33+00:00,SAT-45225,110.65774654594807,35.430704426487345,889.3706156062634,5.448502611335859,-190829.60859217652,10.5,10499809170.391407,47.655,-122.3035,60.0,3.55
2026-01-20T23:03:34+00:00,SAT-45225,110.72407881998105,35.12339318185307,894.8045115339914,5.469697107524342,-191571.92950132722,10.5,10499808428.0705,47.655,-122.3035,60.0,3.566666666666667
2026-01-20T23:03:35+00:00,SAT-45225,110.789177085806,34.819399824937236,900.2595451383887,5.490502871080646,-192300.63534936155,10.5,10499807699.36465,47.655,-122.3035,60.0,3.5833333333333335
2026-01-20T23:03:36+00:00,SAT-45225,110.85307702084867,34.51867826713637,905.7353287289613,5.510927780974973,-193016.00209114407,10.5,10499806983.99791,47.655,-122.3035,60.0,3.6
2026-01-20T23:03:37+00:00,SAT-45225,110.91581294482721,34.22118287105578,911.2314824730637,5.5309795419235765,-193718.29957842885,10.5,10499806281.700422,47.655,-122.3035,60.0,3.6166666666666667
2026-01-20T23:03:38+00:00,SAT-45225,110.9774178833742,33.926868464223304,916.7476342221105,5.550665660262555,-194407.7907148579,10.5,10499805592.209286,47.655,-122.3035,60.0,3.6333333333333333
2026-01-20T23:03:39+00:00,SAT-45225,111.03792362769309,33.63569035264378,922.2834193137301,5.569993571005589,-195084.73590606032,10.5,10499804915.264093,47.655,-122.3035,60.0,3.65
2026-01-20T23:03:40+00:00,SAT-45225,111.09736079219233,33.34760432641087,927.8384805006305,5.588970522263455,-195749.38901153504,10.5,10499804250.610989,47.655,-122.3035,60.0,3.6666666666666665
2026-01-20T23:03:41+00:00,SAT-45225,111.1557588678455,33.06256667037611,933.4124677642018,5.60760363271835,-196401.99935764456,10.5,10499803598.000643,47.655,-122.3035,60.0,3.683333333333333
2026-01-20T23:03:42+00:00,SAT-45225,111.21314627321729,32.78053417072795,939.0050381854302,5.6258998702606124,-197042.81098938262,10.5,10499802957.18901,47.655,-122.3035,60.0,3.7
2026-01-20T23:03:43+00:00,SAT-45225,111.26955040249635,32.5014641217157,944.6158557945129,5.643866042713463,-197672.0623455156,10.5,10499802327.937654,47.655,-122.3035,60.0,3.716666666666667
2026-01-20T23:03:44+00:00,SAT-45225,111.32499767097163,32.22531433188537,950.2445914112194,5.661508898469539,-198289.98978329924,10.5,10499801710.010216,47.655,-122.3035,60.0,3.7333333333333334
2026-01-20T23:03:45+00:00,SAT-45225,111.3795135587588,31.952043124586872,955.8909225856203,5.678834961859708,-198896.82181239838,10.5,10499801103.178188,47.655,-122.3035,60.0,3.75
2026-01-20T23:03:46+00:00,SAT-45225,111.43312265106762,31.681609345802237,961.5545333746265,5.69585064676673,-199492.7830741181,10.5,10499800507.216927,47.655,-122.3035,60.0,3.7666666666666666
2026-01-20T23:03:47+00:00,SAT-45225,111.48584867720132,31.413972365622506,967.2351142318366,5.71256227937599,-200078.09513823024,10.5,10499799921.904861,47.655,-122.3035,60.0,3.783333333333333
2026-01-20T23:03:48+00:00,SAT-45225,111.53771454765786,31.149092078111856,972.9323619200753,5.728975986329903,-200652.97258566786,10.5,10499799347.027414,47.655,-122.3035,60.0,3.8
2026-01-20T23:03:49+00:00,SAT-45225,111.58874238858536,30.886928905815655,978.6459793123845,5.745097820438622,-201217.62741144586,10.5,10499798782.37259,47.655,-122.3035,60.0,3.816666666666667
2026-01-20T23:03:50+00:00,SAT-45225,111.63895357530372,30.627443797823773,984.3756753183901,5.760933679081546,-201772.2661667367,10.5,10499798227.733833,47.655,-122.3035,60.0,3.8333333333333335
2026-01-20T23:03:51+00:00,SAT-45225,111.68836876357591,30.370598231128064,990.1211647292869,5.776489359420433,-202317.09189266711,10.5,10499797682.908108,47.655,-122.3035,60.0,3.85
2026-01-20T23:03:52+00:00,SAT-45225,111.73700791974595,30.11635420899841,995.8821681178903,5.791770517310099,-202852.30268119703,10.5,10499797147.697319,47.655,-122.3035,60.0,3.8666666666666667
