DopplerPredictor/satellites_20260205_234138/SAT-53034.csv

timestamp,satellite,azimuth_deg,elevation_deg,distance_km,relative_velocity_kms,doppler_shift_hz,tx_freq_ghz,rx_freq_hz,ue_lat,ue_lon,ue_alt_m,time_minutes
2026-01-20T23:06:50+00:00,SAT-53034,247.56542153907193,30.088253709789026,986.0851334957093,-5.789006401901195,202755.49166738056,10.5,10500202755.491667,47.655,-122.3035,60.0,6.833333333333333
2026-01-20T23:06:51+00:00,SAT-53034,247.61301777532884,30.344753772676206,980.3116466210888,-5.773322196486413,202206.16444963182,10.5,10500202206.16445,47.655,-122.3035,60.0,6.85
2026-01-20T23:06:52+00:00,SAT-53034,247.6613806796611,30.60391442503376,974.553801904693,-5.757352099412802,201646.8240966703,10.5,10500201646.824097,47.655,-122.3035,60.0,6.866666666666666
2026-01-20T23:06:53+00:00,SAT-53034,247.7105301966984,30.865775091733063,968.8118844717438,-5.741090136924678,201077.26138230308,10.5,10500201077.261383,47.655,-122.3035,60.0,6.883333333333334
2026-01-20T23:06:54+00:00,SAT-53034,247.76048696778804,31.130375756067448,963.0861854052057,-5.724530185285372,200497.2618273686,10.5,10500200497.261827,47.655,-122.3035,60.0,6.9
2026-01-20T23:06:55+00:00,SAT-53034,247.81127236145647,31.39775695975433,957.3770018953624,-5.707666017924264,199906.6073510254,10.5,10500199906.607351,47.655,-122.3035,60.0,6.916666666666667
2026-01-20T23:06:56+00:00,SAT-53034,247.8629085058191,31.667959804633664,951.6846373423741,-5.6904912534170595,199305.07444880126,10.5,10500199305.07445,47.655,-122.3035,60.0,6.933333333333334
2026-01-20T23:06:57+00:00,SAT-53034,247.91541832240642,31.9410259514454,946.0094015107195,-5.672999378956778,198692.43501464662,10.5,10500198692.435015,47.655,-122.3035,60.0,6.95
2026-01-20T23:06:58+00:00,SAT-53034,247.96882556193603,32.21699761910768,940.3516106602241,-5.655183742040163,198068.45604975728,10.5,10500198068.456049,47.655,-122.3035,60.0,6.966666666666667
2026-01-20T23:06:59+00:00,SAT-53034,248.02315484205812,32.495917582982294,934.7115876853808,-5.637037544493307,197432.89945332689,10.5,10500197432.899454,47.655,-122.3035,60.0,6.983333333333333
2026-01-20T23:07:00+00:00,SAT-53034,248.07843168708374,32.77782917216133,929.089662260633,-5.61855386959509,196785.52297252402,10.5,10500196785.522972,47.655,-122.3035,60.0,7.0
2026-01-20T23:07:01+00:00,SAT-53034,248.13468257013986,33.06277626737981,923.4861709586021,-5.599725601070244,196126.07736528703,10.5,10500196126.077366,47.655,-122.3035,60.0,7.016666666666667
2026-01-20T23:07:02+00:00,SAT-53034,248.19193495714285,33.350803294046166,917.901457449106,-5.580545534267136,195454.31029424004,10.5,10500195454.310295,47.655,-122.3035,60.0,7.033333333333333
2026-01-20T23:07:03+00:00,SAT-53034,248.25021735404601,33.641955220008484,912.335872587301,-5.561006295742148,194769.96351019797,10.5,10500194769.96351,47.655,-122.3035,60.0,7.05
2026-01-20T23:07:04+00:00,SAT-53034,248.3095593562149,33.936277548359215,906.7897745820189,-5.5411003518019655,194072.77315135338,10.5,10500194072.773151,47.655,-122.3035,60.0,7.066666666666666
2026-01-20T23:07:05+00:00,SAT-53034,248.3699917006791,34.23381630961041,901.2635291555885,-5.520819987390857,193362.46900381998,10.5,10500193362.469004,47.655,-122.3035,60.0,7.083333333333333
2026-01-20T23:07:06+00:00,SAT-53034,248.4315463212861,34.53461805157462,895.7575097247105,-5.5001574340028565,192638.77898165802,10.5,10500192638.778982,47.655,-122.3035,60.0,7.1
2026-01-20T23:07:07+00:00,SAT-53034,248.49425640815534,34.838729835049136,890.2720974537665,-5.479104628815194,191901.42069070842,10.5,10500191901.42069,47.655,-122.3035,60.0,7.116666666666666
2026-01-20T23:07:08+00:00,SAT-53034,248.55815646860705,35.1461992151257,884.8076815483447,-5.457653476210442,191150.11058820446,10.5,10500191150.110588,47.655,-122.3035,60.0,7.133333333333334
2026-01-20T23:07:09+00:00,SAT-53034,248.623282394015,35.457074235448566,879.3646592879478,-5.435795641303085,190384.55675119883,10.5,10500190384.556751,47.655,-122.3035,60.0,7.15
2026-01-20T23:07:10+00:00,SAT-53034,248.68967152887893,35.77140340962171,873.9434362646193,-5.413522677945849,189604.46335988684,10.5,10500189604.46336,47.655,-122.3035,60.0,7.166666666666667
2026-01-20T23:07:11+00:00,SAT-53034,248.75736274523183,36.08923570819535,868.5444264939069,-5.390825946441803,188809.52781553604,10.5,10500188809.527815,47.655,-122.3035,60.0,7.183333333333334
2026-01-20T23:07:12+00:00,SAT-53034,248.82639652091984,36.4106205392959,863.1680526078935,-5.367696661123897,187999.44240692313,10.5,10500187999.442408,47.655,-122.3035,60.0,7.2
2026-01-20T23:07:13+00:00,SAT-53034,248.89681502314318,36.73560773016695,857.814746000776,-5.344125879999482,187173.8939476408,10.5,10500187173.893948,47.655,-122.3035,60.0,7.216666666666667
2026-01-20T23:07:14+00:00,SAT-53034,248.96866219716023,37.06424750623232,852.4849469847716,-5.3201045125798,186332.5640503201,10.5,10500186332.56405,47.655,-122.3035,60.0,7.233333333333333
2026-01-20T23:07:15+00:00,SAT-53034,249.04198386077763,37.39659046862109,847.1791049382156,-5.29562324815609,185475.12661455595,10.5,10500185475.126614,47.655,-122.3035,60.0,7.25
2026-01-20T23:07:16+00:00,SAT-53034,249.11682780397513,37.732687564980054,841.8976785251917,-5.270672684107024,184601.25232077637,10.5,10500184601.252321,47.655,-122.3035,60.0,7.266666666666667
2026-01-20T23:07:17+00:00,SAT-53034,249.1932438964554,38.07259006592811,836.6411357871981,-5.245243233736111,183710.6054023186,10.5,10500183710.605402,47.655,-122.3035,60.0,7.283333333333333
2026-01-20T23:07:18+00:00,SAT-53034,249.2712842012261,38.41634953332889,831.4099543267281,-5.219325128804656,182802.84373414385,10.5,10500182802.843735,47.655,-122.3035,60.0,7.3
2026-01-20T23:07:19+00:00,SAT-53034,249.35100309560065,38.76401778592311,826.2046214883268,-5.1929084877291425,181877.62122139844,10.5,10500181877.621222,47.655,-122.3035,60.0,7.316666666666666
2026-01-20T23:07:20+00:00,SAT-53034,249.43245740116623,39.115646866622356,821.025634471632,-5.165983196369643,180934.58362411926,10.5,10500180934.583624,47.655,-122.3035,60.0,7.333333333333333
2026-01-20T23:07:21+00:00,SAT-53034,249.51570652093756,39.471288998788154,815.8735005633062,-5.138539088311759,179973.37487147018,10.5,10500179973.374872,47.655,-122.3035,60.0,7.35
2026-01-20T23:07:22+00:00,SAT-53034,249.60081258827543,39.83099655148581,810.748737189172,-5.110565761241743,178993.63063042198,10.5,10500178993.63063,47.655,-122.3035,60.0,7.366666666666666
2026-01-20T23:07:23+00:00,SAT-53034,249.68784062345583,40.19482198883811,805.6518721494778,-5.0820527286062545,177994.98361751874,10.5,10500177994.983618,47.655,-122.3035,60.0,7.383333333333334
2026-01-20T23:07:24+00:00,SAT-53034,249.77685870340036,40.562817826195804,800.5834437029138,-5.052989249586177,176977.05764384125,10.5,10500176977.057644,47.655,-122.3035,60.0,7.4
2026-01-20T23:07:25+00:00,SAT-53034,249.86793814066908,40.93503657027049,795.5440008201933,-5.0233645979347035,175939.47703085444,10.5,10500175939.477032,47.655,-122.3035,60.0,7.416666666666667
2026-01-20T23:07:26+00:00,SAT-53034,249.96115367933675,41.311530674639506,790.5341031695211,-4.993167784047582,174881.85687613135,10.5,10500174881.856876,47.655,-122.3035,60.0,7.433333333333334
2026-01-20T23:07:27+00:00,SAT-53034,250.05658370057407,41.69235247069792,785.5543213792454,-4.962387741086903,173803.8095721957,10.5,10500173803.809572,47.655,-122.3035,60.0,7.45
2026-01-20T23:07:28+00:00,SAT-53034,250.1543104462177,42.07755410753372,780.605237114883,-4.931013250939842,172704.94221328394,10.5,10500172704.942213,47.655,-122.3035,60.0,7.466666666666667
2026-01-20T23:07:29+00:00,SAT-53034,250.25442025735154,42.467187481419096,775.687443229989,-4.8990329905853285,171584.85821930168,10.5,10500171584.85822,47.655,-122.3035,60.0,7.483333333333333
2026-01-20T23:07:30+00:00,SAT-53034,250.35700383163766,42.86130416361296,770.8015438707853,-4.866435545450055,170443.15780360816,10.5,10500170443.157804,47.655,-122.3035,60.0,7.5
2026-01-20T23:07:31+00:00,SAT-53034,250.46215650001386,43.25995532384943,765.948154567464,-4.833209330497705,169279.435209227,10.5,10500169279.43521,47.655,-122.3035,60.0,7.516666666666667
2026-01-20T23:07:32+00:00,SAT-53034,250.56997852321408,43.66319164150392,761.1279024041986,-4.799342711143712,168093.28294379232,10.5,10500168093.282944,47.655,-122.3035,60.0,7.533333333333333
2026-01-20T23:07:33+00:00,SAT-53034,250.68057541309744,44.07106322029394,756.3414260685543,-4.764823987568421,166884.29123012966,10.5,10500166884.29123,47.655,-122.3035,60.0,7.55
2026-01-20T23:07:34+00:00,SAT-53034,250.79405827903145,44.4836194954426,751.589375916551,-4.729641312351558,165652.0451214665,10.5,10500165652.045122,47.655,-122.3035,60.0,7.566666666666666
2026-01-20T23:07:35+00:00,SAT-53034,250.91054419971383,44.90090912673556,746.8724141198674,-4.693782816272258,164396.1289074814,10.5,10500164396.128908,47.655,-122.3035,60.0,7.583333333333333
2026-01-20T23:07:36+00:00,SAT-53034,251.03015662734066,45.32297989489239,742.1912146875834,-4.6572365747257685,163116.12493807488,10.5,10500163116.124939,47.655,-122.3035,60.0,7.6
2026-01-20T23:07:37+00:00,SAT-53034,251.1530258237697,45.749878587420135,737.5464635214157,-4.619990604738043,161811.61351880795,10.5,10500161811.61352,47.655,-122.3035,60.0,7.616666666666666
2026-01-20T23:07:38+00:00,SAT-53034,251.27928933230154,46.1816508758699,732.9388584739305,-4.582032915677943,160482.1746870577,10.5,10500160482.174686,47.655,-122.3035,60.0,7.633333333333334
2026-01-20T23:07:39+00:00,SAT-53034,251.40909248971818,46.61834118897794,728.3691093561788,-4.543351482446613,159127.38727299616,10.5,10500159127.387274,47.655,-122.3035,60.0,7.65
2026-01-20T23:07:40+00:00,SAT-53034,251.5425889808833,47.059992574073135,723.8379379720741,-4.50393427646414,157746.82998487397,10.5,10500157746.829985,47.655,-122.3035,60.0,7.666666666666667
2026-01-20T23:07:41+00:00,SAT-53034,251.67994144106177,47.50664655144254,719.3460781218622,-4.463769342983259,156340.08411687333,10.5,10500156340.084116,47.655,-122.3035,60.0,7.683333333333334
2026-01-20T23:07:42+00:00,SAT-53034,251.8213221124778,47.95834296601879,714.8942755284874,-4.422844681360013,154906.72935568026,10.5,10500154906.729355,47.655,-122.3035,60.0,7.7
2026-01-20T23:07:43+00:00,SAT-53034,251.966913554862,48.41511981612304,710.4832878833656,-4.3811484368245095,153446.35049710737,10.5,10500153446.350496,47.655,-122.3035,60.0,7.716666666666667
2026-01-20T23:07:44+00:00,SAT-53034,252.11690942458662,48.87701308975305,706.1138847009017,-4.3386687583230845,151958.5324671256,10.5,10500151958.532467,47.655,-122.3035,60.0,7.733333333333333
2026-01-20T23:07:45+00:00,SAT-53034,252.27151531950807,49.34405657400787,701.7868473147835,-4.295393963632052,150442.8661048456,10.5,10500150442.866104,47.655,-122.3035,60.0,7.75
2026-01-20T23:07:46+00:00,SAT-53034,252.4309497060399,49.816281668527466,697.5029687096036,-4.2513124172176155,148898.9438846556,10.5,10500148898.943884,47.655,-122.3035,60.0,7.766666666666667
2026-01-20T23:07:47+00:00,SAT-53034,252.59544492798426,50.29371717183087,693.2630534742955,-4.206412725560996,147326.36675733337,10.5,10500147326.366756,47.655,-122.3035,60.0,7.783333333333333
2026-01-20T23:07:48+00:00,SAT-53034,252.7652483166189,50.77638907408104,689.0679175607665,-4.160683594606472,145724.73915727378,10.5,10500145724.739157,47.655,-122.3035,60.0,7.8
2026-01-20T23:07:49+00:00,SAT-53034,252.9406234014192,51.26432031823017,684.918388184703,-4.114113969335042,144093.67389094873,10.5,10500144093.673891,47.655,-122.3035,60.0,7.816666666666666
2026-01-20T23:07:50+00:00,SAT-53034,253.12185124303582,51.75753055972888,680.8153035871721,-4.0666930177528355,142432.79157611355,10.5,10500142432.791576,47.655,-122.3035,60.0,7.833333333333333
2026-01-20T23:07:51+00:00,SAT-53034,253.3092318961577,52.25603590640824,676.7595128121961,-4.018410180493232,140741.72237908313,10.5,10500140741.72238,47.655,-122.3035,60.0,7.85
2026-01-20T23:07:52+00:00,SAT-53034,253.5030860203401,52.75984864478492,672.7518754348562,-3.9692551860681604,139020.10654889687,10.5,10500139020.106548,47.655,-122.3035,60.0,7.866666666666666
2026-01-20T23:07:53+00:00,SAT-53034,253.70375665422696,53.268976947333556,668.7932612741848,-3.9192180838121726,137267.59557115947,10.5,10500137267.595572,47.655,-122.3035,60.0,7.883333333333334
2026-01-20T23:07:54+00:00,SAT-53034,253.9116111734979,53.78342456122501,664.884550073203,-3.8682892896008743,135483.8537692939,10.5,10500135483.85377,47.655,-122.3035,60.0,7.9
2026-01-20T23:07:55+00:00,SAT-53034,254.12704345509465,54.30319047852731,661.0266311333639,-3.8164596370732564,133668.5600985639,10.5,10500133668.560099,47.655,-122.3035,60.0,7.916666666666667
2026-01-20T23:07:56+00:00,SAT-53034,254.3504762735769,54.82826858696158,657.2204028979063,-3.763720368597707,131821.40782966572,10.5,10500131821.40783,47.655,-122.3035,60.0,7.933333333333334
2026-01-20T23:07:57+00:00,SAT-53034,254.58236395501925,55.358647290814694,653.4667725442231,-3.7100632040627297,129942.10695806985,10.5,10500129942.106958,47.655,-122.3035,60.0,7.95
2026-01-20T23:07:58+00:00,SAT-53034,254.82319532506858,55.89430910983773,649.766655507622,-3.6554803897913217,128030.38591720969,10.5,10500128030.385918,47.655,-122.3035,60.0,7.966666666666667
2026-01-20T23:07:59+00:00,SAT-53034,255.07349698789193,56.43523025104496,646.1209749562993,-3.599964719754317,126085.99232146237,10.5,10500126085.992321,47.655,-122.3035,60.0,7.983333333333333
2026-01-20T23:08:00+00:00,SAT-53034,255.3338369773331,56.98138014618533,642.5306612451635,-3.543509602302061,124108.6953033743,10.5,10500124108.695303,47.655,-122.3035,60.0,8.0
2026-01-20T23:08:01+00:00,SAT-53034,255.60482883229864,57.532720957881565,638.9966513031007,-3.4861090196961384,122098.28409629122,10.5,10500122098.284096,47.655,-122.3035,60.0,8.016666666666667
2026-01-20T23:08:02+00:00,SAT-53034,255.8871361458038,58.089207033486275,635.5198880606036,-3.4277577201752774,120054.57476131842,10.5,10500120054.57476,47.655,-122.3035,60.0,8.033333333333333
2026-01-20T23:08:03+00:00,SAT-53034,256.18147766861716,58.65078433786895,632.1013196858455,-3.368451135147296,117977.40728703258,10.5,10500117977.407288,47.655,-122.3035,60.0,8.05
2026-01-20T23:08:04+00:00,SAT-53034,256.48863302442777,59.21738981692756,628.7418989033454,-3.3081854789662324,115866.64908409884,10.5,10500115866.649084,47.655,-122.3035,60.0,8.066666666666666
2026-01-20T23:08:05+00:00,SAT-53034,256.80944913586063,59.788950713177755,625.4425822131186,-3.2469577570323565,113722.19526896751,10.5,10500113722.195269,47.655,-122.3035,60.0,8.083333333333334
2026-01-20T23:08:06+00:00,SAT-53034,257.14484745497856,60.36538381071848,622.2043291017526,-3.1847658643591026,111543.972116105,10.5,10500111543.972116,47.655,-122.3035,60.0,8.1
2026-01-20T23:08:07+00:00,SAT-53034,257.49583212265907,60.94659461572417,619.0281011551783,-3.121608615786865,109331.93811620866,10.5,10500109331.938116,47.655,-122.3035,60.0,8.116666666666667
2026-01-20T23:08:08+00:00,SAT-53034,257.8634991878344,61.53247645028748,615.9148611413085,-3.0574857467955137,107086.08400466462,10.5,10500107086.084005,47.655,-122.3035,60.0,8.133333333333333
2026-01-20T23:08:09+00:00,SAT-53034,258.24904703957753,62.122909440373235,612.865572091867,-2.9923979897778876,104806.43543296817,10.5,10500104806.435432,47.655,-122.3035,60.0,8.15
2026-01-20T23:08:10+00:00,SAT-53034,258.65378824334374,62.71775939590106,609.8811963081487,-2.9263471652290365,102493.05616255658,10.5,10500102493.056162,47.655,-122.3035,60.0,8.166666666666666
2026-01-20T23:08:11+00:00,SAT-53034,259.0791629986454,63.31687656881132,606.9626942758338,-2.859336139357003,100146.04658015957,10.5,10500100146.04658,47.655,-122.3035,60.0,8.183333333333334
2026-01-20T23:08:12+00:00,SAT-53034,259.52675445219717,63.92009424060292,604.111023622078,-2.7913689100111014,97765.54670737103,10.5,10500097765.546707,47.655,-122.3035,60.0,8.2
2026-01-20T23:08:13+00:00,SAT-53034,259.99830617160865,64.52722713768141,601.3271379869058,-2.722450657426641,95351.73797794383,10.5,10500095351.737978,47.655,-122.3035,60.0,8.216666666666667
2026-01-20T23:08:14+00:00,SAT-53034,260.49574211827405,65.13806963684185,598.6119858439935,-2.6525877886162736,92904.8447925627,10.5,10500092904.844793,47.655,-122.3035,60.0,8.233333333333333
2026-01-20T23:08:15+00:00,SAT-53034,261.0211895157287,65.75239372204211,595.9665092771812,-2.5817879150544423,90425.13373725914,10.5,10500090425.133738,47.655,-122.3035,60.0,8.25
2026-01-20T23:08:16+00:00,SAT-53034,261.577005065378,66.36994663094382,593.3916427792404,-2.5100599699482067,87912.9176907318,10.5,10500087912.91769,47.655,-122.3035,60.0,8.266666666666667
2026-01-20T23:08:17+00:00,SAT-53034,262.1658050726789,66.99044816792873,590.8883119336833,-2.4374141766173314,85368.55471688345,10.5,10500085368.554716,47.655,-122.3035,60.0,8.283333333333333
2026-01-20T23:08:18+00:00,SAT-53034,262.7905000851412,67.6135875828768,588.4574321281104,-2.363862124819875,82792.45073806589,10.5,10500082792.450739,47.655,-122.3035,60.0,8.3
2026-01-20T23:08:19+00:00,SAT-53034,263.45433478578633,68.23901996024605,586.0999071914341,-2.289416773432668,80185.05962896175,10.5,10500080185.05963,47.655,-122.3035,60.0,8.316666666666666
2026-01-20T23:08:20+00:00,SAT-53034,264.16093396000207,68.86636200301574,583.8166280284316,-2.2140924554398707,77546.8833913048,10.5,10500077546.88339,47.655,-122.3035,60.0,8.333333333333334
2026-01-20T23:08:21+00:00,SAT-53034,264.9143554782964,69.495187091889,581.60847124932,-2.137904943888974,74878.47446393807,10.5,10500074878.474464,47.655,-122.3035,60.0,8.35
2026-01-20T23:08:22+00:00,SAT-53034,265.7191513742831,70.12501949246756,579.4762977335548,-2.0608714362634197,72180.43517547699,10.5,10500072180.435175,47.655,-122.3035,60.0,8.366666666666667
2026-01-20T23:08:23+00:00,SAT-53034,266.5804381620717,70.75532751362492,577.4209512092117,-1.9830105708363537,69453.41831708694,10.5,10500069453.418318,47.655,-122.3035,60.0,8.383333333333333
2026-01-20T23:08:24+00:00,SAT-53034,267.5039776430941,71.3855154133858,575.4432568160603,-1.9043424226621672,66698.12700209008,10.5,10500066698.127003,47.655,-122.3035,60.0,8.4
2026-01-20T23:08:25+00:00,SAT-53034,268.49626944915013,72.01491379029724,573.544019672634,-1.8248885350936204,63915.31576982839,10.5,10500063915.31577,47.655,-122.3035,60.0,8.416666666666666
2026-01-20T23:08:26+00:00,SAT-53034,269.5646564961901,72.64276816486671,571.7240234118683,-1.7446718881773042,61105.789478738974,10.5,10500061105.789478,47.655,-122.3035,60.0,8.433333333333334
2026-01-20T23:08:27+00:00,SAT-53034,270.71744418181737,73.26822536550561,569.9840287482584,-1.6637168993722025,58270.40333152119,10.5,10500058270.403332,47.655,-122.3035,60.0,8.45
2026-01-20T23:08:28+00:00,SAT-53034,271.9640335780852,73.89031729886499,568.3247720443006,-1.5820493985712603,55410.06200028633,10.5,10500055410.062,47.655,-122.3035,60.0,8.466666666666667
2026-01-20T23:08:29+00:00,SAT-53034,273.3150676931331,74.50794159944054,566.7469639018441,-1.4996966352517185,52525.719876992516,10.5,10500052525.719877,47.655,-122.3035,60.0,8.483333333333333
2026-01-20T23:08:30+00:00,SAT-53034,274.7825879437198,75.11983861533612,565.2512877463133,-1.4166872182792154,49618.37896512981,10.5,10500049618.378965,47.655,-122.3035,60.0,8.5
2026-01-20T23:08:31+00:00,SAT-53034,276.38019466028186,75.7245641118619,563.8383984709634,-1.3330511052267202,46689.088505623986,10.5,10500046689.088505,47.655,-122.3035,60.0,8.516666666666667
2026-01-20T23:08:32+00:00,SAT-53034,278.1232003888662,76.32045713196308,562.5089210917887,-1.2488195609034203,43738.94352434281,10.5,10500043738.943523,47.655,-122.3035,60.0,8.533333333333333
2026-01-20T23:08:33+00:00,SAT-53034,280.028756788086,76.90560253291174,561.2634494437909,-1.1640251066709801,40769.08305693699,10.5,10500040769.083057,47.655,-122.3035,60.0,8.55
2026-01-20T23:08:34+00:00,SAT-53034,282.1159241569359,77.47778800962425,560.1025449277956,-1.07870147740533,37780.68864145997,10.5,10500037780.68864,47.655,-122.3035,60.0,8.566666666666666
2026-01-20T23:08:35+00:00,SAT-53034,284.40563579474326,78.03445599805269,559.0267353001904,-0.9928835582698097,34774.98210389603,10.5,10500034774.982103,47.655,-122.3035,60.0,8.583333333333334
2026-01-20T23:08:36+00:00,SAT-53034,286.9204864346646,78.57265187646306,558.0365135257224,-0.9066073375244817,31753.223905342737,10.5,10500031753.223906,47.655,-122.3035,60.0,8.6
2026-01-20T23:08:37+00:00,SAT-53034,289.6842452013586,79.08897162862093,557.1323366773579,-0.8199098219919073,28716.710181264887,10.5,10500028716.710182,47.655,-122.3035,60.0,8.616666666666667
2026-01-20T23:08:38+00:00,SAT-53034,292.72096164586657,79.5795147864425,556.3146249204513,-0.7328289754147248,25666.770582516157,10.5,10500025666.770582,47.655,-122.3035,60.0,8.633333333333333
2026-01-20T23:08:39+00:00,SAT-53034,296.0535076768046,80.03985234639576,555.5837605583891,-0.6454036424600237,22604.765613650787,10.5,10500022604.765614,47.655,-122.3035,60.0,8.65
2026-01-20T23:08:40+00:00,SAT-53034,299.70139700500795,80.46502429646235,554.9400871540288,-0.5576734638630323,19532.08366089663,10.5,10500019532.08366,47.655,-122.3035,60.0,8.666666666666666
2026-01-20T23:08:41+00:00,SAT-53034,303.6777794106146,80.84958678342619,554.3839087357636,-0.4696787882819269,16450.137904937663,10.5,10500016450.137905,47.655,-122.3035,60.0,8.683333333333334
2026-01-20T23:08:42+00:00,SAT-53034,307.98566263263166,81.18773291479447,553.9154890914974,-0.3814605878665189,13360.363363772307,10.5,10500013360.363363,47.655,-122.3035,60.0,8.7
2026-01-20T23:08:43+00:00,SAT-53034,312.6137056547235,81.47351025996788,553.5350511468253,-0.2930603645514231,10264.213610703784,10.5,10500010264.213612,47.655,-122.3035,60.0,8.716666666666667
2026-01-20T23:08:44+00:00,SAT-53034,317.5323387702104,81.70114756285182,553.2427764366688,-0.20452004987749278,7163.157265663015,10.5,10500007163.157265,47.655,-122.3035,60.0,8.733333333333333
2026-01-20T23:08:45+00:00,SAT-53034,322.69137341260597,81.86547924634903,553.0388046768212,-0.11588191084340835,4058.674697733015,10.5,10500004058.674698,47.655,-122.3035,60.0,8.75
2026-01-20T23:08:46+00:00,SAT-53034,328.0204091387365,81.96242050897968,552.9232334293891,-0.02718844952172767,952.2545092783507,10.5,10500000952.254509,47.655,-122.3035,60.0,8.766666666666667
2026-01-20T23:08:47+00:00,SAT-53034,333.4329306609821,81.98940937025995,552.8961178683486,0.06151769997047455,-2154.6100725788865,10.5,10499997845.389927,47.655,-122.3035,60.0,8.783333333333333
2026-01-20T23:08:48+00:00,SAT-53034,338.8339357611251,81.94571473535485,552.9574706478547,0.15019387270758724,-5260.42474167134,10.5,10499994739.575258,47.655,-122.3035,60.0,8.8
2026-01-20T23:08:49+00:00,SAT-53034,344.12961592743045,81.83252886645977,553.1072618715164,0.2387974754241937,-8363.697701674782,10.5,10499991636.302298,47.655,-122.3035,60.0,8.816666666666666
2026-01-20T23:08:50+00:00,SAT-53034,349.2367404159747,81.65281809623215,553.345419163863,0.32728608717561986,-11462.94319166631,10.5,10499988537.056808,47.655,-122.3035,60.0,8.833333333333334
2026-01-20T23:08:51+00:00,SAT-53034,354.0895248044553,81.41097361896384,553.6718278422045,0.41561756295422564,-14556.685115205166,10.5,10499985443.314884,47.655,-122.3035,60.0,8.85
2026-01-20T23:08:52+00:00,SAT-53034,358.6428097987008,81.11235234229706,554.0863311918275,0.5037501321659423,-17643.460489397617,10.5,10499982356.53951,47.655,-122.3035,60.0,8.866666666666667
2026-01-20T23:08:53+00:00,SAT-53034,2.8716897082498534,80.76280745884249,554.5887308394066,0.5916424923718533,-20721.82272812367,10.5,10499979278.177273,47.655,-122.3035,60.0,8.883333333333333
2026-01-20T23:08:54+00:00,SAT-53034,6.768644293100682,80.36828456057411,555.1787872199031,0.6792539081455157,-23790.3451044386,10.5,10499976209.654896,47.655,-122.3035,60.0,8.9
2026-01-20T23:08:55+00:00,SAT-53034,10.339487882344363,79.934521239458,555.8562201420577,0.7665443043584135,-26847.62401782416,10.5,10499973152.375982,47.655,-122.3035,60.0,8.916666666666666
2026-01-20T23:08:56+00:00,SAT-53034,13.599213392657807,79.46685456525051,556.6207094469194,0.8534743499636082,-29892.2819286464,10.5,10499970107.718071,47.655,-122.3035,60.0,8.933333333333334
2026-01-20T23:08:57+00:00,SAT-53034,16.56838132456829,78.97012026037268,557.4718957499302,0.9400055394722601,-32922.9702118081,10.5,10499967077.029789,47.655,-122.3035,60.0,8.95
2026-01-20T23:08:58+00:00,SAT-53034,19.270314853141674,78.44861958805075,558.4093812642719,1.0261002832194328,-35938.37231823905,10.5,10499964061.627682,47.655,-122.3035,60.0,8.966666666666667
2026-01-20T23:08:59+00:00,SAT-53034,21.729105182646062,77.90613060894248,559.4327307142338,1.1117219705459098,-38937.20598779058,10.5,10499961062.794012,47.655,-122.3035,60.0,8.983333333333333
2026-01-20T23:09:00+00:00,SAT-53034,23.96830367958022,77.34594504119023,560.5414723115945,1.1968350558112144,-41918.22626177524,10.5,10499958081.773739,47.655,-122.3035,60.0,9.0
2026-01-20T23:09:01+00:00,SAT-53034,26.010139027848552,76.7709173368717,561.7350988177841,1.281405091523376,-44880.226643311515,10.5,10499955119.773357,47.655,-122.3035,60.0,9.016666666666667
2026-01-20T23:09:02+00:00,SAT-53034,27.875106922668717,76.1835173520192,563.0130686390909,1.3653988312756677,-47822.04270260365,10.5,10499952177.957298,47.655,-122.3035,60.0,9.033333333333333
2026-01-20T23:09:03+00:00,SAT-53034,29.581808613368892,75.58588148311341,564.374807024525,1.4487842472312749,-50742.552689328775,10.5,10499949257.447311,47.655,-122.3035,60.0,9.05
2026-01-20T23:09:04+00:00,SAT-53034,31.146945914245414,74.97985964861421,565.8197072811216,1.5315305950328002,-53640.67980604236,10.5,10499946359.320194,47.655,-122.3035,60.0,9.066666666666666
2026-01-20T23:09:05+00:00,SAT-53034,32.58540811535996,74.36705696816064,567.3471320539804,1.6136084456001847,-56515.393321875825,10.5,10499943484.606678,47.655,-122.3035,60.0,9.083333333333334
2026-01-20T23:09:06+00:00,SAT-53034,33.91040750009716,73.74886993798957,568.956414638016,1.694989732993887,-59365.710248907635,10.5,10499940634.289751,47.655,-122.3035,60.0,9.1
2026-01-20T23:09:07+00:00,SAT-53034,35.13363577533964,73.12651737124541,570.6468603374441,1.775647776316806,-62190.69610926123,10.5,10499937809.30389,47.655,-122.3035,60.0,9.116666666666667
2026-01-20T23:09:08+00:00,SAT-53034,36.26542440821081,72.50106662236325,572.417747847112,1.8555573071533848,-64989.46589613853,10.5,10499935010.534103,47.655,-122.3035,60.0,9.133333333333333
2026-01-20T23:09:09+00:00,SAT-53034,37.314899054880485,71.87345568307191,574.268330661192,1.9346944656286211,-67761.18393578976,10.5,10499932238.816065,47.655,-122.3035,60.0,9.15
2026-01-20T23:09:10+00:00,SAT-53034,38.29012285664429,71.2445117481317,576.1978384779459,2.0130368680962047,-70505.06625823838,10.5,10499929494.933743,47.655,-122.3035,60.0,9.166666666666666
2026-01-20T23:09:11+00:00,SAT-53034,39.19822632848535,70.61496677016429,578.2054786719978,2.0905635534889333,-73220.3787182458,10.5,10499926779.621283,47.655,-122.3035,60.0,9.183333333333334
2026-01-20T23:09:12+00:00,SAT-53034,40.04552319647183,69.9854705250328,580.2904377130976,2.167255007147041,-75906.43782988006,10.5,10499924093.56217,47.655,-122.3035,60.0,9.2
2026-01-20T23:09:13+00:00,SAT-53034,40.837612659946934,69.35660157524866,582.4518826086517,2.2430931804466634,-78562.61145398785,10.5,10499921437.388546,47.655,-122.3035,60.0,9.216666666666667
2026-01-20T23:09:14+00:00,SAT-53034,41.579469023151304,68.72887648585088,584.6889623658284,2.318061444504321,-81188.31717672954,10.5,10499918811.682823,47.655,-122.3035,60.0,9.233333333333333
2026-01-20T23:09:15+00:00,SAT-53034,42.27551986595439,68.10275760614206,587.0008094074923,2.3921446234728045,-83783.02347574217,10.5,10499916216.976524,47.655,-122.3035,60.0,9.25
2026-01-20T23:09:16+00:00,SAT-53034,42.92971404466006,67.4786596390707,589.3865410213455,2.465328890845418,-86346.24608827513,10.5,10499913653.753912,47.655,-122.3035,60.0,9.266666666666667
2026-01-20T23:09:17+00:00,SAT-53034,43.54558070687125,66.85695523785942,591.8452607056499,2.5376018763863035,-88877.55175634267,10.5,10499911122.448244,47.655,-122.3035,60.0,9.283333333333333
2026-01-20T23:09:18+00:00,SAT-53034,44.12628052605366,66.23797974141748,594.3760596215947,2.6089525382645085,-91376.55374831789,10.5,10499908623.44625,47.655,-122.3035,60.0,9.3
2026-01-20T23:09:19+00:00,SAT-53034,44.67465011949814,65.6220352483689,596.9780179181396,2.6793711758744645,-93842.91230796032,10.5,10499906157.087692,47.655,-122.3035,60.0,9.316666666666666
2026-01-20T23:09:20+00:00,SAT-53034,45.193240610939164,65.00939410578606,599.6502060696446,2.7488493629879356,-96276.33231311417,10.5,10499903723.667686,47.655,-122.3035,60.0,9.333333333333334
2026-01-20T23:09:21+00:00,SAT-53034,45.684351121752535,64.40030192591115,602.3916861468317,2.817379993827315,-98676.56488939027,10.5,10499901323.43511,47.655,-122.3035,60.0,9.35
2026-01-20T23:09:22+00:00,SAT-53034,46.15005791399162,63.794980182506,605.2015131336939,2.8849571660789013,-101043.40331279601,10.5,10499898956.596687,47.655,-122.3035,60.0,9.366666666666667
2026-01-20T23:09:23+00:00,SAT-53034,46.592239756083984,63.193628487778895,608.0787361277346,2.951576184599469,-103376.68313955524,10.5,10499896623.31686,47.655,-122.3035,60.0,9.383333333333333
2026-01-20T23:09:24+00:00,SAT-53034,47.0126000573306,62.596426574944715,611.0223995439007,3.0172334699616132,-105676.27900297925,10.5,10499894323.720997,47.655,-122.3035,60.0,9.4
2026-01-20T23:09:25+00:00,SAT-53034,47.412686201082494,62.00353605040329,614.0315442273074,3.0819266161256427,-107942.10663338052,10.5,10499892057.893366,47.655,-122.3035,60.0,9.416666666666666
2026-01-20T23:09:26+00:00,SAT-53034,47.793906482336716,61.415101921807626,617.1052086234813,3.145654249121065,-110174.1179085005,10.5,10499889825.882092,47.655,-122.3035,60.0,9.433333333333334
2026-01-20T23:09:27+00:00,SAT-53034,48.157544947630335,60.83125397246714,620.2424298076604,3.2084160252166165,-112372.30078941636,10.5,10499887627.699211,47.655,-122.3035,60.0,9.45
2026-01-20T23:09:28+00:00,SAT-53034,48.50477443985799,60.252107978774646,623.4422445122749,3.27021257770279,-114536.67745664,10.5,10499885463.322544,47.655,-122.3035,60.0,9.466666666666667
2026-01-20T23:09:29+00:00,SAT-53034,48.83666808066907,59.67776680220552,626.7036901013463,3.3310454841219523,-116667.30316237808,10.5,10499883332.696838,47.655,-122.3035,60.0,9.483333333333333
2026-01-20T23:09:30+00:00,SAT-53034,49.15420939960415,59.10832136983045,630.0258055122096,3.3909172288993275,-118764.26492171106,10.5,10499881235.735079,47.655,-122.3035,60.0,9.5
2026-01-20T23:09:31+00:00,SAT-53034,49.45830128540706,58.54385155937587,633.4076321599647,3.44983108342066,-120827.67731240566,10.5,10499879172.322687,47.655,-122.3035,60.0,9.516666666666667
2026-01-20T23:09:32+00:00,SAT-53034,49.74977390478584,57.984427014740746,636.8482147223274,3.507791180790967,-122857.68509328262,10.5,10499877142.314907,47.655,-122.3035,60.0,9.533333333333333
2026-01-20T23:09:33+00:00,SAT-53034,50.02939173780132,57.43010787001077,640.3466019990378,3.564802382466488,-124854.45853310334,10.5,10499875145.541468,47.655,-122.3035,60.0,9.55
2026-01-20T23:09:34+00:00,SAT-53034,50.29785982224975,56.88094542610284,643.9018476382596,3.620870252285288,-126818.1925010119,10.5,10499873181.807499,47.655,-122.3035,60.0,9.566666666666666
2026-01-20T23:09:35+00:00,SAT-53034,50.55582931516401,56.33698276915857,647.5130108370786,3.6760010218465684,-128749.10525397197,10.5,10499871250.894747,47.655,-122.3035,60.0,9.583333333333334
2026-01-20T23:09:36+00:00,SAT-53034,50.803902454284795,55.798255339025644,651.1791570074737,3.730201540622286,-130647.43668946471,10.5,10499869352.56331,47.655,-122.3035,60.0,9.6
2026-01-20T23:09:37+00:00,SAT-53034,51.04263699079161,55.26479145578844,654.8993583925335,3.7834792634076884,-132513.44790595342,10.5,10499867486.552094,47.655,-122.3035,60.0,9.616666666666667
2026-01-20T23:09:38+00:00,SAT-53034,51.2725501591182,54.7366128037965,658.672694670156,3.8358421707517487,-134347.41841602087,10.5,10499865652.581585,47.655,-122.3035,60.0,9.633333333333333
2026-01-20T23:09:39+00:00,SAT-53034,51.49412223368351,54.21373488704012,662.4982534773941,3.887298690573932,-136149.64340105676,10.5,10499863850.3566,47.655,-122.3035,60.0,9.65
2026-01-20T23:09:40+00:00,SAT-53034,51.70779972124795,53.69616745836378,666.3751308566258,3.9378577812710853,-137920.43662201267,10.5,10499862079.563377,47.655,-122.3035,60.0,9.666666666666666
2026-01-20T23:09:41+00:00,SAT-53034,51.91399824012092,53.18391490410471,670.3024317846098,3.9875288032032636,-139660.125918292,10.5,10499860339.874083,47.655,-122.3035,60.0,9.683333333333334
2026-01-20T23:09:42+00:00,SAT-53034,52.11310510890476,52.67697661601634,674.2792705733705,4.0363214658392605,-141369.05135656294,10.5,10499858630.948643,47.655,-122.3035,60.0,9.7
2026-01-20T23:09:43+00:00,SAT-53034,52.30548168199444,52.17534734164975,678.3047712183723,4.084245864885239,-143047.5665311601,10.5,10499856952.43347,47.655,-122.3035,60.0,9.716666666666667
2026-01-20T23:09:44+00:00,SAT-53034,52.491465464388995,51.67901750417432,682.3780677837196,4.131312393046039,-144696.03543856798,10.5,10499855303.964561,47.655,-122.3035,60.0,9.733333333333333
2026-01-20T23:09:45+00:00,SAT-53034,52.67137202296435,51.187973509752105,686.498304698361,4.177531736097146,-146314.83233984502,10.5,10499853685.16766,47.655,-122.3035,60.0,9.75
2026-01-20T23:09:46+00:00,SAT-53034,52.84549672056807,50.70219803323187,690.664637048373,4.222914797314319,-147904.33911382905,10.5,10499852095.660887,47.655,-122.3035,60.0,9.766666666666667
2026-01-20T23:09:47+00:00,SAT-53034,53.0141162880753,50.2216702922279,694.8762307938779,4.267472755258686,-149464.94728101604,10.5,10499850535.05272,47.655,-122.3035,60.0,9.783333333333333
2026-01-20T23:09:48+00:00,SAT-53034,53.177490257398574,49.74636629544575,699.1322630435909,4.311216941012959,-150997.05370385293,10.5,10499849002.946297,47.655,-122.3035,60.0,9.8
2026-01-20T23:09:49+00:00,SAT-53034,53.33586226174006,49.2762590873949,703.4319222069331,4.35415887373089,-152501.0618318302,10.5,10499847498.938168,47.655,-122.3035,60.0,9.816666666666666
2026-01-20T23:09:50+00:00,SAT-53034,53.48946122348304,48.81131897227382,707.7744081815972,4.3963101621628375,-153977.37825249025,10.5,10499846022.621748,47.655,-122.3035,60.0,9.833333333333334
2026-01-20T23:09:51+00:00,SAT-53034,53.63850243534243,48.351513732892336,712.158932442906,4.437682614437841,-155426.41653646046,10.5,10499844573.583464,47.655,-122.3035,60.0,9.85
2026-01-20T23:09:52+00:00,SAT-53034,53.78318855354563,47.89680882332377,716.5847182426548,4.478288058302476,-156848.59094145725,10.5,10499843151.409058,47.655,-122.3035,60.0,9.866666666666667
2026-01-20T23:09:53+00:00,SAT-53034,53.923710500526376,47.44716756684648,721.0510006286767,4.518138446442036,-158244.32010107933,10.5,10499841755.6799,47.655,-122.3035,60.0,9.883333333333333
2026-01-20T23:09:54+00:00,SAT-53034,54.06024829651652,47.00255132990009,725.5570265694467,4.557245703701023,-159614.0216738232,10.5,10499840385.978327,47.655,-122.3035,60.0,9.9
2026-01-20T23:09:55+00:00,SAT-53034,54.192971817640014,46.562919699221155,730.1020549263163,4.595621887499166,-160958.11796153075,10.5,10499839041.882038,47.655,-122.3035,60.0,9.916666666666666
2026-01-20T23:09:56+00:00,SAT-53034,54.32204149784949,46.12823063167413,734.6853565857307,4.633278993978107,-162277.02911982572,10.5,10499837722.97088,47.655,-122.3035,60.0,9.933333333333334
2026-01-20T23:09:57+00:00,SAT-53034,54.44760896845138,45.69844061231278,739.3062143981185,4.670229047318221,-163571.17628636715,10.5,10499836428.823713,47.655,-122.3035,60.0,9.95
2026-01-20T23:09:58+00:00,SAT-53034,54.569817649968506,45.2735047934434,743.9639232058526,4.706484023653552,-164840.97891602828,10.5,10499835159.021084,47.655,-122.3035,60.0,9.966666666666667
2026-01-20T23:09:59+00:00,SAT-53034,54.68880329548174,44.85337713120826,748.6577897953332,4.742055918151101,-166086.85713029696,10.5,10499833913.14287,47.655,-122.3035,60.0,9.983333333333333
2026-01-20T23:10:00+00:00,SAT-53034,54.80469449399831,44.43801050704027,753.3871329159717,4.776956637876066,-167309.2279649633,10.5,10499832690.772036,47.655,-122.3035,60.0,10.0
2026-01-20T23:10:01+00:00,SAT-53034,54.917613132431185,44.027356850241475,758.1512831923218,4.811198005016622,-168508.505483065,10.5,10499831491.494516,47.655,-122.3035,60.0,10.016666666666667
2026-01-20T23:10:02+00:00,SAT-53034,55.02767482303619,43.62136725185134,762.9495830394319,4.8447918354206525,-169685.10352557586,10.5,10499830314.896475,47.655,-122.3035,60.0,10.033333333333333
2026-01-20T23:10:03+00:00,SAT-53034,55.13498930092937,43.219992064240614,767.7813866565231,4.877749830700812,-170839.43193246884,10.5,10499829160.568068,47.655,-122.3035,60.0,10.05
2026-01-20T23:10:04+00:00,SAT-53034,55.23966078969426,42.823181002819716,772.6460599130572,4.910083595317067,-171971.89714101882,10.5,10499828028.10286,47.655,-122.3035,60.0,10.066666666666666
2026-01-20T23:10:05+00:00,SAT-53034,55.34178834075646,42.43088323932307,777.5429802518466,4.941804616111957,-173082.9014690408,10.5,10499826917.098532,47.655,-122.3035,60.0,10.083333333333334
2026-01-20T23:10:06+00:00,SAT-53034,55.44146614799105,42.04304749023384,782.4715365717519,4.972924308206014,-174172.84472234175,10.5,10499825827.155277,47.655,-122.3035,60.0,10.1
2026-01-20T23:10:07+00:00,SAT-53034,55.538783840887376,41.65962209551893,787.4311291561512,5.003453966803539,-175242.12250675485,10.5,10499824757.877493,47.655,-122.3035,60.0,10.116666666666667
2026-01-20T23:10:08+00:00,SAT-53034,55.633826756047526,41.28055509557932,792.4211695533463,5.033404746016093,-176291.125486449,10.5,10499823708.874514,47.655,-122.3035,60.0,10.133333333333333
2026-01-20T23:10:09+00:00,SAT-53034,55.726676189279864,40.90579430434479,797.441080435848,5.062787640857428,-177320.23875331445,10.5,10499822679.761248,47.655,-122.3035,60.0,10.15
2026-01-20T23:10:10+00:00,SAT-53034,55.817409630103114,40.53528737844842,802.490295441705,5.0916135803774125,-178329.84508890758,10.5,10499821670.154911,47.655,-122.3035,60.0,10.166666666666666
2026-01-20T23:10:11+00:00,SAT-53034,55.90610098203578,40.16898187473497,807.5682591087162,5.119893333203297,-179320.32165610592,10.5,10499820679.678345,47.655,-122.3035,60.0,10.183333333333334
2026-01-20T23:10:12+00:00,SAT-53034,55.99282076615859,39.80682531039157,812.6744267144385,5.147637457545884,-180292.0382481129,10.5,10499819707.961752,47.655,-122.3035,60.0,10.2
2026-01-20T23:10:13+00:00,SAT-53034,56.07763631019229,39.4487652220968,817.8082640663346,5.1748564577644975,-181245.36277202552,10.5,10499818754.637228,47.655,-122.3035,60.0,10.216666666666667
2026-01-20T23:10:14+00:00,SAT-53034,56.16061192805125,39.09474921007097,822.9692474480657,5.201560642439628,-182180.65627793776,10.5,10499817819.343721,47.655,-122.3035,60.0,10.233333333333333
2026-01-20T23:10:15+00:00,SAT-53034,56.241809084911175,38.74472498846181,828.1568634242388,5.227760181729984,-183098.27496782734,10.5,10499816901.725033,47.655,-122.3035,60.0,10.25
2026-01-20T23:10:16+00:00,SAT-53034,56.321286552768285,38.39864042809473,833.3706087023521,5.253465044231387,-183998.56798408704,10.5,10499816001.432016,47.655,-122.3035,60.0,10.266666666666667
2026-01-20T23:10:17+00:00,SAT-53034,56.39910055484619,38.05644360005193,838.6099899317782,5.278685104611501,-184881.88117934827,10.5,10499815118.11882,47.655,-122.3035,60.0,10.283333333333333
2026-01-20T23:10:18+00:00,SAT-53034,56.47530490269441,37.71808280896829,843.8745236100825,5.30343005167643,-185748.55389658437,10.5,10499814251.446104,47.655,-122.3035,60.0,10.3
2026-01-20T23:10:19+00:00,SAT-53034,56.54995112310142,37.38350662951979,849.163735897664,5.327709423803925,-186598.9202101315,10.5,10499813401.07979,47.655,-122.3035,60.0,10.316666666666666
2026-01-20T23:10:20+00:00,SAT-53034,56.62308857770294,37.05266393778358,854.4771624677267,5.351532542935677,-187433.3066138195,10.5,10499812566.693386,47.655,-122.3035,60.0,10.333333333333334
2026-01-20T23:10:21+00:00,SAT-53034,56.6947645741792,36.7255039440471,859.8143482904261,5.374908671873496,-188252.0375301493,10.5,10499811747.96247,47.655,-122.3035,60.0,10.35
2026-01-20T23:10:22+00:00,SAT-53034,56.765024473074845,36.40197621346221,865.1748475738875,5.397846833118148,-189055.42896526286,10.5,10499810944.571035,47.655,-122.3035,60.0,10.366666666666667
2026-01-20T23:10:23+00:00,SAT-53034,56.833911785368336,36.08203069563432,870.5582235245487,5.420355906630123,-189843.7919329388,10.5,10499810156.208067,47.655,-122.3035,60.0,10.383333333333333
2026-01-20T23:10:24+00:00,SAT-53034,56.901468265695286,35.76561774596502,875.9640482050024,5.442444615653615,-190617.431958088,10.5,10499809382.568043,47.655,-122.3035,60.0,10.4
2026-01-20T23:10:25+00:00,SAT-53034,56.967733999778545,35.45268814589531,881.3919023776988,5.464121528159481,-191376.64912729245,10.5,10499808623.350872,47.655,-122.3035,60.0,10.416666666666666
2026-01-20T23:10:26+00:00,SAT-53034,57.03274748674942,35.14319312121103,886.8413753500902,5.485395052032018,-192121.73792022545,10.5,10499807878.26208,47.655,-122.3035,60.0,10.433333333333334
2026-01-20T23:10:27+00:00,SAT-53034,57.09654571655161,34.83708435888756,892.312064814972,5.506273441739351,-192852.98744327715,10.5,10499807147.012556,47.655,-122.3035,60.0,10.45
2026-01-20T23:10:28+00:00,SAT-53034,57.15916424298797,34.5343140219208,897.8035766974799,5.5267647411740795,-193570.67942759197,10.5,10499806429.320572,47.655,-122.3035,60.0,10.466666666666667
2026-01-20T23:10:29+00:00,SAT-53034,57.220637251811816,34.23483476572979,903.3155249450765,5.546876919035523,-194275.09297072774,10.5,10499805724.90703,47.655,-122.3035,60.0,10.483333333333333
2026-01-20T23:10:30+00:00,SAT-53034,57.28099762668712,33.938599745707265,908.8475314525608,5.566617765043,-194966.50090160544,10.5,10499805033.499098,47.655,-122.3035,60.0,10.5
2026-01-20T23:10:31+00:00,SAT-53034,57.34027701006724,33.64556262923989,914.3992258835691,5.58599483900927,-195645.1679968458,10.5,10499804354.832003,47.655,-122.3035,60.0,10.516666666666667
2026-01-20T23:10:32+00:00,SAT-53034,57.39850586013208,33.35567760900658,919.9702454412825,5.605015673064237,-196311.35806349904,10.5,10499803688.641937,47.655,-122.3035,60.0,10.533333333333333
2026-01-20T23:10:33+00:00,SAT-53034,57.45571350690789,33.068899404513935,925.560234840819,5.623687558550393,-196965.3264752215,10.5,10499803034.673525,47.655,-122.3035,60.0,10.55
2026-01-20T23:10:34+00:00,SAT-53034,57.51192820284224,32.78518327378584,931.1688460690941,5.6420176808987526,-197607.32489620172,10.5,10499802392.675104,47.655,-122.3035,60.0,10.566666666666666
2026-01-20T23:10:35+00:00,SAT-53034,57.567177172120935,32.504485017007305,936.7957382791888,5.660013031901618,-198237.59820858133,10.5,10499801762.40179,47.655,-122.3035,60.0,10.583333333333334
2026-01-20T23:10:36+00:00,SAT-53034,57.621486656414405,32.226760983705695,942.4405775972335,5.677680525328493,-198856.3885618136,10.5,10499801143.611439,47.655,-122.3035,60.0,10.6
2026-01-20T23:10:37+00:00,SAT-53034,57.67488195932233,31.95196807333685,948.1030370445934,5.695026909647617,-199463.9323158022,10.5,10499800536.067684,47.655,-122.3035,60.0,10.616666666666667
2026-01-20T23:10:38+00:00,SAT-53034,57.72738748758808,31.680063739496408,953.7827963730099,5.712058752904755,-200060.45951129275,10.5,10499799939.54049,47.655,-122.3035,60.0,10.633333333333333
2026-01-20T23:10:39+00:00,SAT-53034,57.77902678993246,31.411005994014133,959.479541884662,5.728782499866428,-200646.19587127006,10.5,10499799353.804129,47.655,-122.3035,60.0,10.65
2026-01-20T23:10:40+00:00,SAT-53034,57.82982259448917,31.144753407602295,965.1929663092186,5.745204522982405,-201221.36458588048,10.5,10499798778.635414,47.655,-122.3035,60.0,10.666666666666666
2026-01-20T23:10:41+00:00,SAT-53034,57.87979684474698,30.88126510763002,970.922768731713,5.7613309824585714,-201786.18141159174,10.5,10499798213.818588,47.655,-122.3035,60.0,10.683333333333334
2026-01-20T23:10:42+00:00,SAT-53034,57.92897073227953,30.620500781858894,976.6686543808715,5.777167945808132,-202340.8588583819,10.5,10499797659.141142,47.655,-122.3035,60.0,10.7
2026-01-20T23:10:43+00:00,SAT-53034,57.977364728944444,30.362420676074365,982.4303345366657,5.792721326832462,-202885.60405259044,10.5,10499797114.395947,47.655,-122.3035,60.0,10.716666666666667
2026-01-20T23:10:44+00:00,SAT-53034,58.02499861688358,30.106985594068366,988.2075263770167,5.807996941471156,-203420.62069302337,10.5,10499796579.379307,47.655,-122.3035,60.0,10.733333333333333
