DopplerPredictor/satellites_20260205_234138/SAT-53528.csv

timestamp,satellite,azimuth_deg,elevation_deg,distance_km,relative_velocity_kms,doppler_shift_hz,tx_freq_ghz,rx_freq_hz,ue_lat,ue_lon,ue_alt_m,time_minutes
2026-01-20T23:04:00+00:00,SAT-53528,245.98155979229338,30.189196926952416,979.717463032298,-5.796785344940252,203027.9431575048,10.5,10500203027.943157,47.655,-122.3035,60.0,4.0
2026-01-20T23:04:01+00:00,SAT-53528,246.01906941766202,30.448196680435508,973.936218068911,-5.78103458559567,202476.28493961156,10.5,10500202476.284939,47.655,-122.3035,60.0,4.016666666666667
2026-01-20T23:04:02+00:00,SAT-53528,246.05717844513526,30.709914650681377,968.1706816392566,-5.764994487120685,201914.4928414683,10.5,10500201914.492842,47.655,-122.3035,60.0,4.033333333333333
2026-01-20T23:04:03+00:00,SAT-53528,246.09590263481383,30.974391728622443,962.4211423067866,-5.748658935302411,201342.35271747666,10.5,10500201342.352718,47.655,-122.3035,60.0,4.05
2026-01-20T23:04:04+00:00,SAT-53528,246.1352583041288,31.24166940277834,956.6878947327749,-5.732021692576035,200759.64610173204,10.5,10500200759.646101,47.655,-122.3035,60.0,4.066666666666666
2026-01-20T23:04:05+00:00,SAT-53528,246.1752623526479,31.51178976175158,950.9712397993375,-5.715076393515262,200166.1500500798,10.5,10500200166.15005,47.655,-122.3035,60.0,4.083333333333333
2026-01-20T23:04:06+00:00,SAT-53528,246.21593228832694,31.784795496113013,945.2714847369527,-5.6978165147411195,199561.6360861945,10.5,10500199561.636086,47.655,-122.3035,60.0,4.1
2026-01-20T23:04:07+00:00,SAT-53528,246.2572862549413,32.060729898364386,939.5889432819889,-5.680235425366592,198945.87196836426,10.5,10500198945.87197,47.655,-122.3035,60.0,4.116666666666666
2026-01-20T23:04:08+00:00,SAT-53528,246.2993430613638,32.33963686479005,933.9239357839252,-5.662326282766841,198318.6180389229,10.5,10500198318.618038,47.655,-122.3035,60.0,4.133333333333334
2026-01-20T23:04:09+00:00,SAT-53528,246.34212221188494,32.62156089163435,928.2767894165218,-5.644082181416949,197679.6324371775,10.5,10500197679.632437,47.655,-122.3035,60.0,4.15
2026-01-20T23:04:10+00:00,SAT-53528,246.38564393905025,32.906547077926255,922.64783824055,-5.6254960095728155,197028.66607976696,10.5,10500197028.66608,47.655,-122.3035,60.0,4.166666666666667
2026-01-20T23:04:11+00:00,SAT-53528,246.42992923755997,33.19464112056771,917.0374234094604,-5.60656052929771,196365.46546353062,10.5,10500196365.465464,47.655,-122.3035,60.0,4.183333333333334
2026-01-20T23:04:12+00:00,SAT-53528,246.47499990058924,33.4858893125993,911.4458932952361,-5.587268341484315,195689.77144043197,10.5,10500195689.77144,47.655,-122.3035,60.0,4.2
2026-01-20T23:04:13+00:00,SAT-53528,246.52087855794446,33.780338538893794,905.8736036491325,-5.567611911606599,195001.32011949844,10.5,10500195001.32012,47.655,-122.3035,60.0,4.216666666666667
2026-01-20T23:04:14+00:00,SAT-53528,246.56758871665878,34.07803627230243,900.3209177367303,-5.54758351600213,194299.84098540054,10.5,10500194299.840986,47.655,-122.3035,60.0,4.233333333333333
2026-01-20T23:04:15+00:00,SAT-53528,246.6151548035927,34.37903056599173,894.7882065265682,-5.527175311038622,193585.0593209571,10.5,10500193585.05932,47.655,-122.3035,60.0,4.25
2026-01-20T23:04:16+00:00,SAT-53528,246.66360221103852,34.683370048412385,889.2758488097882,-5.506379261284449,192856.6936913627,10.5,10500192856.693691,47.655,-122.3035,60.0,4.266666666666667
2026-01-20T23:04:17+00:00,SAT-53528,246.71295734450948,34.991103913284185,883.784231391423,-5.485187187744408,192114.45763360828,10.5,10500192114.457634,47.655,-122.3035,60.0,4.283333333333333
2026-01-20T23:04:18+00:00,SAT-53528,246.76324767389755,35.30228191096491,878.3137492335732,-5.463590750831823,191358.05906009197,10.5,10500191358.05906,47.655,-122.3035,60.0,4.3
2026-01-20T23:04:19+00:00,SAT-53528,246.8145017874048,35.61695433761245,872.8648056155689,-5.441581426821959,190587.1994339183,10.5,10500190587.199434,47.655,-122.3035,60.0,4.316666666666666
2026-01-20T23:04:20+00:00,SAT-53528,246.86674944887474,35.9351720215658,867.437812317614,-5.419150556666911,189801.57547860182,10.5,10500189801.57548,47.655,-122.3035,60.0,4.333333333333333
2026-01-20T23:04:21+00:00,SAT-53528,246.92002165883167,36.256986311026466,862.0331897557467,-5.396289286896887,189000.87710818034,10.5,10500189000.877108,47.655,-122.3035,60.0,4.35
2026-01-20T23:04:22+00:00,SAT-53528,246.97435071905554,36.58244905669291,856.6513671757401,-5.372988644581483,188184.7900526756,10.5,10500188184.790052,47.655,-122.3035,60.0,4.366666666666666
2026-01-20T23:04:23+00:00,SAT-53528,247.02977030173167,36.911612597125604,851.2927827722423,-5.349239415150469,187352.99157886064,10.5,10500187352.99158,47.655,-122.3035,60.0,4.383333333333334
2026-01-20T23:04:24+00:00,SAT-53528,247.0863155221699,37.24452973486113,845.9578839297687,-5.325032282599433,186505.15540085416,10.5,10500186505.155401,47.655,-122.3035,60.0,4.4
2026-01-20T23:04:25+00:00,SAT-53528,247.14402301721685,37.58125371903546,840.6471273238642,-5.300357734891905,185640.94836690318,10.5,10500185640.948366,47.655,-122.3035,60.0,4.416666666666667
2026-01-20T23:04:26+00:00,SAT-53528,247.20293102818619,37.921838220144195,835.3609791166105,-5.2752061080708055,184760.03200435234,10.5,10500184760.032003,47.655,-122.3035,60.0,4.433333333333334
2026-01-20T23:04:27+00:00,SAT-53528,247.2630794894522,38.266337305263974,830.0999151081371,-5.249567530147174,183862.0605543897,10.5,10500183862.060555,47.655,-122.3035,60.0,4.45
2026-01-20T23:04:28+00:00,SAT-53528,247.3245101226345,38.614805407187944,824.8644209440978,-5.223432037103229,182946.6850349648,10.5,10500182946.685036,47.655,-122.3035,60.0,4.466666666666667
2026-01-20T23:04:29+00:00,SAT-53528,247.38726653802587,38.96729729859658,819.6549922074527,-5.1967894417047145,182013.54864604198,10.5,10500182013.548647,47.655,-122.3035,60.0,4.483333333333333
2026-01-20T23:04:30+00:00,SAT-53528,247.45139434183537,39.32386805488487,814.4721346410844,-5.16962940354159,181062.28922272185,10.5,10500181062.289223,47.655,-122.3035,60.0,4.5
2026-01-20T23:04:31+00:00,SAT-53528,247.51694125143578,39.68457301858979,809.3163643005645,-5.141941448286126,180092.53990974088,10.5,10500180092.53991,47.655,-122.3035,60.0,4.516666666666667
2026-01-20T23:04:32+00:00,SAT-53528,247.58395721886413,40.049467762132075,804.1882076877132,-5.113714909322847,179103.92711710546,10.5,10500179103.927116,47.655,-122.3035,60.0,4.533333333333333
2026-01-20T23:04:33+00:00,SAT-53528,247.65249456232155,40.41860804318098,799.08820194237,-5.084938995406818,178096.0728897709,10.5,10500178096.07289,47.655,-122.3035,60.0,4.55
2026-01-20T23:04:34+00:00,SAT-53528,247.72260810789197,40.79204976125305,794.0168949666883,-5.055602751166321,177068.5935242786,10.5,10500177068.593525,47.655,-122.3035,60.0,4.566666666666666
2026-01-20T23:04:35+00:00,SAT-53528,247.79435534093687,41.169848907815776,788.9748455888243,-5.02569506103013,176021.09970630537,10.5,10500176021.099707,47.655,-122.3035,60.0,4.583333333333333
2026-01-20T23:04:36+00:00,SAT-53528,247.8677965686096,41.55206151262085,783.9626237227072,-4.995204692909123,174953.19804057843,10.5,10500174953.19804,47.655,-122.3035,60.0,4.6
2026-01-20T23:04:37+00:00,SAT-53528,247.94299509483278,41.938743589132635,778.9808104842414,-4.9641202681156456,173864.48999732436,10.5,10500173864.489998,47.655,-122.3035,60.0,4.616666666666666
2026-01-20T23:04:38+00:00,SAT-53528,248.02001740802947,42.329951073306646,774.0299983375161,-4.932430247740297,172754.57143512636,10.5,10500172754.571436,47.655,-122.3035,60.0,4.633333333333334
2026-01-20T23:04:39+00:00,SAT-53528,248.09893338270697,42.72573975646534,769.1107912545945,-4.900123018052166,171623.03559200192,10.5,10500171623.035591,47.655,-122.3035,60.0,4.65
2026-01-20T23:04:40+00:00,SAT-53528,248.17981649772443,43.12616521994925,764.2238047901369,-4.8671868190075545,170469.4705814758,10.5,10500170469.470581,47.655,-122.3035,60.0,4.666666666666667
2026-01-20T23:04:41+00:00,SAT-53528,248.26274407030985,43.53128275890744,759.369666227319,-4.833609780289618,169293.46065484072,10.5,10500169293.460655,47.655,-122.3035,60.0,4.683333333333334
2026-01-20T23:04:42+00:00,SAT-53528,248.34779750905935,43.94114730331117,754.5490146878125,-4.7993799273475455,168094.58641267495,10.5,10500168094.586412,47.655,-122.3035,60.0,4.7
2026-01-20T23:04:43+00:00,SAT-53528,248.4350625869712,44.35581333355707,749.7625012357358,-4.764485211236173,166872.4258499519,10.5,10500166872.42585,47.655,-122.3035,60.0,4.716666666666667
2026-01-20T23:04:44+00:00,SAT-53528,248.5246297368953,44.77533479241977,745.0107889518521,-4.728913507572351,165626.5543194875,10.5,10500165626.55432,47.655,-122.3035,60.0,4.733333333333333
2026-01-20T23:04:45+00:00,SAT-53528,248.61659437092254,45.19976499046035,740.2945530088034,-4.692652581076459,164356.5432900344,10.5,10500164356.54329,47.655,-122.3035,60.0,4.75
2026-01-20T23:04:46+00:00,SAT-53528,248.711057225762,45.62915650123018,735.6144807817107,-4.655690199282759,163061.96432889905,10.5,10500163061.964329,47.655,-122.3035,60.0,4.766666666666667
2026-01-20T23:04:47+00:00,SAT-53528,248.80812473848582,46.063561059363686,730.9712718453673,-4.618014036992051,161742.38575546996,10.5,10500161742.385756,47.655,-122.3035,60.0,4.783333333333333
2026-01-20T23:04:48+00:00,SAT-53528,248.90790945287,46.503029442350524,726.3656380667221,-4.579611783267049,160397.37638864826,10.5,10500160397.376389,47.655,-122.3035,60.0,4.8
2026-01-20T23:04:49+00:00,SAT-53528,249.01053046209017,46.9476113540288,721.7983035906599,-4.540471070002864,159026.50304508355,10.5,10500159026.503046,47.655,-122.3035,60.0,4.816666666666666
2026-01-20T23:04:50+00:00,SAT-53528,249.11611388904407,47.39735529275983,717.2700048970106,-4.500579575091922,157629.33415244613,10.5,10500157629.334152,47.655,-122.3035,60.0,4.833333333333333
2026-01-20T23:04:51+00:00,SAT-53528,249.2247934106927,47.852308420467615,712.7814907546796,-4.459924979455639,156205.4382444945,10.5,10500156205.438244,47.655,-122.3035,60.0,4.85
2026-01-20T23:04:52+00:00,SAT-53528,249.33671082875364,48.31251641806339,708.3335222186242,-4.4184950145341295,154754.3856243654,10.5,10500154754.385624,47.655,-122.3035,60.0,4.866666666666666
2026-01-20T23:04:53+00:00,SAT-53528,249.45201669315156,48.77802333551758,703.9268725794716,-4.376277457073775,153275.7481820128,10.5,10500153275.748182,47.655,-122.3035,60.0,4.883333333333334
2026-01-20T23:04:54+00:00,SAT-53528,249.57087098275312,49.24887143074111,699.562327318334,-4.333260206774693,151769.10211375056,10.5,10500151769.102114,47.655,-122.3035,60.0,4.9
2026-01-20T23:04:55+00:00,SAT-53528,249.69344385173468,49.72510100553138,695.2406839841839,-4.289431238513758,150234.0262489007,10.5,10500150234.026249,47.655,-122.3035,60.0,4.916666666666667
2026-01-20T23:04:56+00:00,SAT-53528,249.81991644569104,50.20675022466787,690.9627521188789,-4.244778668691802,148670.1043735527,10.5,10500148670.104374,47.655,-122.3035,60.0,4.933333333333334
2026-01-20T23:04:57+00:00,SAT-53528,249.95048179813747,50.69385492960157,686.7293531160186,-4.1992907744964185,147076.92590522874,10.5,10500147076.925905,47.655,-122.3035,60.0,4.95
2026-01-20T23:04:58+00:00,SAT-53528,250.08534581534192,51.186448441180445,682.5413200605864,-4.152956045750539,145454.08770883974,10.5,10500145454.08771,47.655,-122.3035,60.0,4.966666666666667
2026-01-20T23:04:59+00:00,SAT-53528,250.22472836079956,51.684561354537585,678.3994975168865,-4.105763149644649,143801.1928614589,10.5,10500143801.192862,47.655,-122.3035,60.0,4.983333333333333
2026-01-20T23:05:00+00:00,SAT-53528,250.36886444842682,52.18822131502853,674.3047413516509,-4.0577010087077445,142117.8533831939,10.5,10500142117.853384,47.655,-122.3035,60.0,5.0
2026-01-20T23:05:01+00:00,SAT-53528,250.518005560797,52.69745278751818,670.2579184793847,-4.008758860423278,140403.69232518988,10.5,10500140403.692326,47.655,-122.3035,60.0,5.016666666666667
2026-01-20T23:05:02+00:00,SAT-53528,250.67242110721733,53.21227681661255,666.2599065482575,-3.9589262265774186,138658.34269607576,10.5,10500138658.342695,47.655,-122.3035,60.0,5.033333333333333
2026-01-20T23:05:03+00:00,SAT-53528,250.8324000361306,53.73271076543551,662.3115936565619,-3.9081929710956005,136881.44948764457,10.5,10500136881.449488,47.655,-122.3035,60.0,5.05
2026-01-20T23:05:04+00:00,SAT-53528,250.99825262383607,54.258768042523286,658.4138780114909,-3.8565493491714924,135072.67139555817,10.5,10500135072.671396,47.655,-122.3035,60.0,5.066666666666666
2026-01-20T23:05:05+00:00,SAT-53528,251.17031246220924,54.79045781485528,654.5676675389208,-3.8039860493628415,133231.68229372147,10.5,10500133231.682293,47.655,-122.3035,60.0,5.083333333333333
2026-01-20T23:05:06+00:00,SAT-53528,251.34893867078117,55.32778470487046,650.7738794512064,-3.750494217514015,131358.17207215118,10.5,10500131358.172071,47.655,-122.3035,60.0,5.1
2026-01-20T23:05:07+00:00,SAT-53528,251.53451836263613,55.870748467383166,647.0334397911213,-3.696065502143197,129451.84822662741,10.5,10500129451.848227,47.655,-122.3035,60.0,5.116666666666666
2026-01-20T23:05:08+00:00,SAT-53528,251.72746939874492,56.41934364741823,643.3472829305322,-3.6406920696945795,127512.4363928898,10.5,10500127512.436394,47.655,-122.3035,60.0,5.133333333333334
2026-01-20T23:05:09+00:00,SAT-53528,251.92824346941745,56.97355921239959,639.7163510538611,-3.584366728215541,125539.68467833563,10.5,10500125539.684679,47.655,-122.3035,60.0,5.15
2026-01-20T23:05:10+00:00,SAT-53528,252.13732955340325,57.53337817268995,636.1415935182013,-3.527082865174057,123533.36148412243,10.5,10500123533.361485,47.655,-122.3035,60.0,5.166666666666667
2026-01-20T23:05:11+00:00,SAT-53528,252.35525779987532,58.09877715983546,632.6239662754512,-3.468834557724853,121493.25936715513,10.5,10500121493.259367,47.655,-122.3035,60.0,5.183333333333334
2026-01-20T23:05:12+00:00,SAT-53528,252.58260390280645,58.669725984971066,629.1644311844766,-3.4096166251609956,119419.19687716244,10.5,10500119419.196877,47.655,-122.3035,60.0,5.2
2026-01-20T23:05:13+00:00,SAT-53528,252.8199940384216,59.246187165609236,625.7639552709605,-3.3494246401057675,117311.01894868402,10.5,10500117311.01895,47.655,-122.3035,60.0,5.216666666666667
2026-01-20T23:05:14+00:00,SAT-53528,253.06811044766258,59.82811540933203,622.4235099760942,-3.2882549751849153,115168.5985357297,10.5,10500115168.598536,47.655,-122.3035,60.0,5.233333333333333
2026-01-20T23:05:15+00:00,SAT-53528,253.3276977653928,60.415457054398246,619.1440703587186,-3.2261048955930303,112991.83985384587,10.5,10500112991.839853,47.655,-122.3035,60.0,5.25
2026-01-20T23:05:16+00:00,SAT-53528,253.5995702161468,61.00814946943952,615.9266142051481,-3.1629725452892825,110780.67789663163,10.5,10500110780.677896,47.655,-122.3035,60.0,5.266666666666667
2026-01-20T23:05:17+00:00,SAT-53528,253.88461980816203,61.606120385970975,612.7721211527627,-3.0988570706545375,108535.08276673406,10.5,10500108535.082767,47.655,-122.3035,60.0,5.283333333333333
2026-01-20T23:05:18+00:00,SAT-53528,254.18382569876334,62.20928717955475,609.6815716902724,-3.0337585682386066,106255.05784573597,10.5,10500106255.057846,47.655,-122.3035,60.0,5.3
2026-01-20T23:05:19+00:00,SAT-53528,254.49826491203794,62.81755605596783,606.6559462100965,-2.9676782261565213,103940.64474645146,10.5,10500103940.644747,47.655,-122.3035,60.0,5.316666666666666
2026-01-20T23:05:20+00:00,SAT-53528,254.82912465483963,63.430821165748625,603.6962239197246,-2.900618326452769,101591.92339573157,10.5,10500101591.923395,47.655,-122.3035,60.0,5.333333333333333
2026-01-20T23:05:21+00:00,SAT-53528,255.17771649705253,64.04896360514458,600.8033817507198,-2.8325822734281934,99209.01302659199,10.5,10500099209.013027,47.655,-122.3035,60.0,5.35
2026-01-20T23:05:22+00:00,SAT-53528,255.5454927465683,64.67185028799375,597.9783932394704,-2.7635746884563948,96792.07549908459,10.5,10500096792.075499,47.655,-122.3035,60.0,5.366666666666666
2026-01-20T23:05:23+00:00,SAT-53528,255.93406542458445,65.29933267928953,595.2222273133804,-2.6936013921419164,94341.3146754016,10.5,10500094341.314676,47.655,-122.3035,60.0,5.383333333333334
2026-01-20T23:05:24+00:00,SAT-53528,256.34522830604914,65.93124533710734,592.5358470948537,-2.6226695045184356,91856.97992924016,10.5,10500091856.979929,47.655,-122.3035,60.0,5.4
2026-01-20T23:05:25+00:00,SAT-53528,256.7809826178388,66.5674042530229,589.9202086053485,-2.5507874469041516,89339.36621078571,10.5,10500089339.36621,47.655,-122.3035,60.0,5.416666666666667
2026-01-20T23:05:26+00:00,SAT-53528,257.2435670830043,67.20760492506813,587.3762594675809,-2.4779649680956823,86788.81496413317,10.5,10500086788.814964,47.655,-122.3035,60.0,5.433333333333334
2026-01-20T23:05:27+00:00,SAT-53528,257.73549316382105,67.85162011279759,584.9049375816056,-2.4042132173167894,84205.71668225987,10.5,10500084205.716682,47.655,-122.3035,60.0,5.45
2026-01-20T23:05:28+00:00,SAT-53528,258.25958654897033,68.49919721831083,582.5071697281429,-2.3295447423182694,81590.5108404756,10.5,10500081590.510841,47.655,-122.3035,60.0,5.466666666666667
2026-01-20T23:05:29+00:00,SAT-53528,258.81903613908605,69.15005518931446,580.1838701738019,-2.2539735213726777,78943.68701701333,10.5,10500078943.687017,47.655,-122.3035,60.0,5.483333333333333
2026-01-20T23:05:30+00:00,SAT-53528,259.4174520839762,69.80388084502775,577.9359392443914,-2.1775149935477067,76265.78595333081,10.5,10500076265.785954,47.655,-122.3035,60.0,5.5
2026-01-20T23:05:31+00:00,SAT-53528,260.05893476932965,70.46032448984127,575.7642618680443,-2.100186076625635,73557.4001817256,10.5,10500073557.40018,47.655,-122.3035,60.0,5.516666666666667
2026-01-20T23:05:32+00:00,SAT-53528,260.74815707516706,71.11899464073544,573.6697061004645,-2.0220051730348896,70819.17423308341,10.5,10500070819.174232,47.655,-122.3035,60.0,5.533333333333333
2026-01-20T23:05:33+00:00,SAT-53528,261.4904627494234,71.77945164770341,571.6531216442618,-1.942992181307157,68051.80503815459,10.5,10500068051.805038,47.655,-122.3035,60.0,5.55
2026-01-20T23:05:34+00:00,SAT-53528,262.29198437542107,72.4411999320128,569.7153383568599,-1.8631684971991558,65256.0419668434,10.5,10500065256.041967,47.655,-122.3035,60.0,5.566666666666666
2026-01-20T23:05:35+00:00,SAT-53528,263.1597851591548,73.10367848521918,567.8571647572844,-1.7825570385515679,62432.68769887288,10.5,10500062432.687698,47.655,-122.3035,60.0,5.583333333333333
2026-01-20T23:05:36+00:00,SAT-53528,264.1020296498633,73.76624918404096,566.0793865081603,-1.7011821884372922,59582.59623259624,10.5,10500059582.596233,47.655,-122.3035,60.0,5.6
2026-01-20T23:05:37+00:00,SAT-53528,265.12818943231395,74.42818230870832,564.3827649544071,-1.6190698332814788,56706.674220121735,10.5,10500056706.674221,47.655,-122.3035,60.0,5.616666666666666
2026-01-20T23:05:38+00:00,SAT-53528,266.2492909022535,75.0886385481541,562.7680356239171,-1.536247303889874,53805.87890187577,10.5,10500053805.878902,47.655,-122.3035,60.0,5.633333333333334
2026-01-20T23:05:39+00:00,SAT-53528,267.47821301434004,75.74664649182198,561.2359067870467,-1.4527433819267754,50881.21833348837,10.5,10500050881.218334,47.655,-122.3035,60.0,5.65
2026-01-20T23:05:40+00:00,SAT-53528,268.83004336985965,76.40107439764122,559.7870580096483,-1.3685882519820947,47933.749706978924,10.5,10500047933.749706,47.655,-122.3035,60.0,5.666666666666667
2026-01-20T23:05:41+00:00,SAT-53528,270.32250023847337,77.05059464483641,558.4221387539045,-1.2838134672017896,44964.57814698858,10.5,10500044964.578148,47.655,-122.3035,60.0,5.683333333333334
2026-01-20T23:05:42+00:00,SAT-53528,271.976425147712,77.69363890900254,557.1417670134421,-1.1984519052769214,41974.85516933076,10.5,10500041974.85517,47.655,-122.3035,60.0,5.7
2026-01-20T23:05:43+00:00,SAT-53528,273.81634326394726,78.32834165034569,555.9465279923369,-1.1125377192866046,38965.77695930346,10.5,10500038965.776958,47.655,-122.3035,60.0,5.716666666666667
2026-01-20T23:05:44+00:00,SAT-53528,275.871073308114,78.9524690991662,554.8369728331454,-1.026106293114684,35938.58281019259,10.5,10500035938.58281,47.655,-122.3035,60.0,5.733333333333333
2026-01-20T23:05:45+00:00,SAT-53528,278.17433907582273,79.56333071295167,553.8136173893998,-0.9391941520200157,32894.55199106498,10.5,10500032894.55199,47.655,-122.3035,60.0,5.75
2026-01-20T23:05:46+00:00,SAT-53528,280.7652808683593,80.15767037310329,552.8769410872926,-0.8518389311209333,29835.002642961088,10.5,10500029835.002644,47.655,-122.3035,60.0,5.766666666666667
2026-01-20T23:05:47+00:00,SAT-53528,283.6886736238633,80.73153617986146,552.0273858187923,-0.7640792703989513,26761.288101480484,10.5,10500026761.288101,47.655,-122.3035,60.0,5.783333333333333
2026-01-20T23:05:48+00:00,SAT-53528,286.99451142112144,81.28013157147244,551.2653549394744,-0.6759547550797562,23674.794808672068,10.5,10500023674.79481,47.655,-122.3035,60.0,5.8
2026-01-20T23:05:49+00:00,SAT-53528,290.7364045979203,81.79765887304227,550.5912123258112,-0.5875058231074787,20576.93907239163,10.5,10500020576.939072,47.655,-122.3035,60.0,5.816666666666666
2026-01-20T23:05:50+00:00,SAT-53528,294.9679735192808,82.27718167623583,550.0052815247396,-0.4987736836628352,17469.164212462507,10.5,10500017469.164213,47.655,-122.3035,60.0,5.833333333333333
2026-01-20T23:05:51+00:00,SAT-53528,299.7362167551011,82.71055726907058,549.5078449844918,-0.40980021945590694,14352.937138555444,10.5,10500014352.937138,47.655,-122.3035,60.0,5.85
2026-01-20T23:05:52+00:00,SAT-53528,305.070956820886,83.0885234103429,549.0991433828721,-0.3206278918423357,11229.745026956365,10.5,10500011229.745028,47.655,-122.3035,60.0,5.866666666666666
2026-01-20T23:05:53+00:00,SAT-53528,310.970425250709,83.40105347052494,548.7793750501609,-0.23129964364509717,8101.091916973844,10.5,10500008101.091917,47.655,-122.3035,60.0,5.883333333333334
2026-01-20T23:05:54+00:00,SAT-53528,317.3853586337437,83.63808952570157,548.5486954889412,-0.14185879597222947,4968.495097059478,10.5,10500004968.495096,47.655,-122.3035,60.0,5.9
2026-01-20T23:05:55+00:00,SAT-53528,324.2073810153882,83.7906775605957,548.4072169968243,-0.05234894327364383,1833.4814292535013,10.5,10500001833.48143,47.655,-122.3035,60.0,5.916666666666667
2026-01-20T23:05:56+00:00,SAT-53528,331.2697701564073,83.85233798679803,548.3550083938435,0.03718615110521641,-1302.4163089678939,10.5,10499998697.58369,47.655,-122.3035,60.0,5.933333333333334
2026-01-20T23:05:57+00:00,SAT-53528,338.36620749158755,83.82027815851865,548.3920948540092,0.12670266224624063,-4437.663183593253,10.5,10499995562.336817,47.655,-122.3035,60.0,5.95
2026-01-20T23:05:58+00:00,SAT-53528,345.284446292448,83.6959737321177,548.5184578439029,0.21615680965550704,-7570.725816534129,10.5,10499992429.274183,47.655,-122.3035,60.0,5.966666666666667
2026-01-20T23:05:59+00:00,SAT-53528,351.8423848694698,83.484857704725,548.7340351669814,0.3055049657657254,-10700.076185839594,10.5,10499989299.923815,47.655,-122.3035,60.0,5.983333333333333
2026-01-20T23:06:00+00:00,SAT-53528,357.9123681856496,83.19525931868446,549.0387211160935,0.3947037580980035,-13824.195203833435,10.5,10499986175.804796,47.655,-122.3035,60.0,6.0
2026-01-20T23:06:01+00:00,SAT-53528,3.4273261168887115,82.83703202964969,549.4323667278852,0.48371017960429946,-16941.576581773596,10.5,10499983058.423418,47.655,-122.3035,60.0,6.016666666666667
2026-01-20T23:06:02+00:00,SAT-53528,8.372175135112037,82.42031472914239,549.91478014725,0.572481683948464,-20050.730166997302,10.5,10499979949.269833,47.655,-122.3035,60.0,6.033333333333333
2026-01-20T23:06:03+00:00,SAT-53528,12.768478806411219,81.95466752636601,550.4857270868062,0.6609762922024707,-23150.18567987438,10.5,10499976849.81432,47.655,-122.3035,60.0,6.05
2026-01-20T23:06:04+00:00,SAT-53528,16.659157797449986,81.44860742658246,551.144931392784,0.7491526827768559,-26238.495863551667,10.5,10499973761.504137,47.655,-122.3035,60.0,6.066666666666666
2026-01-20T23:06:05+00:00,SAT-53528,20.096632271610094,80.90945027165104,551.8920757006014,0.8369702887423282,-29314.23989256743,10.5,10499970685.760107,47.655,-122.3035,60.0,6.083333333333333
2026-01-20T23:06:06+00:00,SAT-53528,23.135026845901592,80.34334054640898,552.7268021875013,0.9243893878583583,-32376.026526033427,10.5,10499967623.973475,47.655,-122.3035,60.0,6.1
2026-01-20T23:06:07+00:00,SAT-53528,25.825725048249904,79.75537399481301,553.6487134149768,1.0113711812729163,-35422.49686403259,10.5,10499964577.503136,47.655,-122.3035,60.0,6.116666666666666
2026-01-20T23:06:08+00:00,SAT-53528,28.21523529104352,79.14975204528092,554.657373249682,1.0978778751775065,-38452.32720752374,10.5,10499961547.672792,47.655,-122.3035,60.0,6.133333333333334
2026-01-20T23:06:09+00:00,SAT-53528,30.344472653121514,78.52993489284763,555.7523078657831,1.1838727604393602,-41464.23184739785,10.5,10499958535.768152,47.655,-122.3035,60.0,6.15
2026-01-20T23:06:10+00:00,SAT-53528,32.24882267371867,77.89877822512337,556.9330068267261,1.269320272001211,-44456.9651449094,10.5,10499955543.034855,47.655,-122.3035,60.0,6.166666666666667
2026-01-20T23:06:11+00:00,SAT-53528,33.95858685966174,77.25864880498268,558.1989242262442,1.3541860614124481,-47429.32407202421,10.5,10499952570.675928,47.655,-122.3035,60.0,6.183333333333334
2026-01-20T23:06:12+00:00,SAT-53528,35.49957704935529,76.61151917366172,559.5494799017038,1.438437041739229,-50380.1497843615,10.5,10499949619.850216,47.655,-122.3035,60.0,6.2
2026-01-20T23:06:13+00:00,SAT-53528,36.89373294951955,75.95904388955773,560.9840606922382,1.5220414504906619,-53308.32982513506,10.5,10499946691.670176,47.655,-122.3035,60.0,6.216666666666667
2026-01-20T23:06:14+00:00,SAT-53528,38.15970116626914,75.30262030460943,562.5020217596418,1.6049688818574726,-56212.799254287645,10.5,10499943787.200747,47.655,-122.3035,60.0,6.233333333333333
2026-01-20T23:06:15+00:00,SAT-53528,39.31334999307548,74.64343680821177,564.1026879414127,1.687190339202976,-59092.542486946906,10.5,10499940907.457514,47.655,-122.3035,60.0,6.25
2026-01-20T23:06:16+00:00,SAT-53528,40.36821343031524,73.98251107260187,565.7853551561486,1.7686782554903322,-61946.59400887426,10.5,10499938053.40599,47.655,-122.3035,60.0,6.266666666666667
2026-01-20T23:06:17+00:00,SAT-53528,41.335867314552274,73.32072041741058,567.5492918293137,1.8494065143646496,-64774.039114849315,10.5,10499935225.960886,47.655,-122.3035,60.0,6.283333333333333
2026-01-20T23:06:18+00:00,SAT-53528,42.22624456799472,72.65882598157965,569.3937403400314,1.9293505014899752,-67574.01570670847,10.5,10499932425.984293,47.655,-122.3035,60.0,6.3
2026-01-20T23:06:19+00:00,SAT-53528,43.04789785178198,71.99749202665176,571.3179185190771,2.0084870630612204,-70345.71284025702,10.5,10499929654.287159,47.655,-122.3035,60.0,6.316666666666666
2026-01-20T23:06:20+00:00,SAT-53528,43.808217708617434,71.33730144852277,573.3210211054933,2.0867945705647646,-73088.37299345946,10.5,10499926911.627007,47.655,-122.3035,60.0,6.333333333333333
2026-01-20T23:06:21+00:00,SAT-53528,44.513613617921344,70.67876827236893,575.4022212677922,2.1642528829612484,-75801.2907419209,10.5,10499924198.709257,47.655,-122.3035,60.0,6.35
2026-01-20T23:06:22+00:00,SAT-53528,45.16966430448003,70.02234779850339,577.560672087441,2.2408433626349082,-78483.81331750026,10.5,10499921516.186682,47.655,-122.3035,60.0,6.366666666666666
2026-01-20T23:06:23+00:00,SAT-53528,45.78124272487114,69.36844487166046,579.795508058257,2.316548869056077,-81135.34038634424,10.5,10499918864.659615,47.655,-122.3035,60.0,6.383333333333334
2026-01-20T23:06:24+00:00,SAT-53528,46.352620213921014,68.71742066430896,582.105846579479,2.39135372299565,-83755.32279552652,10.5,10499916244.677204,47.655,-122.3035,60.0,6.4
2026-01-20T23:06:25+00:00,SAT-53528,46.88755348482178,68.069598280964,584.4907894131501,2.465243727806916,-86343.2633184275,10.5,10499913656.736681,47.655,-122.3035,60.0,6.416666666666667
2026-01-20T23:06:26+00:00,SAT-53528,47.389357532714534,67.4252674016135,586.9494241627265,2.5382061063045342,-88898.71444396913,10.5,10499911101.285557,47.655,-122.3035,60.0,6.433333333333334
2026-01-20T23:06:27+00:00,SAT-53528,47.86096689679315,66.78468817209149,589.4808256887321,2.6102294978854683,-91421.27827577776,10.5,10499908578.721724,47.655,-122.3035,60.0,6.45
2026-01-20T23:06:28+00:00,SAT-53528,48.30498732082862,66.14809446985886,592.0840575215457,2.68130392870551,-93910.6054876399,10.5,10499906089.394512,47.655,-122.3035,60.0,6.466666666666667
2026-01-20T23:06:29+00:00,SAT-53528,48.72373945445446,65.51569666824685,594.758173244438,2.751420774138986,-96366.39400868234,10.5,10499903633.605991,47.655,-122.3035,60.0,6.483333333333333
2026-01-20T23:06:30+00:00,SAT-53528,49.11929594429313,64.88768399263087,597.5022178391777,2.82057272395834,-98788.38780381382,10.5,10499901211.612196,47.655,-122.3035,60.0,6.5
2026-01-20T23:06:31+00:00,SAT-53528,49.4935130187146,64.26422654106172,600.3152289969021,2.888753742986864,-101176.37549561728,10.5,10499898823.624504,47.655,-122.3035,60.0,6.516666666666667
2026-01-20T23:06:32+00:00,SAT-53528,49.84805747200566,63.64547702919935,603.1962383897519,2.955959040125629,-103530.18927954187,10.5,10499896469.81072,47.655,-122.3035,60.0,6.533333333333333
2026-01-20T23:06:33+00:00,SAT-53528,50.184429792989405,63.03157230520256,606.1442729116134,3.022185017277397,-105849.70313500238,10.5,10499894150.296865,47.655,-122.3035,60.0,6.55
2026-01-20T23:06:34+00:00,SAT-53528,50.503984049521705,62.422634677287924,609.1583558679209,3.087429211112513,-108134.83078577441,10.5,10499891865.169214,47.655,-122.3035,60.0,6.566666666666666
2026-01-20T23:06:35+00:00,SAT-53528,50.8079450358772,61.81877308605423,612.2375081073837,3.151690285278911,-110385.5254271559,10.5,10499889614.474573,47.655,-122.3035,60.0,6.583333333333333
2026-01-20T23:06:36+00:00,SAT-53528,51.09742310991582,61.22008413689523,615.3807491459411,3.2149679633648813,-112601.7773780395,10.5,10499887398.222622,47.655,-122.3035,60.0,6.6
2026-01-20T23:06:37+00:00,SAT-53528,51.37342706230941,60.62665302546064,618.5870982238617,3.277262957694554,-114783.61158702936,10.5,10499885216.388412,47.655,-122.3035,60.0,6.616666666666666
2026-01-20T23:06:38+00:00,SAT-53528,51.636875311189236,60.03855437303084,621.8555752918289,3.3385769731354835,-116931.08776579889,10.5,10499883068.912233,47.655,-122.3035,60.0,6.633333333333334
2026-01-20T23:06:39+00:00,SAT-53528,51.88860567296653,59.45585297205967,625.185202000823,3.39891261322741,-119044.29710132269,10.5,10499880955.702898,47.655,-122.3035,60.0,6.65
2026-01-20T23:06:40+00:00,SAT-53528,52.12938390544977,58.87860447155739,628.5750025983842,3.458273377753474,-121123.36217081043,10.5,10499878876.637829,47.655,-122.3035,60.0,6.666666666666667
2026-01-20T23:06:41+00:00,SAT-53528,52.359911203833626,58.3068559954174,632.0240048224537,3.516663557172044,-123168.43324426281,10.5,10499876831.566755,47.655,-122.3035,60.0,6.683333333333334
2026-01-20T23:06:42+00:00,SAT-53528,52.58083078706631,57.740646719473794,635.5312406899284,3.5740882322378407,-125179.6882712017,10.5,10499874820.31173,47.655,-122.3035,60.0,6.7
2026-01-20T23:06:43+00:00,SAT-53528,52.792733706448814,57.18000839589781,639.0957472848398,3.630553212259206,-127157.3307181786,10.5,10499872842.669281,47.655,-122.3035,60.0,6.716666666666667
2026-01-20T23:06:44+00:00,SAT-53528,52.996163975971335,56.62496584116748,642.7165674849533,3.6860649958806886,-129101.58819521479,10.5,10499870898.411804,47.655,-122.3035,60.0,6.733333333333333
2026-01-20T23:06:45+00:00,SAT-53528,53.19162311551761,56.07553738855673,646.3927506492569,3.7406307143692747,-131012.71046944545,10.5,10499868987.28953,47.655,-122.3035,60.0,6.75
2026-01-20T23:06:46+00:00,SAT-53528,53.37957418209885,55.5317353117857,650.1233532488881,3.794258078668817,-132890.9676107415,10.5,10499867109.032389,47.655,-122.3035,60.0,6.766666666666667
2026-01-20T23:06:47+00:00,SAT-53528,53.560445354337986,54.993566222400226,653.9074394452556,3.84695538707771,-134736.65026061446,10.5,10499865263.34974,47.655,-122.3035,60.0,6.783333333333333
2026-01-20T23:06:48+00:00,SAT-53528,53.734633129837476,54.46103143526926,657.7440816758203,3.898731400280061,-136550.0652552795,10.5,10499863449.934744,47.655,-122.3035,60.0,6.8
2026-01-20T23:06:49+00:00,SAT-53528,53.90250517592366,53.9341273235851,661.632361115241,3.9495953867909597,-138331.5372173408,10.5,10499861668.462782,47.655,-122.3035,60.0,6.816666666666666
2026-01-20T23:06:50+00:00,SAT-53528,54.06440288467627,53.41284564138165,665.5713681818443,3.999557013422536,-140081.4047194497,10.5,10499859918.59528,47.655,-122.3035,60.0,6.833333333333333
2026-01-20T23:06:51+00:00,SAT-53528,54.220643659922274,52.89717383709301,669.5602029348527,4.048626365030585,-141800.02097591507,10.5,10499858199.979025,47.655,-122.3035,60.0,6.85
2026-01-20T23:06:52+00:00,SAT-53528,54.37152297377307,52.38709534217455,673.597975491309,4.096813856065529,-143487.7507448438,10.5,10499856512.249254,47.655,-122.3035,60.0,6.866666666666666
2026-01-20T23:06:53+00:00,SAT-53528,54.51731621452347,51.882589850583706,677.6838063547866,4.14413023352326,-145144.97043149176,10.5,10499854855.029568,47.655,-122.3035,60.0,6.883333333333334
2026-01-20T23:06:54+00:00,SAT-53528,54.658280353661056,51.38363357847905,681.8168267470437,4.1905865150033215,-146772.06591879932,10.5,10499853227.934082,47.655,-122.3035,60.0,6.9
2026-01-20T23:06:55+00:00,SAT-53528,54.79465544961839,50.89019951355838,685.9961788779015,4.236194010430089,-148369.4333281591,10.5,10499851630.566671,47.655,-122.3035,60.0,6.916666666666667
2026-01-20T23:06:56+00:00,SAT-53528,54.92666600938546,50.402257645021585,690.2210162367843,4.280964204600137,-149937.47490572775,10.5,10499850062.525095,47.655,-122.3035,60.0,6.933333333333334
2026-01-20T23:06:57+00:00,SAT-53528,55.05452221854126,49.91977519151347,694.4905037671246,4.324908785332782,-151476.60000837717,10.5,10499848523.399992,47.655,-122.3035,60.0,6.95
2026-01-20T23:06:58+00:00,SAT-53528,55.17842105902826,49.44271681052686,698.8038180688415,4.368039611661117,-152987.22398960995,10.5,10499847012.77601,47.655,-122.3035,60.0,6.966666666666667
2026-01-20T23:06:59+00:00,SAT-53528,55.29854732424458,48.971044797417775,703.1601475690932,4.41036870371234,-154469.7678451256,10.5,10499845530.232155,47.655,-122.3035,60.0,6.983333333333333
2026-01-20T23:07:00+00:00,SAT-53528,55.41507454297083,48.50471927239401,707.5586926829417,4.451908141959284,-155924.65468418316,10.5,10499844075.345316,47.655,-122.3035,60.0,7.0
2026-01-20T23:07:01+00:00,SAT-53528,55.52816581878518,48.04369836567384,711.9986658735356,4.492670148560353,-157352.31257846954,10.5,10499842647.687422,47.655,-122.3035,60.0,7.016666666666667
2026-01-20T23:07:02+00:00,SAT-53528,55.63797459879027,47.58793838198853,716.4792917934162,4.532666986571923,-158753.17103209178,10.5,10499841246.828968,47.655,-122.3035,60.0,7.033333333333333
2026-01-20T23:07:03+00:00,SAT-53528,55.744645373592654,47.13739396448427,720.9998073253049,4.571910960773176,-160127.66101046593,10.5,10499839872.33899,47.655,-122.3035,60.0,7.05
2026-01-20T23:07:04+00:00,SAT-53528,55.84831431811586,46.69201824762108,725.5594616237161,4.610414414188106,-161476.2148185032,10.5,10499838523.785181,47.655,-122.3035,60.0,7.066666666666666
2026-01-20T23:07:05+00:00,SAT-53528,55.94910987886682,46.251763000300414,730.157516153097,4.6481896936776375,-162799.26489550047,10.5,10499837200.735104,47.655,-122.3035,60.0,7.083333333333333
2026-01-20T23:07:06+00:00,SAT-53528,56.04715331192943,45.816578762784005,734.793244691656,4.685249141092666,-164097.2435052819,10.5,10499835902.756495,47.655,-122.3035,60.0,7.1
2026-01-20T23:07:07+00:00,SAT-53528,56.142559177066495,45.38641497532204,739.4659333263656,4.721605056750841,-165370.5814570019,10.5,10499834629.418543,47.655,-122.3035,60.0,7.116666666666666
2026-01-20T23:07:08+00:00,SAT-53528,56.23543579132515,44.96122010149802,744.1748804115408,4.757269716869777,-166619.7087157298,10.5,10499833380.291285,47.655,-122.3035,60.0,7.133333333333334
2026-01-20T23:07:09+00:00,SAT-53528,56.32588564714681,44.54094174173201,748.9193965448029,4.792255360306074,-167845.05393799394,10.5,10499832154.946062,47.655,-122.3035,60.0,7.15
2026-01-20T23:07:10+00:00,SAT-53528,56.414005797427826,44.12552674036924,753.6988045298191,4.826574114416093,-169047.04187511277,10.5,10499830952.958124,47.655,-122.3035,60.0,7.166666666666667
2026-01-20T23:07:11+00:00,SAT-53528,56.49988820935333,43.714921291833164,758.5124392651018,4.8602380688442555,-170226.095957573,10.5,10499829773.904043,47.655,-122.3035,60.0,7.183333333333334
2026-01-20T23:07:12+00:00,SAT-53528,56.5836200927176,43.30907103330321,763.3596477063962,4.893259178368826,-171382.6348922783,10.5,10499828617.365108,47.655,-122.3035,60.0,7.2
2026-01-20T23:07:13+00:00,SAT-53528,56.66528420161983,42.90792113907607,768.2397887321778,4.925649370137307,-172517.07641838584,10.5,10499827482.923582,47.655,-122.3035,60.0,7.216666666666667
2026-01-20T23:07:14+00:00,SAT-53528,56.74495911573987,42.51141639972012,773.1522331160933,4.9574203952864675,-173629.83211041256,10.5,10499826370.167889,47.655,-122.3035,60.0,7.233333333333333
2026-01-20T23:07:15+00:00,SAT-53528,56.82271949807361,42.1195013075715,778.0963633514239,4.988583901414347,-174721.30991651112,10.5,10499825278.690083,47.655,-122.3035,60.0,7.25
2026-01-20T23:07:16+00:00,SAT-53528,56.898636335391494,41.73212013046817,783.0715735478232,5.019151459501046,-175791.91510134982,10.5,10499824208.084898,47.655,-122.3035,60.0,7.266666666666667
2026-01-20T23:07:17+00:00,SAT-53528,56.9727771617817,41.349216978264515,788.0772693549042,5.049134454002132,-176842.04639671886,10.5,10499823157.953604,47.655,-122.3035,60.0,7.283333333333333
2026-01-20T23:07:18+00:00,SAT-53528,57.045206264404825,40.97073587288312,793.1128677762155,5.078544163448488,-177872.09882447784,10.5,10499822127.901176,47.655,-122.3035,60.0,7.3
2026-01-20T23:07:19+00:00,SAT-53528,57.115984876206696,40.59662080730133,798.1777970636009,5.107391702346743,-178882.46166166328,10.5,10499821117.538338,47.655,-122.3035,60.0,7.316666666666666
2026-01-20T23:07:20+00:00,SAT-53528,57.18517135423663,40.22681580446337,803.2714965536137,5.135688069861024,-179873.5201455293,10.5,10499820126.479855,47.655,-122.3035,60.0,7.333333333333333
2026-01-20T23:07:21+00:00,SAT-53528,57.252821346512945,39.86126496837363,808.3934165524842,5.163444078320526,-180845.65296958046,10.5,10499819154.34703,47.655,-122.3035,60.0,7.35
2026-01-20T23:07:22+00:00,SAT-53528,57.31898794636316,39.49991253638678,813.5430181497862,5.190670427019763,-181799.23486836854,10.5,10499818200.765131,47.655,-122.3035,60.0,7.366666666666666
2026-01-20T23:07:23+00:00,SAT-53528,57.38372183760173,39.14270292244443,818.7197731057034,5.217377602967311,-182734.63314129392,10.5,10499817265.36686,47.655,-122.3035,60.0,7.383333333333334
2026-01-20T23:07:24+00:00,SAT-53528,57.447071428450116,38.78958076371731,823.9231636393155,5.243575992769879,-183652.2115712588,10.5,10499816347.78843,47.655,-122.3035,60.0,7.4
2026-01-20T23:07:25+00:00,SAT-53528,57.50908297836821,38.44049095614544,829.1526823284622,5.269275792813743,-184552.32727884137,10.5,10499815447.672722,47.655,-122.3035,60.0,7.416666666666667
2026-01-20T23:07:26+00:00,SAT-53528,57.56980071519492,38.09537869307232,834.4078319200354,5.294487009758231,-185435.33073957925,10.5,10499814564.66926,47.655,-122.3035,60.0,7.433333333333334
2026-01-20T23:07:27+00:00,SAT-53528,57.62926694491011,37.7541895007023,839.6881251407597,5.319219542629086,-186301.56865922693,10.5,10499813698.431341,47.655,-122.3035,60.0,7.45
2026-01-20T23:07:28+00:00,SAT-53528,57.68752215529413,37.41686926545706,844.9930845898472,5.343483075830849,-187151.38022659635,10.5,10499812848.619774,47.655,-122.3035,60.0,7.466666666666667
2026-01-20T23:07:29+00:00,SAT-53528,57.744605111783805,37.083364265703715,850.3222425249523,5.367287152864762,-187985.09969546998,10.5,10499812014.900305,47.655,-122.3035,60.0,7.483333333333333
2026-01-20T23:07:30+00:00,SAT-53528,57.80055294811645,36.75362119624436,855.6751407216461,5.390641114312368,-188803.05421252412,10.5,10499811196.945787,47.655,-122.3035,60.0,7.5
2026-01-20T23:07:31+00:00,SAT-53528,57.85540125070987,36.4275871943888,861.0513302710393,5.413554220811982,-189605.568124485,10.5,10499810394.431875,47.655,-122.3035,60.0,7.516666666666667
2026-01-20T23:07:32+00:00,SAT-53528,57.90918413920115,36.10520985640347,866.4503715000556,5.436035441688572,-190392.95557505323,10.5,10499809607.044424,47.655,-122.3035,60.0,7.533333333333333
2026-01-20T23:07:33+00:00,SAT-53528,57.96193433970906,35.786437264731376,871.8718336808977,5.458093690169045,-191165.52874313795,10.5,10499808834.471256,47.655,-122.3035,60.0,7.55
2026-01-20T23:07:34+00:00,SAT-53528,58.01368325626606,35.47121799916732,877.3152949751008,5.479737635249202,-191923.59125364193,10.5,10499808076.408747,47.655,-122.3035,60.0,7.566666666666666
2026-01-20T23:07:35+00:00,SAT-53528,58.064461035958324,35.159501157488165,882.7803421899537,5.5009758320224975,-192667.442742126,10.5,10499807332.557259,47.655,-122.3035,60.0,7.583333333333333
2026-01-20T23:07:36+00:00,SAT-53528,58.11429663157156,34.85123636677573,888.2665706649051,5.521816648235176,-193397.3762824592,10.5,10499806602.623718,47.655,-122.3035,60.0,7.6
2026-01-20T23:07:37+00:00,SAT-53528,58.163217859781746,34.5463737974974,893.773584084717,5.542268293827941,-194113.6794214929,10.5,10499805886.320578,47.655,-122.3035,60.0,7.616666666666666
2026-01-20T23:07:38+00:00,SAT-53528,58.21125145627855,34.24486417444032,899.300994322082,5.56233882279502,-194816.6342441734,10.5,10499805183.365755,47.655,-122.3035,60.0,7.633333333333334
2026-01-20T23:07:39+00:00,SAT-53528,58.25842312773353,33.94665878624415,904.848421282096,5.582036104263288,-195506.51636061014,10.5,10499804493.483639,47.655,-122.3035,60.0,7.65
2026-01-20T23:07:40+00:00,SAT-53528,58.304757600448355,33.65170949523598,910.4154927178846,5.601367898424237,-196183.59756553476,10.5,10499803816.402435,47.655,-122.3035,60.0,7.666666666666667
2026-01-20T23:07:41+00:00,SAT-53528,58.350278667063534,33.35996874207781,916.0018441219619,5.6203417698283795,-196848.14280150432,10.5,10499803151.857199,47.655,-122.3035,60.0,7.683333333333334
2026-01-20T23:07:42+00:00,SAT-53528,58.39500922972644,33.07138955398839,921.6071185311125,5.638965115183091,-197500.41113249908,10.5,10499802499.588867,47.655,-122.3035,60.0,7.7
2026-01-20T23:07:43+00:00,SAT-53528,58.438971341209914,32.78592555040749,927.2309663589991,5.657245230456556,-198140.65809418674,10.5,10499801859.341906,47.655,-122.3035,60.0,7.716666666666667
2026-01-20T23:07:44+00:00,SAT-53528,58.48218624426186,32.50353094436577,932.8730452956925,5.675189223956931,-198769.13264958712,10.5,10499801230.86735,47.655,-122.3035,60.0,7.733333333333333
2026-01-20T23:07:45+00:00,SAT-53528,58.52467440811428,32.22416054747849,938.533020120516,5.69280406437424,-199386.07887170237,10.5,10499800613.92113,47.655,-122.3035,60.0,7.75
2026-01-20T23:07:46+00:00,SAT-53528,58.56645556335075,31.947769771691817,944.2105625628006,5.7100965797189565,-199991.73590634172,10.5,10499800008.264093,47.655,-122.3035,60.0,7.766666666666667
2026-01-20T23:07:47+00:00,SAT-53528,58.607548734934056,31.6743146303981,949.9053511615829,5.727073433425635,-200586.33713516957,10.5,10499799413.662865,47.655,-122.3035,60.0,7.783333333333333
2026-01-20T23:07:48+00:00,SAT-53528,58.647972273213405,31.40375174003969,955.6170711014694,5.7437411834061445,-201170.1122439995,10.5,10499798829.887756,47.655,-122.3035,60.0,7.8
2026-01-20T23:07:49+00:00,SAT-53528,58.68774388386086,31.13603831829523,961.3454141073993,5.760106211686887,-201743.28475839214,10.5,10499798256.715242,47.655,-122.3035,60.0,7.816666666666666
2026-01-20T23:07:50+00:00,SAT-53528,58.726880655535794,30.87113218506636,967.0900782692273,5.776174779682924,-202306.07397958857,10.5,10499797693.92602,47.655,-122.3035,60.0,7.833333333333333
2026-01-20T23:07:51+00:00,SAT-53528,58.76539908666687,30.60899176033498,972.8507679214379,5.791953022927722,-202858.69479992418,10.5,10499797141.3052,47.655,-122.3035,60.0,7.85
2026-01-20T23:07:52+00:00,SAT-53528,58.803315110710145,30.349576061859413,978.6271935176005,5.807446940204626,-203401.3573221664,10.5,10499796598.642677,47.655,-122.3035,60.0,7.866666666666666
2026-01-20T23:07:53+00:00,SAT-53528,58.84064412007133,30.092844702960022,984.4190714939859,5.822662364811726,-203934.26585308934,10.5,10499796065.734146,47.655,-122.3035,60.0,7.883333333333334
