DopplerPredictor/satellites_20260205_234138/SAT-52140.csv

timestamp,satellite,azimuth_deg,elevation_deg,distance_km,relative_velocity_kms,doppler_shift_hz,tx_freq_ghz,rx_freq_hz,ue_lat,ue_lon,ue_alt_m,time_minutes
2026-01-20T23:03:33+00:00,SAT-52140,261.07719076474035,30.025440673097503,983.2274398206281,-5.605839486003134,196340.21147734445,10.5,10500196340.211477,47.655,-122.3035,60.0,3.55
2026-01-20T23:03:34+00:00,SAT-52140,261.21084125057405,30.273749910955203,977.636628816681,-5.588047220524588,195717.05107907744,10.5,10500195717.051079,47.655,-122.3035,60.0,3.566666666666667
2026-01-20T23:03:35+00:00,SAT-52140,261.3466649744347,30.524418667567225,972.0635623796042,-5.569941160110014,195082.90025479946,10.5,10500195082.900255,47.655,-122.3035,60.0,3.5833333333333335
2026-01-20T23:03:36+00:00,SAT-52140,261.48471545236595,30.777475027754605,966.5085534630924,-5.551515120226061,194437.54239599197,10.5,10500194437.542397,47.655,-122.3035,60.0,3.6
2026-01-20T23:03:37+00:00,SAT-52140,261.625047921819,31.032947181331163,960.9719211887946,-5.532762780765404,193780.75614576248,10.5,10500193780.756145,47.655,-122.3035,60.0,3.6166666666666667
2026-01-20T23:03:38+00:00,SAT-52140,261.76771940885146,31.29086340406413,955.4539909815231,-5.513677751705179,193112.31769848053,10.5,10500193112.3177,47.655,-122.3035,60.0,3.6333333333333333
2026-01-20T23:03:39+00:00,SAT-52140,261.91278879975465,31.551252040324723,949.955094638983,-5.494253423905855,192431.99557412308,10.5,10500192431.995575,47.655,-122.3035,60.0,3.65
2026-01-20T23:03:40+00:00,SAT-52140,262.0603169126035,31.814141477281627,944.4755705502996,-5.474483158158825,191739.5572395209,10.5,10500191739.55724,47.655,-122.3035,60.0,3.6666666666666665
2026-01-20T23:03:41+00:00,SAT-52140,262.2103665765557,32.079560126399876,939.0157637260089,-5.454360166887201,191034.76496501995,10.5,10500191034.764965,47.655,-122.3035,60.0,3.683333333333333
2026-01-20T23:03:42+00:00,SAT-52140,262.3630027120717,32.34753639779365,933.5760259460276,-5.433877505705677,190317.37552887207,10.5,10500190317.375528,47.655,-122.3035,60.0,3.7
2026-01-20T23:03:43+00:00,SAT-52140,262.5182924145431,32.61809867230904,928.1567159160397,-5.413028123733914,189587.14197942265,10.5,10500189587.14198,47.655,-122.3035,60.0,3.716666666666667
2026-01-20T23:03:44+00:00,SAT-52140,262.6763050431962,32.891275274173395,922.7581993737077,-5.391804891734246,188843.8146206119,10.5,10500188843.814621,47.655,-122.3035,60.0,3.7333333333333334
2026-01-20T23:03:45+00:00,SAT-52140,262.8371123149418,33.16709444318986,917.3808491668191,-5.370200474258963,188087.1365340322,10.5,10500188087.136534,47.655,-122.3035,60.0,3.75
2026-01-20T23:03:46+00:00,SAT-52140,263.00078839919576,33.445584298359066,912.0250454589439,-5.348207437453508,187316.8473546517,10.5,10500187316.847355,47.655,-122.3035,60.0,3.7666666666666666
2026-01-20T23:03:47+00:00,SAT-52140,263.16741002013003,33.726772804648256,906.6911758275778,-5.325818271828787,186532.6840683973,10.5,10500186532.684069,47.655,-122.3035,60.0,3.783333333333333
2026-01-20T23:03:48+00:00,SAT-52140,263.3370565645146,34.01068773873373,901.3796353395727,-5.303025257203799,185734.37628187393,10.5,10500185734.376282,47.655,-122.3035,60.0,3.8
2026-01-20T23:03:49+00:00,SAT-52140,263.5098101907726,34.297356645125056,896.0908267612662,-5.2798206255402675,184921.65192552243,10.5,10500184921.651926,47.655,-122.3035,60.0,3.816666666666667
2026-01-20T23:03:50+00:00,SAT-52140,263.68575594806697,34.586806798241355,890.8251606062074,-5.256196422830865,184094.23241636078,10.5,10500184094.232416,47.655,-122.3035,60.0,3.8333333333333335
2026-01-20T23:03:51+00:00,SAT-52140,263.86498189692725,34.87906515431067,885.5830553206315,-5.232144582246781,183251.8352199214,10.5,10500183251.83522,47.655,-122.3035,60.0,3.85
2026-01-20T23:03:52+00:00,SAT-52140,264.0475792379893,35.17415830416041,880.3649373959736,-5.207656944415308,182394.17456045785,10.5,10500182394.17456,47.655,-122.3035,60.0,3.8666666666666667
2026-01-20T23:03:53+00:00,SAT-52140,264.23364244756306,35.47211242408324,875.1712414611696,-5.182725202402762,181520.95949401436,10.5,10500181520.959494,47.655,-122.3035,60.0,3.8833333333333333
2026-01-20T23:03:54+00:00,SAT-52140,264.42326941806994,35.77295322030748,870.0024104298184,-5.157340904623155,180631.89401029938,10.5,10500180631.89401,47.655,-122.3035,60.0,3.9
2026-01-20T23:03:55+00:00,SAT-52140,264.61656160526695,36.076705869982874,864.8588956444473,-5.131495513668822,179726.6790931833,10.5,10500179726.679092,47.655,-122.3035,60.0,3.9166666666666665
2026-01-20T23:03:56+00:00,SAT-52140,264.81362418474043,36.38339496185421,859.7411569621046,-5.105180372962952,178805.0115527289,10.5,10500178805.011553,47.655,-122.3035,60.0,3.933333333333333
2026-01-20T23:03:57+00:00,SAT-52140,265.01456621485846,36.69304443111856,854.6496628732065,-5.078386668394959,177866.58268149986,10.5,10500177866.582682,47.655,-122.3035,60.0,3.95
2026-01-20T23:03:58+00:00,SAT-52140,265.21950080628113,37.00567748771792,849.5848906586521,-5.051105515413857,176911.08130493894,10.5,10500176911.081305,47.655,-122.3035,60.0,3.966666666666667
2026-01-20T23:03:59+00:00,SAT-52140,265.42854530297353,37.321316545463105,844.5473264600724,-5.023327891069486,175938.1914011646,10.5,10500175938.1914,47.655,-122.3035,60.0,3.9833333333333334
2026-01-20T23:04:00+00:00,SAT-52140,265.64182146953567,37.63998314237769,839.53746541786,-4.995044690202569,174947.59406898412,10.5,10500174947.594069,47.655,-122.3035,60.0,4.0
2026-01-20T23:04:01+00:00,SAT-52140,265.8594556898829,37.96169785958451,834.5558117531556,-4.966246667104124,173938.96548455965,10.5,10500173938.965485,47.655,-122.3035,60.0,4.016666666666667
2026-01-20T23:04:02+00:00,SAT-52140,266.0815791733755,38.28648023127483,829.6028789080241,-4.936924480452135,172911.97847528043,10.5,10500172911.978476,47.655,-122.3035,60.0,4.033333333333333
2026-01-20T23:04:03+00:00,SAT-52140,266.3083281727471,38.61434865194756,824.6791896408083,-4.907068734710622,171866.3039697334,10.5,10500171866.30397,47.655,-122.3035,60.0,4.05
2026-01-20T23:04:04+00:00,SAT-52140,266.53984421464696,38.94532028065246,819.7852760802,-4.8766699132915,170801.60865674863,10.5,10500170801.608656,47.655,-122.3035,60.0,4.066666666666666
2026-01-20T23:04:05+00:00,SAT-52140,266.77627433851023,39.27941093472452,814.9216798459654,-4.845718383071893,169717.55514361497,10.5,10500169717.555143,47.655,-122.3035,60.0,4.083333333333333
2026-01-20T23:04:06+00:00,SAT-52140,267.0177713472795,39.61663497715518,810.0889521651694,-4.814204474588669,168613.80476483176,10.5,10500168613.804766,47.655,-122.3035,60.0,4.1
2026-01-20T23:04:07+00:00,SAT-52140,267.2644940739148,39.9570052025981,805.2876539084172,-4.782118456308418,167490.0166809346,10.5,10500167490.016682,47.655,-122.3035,60.0,4.116666666666666
2026-01-20T23:04:08+00:00,SAT-52140,267.5166076599289,40.30053271457801,800.5183556517577,-4.749450468413659,166345.84555940836,10.5,10500166345.84556,47.655,-122.3035,60.0,4.133333333333334
2026-01-20T23:04:09+00:00,SAT-52140,267.7742838439878,40.64722679026517,795.7816378046257,-4.71619064644534,165180.94590517043,10.5,10500165180.945906,47.655,-122.3035,60.0,4.15
2026-01-20T23:04:10+00:00,SAT-52140,268.0377012706482,40.99709474602105,791.0780906144693,-4.682329067658208,163994.9701817088,10.5,10500163994.970182,47.655,-122.3035,60.0,4.166666666666667
2026-01-20T23:04:11+00:00,SAT-52140,268.3070458112504,41.35014179076202,786.40831422488,-4.64785575130427,162787.56882101033,10.5,10500162787.56882,47.655,-122.3035,60.0,4.183333333333334
2026-01-20T23:04:12+00:00,SAT-52140,268.5825109001469,41.70637087035106,781.7729187334407,-4.612760686137899,161558.3911869055,10.5,10500161558.391188,47.655,-122.3035,60.0,4.2
2026-01-20T23:04:13+00:00,SAT-52140,268.8642978882253,42.06578250461677,777.1725242221414,-4.577033855656061,160307.08645908843,10.5,10500160307.086458,47.655,-122.3035,60.0,4.216666666666667
2026-01-20T23:04:14+00:00,SAT-52140,269.1526164146161,42.42837461647082,772.6077607626218,-4.540665233922908,159033.30348687604,10.5,10500159033.303488,47.655,-122.3035,60.0,4.233333333333333
2026-01-20T23:04:15+00:00,SAT-52140,269.44768479545996,42.79414235038548,768.0792684255791,-4.503644780693162,157736.69061840844,10.5,10500157736.690619,47.655,-122.3035,60.0,4.25
2026-01-20T23:04:16+00:00,SAT-52140,269.749730430315,43.163077879487574,763.5876972950401,-4.465962472259898,156416.89678106888,10.5,10500156416.896782,47.655,-122.3035,60.0,4.266666666666667
2026-01-20T23:04:17+00:00,SAT-52140,270.05899022873206,43.535170203570296,759.1337074518656,-4.427608331365958,155073.572529108,10.5,10500155073.572529,47.655,-122.3035,60.0,4.283333333333333
2026-01-20T23:04:18+00:00,SAT-52140,270.3757110581573,43.91040493752333,754.7179689274261,-4.388572410006043,153706.36944130014,10.5,10500153706.369442,47.655,-122.3035,60.0,4.3
2026-01-20T23:04:19+00:00,SAT-52140,270.7001502101678,44.288764085675744,750.3411616744282,-4.348844824721303,152314.9413571094,10.5,10500152314.941357,47.655,-122.3035,60.0,4.316666666666666
2026-01-20T23:04:20+00:00,SAT-52140,271.03257588946497,44.67022580573109,746.0039755025414,-4.30841575253854,150898.94423446327,10.5,10500150898.944235,47.655,-122.3035,60.0,4.333333333333333
2026-01-20T23:04:21+00:00,SAT-52140,271.3732677229524,45.05476415833506,741.7071100180741,-4.267275488228146,149458.03815516777,10.5,10500149458.038155,47.655,-122.3035,60.0,4.35
2026-01-20T23:04:22+00:00,SAT-52140,271.72251729406537,45.44234884698971,737.451274506546,-4.225414410147422,147991.8861285961,10.5,10500147991.88613,47.655,-122.3035,60.0,4.366666666666666
2026-01-20T23:04:23+00:00,SAT-52140,272.08062869574906,45.83294493955436,733.237187849325,-4.182823040275431,146500.15619436305,10.5,10500146500.156195,47.655,-122.3035,60.0,4.383333333333334
2026-01-20T23:04:24+00:00,SAT-52140,272.4479191092832,46.22651257897412,729.0655783803909,-4.139492042355959,144982.5213572837,10.5,10500144982.521357,47.655,-122.3035,60.0,4.4
2026-01-20T23:04:25+00:00,SAT-52140,272.82471940422204,46.62300667698435,724.9371837449504,-4.095412266793665,143438.66115982638,10.5,10500143438.66116,47.655,-122.3035,60.0,4.416666666666667
2026-01-20T23:04:26+00:00,SAT-52140,273.2113747632232,47.022376594396405,720.8527507132773,-4.050574713662521,141868.26038651203,10.5,10500141868.260387,47.655,-122.3035,60.0,4.433333333333334
2026-01-20T23:04:27+00:00,SAT-52140,273.6082453238065,47.424565799274795,716.8130350314427,-4.004970667607813,140271.01378875258,10.5,10500140271.013788,47.655,-122.3035,60.0,4.45
2026-01-20T23:04:28+00:00,SAT-52140,274.015706852107,47.82951151902999,712.8188011375087,-3.9585915602341912,138646.62126509869,10.5,10500138646.621265,47.655,-122.3035,60.0,4.466666666666667
2026-01-20T23:04:29+00:00,SAT-52140,274.4341514222571,48.23714435874801,708.8708220149621,-3.9114291703916604,136994.79487610204,10.5,10500136994.794876,47.655,-122.3035,60.0,4.483333333333333
2026-01-20T23:04:30+00:00,SAT-52140,274.8639881316318,48.647387918612324,704.9698788463991,-3.8634755299359984,135315.25554364675,10.5,10500135315.255543,47.655,-122.3035,60.0,4.5
2026-01-20T23:04:31+00:00,SAT-52140,275.30564382224713,49.06015838020309,701.1167607611991,-3.814722955845836,133607.73417582535,10.5,10500133607.734177,47.655,-122.3035,60.0,4.516666666666667
2026-01-20T23:04:32+00:00,SAT-52140,275.75956381687234,49.47536407315043,697.312264551166,-3.7651641764220116,131871.97608697388,10.5,10500131871.976088,47.655,-122.3035,60.0,4.533333333333333
2026-01-20T23:04:33+00:00,SAT-52140,276.22621267770506,49.892905031938454,693.5571942603085,-3.71479222679555,130107.73733791953,10.5,10500130107.737337,47.655,-122.3035,60.0,4.55
2026-01-20T23:04:34+00:00,SAT-52140,276.7060749583837,50.31267251724356,689.8523608788315,-3.6636005864363086,128314.78955211489,10.5,10500128314.789553,47.655,-122.3035,60.0,4.566666666666666
2026-01-20T23:04:35+00:00,SAT-52140,277.19965597096314,50.7345485272844,686.1985818999906,-3.611583136224031,126492.91841208469,10.5,10500126492.918411,47.655,-122.3035,60.0,4.583333333333333
2026-01-20T23:04:36+00:00,SAT-52140,277.7074825412934,51.15840527877983,682.5966809197564,-3.558734241112709,124641.92655468153,10.5,10500124641.926556,47.655,-122.3035,60.0,4.6
2026-01-20T23:04:37+00:00,SAT-52140,278.23010376051894,51.58410467100482,679.0474871540387,-3.505048746023276,122761.63342723051,10.5,10500122761.633427,47.655,-122.3035,60.0,4.616666666666666
2026-01-20T23:04:38+00:00,SAT-52140,278.76809171307605,52.01149772261357,675.5518349600069,-3.4505220283768887,120851.87712746706,10.5,10500120851.877127,47.655,-122.3035,60.0,4.633333333333334
2026-01-20T23:04:39+00:00,SAT-52140,279.3220421778345,52.44042398744966,672.110563305016,-3.395150013115358,118912.51492961594,10.5,10500118912.514929,47.655,-122.3035,60.0,4.65
2026-01-20T23:04:40+00:00,SAT-52140,279.89257528522296,52.870710944710964,668.7245152205551,-3.3389292237238766,116943.42507142293,10.5,10500116943.425072,47.655,-122.3035,60.0,4.666666666666667
2026-01-20T23:04:41+00:00,SAT-52140,280.4803361203819,53.30217336792079,665.3945372053076,-3.2818568187286967,114944.50803245796,10.5,10500114944.508032,47.655,-122.3035,60.0,4.683333333333334
2026-01-20T23:04:42+00:00,SAT-52140,281.0859952541559,53.734612671389314,662.1214785918138,-3.223930586033777,112915.6863357605,10.5,10500112915.686337,47.655,-122.3035,60.0,4.7
2026-01-20T23:04:43+00:00,SAT-52140,281.7102491738114,54.16781622912927,658.9061909187787,-3.1651490369364863,110856.90784066726,10.5,10500110856.90784,47.655,-122.3035,60.0,4.716666666666667
2026-01-20T23:04:44+00:00,SAT-52140,282.353820607883,54.60155668029204,655.7495272096198,-3.1055113783110886,108768.14476855996,10.5,10500108768.144768,47.655,-122.3035,60.0,4.733333333333333
2026-01-20T23:04:45+00:00,SAT-52140,283.0174586965513,55.035591206519136,652.6523412787534,-3.045017621599898,106649.39752019687,10.5,10500106649.39752,47.655,-122.3035,60.0,4.75
2026-01-20T23:04:46+00:00,SAT-52140,283.7019390031217,55.46966080173306,649.6154869291846,-2.983668504621126,104500.69193709278,10.5,10500104500.691936,47.655,-122.3035,60.0,4.766666666666667
2026-01-20T23:04:47+00:00,SAT-52140,284.4080632929213,55.90348951103346,646.6398172280782,-2.921465656557352,102322.08508011297,10.5,10500102322.08508,47.655,-122.3035,60.0,4.783333333333333
2026-01-20T23:04:48+00:00,SAT-52140,285.1366590908567,56.33678367631158,643.7261836177835,-2.8584115232369203,100113.66261251197,10.5,10500100113.662613,47.655,-122.3035,60.0,4.8
2026-01-20T23:04:49+00:00,SAT-52140,285.88857892067375,56.76923115900176,640.8754351013797,-2.7945094569462876,97875.5419455416,10.5,10500097875.541946,47.655,-122.3035,60.0,4.816666666666666
2026-01-20T23:04:50+00:00,SAT-52140,286.6646992111362,57.200500568810114,638.0884173386452,-2.729763718398608,95607.87230739935,10.5,10500095607.872307,47.655,-122.3035,60.0,4.833333333333333
2026-01-20T23:04:51+00:00,SAT-52140,287.4659187913151,57.63024049232014,635.3659717400683,-2.6641795320124224,93310.83667932179,10.5,10500093310.83668,47.655,-122.3035,60.0,4.85
2026-01-20T23:04:52+00:00,SAT-52140,288.2931569256276,58.058078737566895,632.7089345057244,-2.597763089675781,90984.65192742007,10.5,10500090984.651928,47.655,-122.3035,60.0,4.866666666666666
2026-01-20T23:04:53+00:00,SAT-52140,289.1473508048809,58.483621596331595,630.1181356604008,-2.5305215947100534,88629.57034247859,10.5,10500088629.570343,47.655,-122.3035,60.0,4.883333333333334
2026-01-20T23:04:54+00:00,SAT-52140,290.02945242819186,58.906453141949356,627.5943980448741,-2.4624632608970667,86245.87960588123,10.5,10500086245.879606,47.655,-122.3035,60.0,4.9
2026-01-20T23:04:55+00:00,SAT-52140,290.94042478011454,59.32613456891909,625.1385363081596,-2.393597380647134,83833.90517714394,10.5,10500083833.905178,47.655,-122.3035,60.0,4.916666666666667
2026-01-20T23:04:56+00:00,SAT-52140,291.88123723840556,59.7422036018215,622.7513558317735,-2.3239343065843405,81394.0096489538,10.5,10500081394.00965,47.655,-122.3035,60.0,4.933333333333334
2026-01-20T23:04:57+00:00,SAT-52140,292.8528600929045,60.154173977648625,620.4336516723624,-2.253485460399231,78926.59305722738,10.5,10500078926.593058,47.655,-122.3035,60.0,4.95
2026-01-20T23:04:58+00:00,SAT-52140,293.85625808734784,60.56153502691508,618.1862074955013,-2.1822634183774907,76432.09587668697,10.5,10500076432.095877,47.655,-122.3035,60.0,4.966666666666667
2026-01-20T23:04:59+00:00,SAT-52140,294.89238292438023,60.96375139186094,616.009794424196,-2.1102818245317208,73910.99597836802,10.5,10500073910.99598,47.655,-122.3035,60.0,4.983333333333333
2026-01-20T23:05:00+00:00,SAT-52140,295.96216457062565,61.360262878245486,613.905169974017,-2.037555491242166,71363.81215448302,10.5,10500071363.812155,47.655,-122.3035,60.0,5.0
2026-01-20T23:05:01+00:00,SAT-52140,297.06650135784207,61.75048450511457,611.8730768878642,-1.9641003426260408,68791.10213497575,10.5,10500068791.102135,47.655,-122.3035,60.0,5.016666666666667
2026-01-20T23:05:02+00:00,SAT-52140,298.20624873923435,62.13380675768047,609.9142420272109,-1.8899334605414535,66193.46419877335,10.5,10500066193.4642,47.655,-122.3035,60.0,5.033333333333333
2026-01-20T23:05:03+00:00,SAT-52140,299.3822066959816,62.50959609913876,608.0293752174662,-1.8150730466407987,63571.53584473558,10.5,10500063571.535845,47.655,-122.3035,60.0,5.05
2026-01-20T23:05:04+00:00,SAT-52140,300.59510572306124,62.877195764860524,606.2191681311834,-1.7395384665430584,60925.995338755696,10.5,10500060925.995338,47.655,-122.3035,60.0,5.066666666666666
2026-01-20T23:05:05+00:00,SAT-52140,301.84559144953585,63.235926896661276,604.4842931272127,-1.6633501775643162,58257.5591825773,10.5,10500058257.559183,47.655,-122.3035,60.0,5.083333333333333
2026-01-20T23:05:06+00:00,SAT-52140,303.1342078714261,63.585090036596235,602.8254021619322,-1.586529797692199,55566.984529571084,10.5,10500055566.98453,47.655,-122.3035,60.0,5.1
2026-01-20T23:05:07+00:00,SAT-52140,304.4613793970367,63.92396705197489,601.2431256316866,-1.5091000133180723,52855.06595312601,10.5,10500052855.065952,47.655,-122.3035,60.0,5.116666666666666
2026-01-20T23:05:08+00:00,SAT-52140,305.8273917634798,64.2518234998923,599.7380713072483,-1.4310846142146287,50122.636671712404,10.5,10500050122.636671,47.655,-122.3035,60.0,5.133333333333334
2026-01-20T23:05:09+00:00,SAT-52140,307.2323721614156,64.56791149590009,598.3108232333947,-1.3525084384401656,47370.56661919673,10.5,10500047370.56662,47.655,-122.3035,60.0,5.15
2026-01-20T23:05:10+00:00,SAT-52140,308.67626882882513,64.87147310051493,596.9619406834319,-1.2733973654111659,44599.76220221405,10.5,10500044599.762201,47.655,-122.3035,60.0,5.166666666666667
2026-01-20T23:05:11+00:00,SAT-52140,310.15883057474656,65.1617442583635,595.6919571206284,-1.1937782726409831,41811.16478497376,10.5,10500041811.164785,47.655,-122.3035,60.0,5.183333333333334
2026-01-20T23:05:12+00:00,SAT-52140,311.67958671475174,65.43795929544183,594.5013792027951,-1.1136789943773564,39005.74924057043,10.5,10500039005.74924,47.655,-122.3035,60.0,5.2
2026-01-20T23:05:13+00:00,SAT-52140,313.2378280214163,65.6993559738972,593.3906858281139,-1.0331283101717865,36184.52355063502,10.5,10500036184.52355,47.655,-122.3035,60.0,5.216666666666667
2026-01-20T23:05:14+00:00,SAT-52140,314.8325894195626,65.94518109335758,592.3603271923698,-0.9521558546764989,33348.5256460429,10.5,10500033348.525646,47.655,-122.3035,60.0,5.233333333333333
2026-01-20T23:05:15+00:00,SAT-52140,316.46263508108825,66.17469658210418,591.4107239361422,-0.8707921206846138,30498.82351339354,10.5,10500030498.823513,47.655,-122.3035,60.0,5.25
2026-01-20T23:05:16+00:00,SAT-52140,318.1264468426266,66.38718603914458,590.5422662889639,-0.7890683683100033,27636.512014104886,10.5,10500027636.512014,47.655,-122.3035,60.0,5.266666666666667
2026-01-20T23:05:17+00:00,SAT-52140,319.82221662209014,66.58196161986488,589.7553133040577,-0.7070165906837271,24762.711682957462,10.5,10500024762.711683,47.655,-122.3035,60.0,5.283333333333333
2026-01-20T23:05:18+00:00,SAT-52140,321.5478436881073,66.75837116882057,589.0501921272855,-0.6246694488861483,21878.566449141817,10.5,10500021878.566448,47.655,-122.3035,60.0,5.3
2026-01-20T23:05:19+00:00,SAT-52140,323.30093742714786,66.91580545857325,588.4271973309873,-0.542060212102022,18985.241540236588,10.5,10500018985.24154,47.655,-122.3035,60.0,5.316666666666666
2026-01-20T23:05:20+00:00,SAT-52140,325.0788261701852,67.05370538071601,587.8865903075097,-0.45922269268551,16083.921207910626,10.5,10500016083.921207,47.655,-122.3035,60.0,5.333333333333333
2026-01-20T23:05:21+00:00,SAT-52140,326.87857244071085,67.17156891579263,587.4285987274905,-0.37619117832885024,13175.806352182908,10.5,10500013175.806353,47.655,-122.3035,60.0,5.35
2026-01-20T23:05:22+00:00,SAT-52140,328.6969947455293,67.26895769837135,587.0534160657965,-0.2930003658306487,10262.112201707929,10.5,10500010262.112202,47.655,-122.3035,60.0,5.366666666666666
2026-01-20T23:05:23+00:00,SAT-52140,330.53069578584945,67.34550299144536,586.7612011935123,-0.20968528785531226,7344.065748581236,10.5,10500007344.065748,47.655,-122.3035,60.0,5.383333333333334
2026-01-20T23:05:24+00:00,SAT-52140,332.3760966365705,67.40091088768817,586.5520780429773,-0.12628123814418943,4422.903128917236,10.5,10500004422.90313,47.655,-122.3035,60.0,5.4
2026-01-20T23:05:25+00:00,SAT-52140,334.22947615706363,67.4349665713898,586.4261353474056,-0.04282370109155763,1499.8671563023613,10.5,10500001499.867157,47.655,-122.3035,60.0,5.416666666666667
2026-01-20T23:05:26+00:00,SAT-52140,336.087014659481,67.44753750071716,586.3834264507472,0.04065172439368661,-1423.7953448905957,10.5,10499998576.204655,47.655,-122.3035,60.0,5.433333333333334
2026-01-20T23:05:27+00:00,SAT-52140,337.94484059472177,67.43857539991633,586.4239691934775,0.12410940227833611,-4346.836250038448,10.5,10499995653.16375,47.655,-122.3035,60.0,5.45
2026-01-20T23:05:28+00:00,SAT-52140,339.79907882407764,67.40811699149602,586.5477458755753,0.20751373336075965,-7268.008724515599,10.5,10499992731.991276,47.655,-122.3035,60.0,5.466666666666667
2026-01-20T23:05:29+00:00,SAT-52140,341.6458990089871,67.35628344339177,586.754703293254,0.2908292323470039,-10186.069923225159,10.5,10499989813.930077,47.655,-122.3035,60.0,5.483333333333333
2026-01-20T23:05:30+00:00,SAT-52140,343.48156262728884,67.28327854975039,587.0447528525634,0.37402060025648276,-13099.783526552455,10.5,10499986900.216473,47.655,-122.3035,60.0,5.5
2026-01-20T23:05:31+00:00,SAT-52140,345.302467146057,67.18938571007786,587.4177707552053,0.4570528037014655,-16007.922517068084,10.5,10499983992.077482,47.655,-122.3035,60.0,5.516666666666667
2026-01-20T23:05:32+00:00,SAT-52140,347.1051861634419,67.07496380867228,587.8735982634134,0.5398911400413599,-18909.271461506476,10.5,10499981090.728539,47.655,-122.3035,60.0,5.533333333333333
2026-01-20T23:05:33+00:00,SAT-52140,348.88650438796196,66.94044213525106,588.4120420298132,0.6225013176937597,-21802.629323598518,10.5,10499978197.370676,47.655,-122.3035,60.0,5.55
2026-01-20T23:05:34+00:00,SAT-52140,350.64344678084194,66.78631450581922,589.0328745073796,0.7048495198834996,-24686.8116968331,10.5,10499975313.188303,47.655,-122.3035,60.0,5.566666666666666
2026-01-20T23:05:35+00:00,SAT-52140,352.3733013063209,66.61313276712576,589.7358344229693,0.7869024659832562,-27560.652952864446,10.5,10499972439.347048,47.655,-122.3035,60.0,5.583333333333333
2026-01-20T23:05:36+00:00,SAT-52140,354.0736351295313,66.42149987132103,590.520627312034,0.8686274941823547,-30423.0091369234,10.5,10499969576.990864,47.655,-122.3035,60.0,5.6
2026-01-20T23:05:37+00:00,SAT-52140,355.7423044026664,66.21206269961357,591.3869261357748,0.949992598602059,-33272.75926775189,10.5,10499966727.240732,47.655,-122.3035,60.0,5.616666666666666
2026-01-20T23:05:38+00:00,SAT-52140,357.3774578682821,65.98550482018088,592.334371935319,1.0309665129904724,-36108.80826895239,10.5,10499963891.19173,47.655,-122.3035,60.0,5.633333333333334
2026-01-20T23:05:39+00:00,SAT-52140,358.9775349192463,65.74253932687256,593.3625745693614,1.1115187379028948,-38930.08792095896,10.5,10499961069.912079,47.655,-122.3035,60.0,5.65
2026-01-20T23:05:40+00:00,SAT-52140,0.5412586757465312,65.48390190933709,594.4711134789176,1.1916196211258205,-41735.5596778259,10.5,10499958264.440323,47.655,-122.3035,60.0,5.666666666666667
2026-01-20T23:05:41+00:00,SAT-52140,2.067624941050478,65.21034425530969,595.6595385322826,1.2712403840084412,-44524.21558946834,10.5,10499955475.78441,47.655,-122.3035,60.0,5.683333333333334
2026-01-20T23:05:42+00:00,SAT-52140,3.555887749305303,64.92262788655734,596.9273708962527,1.350353176735357,-47295.08023754636,10.5,10499952704.919762,47.655,-122.3035,60.0,5.7
2026-01-20T23:05:43+00:00,SAT-52140,5.005542354851724,64.62151848594954,598.2741039624699,1.4289311051356766,-50047.21167443313,10.5,10499949952.788326,47.655,-122.3035,60.0,5.716666666666667
2026-01-20T23:05:44+00:00,SAT-52140,6.4163063913678835,64.3077807635171,599.6992043005052,1.5069482891263861,-52779.703470148845,10.5,10499947220.29653,47.655,-122.3035,60.0,5.733333333333333
2026-01-20T23:05:45+00:00,SAT-52140,7.788099935162221,63.98217387526955,601.2021126692273,1.584379874832627,-55491.68513686419,10.5,10499944508.314863,47.655,-122.3035,60.0,5.75
2026-01-20T23:05:46+00:00,SAT-52140,9.121025041344904,63.64544740817099,602.7822450402599,1.6612020624790516,-58182.32310577354,10.5,10499941817.676895,47.655,-122.3035,60.0,5.766666666666667
2026-01-20T23:05:47+00:00,SAT-52140,10.415345301392017,63.298337916046286,604.4389936492553,1.7373921387771454,-60850.82186143598,10.5,10499939149.178139,47.655,-122.3035,60.0,5.783333333333333
2026-01-20T23:05:48+00:00,SAT-52140,11.671465859333315,62.941565982427555,606.1717280794685,1.8129285067955883,-63496.42498796176,10.5,10499936503.575012,47.655,-122.3035,60.0,5.8
2026-01-20T23:05:49+00:00,SAT-52140,12.889914222557778,62.575833779438405,607.9797963751213,1.8877906673289178,-66118.41451646404,10.5,10499933881.585484,47.655,-122.3035,60.0,5.816666666666666
2026-01-20T23:05:50+00:00,SAT-52140,14.07132209103432,62.20182309496947,609.8625261361863,1.961959256718482,-68716.11224970863,10.5,10499931283.88775,47.655,-122.3035,60.0,5.833333333333333
2026-01-20T23:05:51+00:00,SAT-52140,15.216408429497237,61.820193775267136,611.8192256508878,2.035416054637733,-71288.88003478792,10.5,10499928711.119965,47.655,-122.3035,60.0,5.85
2026-01-20T23:05:52+00:00,SAT-52140,16.325963871936306,61.43158254647075,613.8491850359705,2.1081439724946494,-73836.11935692465,10.5,10499926163.880644,47.655,-122.3035,60.0,5.866666666666666
2026-01-20T23:05:53+00:00,SAT-52140,17.400836506467645,61.03660217584275,615.9516773653987,2.180127072547281,-76357.27200897914,10.5,10499923642.727991,47.655,-122.3035,60.0,5.883333333333334
2026-01-20T23:05:54+00:00,SAT-52140,18.441919072899612,60.635840924911314,618.1259598181219,2.2513505352454186,-78851.8189476164,10.5,10499921148.181053,47.655,-122.3035,60.0,5.9
2026-01-20T23:05:55+00:00,SAT-52140,19.450137521649115,60.229862264466625,620.3712747932688,2.3218006889243497,-81319.28133330717,10.5,10499918680.718666,47.655,-122.3035,60.0,5.916666666666667
2026-01-20T23:05:56+00:00,SAT-52140,20.42644091690815,59.81920480258275,622.6868510549544,2.3914649785332087,-83759.21943506227,10.5,10499916240.780565,47.655,-122.3035,60.0,5.933333333333334
2026-01-20T23:05:57+00:00,SAT-52140,21.371792582892034,59.40438240279007,625.0719048459024,2.4603319310328327,-86171.23141851935,10.5,10499913828.768581,47.655,-122.3035,60.0,5.95
2026-01-20T23:05:58+00:00,SAT-52140,22.287162414008264,58.98588446140426,627.525640966554,2.5283912110017384,-88554.95529349924,10.5,10499911445.044706,47.655,-122.3035,60.0,5.966666666666667
2026-01-20T23:05:59+00:00,SAT-52140,23.1735202929596,58.56417630076406,630.0472539096369,2.595633510743887,-90910.0650651152,10.5,10499909089.934935,47.655,-122.3035,60.0,5.983333333333333
2026-01-20T23:06:00+00:00,SAT-52140,24.031830458132113,58.13969968211378,632.6359288851359,2.6620506036507483,-93236.27260273791,10.5,10499906763.727398,47.655,-122.3035,60.0,6.0
2026-01-20T23:06:01+00:00,SAT-52140,24.863046789696813,57.71287338844387,635.2908428984813,2.7276352751044968,-95533.32521993338,10.5,10499904466.67478,47.655,-122.3035,60.0,6.016666666666667
2026-01-20T23:06:02+00:00,SAT-52140,25.668108876625237,57.28409387913512,638.0111657598268,2.79238132337045,-97801.00570571968,10.5,10499902198.994295,47.655,-122.3035,60.0,6.033333333333333
2026-01-20T23:06:03+00:00,SAT-52140,26.447938801735482,56.853735988436995,640.796061094218,2.856283520322353,-100039.13094900042,10.5,10499899960.869051,47.655,-122.3035,60.0,6.05
2026-01-20T23:06:04+00:00,SAT-52140,27.2034385484942,56.42215366041308,643.6446873125893,2.919337599334928,-102247.55151451057,10.5,10499897752.448486,47.655,-122.3035,60.0,6.066666666666666
2026-01-20T23:06:05+00:00,SAT-52140,27.935487960245403,55.989680704318815,646.556198570689,2.981540187668162,-104426.14927462819,10.5,10499895573.850725,47.655,-122.3035,60.0,6.083333333333333
2026-01-20T23:06:06+00:00,SAT-52140,28.644943167057384,55.556631568780325,649.5297456605664,3.042888839228418,-106574.83855680714,10.5,10499893425.161444,47.655,-122.3035,60.0,6.1
2026-01-20T23:06:07+00:00,SAT-52140,29.332635441242456,55.12330211161174,652.5644769347357,3.103381928886806,-108693.56244215944,10.5,10499891306.437557,47.655,-122.3035,60.0,6.116666666666666
2026-01-20T23:06:08+00:00,SAT-52140,29.999370388882618,54.68997037884466,655.6595391249377,3.163018687855471,-110782.2940044824,10.5,10499889217.705996,47.655,-122.3035,60.0,6.133333333333334
2026-01-20T23:06:09+00:00,SAT-52140,30.64592745974046,54.25689736686068,658.8140781961877,3.22179911436009,-112841.03318163178,10.5,10499887158.966818,47.655,-122.3035,60.0,6.15
2026-01-20T23:06:10+00:00,SAT-52140,31.273059700252016,53.824327781015036,662.0272401117304,3.279723998972218,-114869.80766276745,10.5,10499885130.192337,47.655,-122.3035,60.0,6.166666666666667
2026-01-20T23:06:11+00:00,SAT-52140,31.881493733818914,53.392490771219876,665.2981716232631,3.3367948227774105,-116868.66932177062,10.5,10499883131.330679,47.655,-122.3035,60.0,6.183333333333334
2026-01-20T23:06:12+00:00,SAT-52140,32.47192990606341,52.961600659050234,668.6260209595983,3.3930137751446297,-118837.69483960337,10.5,10499881162.30516,47.655,-122.3035,60.0,6.2
2026-01-20T23:06:13+00:00,SAT-52140,33.04504258819412,52.53185763807914,672.0099385330478,3.448383724999624,-120776.98469818095,10.5,10499879223.015303,47.655,-122.3035,60.0,6.216666666666667
2026-01-20T23:06:14+00:00,SAT-52140,33.601480600524866,52.10344845253969,675.4490776171575,3.5029081102962794,-122686.65930919095,10.5,10499877313.34069,47.655,-122.3035,60.0,6.233333333333333
2026-01-20T23:06:15+00:00,SAT-52140,34.1418677194743,51.67654706319996,678.9425949142112,3.5565910434878507,-124566.86270814201,10.5,10499875433.137291,47.655,-122.3035,60.0,6.25
2026-01-20T23:06:16+00:00,SAT-52140,34.6668032838282,51.251315272949654,682.4896512279211,3.6094370996750325,-126417.75513441316,10.5,10499873582.244865,47.655,-122.3035,60.0,6.266666666666667
2026-01-20T23:06:17+00:00,SAT-52140,35.17686283066167,50.8279033508569,686.0894119248345,3.6614514483272664,-128239.51764469103,10.5,10499871760.482355,47.655,-122.3035,60.0,6.283333333333333
2026-01-20T23:06:18+00:00,SAT-52140,35.672598801172796,50.40645061261491,689.7410475271088,3.712639744458512,-130032.34830148521,10.5,10499869967.6517,47.655,-122.3035,60.0,6.3
2026-01-20T23:06:19+00:00,SAT-52140,36.154541264974355,49.987085986982635,693.4437341967567,3.7630080771569228,-131796.4603704196,10.5,10499868203.539629,47.655,-122.3035,60.0,6.316666666666666
2026-01-20T23:06:20+00:00,SAT-52140,36.62319866269252,49.569928561036306,697.1966541685539,3.812562978093453,-133532.08261824003,10.5,10499866467.917381,47.655,-122.3035,60.0,6.333333333333333
2026-01-20T23:06:21+00:00,SAT-52140,37.07905856560541,49.15508809791448,700.9989961914367,3.861311393895546,-135239.45834522374,10.5,10499864760.541655,47.655,-122.3035,60.0,6.35
2026-01-20T23:06:22+00:00,SAT-52140,37.522588439402824,48.74266553201797,704.8499559423461,3.9092606260958824,-136918.8432819306,10.5,10499863081.156717,47.655,-122.3035,60.0,6.366666666666666
2026-01-20T23:06:23+00:00,SAT-52140,37.95423640182654,48.33275344566704,708.7487363801814,3.9564183402577187,-138570.50590881123,10.5,10499861429.494091,47.655,-122.3035,60.0,6.383333333333334
2026-01-20T23:06:24+00:00,SAT-52140,38.37443197786598,47.92543652043131,712.6945481088546,4.002792483046763,-140194.7245517131,10.5,10499859805.275448,47.655,-122.3035,60.0,6.4
2026-01-20T23:06:25+00:00,SAT-52140,38.78358683725488,47.520791973589624,716.6866096576397,4.048391321381256,-141791.78875308196,10.5,10499858208.211246,47.655,-122.3035,60.0,6.416666666666667
2026-01-20T23:06:26+00:00,SAT-52140,39.18209552513634,47.11888996774478,720.7241478005665,4.093223392077292,-143361.99750832812,10.5,10499856638.002491,47.655,-122.3035,60.0,6.433333333333334
2026-01-20T23:06:27+00:00,SAT-52140,39.57033617232388,46.719794003877986,724.8063978255941,4.137297411787452,-144905.6561114965,10.5,10499855094.34389,47.655,-122.3035,60.0,6.45
2026-01-20T23:06:28+00:00,SAT-52140,39.94867118056572,46.32356130205892,728.9326037139674,4.180622384068739,-146423.07990523818,10.5,10499853576.920095,47.655,-122.3035,60.0,6.466666666666667
2026-01-20T23:06:29+00:00,SAT-52140,40.31744790003453,45.93024315146322,733.1020184263505,4.223207477950567,-147914.5900277483,10.5,10499852085.409973,47.655,-122.3035,60.0,6.483333333333333
2026-01-20T23:06:30+00:00,SAT-52140,40.676999275482245,45.53988525296085,737.3139040678554,4.265062013127787,-149380.51289416282,10.5,10499850619.487106,47.655,-122.3035,60.0,6.5
2026-01-20T23:06:31+00:00,SAT-52140,41.02764447104714,45.15252804428909,741.5675320383044,4.306195465458993,-150821.18038913247,10.5,10499849178.81961,47.655,-122.3035,60.0,6.516666666666667
2026-01-20T23:06:32+00:00,SAT-52140,41.36968947502803,44.76820700687298,745.8621831879755,4.346617465286081,-152236.92980796687,10.5,10499847763.070192,47.655,-122.3035,60.0,6.533333333333333
2026-01-20T23:06:33+00:00,SAT-52140,41.703427683019264,44.38695295596692,750.1971479716703,4.3863377316101415,-153628.1015511954,10.5,10499846371.898449,47.655,-122.3035,60.0,6.55
2026-01-20T23:06:34+00:00,SAT-52140,42.02914045437372,44.008792320509585,754.5717265371366,4.425366070699445,-154995.0390758135,10.5,10499845004.960924,47.655,-122.3035,60.0,6.566666666666666
2026-01-20T23:06:35+00:00,SAT-52140,42.347097647561725,43.633747407478985,758.985228812101,4.463712375605361,-156338.0888783276,10.5,10499843661.911121,47.655,-122.3035,60.0,6.583333333333333
2026-01-20T23:06:36+00:00,SAT-52140,42.657558134622285,43.26183665156082,763.4369745908197,4.50138658553959,-157657.59907197434,10.5,10499842342.400928,47.655,-122.3035,60.0,6.6
2026-01-20T23:06:37+00:00,SAT-52140,42.96077029182055,42.89307485419422,767.9262935801146,4.538398722465353,-158953.92066829847,10.5,10499841046.079332,47.655,-122.3035,60.0,6.616666666666666
2026-01-20T23:06:38+00:00,SAT-52140,43.25697247276757,42.52747340624884,772.4525254819042,4.574758759147652,-160227.40295571528,10.5,10499839772.597044,47.655,-122.3035,60.0,6.633333333333334
2026-01-20T23:06:39+00:00,SAT-52140,43.546393452647315,42.16504050866164,777.0150199441351,4.610476761386839,-161478.39848113127,10.5,10499838521.601519,47.655,-122.3035,60.0,6.65
2026-01-20T23:06:40+00:00,SAT-52140,43.82925286316438,41.805781369365704,781.6131366535706,4.6455627624200995,-162707.25865095327,10.5,10499837292.741348,47.655,-122.3035,60.0,6.666666666666667
2026-01-20T23:06:41+00:00,SAT-52140,44.105761600230096,41.44969839886342,786.2462453033123,4.6800267775113005,-163914.33424208642,10.5,10499836085.665758,47.655,-122.3035,60.0,6.683333333333334
2026-01-20T23:06:42+00:00,SAT-52140,44.37612221492968,41.09679139347875,790.9137255748767,4.713878821600445,-165099.97602009278,10.5,10499834900.02398,47.655,-122.3035,60.0,6.7
2026-01-20T23:06:43+00:00,SAT-52140,44.64052928824405,40.74705770684841,795.6149671378716,4.747128882230298,-166264.53379096722,10.5,10499833735.46621,47.655,-122.3035,60.0,6.716666666666667
2026-01-20T23:06:44+00:00,SAT-52140,44.899169787240346,40.400492413624605,800.3493696226724,4.779786873260651,-167408.3547800153,10.5,10499832591.64522,47.655,-122.3035,60.0,6.733333333333333
2026-01-20T23:06:45+00:00,SAT-52140,45.1522234026632,40.05708846710357,805.1163425469364,4.811862687647457,-168531.7854804016,10.5,10499831468.21452,47.655,-122.3035,60.0,6.75
2026-01-20T23:06:46+00:00,SAT-52140,45.3998628742331,39.71683684400155,809.9153052947553,4.84336614649392,-169635.1698687035,10.5,10499830364.830132,47.655,-122.3035,60.0,6.766666666666667
2026-01-20T23:06:47+00:00,SAT-52140,45.64225429813456,39.37972668447675,814.745687044995,4.874307014045779,-170718.84993010954,10.5,10499829281.15007,47.655,-122.3035,60.0,6.783333333333333
2026-01-20T23:06:48+00:00,SAT-52140,45.879557421329416,39.045745422996625,819.6069267145905,4.904694989043811,-171783.16535554748,10.5,10499828216.834644,47.655,-122.3035,60.0,6.8
2026-01-20T23:06:49+00:00,SAT-52140,46.111925921697456,38.71487891222088,824.4984728932163,4.9345396569401405,-172828.45186809695,10.5,10499827171.548132,47.655,-122.3035,60.0,6.816666666666666
2026-01-20T23:06:50+00:00,SAT-52140,46.33950767296306,38.38711154283849,829.4197837303028,4.963850550580291,-173855.04334833217,10.5,10499826144.956652,47.655,-122.3035,60.0,6.833333333333333
2026-01-20T23:06:51+00:00,SAT-52140,46.56244500025295,38.06242635240444,834.3703268825685,4.992637086261781,-174863.26959482318,10.5,10499825136.730406,47.655,-122.3035,60.0,6.85
2026-01-20T23:06:52+00:00,SAT-52140,46.78087492075087,37.740805131956584,839.3495793977858,5.02090860468622,-175853.45775845138,10.5,10499824146.542242,47.655,-122.3035,60.0,6.866666666666666
2026-01-20T23:06:53+00:00,SAT-52140,46.99492937500836,37.42222852374747,844.357027639388,5.048674350361536,-176825.93162098873,10.5,10499823174.068378,47.655,-122.3035,60.0,6.883333333333334
2026-01-20T23:06:54+00:00,SAT-52140,47.204735446511165,37.10667611452862,849.3921671905333,5.075943423797817,-177781.00992079353,10.5,10499822218.99008,47.655,-122.3035,60.0,6.9
2026-01-20T23:06:55+00:00,SAT-52140,47.4104155689816,36.79412652625192,854.4545027104922,5.102724855603835,-178719.0089479845,10.5,10499821280.991053,47.655,-122.3035,60.0,6.916666666666667
2026-01-20T23:06:56+00:00,SAT-52140,47.612087727165495,36.48455749685533,859.5435478649342,5.1290275645931045,-179640.2410771374,10.5,10499820359.758923,47.655,-122.3035,60.0,6.933333333333334
2026-01-20T23:06:57+00:00,SAT-52140,47.809865646421116,36.17794595878787,864.6588252144321,5.154860320018445,-180545.01344457996,10.5,10499819454.986555,47.655,-122.3035,60.0,6.95
2026-01-20T23:06:58+00:00,SAT-52140,48.00385897202291,35.87426811504769,869.7998660653036,5.180231799536484,-181433.62997855362,10.5,10499818566.370022,47.655,-122.3035,60.0,6.966666666666667
2026-01-20T23:06:59+00:00,SAT-52140,48.194173442394245,35.57349950725608,874.9662103782575,5.20515056626191,-182306.3905955568,10.5,10499817693.609404,47.655,-122.3035,60.0,6.983333333333333
2026-01-20T23:07:00+00:00,SAT-52140,48.3809110533606,35.27561508097301,880.157406654162,5.229625053416826,-183163.59066269998,10.5,10499816836.409338,47.655,-122.3035,60.0,7.0
2026-01-20T23:07:01+00:00,SAT-52140,48.564170214191705,34.98058924791592,885.3730118044988,5.253663557202077,-184005.52074802964,10.5,10499815994.479252,47.655,-122.3035,60.0,7.016666666666667
2026-01-20T23:07:02+00:00,SAT-52140,48.74404589614579,34.688395944781604,890.6125910147096,5.277274281501527,-184832.46818626116,10.5,10499815167.531815,47.655,-122.3035,60.0,7.033333333333333
2026-01-20T23:07:03+00:00,SAT-52140,48.92062977575459,34.39900868601056,895.875717652126,5.300465264248264,-185644.71449981164,10.5,10499814355.2855,47.655,-122.3035,60.0,7.05
2026-01-20T23:07:04+00:00,SAT-52140,49.09401036888116,34.1124006173078,901.1619731004652,5.32324448137917,-186442.53903972887,10.5,10499813557.46096,47.655,-122.3035,60.0,7.066666666666666
2026-01-20T23:07:05+00:00,SAT-52140,49.26427316216295,33.8285445602948,906.4709466979976,5.345619677120648,-187226.2130415796,10.5,10499812773.786959,47.655,-122.3035,60.0,7.083333333333333
2026-01-20T23:07:06+00:00,SAT-52140,49.431500732723265,33.54741306332778,911.8022355064592,5.367598601814,-187996.00795510004,10.5,10499812003.992044,47.655,-122.3035,60.0,7.1
2026-01-20T23:07:07+00:00,SAT-52140,49.595772870211505,33.268978436772464,917.1554443171505,5.3891887548505,-188752.18644069508,10.5,10499811247.813559,47.655,-122.3035,60.0,7.116666666666666
2026-01-20T23:07:08+00:00,SAT-52140,49.75716668494103,32.99321279925241,922.5301854006572,5.410397605580048,-189495.0101065935,10.5,10499810504.989893,47.655,-122.3035,60.0,7.133333333333334
2026-01-20T23:07:09+00:00,SAT-52140,49.91575671811185,32.72008810977766,927.9260784768913,5.43123242245212,-190224.73352464143,10.5,10499809775.266476,47.655,-122.3035,60.0,7.15
2026-01-20T23:07:10+00:00,SAT-52140,50.07161504170015,32.449576206359694,933.342750514729,5.451700394377006,-190941.60848088635,10.5,10499809058.39152,47.655,-122.3035,60.0,7.166666666666667
2026-01-20T23:07:11+00:00,SAT-52140,50.22481135754349,32.18164883615728,938.7798356526833,5.471808584313019,-191645.8823500046,10.5,10499808354.11765,47.655,-122.3035,60.0,7.183333333333334
2026-01-20T23:07:12+00:00,SAT-52140,50.375413090490454,31.916277685940884,944.2369750732914,5.491563888161801,-192337.7966556414,10.5,10499807662.203344,47.655,-122.3035,60.0,7.2
2026-01-20T23:07:13+00:00,SAT-52140,50.523485476239614,31.653434412516795,949.713816836505,5.510973129320718,-193017.59038203536,10.5,10499806982.409618,47.655,-122.3035,60.0,7.216666666666667
2026-01-20T23:07:14+00:00,SAT-52140,50.6690916479004,31.393090666684913,955.2100158073803,5.530042964542882,-193685.49667683858,10.5,10499806314.503323,47.655,-122.3035,60.0,7.233333333333333
2026-01-20T23:07:15+00:00,SAT-52140,50.812292716028786,31.135218119987353,960.7252334898809,5.548779966789314,-194341.74575294953,10.5,10499805658.254248,47.655,-122.3035,60.0,7.25
2026-01-20T23:07:16+00:00,SAT-52140,50.95314784740717,30.879788485847897,966.2591379433109,5.567190539883583,-194986.5618993578,10.5,10499805013.4381,47.655,-122.3035,60.0,7.266666666666667
2026-01-20T23:07:17+00:00,SAT-52140,51.09171433802925,30.62677354314278,971.8114036136294,5.5852810483561255,-195620.16802884117,10.5,10499804379.83197,47.655,-122.3035,60.0,7.283333333333333
2026-01-20T23:07:18+00:00,SAT-52140,51.22804768621719,30.37614515234459,977.3817112942636,5.603057623262609,-196242.77887690355,10.5,10499803757.221123,47.655,-122.3035,60.0,7.3
2026-01-20T23:07:19+00:00,SAT-52140,51.36220165759251,30.127875279109386,982.9697478932603,5.620526383115586,-196854.60873973573,10.5,10499803145.39126,47.655,-122.3035,60.0,7.316666666666666
