DopplerPredictor/satellites_20260205_234138/SAT-57937.csv

timestamp,satellite,azimuth_deg,elevation_deg,distance_km,relative_velocity_kms,doppler_shift_hz,tx_freq_ghz,rx_freq_hz,ue_lat,ue_lon,ue_alt_m,time_minutes
2026-01-20T23:07:56+00:00,SAT-57937,333.12809670902055,30.126992497388937,876.9969224783607,-3.306655530050872,115813.06380140543,10.5,10500115813.0638,47.655,-122.3035,60.0,7.933333333333334
2026-01-20T23:07:57+00:00,SAT-57937,333.5882183976736,30.286791313803807,873.6991316354672,-3.262557591147059,114268.56744689729,10.5,10500114268.567448,47.655,-122.3035,60.0,7.95
2026-01-20T23:07:58+00:00,SAT-57937,334.05327566776936,30.445774077465636,870.445320510989,-3.217959448027252,112706.5518248833,10.5,10500112706.551825,47.655,-122.3035,60.0,7.966666666666667
2026-01-20T23:07:59+00:00,SAT-57937,334.52328910079666,30.603882105088008,867.2359879681635,-3.172860555797274,111126.99785086447,10.5,10500111126.99785,47.655,-122.3035,60.0,7.983333333333333
2026-01-20T23:08:00+00:00,SAT-57937,334.99827711318454,30.761055436580587,864.0716334136616,-3.1272606524487423,109529.89634819896,10.5,10500109529.896349,47.655,-122.3035,60.0,8.0
2026-01-20T23:08:01+00:00,SAT-57937,335.4782558454274,30.917232857463237,860.95275651546,-3.081159702200445,107915.2460636774,10.5,10500107915.246063,47.655,-122.3035,60.0,8.016666666666667
2026-01-20T23:08:02+00:00,SAT-57937,335.9632390395894,31.072351921480916,857.8798569772212,-3.034557945777282,106283.05542850403,10.5,10500106283.055428,47.655,-122.3035,60.0,8.033333333333333
2026-01-20T23:08:03+00:00,SAT-57937,336.45323792121997,31.226348978812517,854.8534342625275,-2.9874559231377273,104633.3433543086,10.5,10500104633.343355,47.655,-122.3035,60.0,8.05
2026-01-20T23:08:04+00:00,SAT-57937,336.9482610824598,31.37915920872092,851.873987296451,-2.939854420198549,102966.13736722077,10.5,10500102966.137367,47.655,-122.3035,60.0,8.066666666666666
2026-01-20T23:08:05+00:00,SAT-57937,337.4483143538714,31.530716652862967,848.9420142202528,-2.89175454902045,101281.4764163104,10.5,10500101281.476416,47.655,-122.3035,60.0,8.083333333333334
2026-01-20T23:08:06+00:00,SAT-57937,337.9534006872059,31.680954256184933,846.0580120661161,-2.843157717546256,99579.40981369079,10.5,10500099579.409813,47.655,-122.3035,60.0,8.1
2026-01-20T23:08:07+00:00,SAT-57937,338.4635200315374,31.829803909906488,843.2224764620549,-2.7940656158082047,97859.99675143979,10.5,10500097859.996752,47.655,-122.3035,60.0,8.116666666666667
2026-01-20T23:08:08+00:00,SAT-57937,338.9786692049561,31.977196497468032,840.4359013505815,-2.7444802805426307,96123.30856467917,10.5,10500096123.308565,47.655,-122.3035,60.0,8.133333333333333
2026-01-20T23:08:09+00:00,SAT-57937,339.4988417766686,32.12306194766796,837.6987786429328,-2.694404067318811,94369.4277554091,10.5,10500094369.427755,47.655,-122.3035,60.0,8.15
2026-01-20T23:08:10+00:00,SAT-57937,340.0240279435513,32.26732929026201,835.0115979010907,-2.6438396501255275,92598.44797802765,10.5,10500092598.447979,47.655,-122.3035,60.0,8.166666666666666
2026-01-20T23:08:11+00:00,SAT-57937,340.5542144060314,32.409926715496596,832.3748460202171,-2.5927900592044715,90810.47536441678,10.5,10500090810.475365,47.655,-122.3035,60.0,8.183333333333334
2026-01-20T23:08:12+00:00,SAT-57937,341.08938425145124,32.55078163970309,829.7890068733562,-2.5412586551292584,89005.6276160797,10.5,10500089005.627617,47.655,-122.3035,60.0,8.2
2026-01-20T23:08:13+00:00,SAT-57937,341.6295168330244,32.6898207735908,827.2545609819879,-2.4892491562984618,87184.03496706329,10.5,10500087184.034967,47.655,-122.3035,60.0,8.216666666666667
2026-01-20T23:08:14+00:00,SAT-57937,342.17458765538765,32.826970196146654,824.7719851591607,-2.4367656452928124,85345.84040661399,10.5,10500085345.840406,47.655,-122.3035,60.0,8.233333333333333
2026-01-20T23:08:15+00:00,SAT-57937,342.72456826356864,32.9621554330355,822.3417521462894,-2.383812556403734,83491.19924237455,10.5,10500083491.199242,47.655,-122.3035,60.0,8.25
2026-01-20T23:08:16+00:00,SAT-57937,343.2794261314356,33.09530153845918,819.9643302623833,-2.330394690964178,81620.27963733455,10.5,10500081620.279636,47.655,-122.3035,60.0,8.266666666666667
2026-01-20T23:08:17+00:00,SAT-57937,343.83912455641166,33.2263331819791,817.640183037991,-2.2765172380099146,79733.2633334762,10.5,10500079733.263334,47.655,-122.3035,60.0,8.283333333333333
2026-01-20T23:08:18+00:00,SAT-57937,344.4036225628468,33.35517474059925,815.3697688285366,-2.222185752971276,77830.34490546923,10.5,10500077830.344906,47.655,-122.3035,60.0,8.3
2026-01-20T23:08:19+00:00,SAT-57937,344.97287480485113,33.481750393699905,813.1535404489076,-2.1674061601411996,75911.73184711202,10.5,10500075911.731848,47.655,-122.3035,60.0,8.316666666666666
2026-01-20T23:08:20+00:00,SAT-57937,345.5468314742443,33.60598422204527,810.9919448055795,-2.1121847907370754,73977.64590441862,10.5,10500073977.645905,47.655,-122.3035,60.0,8.333333333333334
2026-01-20T23:08:21+00:00,SAT-57937,346.1254382243583,33.7278003128334,808.8854224907851,-2.056528340564516,72028.32159282478,10.5,10500072028.321592,47.655,-122.3035,60.0,8.35
2026-01-20T23:08:22+00:00,SAT-57937,346.7086360893475,33.84712286606395,806.8344074189007,-2.000443901414029,70064.00729683235,10.5,10500070064.007298,47.655,-122.3035,60.0,8.366666666666667
2026-01-20T23:08:23+00:00,SAT-57937,347.29636141912266,33.96387630629424,804.839326431525,-1.943938948837572,68084.96484189242,10.5,10500068084.964842,47.655,-122.3035,60.0,8.383333333333333
2026-01-20T23:08:24+00:00,SAT-57937,347.8885458190695,34.077985397113665,802.9005989147455,-1.887021353019878,66091.46987516517,10.5,10500066091.469875,47.655,-122.3035,60.0,8.4
2026-01-20T23:08:25+00:00,SAT-57937,348.48511610208027,34.189375359478916,801.0186364055642,-1.829699360059199,64083.81120989238,10.5,10500064083.81121,47.655,-122.3035,60.0,8.416666666666666
2026-01-20T23:08:26+00:00,SAT-57937,349.0859942444696,34.29797199195575,799.1938422169908,-1.7719816166012263,62062.29168818141,10.5,10500062062.291689,47.655,-122.3035,60.0,8.433333333333334
2026-01-20T23:08:27+00:00,SAT-57937,349.6910973603954,34.40370179517058,797.4266110385701,-1.7138771366688552,60027.227019243364,10.5,10500060027.227018,47.655,-122.3035,60.0,8.45
2026-01-20T23:08:28+00:00,SAT-57937,350.30033767670693,34.506492096792414,795.7173285699897,-1.655395331326467,57978.946818361605,10.5,10500057978.94682,47.655,-122.3035,60.0,8.466666666666667
2026-01-20T23:08:29+00:00,SAT-57937,350.91362253015,34.60627118046922,794.0663711251016,-1.5965459794881656,55917.79358447282,10.5,10500055917.793585,47.655,-122.3035,60.0,8.483333333333333
2026-01-20T23:08:30+00:00,SAT-57937,351.5308543674626,34.70296841490761,792.4741052650612,-1.5373392487216244,53844.123428805724,10.5,10500053844.123428,47.655,-122.3035,60.0,8.5
2026-01-20T23:08:31+00:00,SAT-57937,352.151930767354,34.796514385748395,790.9408874107125,-1.4777856480077929,51758.304420326094,10.5,10500051758.30442,47.655,-122.3035,60.0,8.516666666666667
2026-01-20T23:08:32+00:00,SAT-57937,352.77674445834054,34.886841025753256,789.4670635020925,-1.4178960806531775,49660.71843894873,10.5,10500049660.71844,47.655,-122.3035,60.0,8.533333333333333
2026-01-20T23:08:33+00:00,SAT-57937,353.40518337366444,34.973881749009465,788.0529686051619,-1.3576817866572133,47551.759156999,10.5,10500047551.759157,47.655,-122.3035,60.0,8.55
2026-01-20T23:08:34+00:00,SAT-57937,354.03713069882025,35.05757158202506,786.698926576015,-1.2971543581757397,45431.832580809176,10.5,10500045431.83258,47.655,-122.3035,60.0,8.566666666666666
2026-01-20T23:08:35+00:00,SAT-57937,354.6724649421683,35.137847295748976,785.405249709666,-1.2363257323059316,43301.35679801618,10.5,10500043301.356798,47.655,-122.3035,60.0,8.583333333333334
2026-01-20T23:08:36+00:00,SAT-57937,355.3110600203826,35.21464753669748,784.1722383960355,-1.1752081770036555,41160.76148432788,10.5,10500041160.761484,47.655,-122.3035,60.0,8.6
2026-01-20T23:08:37+00:00,SAT-57937,355.9527853560908,35.28791295633147,783.0001807899755,-1.11381427660645,39010.48739647655,10.5,10500039010.487396,47.655,-122.3035,60.0,8.616666666666667
2026-01-20T23:08:38+00:00,SAT-57937,356.5975059868774,35.357586338185754,781.8893524957383,-1.0521569303065788,36850.9863187388,10.5,10500036850.986319,47.655,-122.3035,60.0,8.633333333333333
2026-01-20T23:08:39+00:00,SAT-57937,357.24508269350946,35.423612723104,780.840016252964,-0.9902493353344181,34682.72047394665,10.5,10500034682.720474,47.655,-122.3035,60.0,8.65
2026-01-20T23:08:40+00:00,SAT-57937,357.89537213945664,35.4859395311595,779.8524216394433,-0.9281049757783872,32506.16213191416,10.5,10500032506.162132,47.655,-122.3035,60.0,8.666666666666666
2026-01-20T23:08:41+00:00,SAT-57937,358.54822702507687,35.54451668014529,778.9268047850265,-0.8657376094920615,30321.79315086921,10.5,10500030321.79315,47.655,-122.3035,60.0,8.683333333333334
2026-01-20T23:08:42+00:00,SAT-57937,359.2034962553186,35.59929670004889,778.0633880985937,-0.8031612544230604,28130.1044986333,10.5,10500028130.104498,47.655,-122.3035,60.0,8.7
2026-01-20T23:08:43+00:00,SAT-57937,359.861025121211,35.65023484301611,777.2623800086571,-0.7403901734933844,25931.595723066977,10.5,10500025931.595722,47.655,-122.3035,60.0,8.716666666666667
2026-01-20T23:08:44+00:00,SAT-57937,0.5206554933204697,35.69728918826163,776.5239747190451,-0.6774388624928555,23726.774528046943,10.5,10500023726.774529,47.655,-122.3035,60.0,8.733333333333333
2026-01-20T23:08:45+00:00,SAT-57937,1.1822260309235826,35.74042074167859,775.848351976656,-0.6143220293065256,21516.156045922005,10.5,10500021516.156046,47.655,-122.3035,60.0,8.75
2026-01-20T23:08:46+00:00,SAT-57937,1.845572398383935,35.77959352917158,775.2356768599335,-0.5510545784260413,19300.262295035565,10.5,10500019300.262295,47.655,-122.3035,60.0,8.766666666666667
2026-01-20T23:08:47+00:00,SAT-57937,2.5105274923530407,35.81477468364618,774.6860995827869,-0.48765160301188937,17079.62190171188,10.5,10500017079.621902,47.655,-122.3035,60.0,8.783333333333333
2026-01-20T23:08:48+00:00,SAT-57937,3.176921690704028,35.84593452575236,774.1997553064267,-0.4241283536192011,14854.769004901422,10.5,10500014854.769005,47.655,-122.3035,60.0,8.8
2026-01-20T23:08:49+00:00,SAT-57937,3.8445830949794195,35.873046636540685,773.7767639823938,-0.3605002301409467,12626.242973997498,10.5,10500012626.242973,47.655,-122.3035,60.0,8.816666666666666
2026-01-20T23:08:50+00:00,SAT-57937,4.513337792795014,35.89608792317394,773.4172302036208,-0.2967827600448195,10394.58764659985,10.5,10500010394.587646,47.655,-122.3035,60.0,8.833333333333334
2026-01-20T23:08:51+00:00,SAT-57937,5.183010124425765,35.91503867652997,773.1212430771996,-0.23299158037056808,8160.350697985087,10.5,10500008160.350698,47.655,-122.3035,60.0,8.85
2026-01-20T23:08:52+00:00,SAT-57937,5.853422956709683,35.92988262066808,772.888876115103,-0.1691424188157081,5924.082978648299,10.5,10500005924.08298,47.655,-122.3035,60.0,8.866666666666667
2026-01-20T23:08:53+00:00,SAT-57937,6.524397963530968,35.940606953865114,772.7201871437703,-0.1052510741294197,3686.337827614418,10.5,10500003686.337828,47.655,-122.3035,60.0,8.883333333333333
2026-01-20T23:08:54+00:00,SAT-57937,7.195755908108399,35.947202380999315,772.615218233246,-0.04133339765705516,1447.6704260488073,10.5,10500001447.670425,47.655,-122.3035,60.0,8.9
2026-01-20T23:08:55+00:00,SAT-57937,7.867316934314207,35.949663137187585,772.5739956447242,0.022594727114944528,-791.3629191662906,10.5,10499999208.637081,47.655,-122.3035,60.0,8.916666666666666
2026-01-20T23:08:56+00:00,SAT-57937,8.538900857305585,35.94798700244843,772.5965297984937,0.08651740401954694,-3030.2054570206797,10.5,10499996969.794542,47.655,-122.3035,60.0,8.933333333333334
2026-01-20T23:08:57+00:00,SAT-57937,9.210327453534221,35.942175307380495,772.6828152612926,0.15041874305887237,-5268.300652573988,10.5,10499994731.699347,47.655,-122.3035,60.0,8.95
2026-01-20T23:08:58+00:00,SAT-57937,9.881416752969074,35.93223292987137,772.832830752459,0.21428288143547136,-7505.092923559969,10.5,10499992494.907076,47.655,-122.3035,60.0,8.966666666666667
2026-01-20T23:08:59+00:00,SAT-57937,10.551989333301023,35.91816828270634,773.0465391710602,0.27809400189054556,-9740.028282668565,10.5,10499990259.971718,47.655,-122.3035,60.0,8.983333333333333
2026-01-20T23:09:00+00:00,SAT-57937,11.22186660663594,35.89999329231723,773.3238876413089,0.34183635330298445,-11972.555059011313,10.5,10499988027.44494,47.655,-122.3035,60.0,9.0
2026-01-20T23:09:01+00:00,SAT-57937,11.890871106478007,35.877723368618184,773.6648075785217,0.40549426719405635,-14202.124476185427,10.5,10499985797.875525,47.655,-122.3035,60.0,9.016666666666667
2026-01-20T23:09:02+00:00,SAT-57937,12.558826765895573,35.85137736634091,774.0692147715438,0.4690521825648709,-16428.191522186808,10.5,10499983571.808477,47.655,-122.3035,60.0,9.033333333333333
2026-01-20T23:09:03+00:00,SAT-57937,13.225559198943092,35.82097753750593,774.5370094899364,0.5324946582590788,-18650.215382404076,10.5,10499981349.784618,47.655,-122.3035,60.0,9.05
2026-01-20T23:09:04+00:00,SAT-57937,13.890895964973504,35.7865494760581,775.0680766035009,0.5958063917875869,-20867.66009893972,10.5,10499979132.339901,47.655,-122.3035,60.0,9.066666666666666
2026-01-20T23:09:05+00:00,SAT-57937,14.554666828255732,35.74812205450794,775.6622857205733,0.6589722446845302,-23079.995458683512,10.5,10499976920.004541,47.655,-122.3035,60.0,9.083333333333334
2026-01-20T23:09:06+00:00,SAT-57937,15.216704016737967,35.70572735243814,776.3194913516081,0.7219772507409424,-25286.69728169044,10.5,10499974713.30272,47.655,-122.3035,60.0,9.1
2026-01-20T23:09:07+00:00,SAT-57937,15.876842460238047,35.659400578312344,777.0395330809725,0.7848066407955876,-27487.248289460535,10.5,10499972512.75171,47.655,-122.3035,60.0,9.116666666666667
2026-01-20T23:09:08+00:00,SAT-57937,16.53492002692244,35.60917998385924,777.8222357634677,0.847445849192147,-29681.13833109686,10.5,10499970318.86167,47.655,-122.3035,60.0,9.133333333333333
2026-01-20T23:09:09+00:00,SAT-57937,17.190777739539218,35.555106772595174,778.6674097272854,0.9098805432940829,-31867.86541704084,10.5,10499968132.134583,47.655,-122.3035,60.0,9.15
2026-01-20T23:09:10+00:00,SAT-57937,17.844259991381993,35.49722500139673,779.5748510064064,0.9720966250371207,-34046.935773446865,10.5,10499965953.064226,47.655,-122.3035,60.0,9.166666666666666
2026-01-20T23:09:11+00:00,SAT-57937,18.495214738858724,35.43558147734102,780.5443415745412,1.0340802582638515,-36217.864799555566,10.5,10499963782.1352,47.655,-122.3035,60.0,9.183333333333334
2026-01-20T23:09:12+00:00,SAT-57937,19.143493690511118,35.37022564859531,781.5756496063356,1.0958178687687092,-38380.17706926919,10.5,10499961619.822931,47.655,-122.3035,60.0,9.2
2026-01-20T23:09:13+00:00,SAT-57937,19.78895247343652,35.3012094915422,782.668529738621,1.1572961753381263,-40533.40741830913,10.5,10499959466.59258,47.655,-122.3035,60.0,9.216666666666667
2026-01-20T23:09:14+00:00,SAT-57937,20.431450796975817,35.22858739263761,783.8227233626199,1.2185021827542557,-42677.10069917665,10.5,10499957322.899302,47.655,-122.3035,60.0,9.233333333333333
2026-01-20T23:09:15+00:00,SAT-57937,21.07085259096092,35.152416027862465,785.0379589091755,1.2794232099274745,-44810.812766472205,10.5,10499955189.187233,47.655,-122.3035,60.0,9.25
2026-01-20T23:09:16+00:00,SAT-57937,21.70702613916639,35.07275423802273,786.3139521620375,1.3400468840507145,-46934.110272155354,10.5,10499953065.889729,47.655,-122.3035,60.0,9.266666666666667
2026-01-20T23:09:17+00:00,SAT-57937,22.339844189910227,34.98966290249889,787.6504065653185,1.4003611741531463,-49046.57184073669,10.5,10499950953.42816,47.655,-122.3035,60.0,9.283333333333333
2026-01-20T23:09:18+00:00,SAT-57937,22.969184063746738,34.90320480944374,789.0470135644135,1.460354380506085,-51147.787698227854,10.5,10499948852.212301,47.655,-122.3035,60.0,9.3
2026-01-20T23:09:19+00:00,SAT-57937,23.594927737172686,34.813444525644044,790.5034529363544,1.5200151407464029,-53237.35988660939,10.5,10499946762.640114,47.655,-122.3035,60.0,9.316666666666666
2026-01-20T23:09:20+00:00,SAT-57937,24.216961912063653,34.72044826542999,792.0193931262705,1.5793324666881585,-55314.903553129625,10.5,10499944685.096447,47.655,-122.3035,60.0,9.333333333333334
2026-01-20T23:09:21+00:00,SAT-57937,24.83517808315848,34.62428375720585,793.5944916205634,1.6382957150446895,-57380.045924868595,10.5,10499942619.954075,47.655,-122.3035,60.0,9.35
2026-01-20T23:09:22+00:00,SAT-57937,25.44947257684022,34.525020112070365,795.2283952908809,1.6968946129154538,-59432.42720139499,10.5,10499940567.572798,47.655,-122.3035,60.0,9.366666666666667
2026-01-20T23:09:23+00:00,SAT-57937,26.05974658498625,34.42272769157592,796.9207407635105,1.7551192614088755,-61471.70068165354,10.5,10499938528.299318,47.655,-122.3035,60.0,9.383333333333333
2026-01-20T23:09:24+00:00,SAT-57937,26.665906184962783,34.317477976349636,798.671154792386,1.8129601416463228,-63497.53297424978,10.5,10499936502.467026,47.655,-122.3035,60.0,9.4
2026-01-20T23:09:25+00:00,SAT-57937,27.267862347555976,34.20934343581384,800.479254638081,1.870408110927086,-65509.60386313121,10.5,10499934490.396137,47.655,-122.3035,60.0,9.416666666666666
2026-01-20T23:09:26+00:00,SAT-57937,27.8655309303564,34.09839739992838,802.344648442979,1.9274544135115261,-67507.60668525899,10.5,10499932492.393314,47.655,-122.3035,60.0,9.433333333333334
2026-01-20T23:09:27+00:00,SAT-57937,28.458832662283434,33.984713932407125,804.2669356171963,1.9840906743873814,-69491.2481122774,10.5,10499930508.751888,47.655,-122.3035,60.0,9.45
2026-01-20T23:09:28+00:00,SAT-57937,29.04769311456467,33.86836770672245,806.2457072182904,2.0403089082585217,-71460.24846533823,10.5,10499928539.751535,47.655,-122.3035,60.0,9.466666666666667
2026-01-20T23:09:29+00:00,SAT-57937,29.632042663785157,33.749433884270104,808.2805463399284,2.096101522143731,-73414.34180612101,10.5,10499926585.658194,47.655,-122.3035,60.0,9.483333333333333
2026-01-20T23:09:30+00:00,SAT-57937,30.211816445329266,33.62798799533544,810.3710285031533,2.1514613083670855,-75353.27569132643,10.5,10499924646.724308,47.655,-122.3035,60.0,9.5
2026-01-20T23:09:31+00:00,SAT-57937,30.786954295802268,33.504105823641055,812.5167220406543,2.20638143182921,-77276.81072686194,10.5,10499922723.189274,47.655,-122.3035,60.0,9.516666666666667
2026-01-20T23:09:32+00:00,SAT-57937,31.35740068385193,33.377863294994285,814.7171884683454,2.260855472453918,-79184.72205450259,10.5,10499920815.277945,47.655,-122.3035,60.0,9.533333333333333
2026-01-20T23:09:33+00:00,SAT-57937,31.923104644437466,33.24933636704849,816.9719828992756,2.3148773716243904,-81076.79747585944,10.5,10499918923.202524,47.655,-122.3035,60.0,9.55
2026-01-20T23:09:34+00:00,SAT-57937,32.484019692283546,33.118600925851474,819.2806544041199,2.36844144644255,-82952.83795180322,10.5,10499917047.162048,47.655,-122.3035,60.0,9.566666666666666
2026-01-20T23:09:35+00:00,SAT-57937,33.04010373354561,32.985732685384384,821.6427463858895,2.4215424160446846,-84812.65852414869,10.5,10499915187.341476,47.655,-122.3035,60.0,9.583333333333334
2026-01-20T23:09:36+00:00,SAT-57937,33.59131897803306,32.85080708956938,824.0577969808897,2.47417534637841,-86656.08638151034,10.5,10499913343.913618,47.655,-122.3035,60.0,9.6
2026-01-20T23:09:37+00:00,SAT-57937,34.13763183408258,32.71389922140666,826.5253394046005,2.5263357004753924,-88482.96262006572,10.5,10499911517.03738,47.655,-122.3035,60.0,9.616666666666667
2026-01-20T23:09:38+00:00,SAT-57937,34.6790128108684,32.57508371338249,829.0449023476972,2.5780192779534974,-90293.14012466492,10.5,10499909706.859875,47.655,-122.3035,60.0,9.633333333333333
2026-01-20T23:09:39+00:00,SAT-57937,35.21543640429194,32.43443466536427,831.616010311733,2.6292222499340343,-92086.48479178005,10.5,10499907913.515207,47.655,-122.3035,60.0,9.65
2026-01-20T23:09:40+00:00,SAT-57937,35.74688098802734,32.29202556469366,834.2381839796476,2.679941157364246,-93862.87547075178,10.5,10499906137.124529,47.655,-122.3035,60.0,9.666666666666666
2026-01-20T23:09:41+00:00,SAT-57937,36.27332870174146,32.14792921055647,836.9109405846012,2.7301728544740502,-95622.20198340522,10.5,10499904377.798018,47.655,-122.3035,60.0,9.683333333333334
2026-01-20T23:09:42+00:00,SAT-57937,36.79476532688946,32.00221764553531,839.6337942224162,2.7799145535646845,-97364.36669273778,10.5,10499902635.633307,47.655,-122.3035,60.0,9.7
2026-01-20T23:09:43+00:00,SAT-57937,37.31118017073323,31.854962088829463,842.4062562086909,2.829163818507941,-99089.28427523476,10.5,10499900910.715725,47.655,-122.3035,60.0,9.716666666666667
2026-01-20T23:09:44+00:00,SAT-57937,37.82256594820614,31.70623287391838,845.2278354294261,2.8779185132896754,-100796.87991864556,10.5,10499899203.12008,47.655,-122.3035,60.0,9.733333333333333
2026-01-20T23:09:45+00:00,SAT-57937,38.328918654670986,31.556099392947292,848.0980386403343,2.926176826063849,-102487.09016445777,10.5,10499897512.909836,47.655,-122.3035,60.0,9.75
2026-01-20T23:09:46+00:00,SAT-57937,38.830237443865514,31.404630043738873,851.0163707901398,2.9739372735435508,-104159.86306168945,10.5,10499895840.136938,47.655,-122.3035,60.0,9.766666666666667
2026-01-20T23:09:47+00:00,SAT-57937,39.326524507424104,31.251892180441452,853.9823353482562,3.0211986486704925,-105815.1563340535,10.5,10499894184.843666,47.655,-122.3035,60.0,9.783333333333333
2026-01-20T23:09:48+00:00,SAT-57937,39.817784947000334,31.097952070627326,856.9954345802751,3.067960062239482,-107452.93883782279,10.5,10499892547.061163,47.655,-122.3035,60.0,9.8
2026-01-20T23:09:49+00:00,SAT-57937,40.30402665517787,30.942874853881452,860.0551698649662,3.114220908279887,-109073.18934934252,10.5,10499890926.81065,47.655,-122.3035,60.0,9.816666666666666
2026-01-20T23:09:50+00:00,SAT-57937,40.785260192597725,30.78672450571449,863.1610419767534,3.1599808558342923,-110675.89627708403,10.5,10499889324.103724,47.655,-122.3035,60.0,9.833333333333334
2026-01-20T23:09:51+00:00,SAT-57937,41.26149866640858,30.629563805294776,866.3125513599907,3.205239837228283,-112261.05725080305,10.5,10499887738.942749,47.655,-122.3035,60.0,9.85
2026-01-20T23:09:52+00:00,SAT-57937,41.732757609542915,30.471454307049463,869.5091983915385,3.249998067138207,-113828.6797893734,10.5,10499886171.320211,47.655,-122.3035,60.0,9.866666666666667
2026-01-20T23:09:53+00:00,SAT-57937,42.19905486574023,30.312456314491097,872.7504836623582,3.2942559835097454,-115378.77923150531,10.5,10499884621.220768,47.655,-122.3035,60.0,9.883333333333333
2026-01-20T23:09:54+00:00,SAT-57937,42.660410469025635,30.152628859990504,876.0359082001835,3.338014292854011,-116911.38032220649,10.5,10499883088.619678,47.655,-122.3035,60.0,9.9
