DopplerPredictor/satellites_20260205_234138/SAT-51866.csv

timestamp,satellite,azimuth_deg,elevation_deg,distance_km,relative_velocity_kms,doppler_shift_hz,tx_freq_ghz,rx_freq_hz,ue_lat,ue_lon,ue_alt_m,time_minutes
2026-01-20T23:06:46+00:00,SAT-51866,303.98180857130274,30.081884478050867,986.7713623910157,-5.758718692967836,201694.6879836526,10.5,10500201694.687984,47.655,-122.3035,60.0,6.766666666666667
2026-01-20T23:06:47+00:00,SAT-51866,304.0551426373638,30.335833905931988,981.0280820281606,-5.742753886341565,201135.5329245355,10.5,10500201135.532925,47.655,-122.3035,60.0,6.783333333333333
2026-01-20T23:06:48+00:00,SAT-51866,304.12967081778237,30.59237384652603,975.3007236724882,-5.726499494519107,200566.2353669038,10.5,10500200566.235367,47.655,-122.3035,60.0,6.8
2026-01-20T23:06:49+00:00,SAT-51866,304.20542387502144,30.85154135704489,969.589576132857,-5.709949530751639,199986.58562948977,10.5,10500199986.58563,47.655,-122.3035,60.0,6.816666666666666
2026-01-20T23:06:50+00:00,SAT-51866,304.28243362872433,31.11337396201453,963.894934188824,-5.69309785495255,199396.36866048773,10.5,10500199396.36866,47.655,-122.3035,60.0,6.833333333333333
2026-01-20T23:06:51+00:00,SAT-51866,304.3607330007746,31.37790964912057,958.2170987435732,-5.675938221914169,198795.36572630782,10.5,10500198795.365726,47.655,-122.3035,60.0,6.85
2026-01-20T23:06:52+00:00,SAT-51866,304.4403560634552,31.64518686656587,952.5563769287526,-5.658464253417286,198183.3534347335,10.5,10500198183.353436,47.655,-122.3035,60.0,6.866666666666666
2026-01-20T23:06:53+00:00,SAT-51866,304.521338089705,31.915244518461677,946.9130822371304,-5.640669417557673,197560.10301084883,10.5,10500197560.10301,47.655,-122.3035,60.0,6.883333333333334
2026-01-20T23:06:54+00:00,SAT-51866,304.6037156057289,32.188121958424816,941.287534675869,-5.622547036583718,196925.3805715454,10.5,10500196925.380571,47.655,-122.3035,60.0,6.9
2026-01-20T23:06:55+00:00,SAT-51866,304.6875264465296,32.46385898263304,935.6800609119789,-5.604090357410771,196278.9495952333,10.5,10500196278.949594,47.655,-122.3035,60.0,6.916666666666667
2026-01-20T23:06:56+00:00,SAT-51866,304.77280981559124,32.74249582545413,930.0909943474517,-5.585292413822824,195620.56609556085,10.5,10500195620.566095,47.655,-122.3035,60.0,6.933333333333334
2026-01-20T23:06:57+00:00,SAT-51866,304.8596063455218,33.02407314735164,924.5206753318197,-5.566146117707732,194949.9818168581,10.5,10500194949.981817,47.655,-122.3035,60.0,6.95
2026-01-20T23:06:58+00:00,SAT-51866,304.94795816354207,33.308632026117536,918.9694512837257,-5.54664426560742,194266.94446355256,10.5,10500194266.944464,47.655,-122.3035,60.0,6.966666666666667
2026-01-20T23:06:59+00:00,SAT-51866,305.03790896068966,33.59621394738005,913.4376768059574,-5.526779494502109,193571.1961515461,10.5,10500193571.196152,47.655,-122.3035,60.0,6.983333333333333
2026-01-20T23:07:00+00:00,SAT-51866,305.12950406413455,33.88686079166446,907.9257138445844,-5.506544280439534,192862.47336020408,10.5,10500192862.47336,47.655,-122.3035,60.0,7.0
2026-01-20T23:07:01+00:00,SAT-51866,305.2227905134993,34.18061481999474,902.4339318494578,-5.485930950738563,192140.50735977793,10.5,10500192140.50736,47.655,-122.3035,60.0,7.016666666666667
2026-01-20T23:07:02+00:00,SAT-51866,305.31781714166664,34.477518658669844,896.9627079225395,-5.464931707189185,191405.02502396656,10.5,10500191405.025024,47.655,-122.3035,60.0,7.033333333333333
2026-01-20T23:07:03+00:00,SAT-51866,305.41463466067296,34.7776152837962,891.5124269430966,-5.443538576901295,190655.74710843325,10.5,10500190655.747108,47.655,-122.3035,60.0,7.05
2026-01-20T23:07:04+00:00,SAT-51866,305.51329575157087,35.0809480015434,886.0834817419118,-5.421743463604908,189892.39004755596,10.5,10500189892.390047,47.655,-122.3035,60.0,7.066666666666666
2026-01-20T23:07:05+00:00,SAT-51866,305.6138551605112,35.38756042945212,880.6762732243322,-5.399538066561671,189114.6631143654,10.5,10500189114.663115,47.655,-122.3035,60.0,7.083333333333333
2026-01-20T23:07:06+00:00,SAT-51866,305.71636979876473,35.69749647131955,875.2912105741906,-5.376913997196204,188322.27250546822,10.5,10500188322.272505,47.655,-122.3035,60.0,7.1
2026-01-20T23:07:07+00:00,SAT-51866,305.82089885103915,36.01080029666104,869.9287113414067,-5.353862656912709,187514.9170616675,10.5,10500187514.91706,47.655,-122.3035,60.0,7.116666666666666
2026-01-20T23:07:08+00:00,SAT-51866,305.9275038876548,36.327516311086995,864.5892016514442,-5.330375339131645,186692.29184171895,10.5,10500186692.291842,47.655,-122.3035,60.0,7.133333333333334
2026-01-20T23:07:09+00:00,SAT-51866,306.0362489856101,36.647689130258925,859.2731163130051,-5.3064431275628134,185854.0845594239,10.5,10500185854.084558,47.655,-122.3035,60.0,7.15
2026-01-20T23:07:10+00:00,SAT-51866,306.147200854692,36.97136354540075,853.980899027178,-5.282057016210137,184999.97978670447,10.5,10500184999.979786,47.655,-122.3035,60.0,7.166666666666667
2026-01-20T23:07:11+00:00,SAT-51866,306.26042897398423,37.29858449336887,848.7130024769043,-5.257207794422401,184129.65492759398,10.5,10500184129.654928,47.655,-122.3035,60.0,7.183333333333334
2026-01-20T23:07:12+00:00,SAT-51866,306.37600573407246,37.629397017013325,843.4698885310842,-5.231886117080549,183242.78267649337,10.5,10500183242.782677,47.655,-122.3035,60.0,7.2
2026-01-20T23:07:13+00:00,SAT-51866,306.4940065897052,37.96384622678485,838.2520283786832,-5.20608250048467,182339.0308741157,10.5,10500182339.030874,47.655,-122.3035,60.0,7.216666666666667
2026-01-20T23:07:14+00:00,SAT-51866,306.61451022190164,38.301977259001475,833.059902666943,-5.179787277881205,181418.06094986104,10.5,10500181418.06095,47.655,-122.3035,60.0,7.233333333333333
2026-01-20T23:07:15+00:00,SAT-51866,306.73759870909106,38.64383522785705,827.894001683943,-5.152990669872352,180479.53038785153,10.5,10500180479.530388,47.655,-122.3035,60.0,7.25
2026-01-20T23:07:16+00:00,SAT-51866,306.8633577109918,38.989465178374935,822.7548254709438,-5.125682709868487,179523.09011595987,10.5,10500179523.090117,47.655,-122.3035,60.0,7.266666666666667
2026-01-20T23:07:17+00:00,SAT-51866,306.9918766622682,39.33891203062935,817.6428840090764,-5.097853334854682,178548.38768483684,10.5,10500178548.387686,47.655,-122.3035,60.0,7.283333333333333
2026-01-20T23:07:18+00:00,SAT-51866,307.12324898113536,39.69222052594018,812.5586973155087,-5.069492300682804,177555.06430108205,10.5,10500177555.0643,47.655,-122.3035,60.0,7.3
2026-01-20T23:07:19+00:00,SAT-51866,307.25757228929257,40.049435163025095,807.5027956240939,-5.040589233418093,176542.75662561855,10.5,10500176542.756626,47.655,-122.3035,60.0,7.316666666666666
2026-01-20T23:07:20+00:00,SAT-51866,307.39494864769387,40.41060013293751,802.4757195148093,-5.01113362518663,175511.09662825344,10.5,10500175511.096628,47.655,-122.3035,60.0,7.333333333333333
2026-01-20T23:07:21+00:00,SAT-51866,307.5354848079152,40.775759248818254,797.4780200473355,-4.981114858426821,174459.71243706747,10.5,10500174459.712437,47.655,-122.3035,60.0,7.35
2026-01-20T23:07:22+00:00,SAT-51866,307.6792924810533,41.14495587220947,792.5102588704502,-4.950522165611458,173388.22692771113,10.5,10500173388.226927,47.655,-122.3035,60.0,7.366666666666666
2026-01-20T23:07:23+00:00,SAT-51866,307.82648862369473,41.51823283085641,787.5730083715926,-4.91934467520844,172296.2593331438,10.5,10500172296.259333,47.655,-122.3035,60.0,7.383333333333334
2026-01-20T23:07:24+00:00,SAT-51866,307.97719574470625,41.89563233393653,782.6668517805888,-4.887571377940453,171183.4240619047,10.5,10500171183.424063,47.655,-122.3035,60.0,7.4
2026-01-20T23:07:25+00:00,SAT-51866,308.1315422322225,42.27719587841824,777.7923833070278,-4.855191165191001,170049.33204325478,10.5,10500170049.332043,47.655,-122.3035,60.0,7.416666666666667
2026-01-20T23:07:26+00:00,SAT-51866,308.28966270448444,42.662964151569795,772.9502082393344,-4.822192888496239,168893.59281083217,10.5,10500168893.592812,47.655,-122.3035,60.0,7.433333333333334
2026-01-20T23:07:27+00:00,SAT-51866,308.4516983876983,43.05297693121865,768.1409429845095,-4.788565198448452,167715.80886037083,10.5,10500167715.80886,47.655,-122.3035,60.0,7.45
2026-01-20T23:07:28+00:00,SAT-51866,308.6177975146779,43.44727296552406,763.3652152685361,-4.754296760504969,166515.58320824127,10.5,10500166515.583208,47.655,-122.3035,60.0,7.466666666666667
2026-01-20T23:07:29+00:00,SAT-51866,308.78811576014897,43.845889861942105,758.623664121553,-4.719376108582505,165292.5142637054,10.5,10500165292.514263,47.655,-122.3035,60.0,7.483333333333333
2026-01-20T23:07:30+00:00,SAT-51866,308.9628167018933,44.248863955827595,753.9169400090437,-4.68379175267282,164046.199598072,10.5,10500164046.199598,47.655,-122.3035,60.0,7.5
2026-01-20T23:07:31+00:00,SAT-51866,309.1420723199246,44.65623017876049,749.2457048556964,-4.647532119346068,162776.23386087222,10.5,10500162776.23386,47.655,-122.3035,60.0,7.516666666666667
2026-01-20T23:07:32+00:00,SAT-51866,309.32606352997186,45.06802191215547,744.6106321286029,-4.610585626490482,161482.2113975598,10.5,10500161482.211397,47.655,-122.3035,60.0,7.533333333333333
2026-01-20T23:07:33+00:00,SAT-51866,309.5149807599713,45.48427083696837,740.0124068459161,-4.572940646549415,160163.72496191636,10.5,10500160163.724962,47.655,-122.3035,60.0,7.55
2026-01-20T23:07:34+00:00,SAT-51866,309.7090245682421,45.90500676921076,735.4517256221744,-4.534585570340646,158820.36795127374,10.5,10500158820.36795,47.655,-122.3035,60.0,7.566666666666666
2026-01-20T23:07:35+00:00,SAT-51866,309.90840631170573,46.33025748951511,730.9292966499752,-4.495508738991534,157451.73202259513,10.5,10500157451.732023,47.655,-122.3035,60.0,7.583333333333333
2026-01-20T23:07:36+00:00,SAT-51866,310.1133488620913,46.76004855386593,726.4458397495325,-4.455698574448319,156057.4116634627,10.5,10500156057.411663,47.655,-122.3035,60.0,7.6
2026-01-20T23:07:37+00:00,SAT-51866,310.3240873840269,47.19440310317845,722.0020862880759,-4.4151435221907445,154637.00218570145,10.5,10500154637.002186,47.655,-122.3035,60.0,7.616666666666666
2026-01-20T23:07:38+00:00,SAT-51866,310.54087017142683,47.63334165349683,717.5987791563783,-4.373832060019419,153190.10003314994,10.5,10500153190.100033,47.655,-122.3035,60.0,7.633333333333334
2026-01-20T23:07:39+00:00,SAT-51866,310.763959550439,48.07688187166025,713.2366727365228,-4.33175276264243,151716.30504375635,10.5,10500151716.305044,47.655,-122.3035,60.0,7.65
2026-01-20T23:07:40+00:00,SAT-51866,310.9936328579199,48.525038341095545,708.9165328052554,-4.288894323491046,150215.22121365706,10.5,10500150215.221214,47.655,-122.3035,60.0,7.666666666666667
2026-01-20T23:07:41+00:00,SAT-51866,311.23018350049364,48.977822312722196,704.639136415578,-4.245245523654921,148686.4556091557,10.5,10500148686.455608,47.655,-122.3035,60.0,7.683333333333334
2026-01-20T23:07:42+00:00,SAT-51866,311.4739220980425,49.435241434067784,700.4052718093283,-4.200795309431217,147129.62108282183,10.5,10500147129.621082,47.655,-122.3035,60.0,7.7
2026-01-20T23:07:43+00:00,SAT-51866,311.7251777262191,49.89729946655009,696.2157382524118,-4.1555327893120015,145544.3361679766,10.5,10500145544.336168,47.655,-122.3035,60.0,7.716666666666667
2026-01-20T23:07:44+00:00,SAT-51866,311.9842992620589,50.3639959812178,692.0713458730444,-4.109447283816089,143930.22682401483,10.5,10500143930.226824,47.655,-122.3035,60.0,7.733333333333333
2026-01-20T23:07:45+00:00,SAT-51866,312.25165684624426,50.83532603710359,687.9729154502925,-4.062528315660454,142286.92609216596,10.5,10500142286.926092,47.655,-122.3035,60.0,7.75
2026-01-20T23:07:46+00:00,SAT-51866,312.52764346864114,51.31127983384161,683.9212782124172,-4.0147656685332995,140614.076153976,10.5,10500140614.076155,47.655,-122.3035,60.0,7.766666666666667
2026-01-20T23:07:47+00:00,SAT-51866,312.8126766939255,51.79184234435517,679.917275576604,-3.9661494293653714,138911.32981182734,10.5,10500138911.329811,47.655,-122.3035,60.0,7.783333333333333
2026-01-20T23:07:48+00:00,SAT-51866,313.10720053972045,52.27699292407235,675.9617588465297,-3.916669966281978,137178.3497167256,10.5,10500137178.349716,47.655,-122.3035,60.0,7.8
2026-01-20T23:07:49+00:00,SAT-51866,313.41168751716714,52.766704886538534,672.055588931927,-3.86631802739457,135414.81182839823,10.5,10500135414.811829,47.655,-122.3035,60.0,7.816666666666666
2026-01-20T23:07:50+00:00,SAT-51866,313.72664085895883,53.26094505752497,668.1996359696119,-3.815084704296194,133620.40413675128,10.5,10500133620.404137,47.655,-122.3035,60.0,7.833333333333333
2026-01-20T23:07:51+00:00,SAT-51866,314.0525969425587,53.75967328831137,664.3947789809262,-3.762961552401591,131794.8308766884,10.5,10500131794.830877,47.655,-122.3035,60.0,7.85
2026-01-20T23:07:52+00:00,SAT-51866,314.3901279410205,54.26284194483075,660.6419054091579,-3.709940528927603,129937.81035592241,10.5,10500129937.810356,47.655,-122.3035,60.0,7.866666666666666
2026-01-20T23:07:53+00:00,SAT-51866,314.73984470756966,54.7703953458385,656.9419107188165,-3.6560141297298334,128049.07974757407,10.5,10500128049.079748,47.655,-122.3035,60.0,7.883333333333334
2026-01-20T23:07:54+00:00,SAT-51866,315.10239993574856,55.2822691722986,653.2956978584384,-3.601175347429136,126128.39362358452,10.5,10500126128.393623,47.655,-122.3035,60.0,7.9
2026-01-20T23:07:55+00:00,SAT-51866,315.478491604924,55.79838982002554,649.7041767651539,-3.545417743563712,124175.52648178686,10.5,10500124175.526482,47.655,-122.3035,60.0,7.916666666666667
2026-01-20T23:07:56+00:00,SAT-51866,315.8688667504487,56.31867370587302,646.168263797293,-3.488735519148689,122190.27521720121,10.5,10500122190.275217,47.655,-122.3035,60.0,7.933333333333334
2026-01-20T23:07:57+00:00,SAT-51866,316.2743255912942,56.84302652257658,642.6888810966254,-3.4311234796973853,120172.4578969313,10.5,10500120172.457897,47.655,-122.3035,60.0,7.95
2026-01-20T23:07:58+00:00,SAT-51866,316.6957260369696,57.371342420503524,639.266955985482,-3.3725771675670755,118121.91839547307,10.5,10500118121.918396,47.655,-122.3035,60.0,7.966666666666667
2026-01-20T23:07:59+00:00,SAT-51866,317.1339886311482,57.90350313423724,635.9034202318854,-3.313092826873783,116038.52516588234,10.5,10500116038.525166,47.655,-122.3035,60.0,7.983333333333333
2026-01-20T23:08:00+00:00,SAT-51866,317.59010195239256,58.4393770212385,632.5992093496737,-3.252667493853378,113922.1744046025,10.5,10500113922.174404,47.655,-122.3035,60.0,8.0
2026-01-20T23:08:01+00:00,SAT-51866,318.0651285312602,58.97881802283069,629.3552618085033,-3.191299019149675,111772.79083208821,10.5,10500111772.790833,47.655,-122.3035,60.0,8.016666666666667
2026-01-20T23:08:02+00:00,SAT-51866,318.56021132173623,59.52166452723755,626.1725182216246,-3.1289861253292903,109590.32970721881,10.5,10500109590.329708,47.655,-122.3035,60.0,8.033333333333333
2026-01-20T23:08:03+00:00,SAT-51866,319.0765807815106,60.067738129182395,623.0519204762974,-3.0657284332982657,107374.77775252036,10.5,10500107374.777752,47.655,-122.3035,60.0,8.05
2026-01-20T23:08:04+00:00,SAT-51866,319.6155626076669,60.61684226826647,619.9944108378583,-3.001526515808846,105126.15502819915,10.5,10500105126.155027,47.655,-122.3035,60.0,8.066666666666666
2026-01-20T23:08:05+00:00,SAT-51866,320.17858618468233,61.16876073644779,617.0009310004275,-2.936381939643114,102844.51640959126,10.5,10500102844.516409,47.655,-122.3035,60.0,8.083333333333334
2026-01-20T23:08:06+00:00,SAT-51866,320.7671937960968,61.723256036806106,614.0724210955439,-2.870297295159622,100529.95262201036,10.5,10500100529.952621,47.655,-122.3035,60.0,8.1
2026-01-20T23:08:07+00:00,SAT-51866,321.383050647912,62.28006757309817,611.2098186713316,-2.8032762584102944,98182.59241634455,10.5,10500098182.592417,47.655,-122.3035,60.0,8.116666666666667
2026-01-20T23:08:08+00:00,SAT-51866,322.0279557562577,62.83890965606294,608.414057609718,-2.7353236204736047,95802.60359642819,10.5,10500095802.603596,47.655,-122.3035,60.0,8.133333333333333
2026-01-20T23:08:09+00:00,SAT-51866,322.70385373138635,63.399469297897646,605.686067014396,-2.6664453017244965,93390.19351883499,10.5,10500093390.19352,47.655,-122.3035,60.0,8.15
2026-01-20T23:08:10+00:00,SAT-51866,323.41284747614253,63.961403766213934,603.0267700845561,-2.596648433250047,90945.61194439887,10.5,10500090945.611944,47.655,-122.3035,60.0,8.166666666666666
2026-01-20T23:08:11+00:00,SAT-51866,324.1572118197601,64.52433788350491,600.437082907418,-2.5259413522547796,88469.15087728854,10.5,10500088469.150877,47.655,-122.3035,60.0,8.183333333333334
2026-01-20T23:08:12+00:00,SAT-51866,324.9394080370217,65.08786102417568,597.9179132553487,-2.4543336598080234,85961.14658756442,10.5,10500085961.146587,47.655,-122.3035,60.0,8.2
2026-01-20T23:08:13+00:00,SAT-51866,325.762099199327,65.65152378909994,595.4701593253847,-2.381836222791793,83421.97967940148,10.5,10500083421.97968,47.655,-122.3035,60.0,8.216666666666667
2026-01-20T23:08:14+00:00,SAT-51866,326.6281662081996,66.21483431036168,593.0947084768126,-2.3084612328117182,80852.0771543994,10.5,10500080852.077154,47.655,-122.3035,60.0,8.233333333333333
2026-01-20T23:08:15+00:00,SAT-51866,327.54072431725683,66.77725416236356,590.7924359099985,-2.234222200645888,78251.91221715731,10.5,10500078251.912218,47.655,-122.3035,60.0,8.25
2026-01-20T23:08:16+00:00,SAT-51866,328.50313979366274,67.33819382739922,588.5642033507498,-2.159133976846298,75622.00499682392,10.5,10500075622.004997,47.655,-122.3035,60.0,8.266666666666667
2026-01-20T23:08:17+00:00,SAT-51866,329.51904625259976,67.89700768533304,586.4108577141349,-2.0832128123143288,72962.92466870682,10.5,10500072962.92467,47.655,-122.3035,60.0,8.283333333333333
2026-01-20T23:08:18+00:00,SAT-51866,330.59236001580354,68.45298850625855,584.3332297078869,-2.0064762961485205,70275.28727743866,10.5,10500070275.287277,47.655,-122.3035,60.0,8.3
2026-01-20T23:08:19+00:00,SAT-51866,331.7272935120402,69.00536139016899,582.3321324977948,-1.9289434271922532,67559.75824287967,10.5,10500067559.758244,47.655,-122.3035,60.0,8.316666666666666
2026-01-20T23:08:20+00:00,SAT-51866,332.92836553259235,69.55327717654593,580.4083603017366,-1.8506345774412947,64817.05107849509,10.5,10500064817.051079,47.655,-122.3035,60.0,8.333333333333334
2026-01-20T23:08:21+00:00,SAT-51866,334.2004066259321,70.09580530466172,578.5626870202099,-1.7715715095015283,62047.92800279868,10.5,10500062047.928003,47.655,-122.3035,60.0,8.35
2026-01-20T23:08:22+00:00,SAT-51866,335.5485574873868,70.63192617837132,576.7958648494484,-1.6917773671586793,59253.19960906466,10.5,10500059253.19961,47.655,-122.3035,60.0,8.366666666666667
2026-01-20T23:08:23+00:00,SAT-51866,336.9782575388197,71.16052311159211,575.1086229039458,-1.6112766553126576,56433.72416254349,10.5,10500056433.724163,47.655,-122.3035,60.0,8.383333333333333
2026-01-20T23:08:24+00:00,SAT-51866,338.4952201682088,71.68037399569432,573.5016658589899,-1.5300952307133455,53590.40727599,10.5,10500053590.407276,47.655,-122.3035,60.0,8.4
2026-01-20T23:08:25+00:00,SAT-51866,340.105390295158,72.19014291986979,571.9756726024369,-1.448260269611457,50724.20077665963,10.5,10500050724.200777,47.655,-122.3035,60.0,8.416666666666666
2026-01-20T23:08:26+00:00,SAT-51866,341.81487901839716,72.6883720749295,570.5312949187482,-1.3658002585682714,47836.10238442639,10.5,10500047836.102385,47.655,-122.3035,60.0,8.433333333333334
2026-01-20T23:08:27+00:00,SAT-51866,343.6298693009814,73.17347442694305,569.1691561821926,-1.2827449361956078,44927.15367127042,10.5,10500044927.153671,47.655,-122.3035,60.0,8.45
2026-01-20T23:08:28+00:00,SAT-51866,345.5564858850452,73.64372779711074,567.8898501081524,-1.1991252666790986,41998.43913395091,10.5,10500041998.439135,47.655,-122.3035,60.0,8.466666666666667
2026-01-20T23:08:29+00:00,SAT-51866,347.60062243461056,74.09727121792557,566.6939395308336,-1.1149734018248458,39051.08486471958,10.5,10500039051.084866,47.655,-122.3035,60.0,8.483333333333333
2026-01-20T23:08:30+00:00,SAT-51866,349.7677193024092,74.53210465309343,565.581955218833,-1.030322615638196,36086.25625999256,10.5,10500036086.25626,47.655,-122.3035,60.0,8.5
2026-01-20T23:08:31+00:00,SAT-51866,352.06248686503795,74.94609339871678,564.5543947559427,-0.9452072549928168,33105.15629257283,10.5,10500033105.156292,47.655,-122.3035,60.0,8.516666666666667
2026-01-20T23:08:32+00:00,SAT-51866,354.48857269134356,75.33697870907156,563.6117214711619,-0.8596626812050538,30109.02346533703,10.5,10500030109.023466,47.655,-122.3035,60.0,8.533333333333333
2026-01-20T23:08:33+00:00,SAT-51866,357.048176214271,75.70239631128379,562.7543634269717,-0.7737252031752062,27099.12946956012,10.5,10500027099.129469,47.655,-122.3035,60.0,8.55
2026-01-20T23:08:34+00:00,SAT-51866,359.7416225534977,76.03990445014678,561.9827124742923,-0.6874320037574707,24076.776606079406,10.5,10500024076.776606,47.655,-122.3035,60.0,8.566666666666666
2026-01-20T23:08:35+00:00,SAT-51866,2.5669176331795347,76.34702284029717,561.2971233808711,-0.6008210654963306,21043.295184268685,10.5,10500021043.295185,47.655,-122.3035,60.0,8.583333333333334
2026-01-20T23:08:36+00:00,SAT-51866,5.519319002547467,76.62128330902445,560.697913033738,-0.5139310938413446,18000.04083269539,10.5,10500018000.040833,47.655,-122.3035,60.0,8.6
2026-01-20T23:08:37+00:00,SAT-51866,8.590968995764156,76.86029191868546,560.1853597182368,-0.4268014328814504,14948.391547779462,10.5,10500014948.391548,47.655,-122.3035,60.0,8.616666666666667
2026-01-20T23:08:38+00:00,SAT-51866,11.770646091067569,77.06180096399318,559.7597024810982,-0.339471979003001,11889.744669732521,10.5,10500011889.744669,47.655,-122.3035,60.0,8.633333333333333
2026-01-20T23:08:39+00:00,SAT-51866,15.043692845442857,77.2237875591764,559.4211405796239,-0.2519830875268702,8825.513612594408,10.5,10500008825.513613,47.655,-122.3035,60.0,8.65
2026-01-20T23:08:40+00:00,SAT-51866,18.392170740915155,77.34453379632848,559.1698330239808,-0.16437548996519236,5757.124966214192,10.5,10500005757.124966,47.655,-122.3035,60.0,8.666666666666666
2026-01-20T23:08:41+00:00,SAT-51866,21.795271878624344,77.42270204956779,559.0058982020206,-0.07669019068598978,2686.014877008323,10.5,10500002686.014877,47.655,-122.3035,60.0,8.683333333333334
2026-01-20T23:08:42+00:00,SAT-51866,25.22998486638114,77.45739830495043,558.9294136071526,0.011031622330980791,-386.37407774714035,10.5,10499999613.625923,47.655,-122.3035,60.0,8.7
2026-01-20T23:08:43+00:00,SAT-51866,28.671973932604267,77.44821681214314,558.9404156552262,0.09874867627290254,-3458.596349563526,10.5,10499996541.40365,47.655,-122.3035,60.0,8.716666666666667
2026-01-20T23:08:44+00:00,SAT-51866,32.096593272553875,77.39526094745767,559.0388995999255,0.18641971031421128,-6529.206809796457,10.5,10499993470.79319,47.655,-122.3035,60.0,8.733333333333333
2026-01-20T23:08:45+00:00,SAT-51866,35.4799338610975,77.29913780229448,559.224819544722,0.2740035713869896,-9596.764103930163,10.5,10499990403.235895,47.655,-122.3035,60.0,8.75
2026-01-20T23:08:46+00:00,SAT-51866,38.799793631469385,77.16092715107354,559.4980885503468,0.3614593101629715,-12659.83401327328,10.5,10499987340.165987,47.655,-122.3035,60.0,8.766666666666667
2026-01-20T23:08:47+00:00,SAT-51866,42.036476515655814,76.98212845335637,559.8585788379806,0.4487462776101523,-15716.992836779766,10.5,10499984283.007164,47.655,-122.3035,60.0,8.783333333333333
2026-01-20T23:08:48+00:00,SAT-51866,45.173356673641734,76.76459179274121,560.3061220887474,0.5358242179069878,-18766.830645297192,10.5,10499981233.169355,47.655,-122.3035,60.0,8.8
2026-01-20T23:08:49+00:00,SAT-51866,48.197182917387636,76.51043977253813,560.8405098358699,0.6226533582605824,-21807.95442737961,10.5,10499978192.045572,47.655,-122.3035,60.0,8.816666666666666
2026-01-20T23:08:50+00:00,SAT-51866,51.09813530958491,76.22198731487235,561.4614939464032,0.7091944998035737,-24838.991272880936,10.5,10499975161.008728,47.655,-122.3035,60.0,8.833333333333334
2026-01-20T23:08:51+00:00,SAT-51866,53.869673752510394,75.9016652781691,562.1687871936216,0.7954090992426869,-27858.59123263272,10.5,10499972141.408768,47.655,-122.3035,60.0,8.85
2026-01-20T23:08:52+00:00,SAT-51866,56.50823366889433,75.5519522186772,562.9620639108357,0.8812593585931938,-30865.430461324464,10.5,10499969134.569538,47.655,-122.3035,60.0,8.866666666666667
2026-01-20T23:08:53+00:00,SAT-51866,59.01282723130671,75.17531686483848,563.8409607347022,0.9667082927840217,-33858.21358532051,10.5,10499966141.786415,47.655,-122.3035,60.0,8.883333333333333
2026-01-20T23:08:54+00:00,SAT-51866,61.38460274356228,74.77417230250481,564.805077415959,1.051719815398113,-36835.676705650105,10.5,10499963164.323294,47.655,-122.3035,60.0,8.9
2026-01-20T23:08:55+00:00,SAT-51866,63.62640401448238,74.35084161715638,565.8539777156693,1.1362587978245688,-39796.58946976569,10.5,10499960203.41053,47.655,-122.3035,60.0,8.916666666666666
2026-01-20T23:08:56+00:00,SAT-51866,65.7423589112962,73.9075339323194,566.9871903604607,1.220291147247322,-42739.757803036126,10.5,10499957260.242197,47.655,-122.3035,60.0,8.933333333333334
2026-01-20T23:08:57+00:00,SAT-51866,67.7375147089176,73.44632931393144,568.2042100755425,1.3037838371030033,-45664.02497551,10.5,10499954335.975025,47.655,-122.3035,60.0,8.95
2026-01-20T23:08:58+00:00,SAT-51866,69.61752821908682,72.96917088214197,569.5044986481004,1.3867050092590334,-48568.27518062463,10.5,10499951431.72482,47.655,-122.3035,60.0,8.966666666666667
2026-01-20T23:08:59+00:00,SAT-51866,71.38841196592311,72.47786247605889,570.8874860925949,1.469023982794326,-51451.43384274338,10.5,10499948548.566156,47.655,-122.3035,60.0,8.983333333333333
2026-01-20T23:09:00+00:00,SAT-51866,73.05633292963536,71.97407044966596,572.3525718248167,1.5507113026610777,-54312.46932149746,10.5,10499945687.530678,47.655,-122.3035,60.0,9.0
2026-01-20T23:09:01+00:00,SAT-51866,74.6274580998391,71.45932835158516,573.8991258844734,1.6317387961077703,-57150.39488795808,10.5,10499942849.605112,47.655,-122.3035,60.0,9.016666666666667
2026-01-20T23:09:02+00:00,SAT-51866,76.10783994458693,70.93504349316747,575.5264902140487,1.7120796025504863,-59964.26977085629,10.5,10499940035.730228,47.655,-122.3035,60.0,9.033333333333333
2026-01-20T23:09:03+00:00,SAT-51866,77.5033347736068,70.40250464348371,577.2339799674518,1.7917081788970841,-62753.199343058135,10.5,10499937246.800657,47.655,-122.3035,60.0,9.05
2026-01-20T23:09:04+00:00,SAT-51866,78.8195474775469,69.86289028102539,579.0208848239769,1.8706003407727134,-65516.336565456535,10.5,10499934483.663435,47.655,-122.3035,60.0,9.066666666666666
2026-01-20T23:09:05+00:00,SAT-51866,80.0617969394696,69.31727697368625,580.8864703433787,1.9487332676303486,-68252.88216596383,10.5,10499931747.117834,47.655,-122.3035,60.0,9.083333333333334
2026-01-20T23:09:06+00:00,SAT-51866,81.2350972288226,68.766647609354,582.829979326044,2.026085531463677,-70962.08564515859,10.5,10499929037.914354,47.655,-122.3035,60.0,9.1
2026-01-20T23:09:07+00:00,SAT-51866,82.34415059693418,68.21189927937692,584.8506332017976,2.1026370869553896,-73643.24493123704,10.5,10499926356.755068,47.655,-122.3035,60.0,9.116666666666667
2026-01-20T23:09:08+00:00,SAT-51866,83.39334904270268,67.653850708983,586.9476334088865,2.1783692633412164,-76295.70609505718,10.5,10499923704.293905,47.655,-122.3035,60.0,9.133333333333333
2026-01-20T23:09:09+00:00,SAT-51866,84.38678192877902,67.09324916981527,589.1201627648477,2.2532647827579297,-78918.86399276351,10.5,10499921081.136007,47.655,-122.3035,60.0,9.15
2026-01-20T23:09:10+00:00,SAT-51866,85.32824771028667,66.53077684213316,591.3673868556737,2.3273077446025012,-81512.16171797847,10.5,10499918487.838282,47.655,-122.3035,60.0,9.166666666666666
2026-01-20T23:09:11+00:00,SAT-51866,86.22126827521775,65.96705663645753,593.6884554093814,2.400483606291027,-84075.08992789868,10.5,10499915924.910072,47.655,-122.3035,60.0,9.183333333333334
2026-01-20T23:09:12+00:00,SAT-51866,87.06910479063599,65.40265749263152,596.0825036503908,2.472779162096331,-86607.18610209826,10.5,10499913392.813898,47.655,-122.3035,60.0,9.2
2026-01-20T23:09:13+00:00,SAT-51866,87.8747742425175,64.83809918449141,598.548653632797,2.5441825525426607,-89108.03487157084,10.5,10499910891.965128,47.655,-122.3035,60.0,9.216666666666667
2026-01-20T23:09:14+00:00,SAT-51866,88.64106609470323,64.2738566573026,601.0860155830135,2.614683198268379,-91577.26570232122,10.5,10499908422.734297,47.655,-122.3035,60.0,9.233333333333333
2026-01-20T23:09:15+00:00,SAT-51866,89.37055863435074,63.71036395203565,603.6936891764535,2.684271805020625,-94014.55307029959,10.5,10499905985.44693,47.655,-122.3035,60.0,9.25
2026-01-20T23:09:16+00:00,SAT-51866,90.06563475092493,63.148017737042544,606.3707648191944,2.7529403214945396,-96419.61498475277,10.5,10499903580.385015,47.655,-122.3035,60.0,9.266666666666667
2026-01-20T23:09:17+00:00,SAT-51866,90.72849695641011,62.58718049417763,609.1163248875928,2.8206819090995334,-98792.21192931112,10.5,10499901207.78807,47.655,-122.3035,60.0,9.283333333333333
2026-01-20T23:09:18+00:00,SAT-51866,91.36118154659239,62.0281833908477,611.9294449377479,2.8874909045165693,-101132.14555058612,10.5,10499898867.85445,47.655,-122.3035,60.0,9.3
2026-01-20T23:09:19+00:00,SAT-51866,91.96557185029596,61.471328871367376,614.8091948776236,2.953362799623992,-103439.2579550881,10.5,10499896560.742044,47.655,-122.3035,60.0,9.316666666666666
2026-01-20T23:09:20+00:00,SAT-51866,92.54341055579954,60.91689299367919,617.7546401191456,3.018294160845849,-105713.42888446318,10.5,10499894286.571115,47.655,-122.3035,60.0,9.333333333333334
2026-01-20T23:09:21+00:00,SAT-51866,93.09631111608941,60.36512754961193,620.7648426498708,3.0822826526007665,-107954.57653677213,10.5,10499892045.423464,47.655,-122.3035,60.0,9.35
2026-01-20T23:09:22+00:00,SAT-51866,93.62576828209949,59.816261972999655,623.838862128035,3.1453269444211007,-110162.65431341022,10.5,10499889837.345686,47.655,-122.3035,60.0,9.366666666666667
2026-01-20T23:09:23+00:00,SAT-51866,94.13316778432831,59.27050507929894,626.9757568849734,3.207426684511792,-112337.64989302639,10.5,10499887662.350107,47.655,-122.3035,60.0,9.383333333333333
2026-01-20T23:09:24+00:00,SAT-51866,94.61979522383913,58.72804664314581,630.1745849011687,3.2685824680906865,-114479.58412266732,10.5,10499885520.415876,47.655,-122.3035,60.0,9.4
2026-01-20T23:09:25+00:00,SAT-51866,95.08684422293868,58.18905883240826,633.4344047507268,3.3287957780726787,-116588.50894028538,10.5,10499883411.49106,47.655,-122.3035,60.0,9.416666666666666
2026-01-20T23:09:26+00:00,SAT-51866,95.53542388435667,57.653697518631894,636.7542764866923,3.3880689740832746,-118664.50698994697,10.5,10499881335.49301,47.655,-122.3035,60.0,9.433333333333334
2026-01-20T23:09:27+00:00,SAT-51866,95.96656561776135,57.122103469422605,640.1332625154095,3.4464051880442024,-120707.68796479906,10.5,10499879292.312035,47.655,-122.3035,60.0,9.45
2026-01-20T23:09:28+00:00,SAT-51866,96.38122937276154,56.594403449725895,643.5704283667486,3.503808350117654,-122718.18951574614,10.5,10499877281.810484,47.655,-122.3035,60.0,9.466666666666667
2026-01-20T23:09:29+00:00,SAT-51866,96.7803093429806,56.07071122167576,647.0648434902051,3.5602831012232348,-124696.1741874239,10.5,10499875303.825813,47.655,-122.3035,60.0,9.483333333333333
2026-01-20T23:09:30+00:00,SAT-51866,97.16463917223119,55.55112847053234,650.615581963753,3.6158347689892625,-126641.82857591186,10.5,10499873358.171425,47.655,-122.3035,60.0,9.5
2026-01-20T23:09:31+00:00,SAT-51866,97.53499671375394,55.03574565488144,654.2217231787117,3.6704693065384566,-128555.36118474934,10.5,10499871444.638815,47.655,-122.3035,60.0,9.516666666666667
2026-01-20T23:09:32+00:00,SAT-51866,97.89210837712845,54.5246427940065,657.8823524635643,3.7241932937432436,-130437.00246890151,10.5,10499869562.997532,47.655,-122.3035,60.0,9.533333333333333
2026-01-20T23:09:33+00:00,SAT-51866,98.23665310576425,54.0178901900444,661.5965617090255,3.7770138511140097,-132287.0018187619,10.5,10499867712.99818,47.655,-122.3035,60.0,9.55
2026-01-20T23:09:34+00:00,SAT-51866,98.56926600956369,53.51554910313067,665.3634499072326,3.828938618357571,-134105.62680917908,10.5,10499865894.37319,47.655,-122.3035,60.0,9.566666666666666
2026-01-20T23:09:35+00:00,SAT-51866,98.89054168987084,53.017672375286,669.1821236695479,3.879975709660053,-135893.16163327417,10.5,10499864106.838367,47.655,-122.3035,60.0,9.583333333333334
2026-01-20T23:09:36+00:00,SAT-51866,99.2010372821368,52.524305010947096,673.0516976997671,3.9301337134118217,-137649.9070928066,10.5,10499862350.092907,47.655,-122.3035,60.0,9.6
2026-01-20T23:09:37+00:00,SAT-51866,99.50127524504177,52.035484712574444,676.9712952670518,3.9794215929602887,-139376.1771221177,10.5,10499860623.822878,47.655,-122.3035,60.0,9.616666666666667
2026-01-20T23:09:38+00:00,SAT-51866,99.79174591162884,51.551242387577595,680.9400485798815,4.0278486978749894,-141072.29918268122,10.5,10499858927.700817,47.655,-122.3035,60.0,9.633333333333333
2026-01-20T23:09:39+00:00,SAT-51866,100.07290983192813,51.07160261557101,684.9570991712405,4.0754247277880005,-142738.61299664187,10.5,10499857261.387003,47.655,-122.3035,60.0,9.65
2026-01-20T23:09:40+00:00,SAT-51866,100.3451999221177,50.596584085215284,689.0215982477418,4.12215966845353,-144375.4683073517,10.5,10499855624.531693,47.655,-122.3035,60.0,9.666666666666666
2026-01-20T23:09:41+00:00,SAT-51866,100.60902343596565,50.12620000630357,693.1327069749824,4.168063795856254,-145983.22502326148,10.5,10499854016.774977,47.655,-122.3035,60.0,9.683333333333334
2026-01-20T23:09:42+00:00,SAT-51866,100.86476377842976,49.6604584913931,697.2895967669948,4.213147624618613,-147562.25141092588,10.5,10499852437.748589,47.655,-122.3035,60.0,9.7
2026-01-20T23:09:43+00:00,SAT-51866,101.11278217216314,49.19936291573939,701.4914495242463,4.257421898407916,-149112.9237590197,10.5,10499850887.07624,47.655,-122.3035,60.0,9.716666666666667
2026-01-20T23:09:44+00:00,SAT-51866,101.35341919201869,48.74291225262991,705.7374578620689,4.300897539904643,-150635.62462601627,10.5,10499849364.375374,47.655,-122.3035,60.0,9.733333333333333
2026-01-20T23:09:45+00:00,SAT-51866,101.58699617715536,48.291101390371395,710.0268252891926,4.34358564066994,-152130.7424853042,10.5,10499847869.257515,47.655,-122.3035,60.0,9.75
2026-01-20T23:09:46+00:00,SAT-51866,101.81381653320165,47.84392142810683,714.358766376175,4.385497431359621,-153598.67068195567,10.5,10499846401.329317,47.655,-122.3035,60.0,9.766666666666667
2026-01-20T23:09:47+00:00,SAT-51866,102.0341669332145,47.40135995411851,718.7325068941196,4.426644259747731,-155039.8066630188,10.5,10499844960.193336,47.655,-122.3035,60.0,9.783333333333333
2026-01-20T23:09:48+00:00,SAT-51866,102.24831842619103,46.96340130710324,723.1472839314837,4.467037563655073,-156454.55102936004,10.5,10499843545.44897,47.655,-122.3035,60.0,9.8
2026-01-20T23:09:49+00:00,SAT-51866,102.456527460993,46.530026822149374,727.6023459838821,4.5066888748846115,-157843.30767349864,10.5,10499842156.692326,47.655,-122.3035,60.0,9.816666666666666
2026-01-20T23:09:50+00:00,SAT-51866,102.65903683384575,46.10121505955565,732.0969530478162,4.545609738739784,-159206.48096079766,10.5,10499840793.51904,47.655,-122.3035,60.0,9.833333333333334
2026-01-20T23:09:51+00:00,SAT-51866,102.85607656276538,45.67694202563993,736.6303766341407,4.58381177659119,-160544.4779208138,10.5,10499839455.52208,47.655,-122.3035,60.0,9.85
2026-01-20T23:09:52+00:00,SAT-51866,103.04786470012877,45.2571813727704,741.2018998439247,4.621306606768624,-161857.70547660193,10.5,10499838142.294523,47.655,-122.3035,60.0,9.866666666666667
2026-01-20T23:09:53+00:00,SAT-51866,103.23460808351594,44.841904593106186,745.8108173654209,4.658105850267743,-163146.57064458675,10.5,10499836853.429356,47.655,-122.3035,60.0,9.883333333333333
2026-01-20T23:09:54+00:00,SAT-51866,103.41650303261062,44.431081198715276,750.4564354767226,4.6942211260942734,-164411.4803714971,10.5,10499835588.519629,47.655,-122.3035,60.0,9.9
2026-01-20T23:09:55+00:00,SAT-51866,103.59373599642912,44.02467888998993,755.1380720437805,4.72966401830354,-165652.840379951,10.5,10499834347.15962,47.655,-122.3035,60.0,9.916666666666666
2026-01-20T23:09:56+00:00,SAT-51866,103.76648415366364,43.62266371557764,759.8550564855444,4.764446061280387,-166871.05465289613,10.5,10499833128.945347,47.655,-122.3035,60.0,9.933333333333334
2026-01-20T23:09:57+00:00,SAT-51866,103.93491597070314,43.22500022276173,764.6067297244282,4.798578745050973,-168066.52561965125,10.5,10499831933.47438,47.655,-122.3035,60.0,9.95
2026-01-20T23:09:58+00:00,SAT-51866,104.09919172110436,42.831651597291206,769.3924441420676,4.8320735031416415,-169239.6537306727,10.5,10499830760.34627,47.655,-122.3035,60.0,9.966666666666667
2026-01-20T23:09:59+00:00,SAT-51866,104.25946396910908,42.44257979481422,774.2115635229733,4.864941682555468,-170390.83640600595,10.5,10499829609.163593,47.655,-122.3035,60.0,9.983333333333333
2026-01-20T23:10:00+00:00,SAT-51866,104.41587801931739,42.05774566585476,779.0634629682397,4.8971945494573275,-171520.46823440082,10.5,10499828479.531765,47.655,-122.3035,60.0,10.0
2026-01-20T23:10:01+00:00,SAT-51866,104.56857233635647,41.67710907188352,783.9475288149231,4.92884327743199,-172628.94056206007,10.5,10499827371.059439,47.655,-122.3035,60.0,10.016666666666667
2026-01-20T23:10:02+00:00,SAT-51866,104.71767893611545,41.30062899446365,788.8631585437086,4.95989894263633,-173716.64132284964,10.5,10499826283.358677,47.655,-122.3035,60.0,10.033333333333333
2026-01-20T23:10:03+00:00,SAT-51866,104.8633237510687,40.92826363736219,793.8097606817457,4.990372487614853,-174783.953770965,10.5,10499825216.046228,47.655,-122.3035,60.0,10.05
2026-01-20T23:10:04+00:00,SAT-51866,105.00562697063387,40.559970524379786,798.7867546693928,5.020274808081899,-175831.2595204111,10.5,10499824168.74048,47.655,-122.3035,60.0,10.066666666666666
2026-01-20T23:10:05+00:00,SAT-51866,105.14470336170037,40.195706584212594,803.7935708135119,5.049616571054814,-176858.9321752569,10.5,10499823141.067825,47.655,-122.3035,60.0,10.083333333333334
2026-01-20T23:10:06+00:00,SAT-51866,105.28066256397972,39.8354282425149,808.829650059387,5.078408425154154,-177867.34469523787,10.5,10499822132.655304,47.655,-122.3035,60.0,10.1
2026-01-20T23:10:07+00:00,SAT-51866,105.41360937163837,39.47909149276814,813.8944439723738,5.106660814234412,-178856.8628683158,10.5,10499821143.13713,47.655,-122.3035,60.0,10.116666666666667
2026-01-20T23:10:08+00:00,SAT-51866,105.54364399267364,39.126651975219225,818.9874145336843,5.134384094162751,-179827.84940076407,10.5,10499820172.150599,47.655,-122.3035,60.0,10.133333333333333
2026-01-20T23:10:09+00:00,SAT-51866,105.67086229480107,38.77806504232431,824.1080340526355,5.161588433901401,-180780.66045265459,10.5,10499819219.339548,47.655,-122.3035,60.0,10.15
2026-01-20T23:10:10+00:00,SAT-51866,105.79535603376405,38.433285826241814,829.2557849802449,5.188283899231401,-181715.64857021757,10.5,10499818284.351429,47.655,-122.3035,60.0,10.166666666666666
2026-01-20T23:10:11+00:00,SAT-51866,105.91721306949276,38.09226929603153,834.4301598063258,5.214480406582103,-182633.16106875538,10.5,10499817366.838932,47.655,-122.3035,60.0,10.183333333333334
2026-01-20T23:10:12+00:00,SAT-51866,106.03651756801634,37.754970313805224,839.6306609105362,5.240187701851492,-183533.53929084056,10.5,10499816466.460709,47.655,-122.3035,60.0,10.2
2026-01-20T23:10:13+00:00,SAT-51866,106.15335019079228,37.4213436881906,844.8568003923049,5.265415391462867,-184417.11969405218,10.5,10499815582.880306,47.655,-122.3035,60.0,10.216666666666667
2026-01-20T23:10:14+00:00,SAT-51866,106.26778827318516,37.09134422196214,850.1080999317303,5.290172956425373,-185284.23434343506,10.5,10499814715.765657,47.655,-122.3035,60.0,10.233333333333333
2026-01-20T23:10:15+00:00,SAT-51866,106.37990599273098,36.76492675534356,855.3840906645037,5.3144696906719435,-186135.20875183394,10.5,10499813864.791248,47.655,-122.3035,60.0,10.25
2026-01-20T23:10:16+00:00,SAT-51866,106.48977452614243,36.442046209863925,860.6843129953318,5.338314737922401,-186970.36317099482,10.5,10499813029.63683,47.655,-122.3035,60.0,10.266666666666667
2026-01-20T23:10:17+00:00,SAT-51866,106.59746219797702,36.12265762671035,866.008316448129,5.361717111707174,-187790.01329288053,10.5,10499812209.986708,47.655,-122.3035,60.0,10.283333333333333
2026-01-20T23:10:18+00:00,SAT-51866,106.7030346209045,35.806716201021906,871.3556595361767,5.384685652532512,-188594.46874941522,10.5,10499811405.53125,47.655,-122.3035,60.0,10.3
2026-01-20T23:10:19+00:00,SAT-51866,106.80655482721158,35.49417731603176,876.7259095895614,5.407229051404069,-189384.0339363798,10.5,10499810615.966064,47.655,-122.3035,60.0,10.316666666666666
2026-01-20T23:10:20+00:00,SAT-51866,106.90808339316185,35.18499657321565,882.1186426060766,5.429355844681304,-190159.00783319137,10.5,10499809840.992167,47.655,-122.3035,60.0,10.333333333333334
2026-01-20T23:10:21+00:00,SAT-51866,107.00767855627814,34.87912982035132,887.5334430969891,5.451074411145691,-190919.68390021924,10.5,10499809080.3161,47.655,-122.3035,60.0,10.35
2026-01-20T23:10:22+00:00,SAT-51866,107.10539632589298,34.57653317748327,892.9699039298866,5.472392994208652,-191666.35085660112,10.5,10499808333.649143,47.655,-122.3035,60.0,10.366666666666667
2026-01-20T23:10:23+00:00,SAT-51866,107.20129058799293,34.27716305955795,898.4276261936681,5.493319661760415,-192399.29127397982,10.5,10499807600.708727,47.655,-122.3035,60.0,10.383333333333333
2026-01-20T23:10:24+00:00,SAT-51866,107.29541320356977,33.98097619932536,903.9062190234938,5.513862334397683,-193118.78256515603,10.5,10499806881.217434,47.655,-122.3035,60.0,10.4
2026-01-20T23:10:25+00:00,SAT-51866,107.38781410205566,33.68792966679741,909.4052994538857,5.5340287826149615,-193825.09688571648,10.5,10499806174.903114,47.655,-122.3035,60.0,10.416666666666666
2026-01-20T23:10:26+00:00,SAT-51866,107.47854136958028,33.39798088715167,914.9244922690308,5.553826660774217,-194518.5023237952,10.5,10499805481.497677,47.655,-122.3035,60.0,10.433333333333334
2026-01-20T23:10:27+00:00,SAT-51866,107.56764133296836,33.11108765529114,920.4634298869552,5.573263408638694,-195199.25945137115,10.5,10499804800.74055,47.655,-122.3035,60.0,10.45
2026-01-20T23:10:28+00:00,SAT-51866,107.6551586378552,32.82720815402504,926.0217521455058,5.592346386268299,-195867.62604887525,10.5,10499804132.373951,47.655,-122.3035,60.0,10.466666666666667
2026-01-20T23:10:29+00:00,SAT-51866,107.74113632450451,32.546300963832536,931.5991062228564,5.61108277094284,-196523.85349500625,10.5,10499803476.146505,47.655,-122.3035,60.0,10.483333333333333
2026-01-20T23:10:30+00:00,SAT-51866,107.82561589819873,32.26832507668422,937.1951464552197,5.629479610627889,-197168.18863933138,10.5,10499802831.811361,47.655,-122.3035,60.0,10.5
2026-01-20T23:10:31+00:00,SAT-51866,107.90863739670695,31.993239905888085,942.8095342078798,5.647543792867543,-197800.8727127792,10.5,10499802199.127287,47.655,-122.3035,60.0,10.516666666666667
2026-01-20T23:10:32+00:00,SAT-51866,107.99023945378924,31.72100529635771,948.4419377151996,5.665282094266231,-198422.14306070178,10.5,10499801577.85694,47.655,-122.3035,60.0,10.533333333333333
2026-01-20T23:10:33+00:00,SAT-51866,108.07045936008666,31.45158153141502,954.0920319699802,5.682701134727575,-199032.23154012611,10.5,10499800967.76846,47.655,-122.3035,60.0,10.55
2026-01-20T23:10:34+00:00,SAT-51866,108.14933312027807,31.18492934086654,959.7594985671783,5.699807402169638,-199631.36538538669,10.5,10499800368.634615,47.655,-122.3035,60.0,10.566666666666666
2026-01-20T23:10:35+00:00,SAT-51866,108.2268955077112,30.9210099069604,965.4440255722761,5.7166072523863,-200219.7672032702,10.5,10499799780.232798,47.655,-122.3035,60.0,10.583333333333334
2026-01-20T23:10:36+00:00,SAT-51866,108.30318011613484,30.659784869531006,971.1453073895105,5.733106907278915,-200797.65491108055,10.5,10499799202.345089,47.655,-122.3035,60.0,10.6
2026-01-20T23:10:37+00:00,SAT-51866,108.37821940899956,30.40121633044826,976.8630446283399,5.749312455568953,-201365.24176159897,10.5,10499798634.758238,47.655,-122.3035,60.0,10.616666666666667
2026-01-20T23:10:38+00:00,SAT-51866,108.45204476615207,30.14526685731563,982.5969439706205,5.765229882169805,-201922.7373718086,10.5,10499798077.262629,47.655,-122.3035,60.0,10.633333333333333
