DopplerPredictor/satellites_20260205_234138/SAT-57954.csv

timestamp,satellite,azimuth_deg,elevation_deg,distance_km,relative_velocity_kms,doppler_shift_hz,tx_freq_ghz,rx_freq_hz,ue_lat,ue_lon,ue_alt_m,time_minutes
2026-01-20T23:13:43+00:00,SAT-57954,321.4810751235188,30.163119995677388,876.5074467020615,-4.845529355488278,169710.9345980509,10.5,10500169710.934599,47.655,-122.3035,60.0,13.716666666666667
2026-01-20T23:13:44+00:00,SAT-57954,321.7990105538434,30.39803849002396,871.6749075420922,-4.81549764692452,168659.0971301468,10.5,10500168659.09713,47.655,-122.3035,60.0,13.733333333333333
2026-01-20T23:13:45+00:00,SAT-57954,322.12198122902527,30.634385317626748,866.8723195798204,-4.78495826062531,167589.47864047252,10.5,10500167589.47864,47.655,-122.3035,60.0,13.75
2026-01-20T23:13:46+00:00,SAT-57954,322.4500893967668,30.87214451074154,862.1001891319677,-4.753903182115714,166501.79842821462,10.5,10500166501.798428,47.655,-122.3035,60.0,13.766666666666667
2026-01-20T23:13:47+00:00,SAT-57954,322.78343932117974,31.111298397730703,857.3590305082448,-4.722324382294109,165395.7752802712,10.5,10500165395.77528,47.655,-122.3035,60.0,13.783333333333333
2026-01-20T23:13:48+00:00,SAT-57954,323.12213729386855,31.351827523923443,852.6493660259384,-4.690213719326068,164271.12403516073,10.5,10500164271.124035,47.655,-122.3035,60.0,13.8
2026-01-20T23:13:49+00:00,SAT-57954,323.46629163404504,31.59371056463644,847.9717261223444,-4.657563118276421,163127.5618744966,10.5,10500163127.561874,47.655,-122.3035,60.0,13.816666666666666
2026-01-20T23:13:50+00:00,SAT-57954,323.8160126975382,31.836924244458764,843.3266492880443,-4.624364437300325,161964.8036364324,10.5,10500161964.803637,47.655,-122.3035,60.0,13.833333333333334
2026-01-20T23:13:51+00:00,SAT-57954,324.171412871528,32.08144324690283,838.714682133638,-4.5906095208433255,160782.56367895324,10.5,10500160782.563679,47.655,-122.3035,60.0,13.85
2026-01-20T23:13:52+00:00,SAT-57954,324.53260656803667,32.3272401238596,834.1363794034161,-4.556290241291875,159580.5573386529,10.5,10500159580.557339,47.655,-122.3035,60.0,13.866666666666667
2026-01-20T23:13:53+00:00,SAT-57954,324.89971021520483,32.574285204444784,829.592303947493,-4.5213984352683685,158358.49869951655,10.5,10500158358.4987,47.655,-122.3035,60.0,13.883333333333333
2026-01-20T23:13:54+00:00,SAT-57954,325.2728422374563,32.8225464976126,825.0830267574767,-4.485925992962831,157116.1037216944,10.5,10500157116.103722,47.655,-122.3035,60.0,13.9
2026-01-20T23:13:55+00:00,SAT-57954,325.65212303622894,33.071989596785116,820.6091269130434,-4.449864810968475,155853.08858960352,10.5,10500155853.088589,47.655,-122.3035,60.0,13.916666666666666
2026-01-20T23:13:56+00:00,SAT-57954,326.0376749597237,33.3225775792139,816.1711915755515,-4.413206821024713,154569.17071862923,10.5,10500154569.17072,47.655,-122.3035,60.0,13.933333333333334
2026-01-20T23:13:57+00:00,SAT-57954,326.42962226710983,33.57427090422898,811.7698159529913,-4.375944012564054,153264.06954481348,10.5,10500153264.069546,47.655,-122.3035,60.0,13.95
2026-01-20T23:13:58+00:00,SAT-57954,326.8280910862783,33.82702731019594,807.4056032424447,-4.33806842660955,151937.506311117,10.5,10500151937.506311,47.655,-122.3035,60.0,13.966666666666667
2026-01-20T23:13:59+00:00,SAT-57954,327.23320936181204,34.08080170866762,803.0791645786336,-4.299572168587889,150589.20451618845,10.5,10500150589.204515,47.655,-122.3035,60.0,13.983333333333333
2026-01-20T23:14:00+00:00,SAT-57954,327.64510679409824,34.33554607690716,798.7911189696885,-4.260447420754737,149218.89034955224,10.5,10500149218.89035,47.655,-122.3035,60.0,14.0
2026-01-20T23:14:01+00:00,SAT-57954,328.0639147686907,34.59120934892507,794.542093220527,-4.22068649034247,147826.29437794574,10.5,10500147826.294378,47.655,-122.3035,60.0,14.016666666666667
2026-01-20T23:14:02+00:00,SAT-57954,328.48976627888754,34.847737307396265,790.3327218082104,-4.180281779181457,146411.1504813283,10.5,10500146411.150482,47.655,-122.3035,60.0,14.033333333333333
2026-01-20T23:14:03+00:00,SAT-57954,328.92279583285176,35.1050724719958,786.1636467876,-4.139225779514234,144973.1957062758,10.5,10500144973.195705,47.655,-122.3035,60.0,14.05
2026-01-20T23:14:04+00:00,SAT-57954,329.36313934652725,35.363153985808744,782.0355177011875,-4.097511189160143,143512.17429953325,10.5,10500143512.1743,47.655,-122.3035,60.0,14.066666666666666
2026-01-20T23:14:05+00:00,SAT-57954,329.81093403429145,35.62191750756819,777.948991374069,-4.055130806505304,142027.8340301199,10.5,10500142027.83403,47.655,-122.3035,60.0,14.083333333333334
2026-01-20T23:14:06+00:00,SAT-57954,330.26631827315333,35.88129509641646,773.9047318136479,-4.01207763578238,140519.92987667152,10.5,10500140519.929876,47.655,-122.3035,60.0,14.1
2026-01-20T23:14:07+00:00,SAT-57954,330.7294314617313,36.14121510258155,769.9034100043402,-3.9683448470187894,138988.22262465753,10.5,10500138988.222624,47.655,-122.3035,60.0,14.116666666666667
2026-01-20T23:14:08+00:00,SAT-57954,331.20041385731855,36.40160205525882,765.9457037422249,-3.923925830640727,137432.4807788448,10.5,10500137432.48078,47.655,-122.3035,60.0,14.133333333333333
2026-01-20T23:14:09+00:00,SAT-57954,331.6794064004204,36.66237655413109,762.0322974152342,-3.8788141958595683,135852.48050678268,10.5,10500135852.480507,47.655,-122.3035,60.0,14.15
2026-01-20T23:14:10+00:00,SAT-57954,332.16655051933816,36.923455161419284,758.1638817849572,-3.833003812152258,134248.00709162172,10.5,10500134248.007092,47.655,-122.3035,60.0,14.166666666666666
2026-01-20T23:14:11+00:00,SAT-57954,332.6619879188776,37.18475029781513,754.3411537270708,-3.7864887775341654,132618.85382089476,10.5,10500132618.85382,47.655,-122.3035,60.0,14.183333333333334
2026-01-20T23:14:12+00:00,SAT-57954,333.16586034261456,37.446170137920475,750.5648160034137,-3.7392635185639045,130964.82548910887,10.5,10500130964.825489,47.655,-122.3035,60.0,14.2
2026-01-20T23:14:13+00:00,SAT-57954,333.67830932473146,37.707618514773344,746.8355769343246,-3.6913227348666955,129285.73645471863,10.5,10500129285.736454,47.655,-122.3035,60.0,14.216666666666667
2026-01-20T23:14:14+00:00,SAT-57954,334.19947591000846,37.96899482354702,743.1541501263076,-3.6426614547632172,127581.41258848406,10.5,10500127581.412588,47.655,-122.3035,60.0,14.233333333333333
2026-01-20T23:14:15+00:00,SAT-57954,334.72950035506915,38.23019393268425,739.5212541442174,-3.593275069975038,125851.6924890015,10.5,10500125851.69249,47.655,-122.3035,60.0,14.25
2026-01-20T23:14:16+00:00,SAT-57954,335.2685218078095,38.49110610195361,735.9376121488331,-3.543159326215443,124096.42715315457,10.5,10500124096.427153,47.655,-122.3035,60.0,14.266666666666667
2026-01-20T23:14:17+00:00,SAT-57954,335.8166779570911,38.75161690506992,732.4039515438151,-3.492310376246807,122315.48183440782,10.5,10500122315.481834,47.655,-122.3035,60.0,14.283333333333333
2026-01-20T23:14:18+00:00,SAT-57954,336.374104661024,39.01160716225642,728.9210035697481,-3.4407247696069403,120508.73568297997,10.5,10500120508.735683,47.655,-122.3035,60.0,14.3
2026-01-20T23:14:19+00:00,SAT-57954,336.94093554309234,39.27095287910269,725.4895029084284,-3.388399503702198,118676.08353534057,10.5,10500118676.083536,47.655,-122.3035,60.0,14.316666666666666
2026-01-20T23:14:20+00:00,SAT-57954,337.5173015649416,39.529525197205174,722.1101872361966,-3.335332042500052,116817.4365689031,10.5,10500116817.43657,47.655,-122.3035,60.0,14.333333333333334
2026-01-20T23:14:21+00:00,SAT-57954,338.10333057000236,39.7871903553383,718.7837967586263,-3.2815203349364364,114932.72294672797,10.5,10500114932.722946,47.655,-122.3035,60.0,14.35
2026-01-20T23:14:22+00:00,SAT-57954,338.6991467972651,40.04380966219542,715.5110737268582,-3.2269628088802547,113021.8876061341,10.5,10500113021.887606,47.655,-122.3035,60.0,14.366666666666667
2026-01-20T23:14:23+00:00,SAT-57954,339.3048703596705,40.29923947990506,712.2927619599476,-3.1716584741749365,111084.89586765,10.5,10500111084.895868,47.655,-122.3035,60.0,14.383333333333333
2026-01-20T23:14:24+00:00,SAT-57954,339.92061670735285,40.55333122811505,709.1296062644531,-3.115606869110572,109121.7315602416,10.5,10500109121.73156,47.655,-122.3035,60.0,14.4
2026-01-20T23:14:25+00:00,SAT-57954,340.5464960467554,40.805931397664054,706.0223519074049,-3.0588081021985625,107132.39848443722,10.5,10500107132.398485,47.655,-122.3035,60.0,14.416666666666666
2026-01-20T23:14:26+00:00,SAT-57954,341.18261273264454,41.05688158247401,702.9717440476127,-3.0012629086719333,105116.9223912074,10.5,10500105116.922392,47.655,-122.3035,60.0,14.433333333333334
2026-01-20T23:14:27+00:00,SAT-57954,341.8290646374911,41.30601853234702,699.9785271106246,-2.9429726348279757,103075.35043357809,10.5,10500103075.350433,47.655,-122.3035,60.0,14.45
2026-01-20T23:14:28+00:00,SAT-57954,342.4859424840604,41.55317422211515,697.0434441793004,-2.8839392908142347,101007.75301541932,10.5,10500101007.753016,47.655,-122.3035,60.0,14.466666666666667
2026-01-20T23:14:29+00:00,SAT-57954,343.1533291565718,41.79817594409886,694.1672363317413,-2.8241655312860527,98914.22311399024,10.5,10500098914.223114,47.655,-122.3035,60.0,14.483333333333333
2026-01-20T23:14:30+00:00,SAT-57954,343.8312989756058,42.040846419193656,691.3506419985093,-2.7636547398108102,96794.8792361331,10.5,10500096794.879236,47.655,-122.3035,60.0,14.5
2026-01-20T23:14:31+00:00,SAT-57954,344.5199169629877,42.281003936697786,688.5943962356719,-2.7024109736297803,94649.86348359936,10.5,10500094649.863483,47.655,-122.3035,60.0,14.516666666666667
2026-01-20T23:14:32+00:00,SAT-57954,345.21923806538837,42.51846251229364,685.8992300529296,-2.640439067102957,92479.34517612531,10.5,10500092479.345177,47.655,-122.3035,60.0,14.533333333333333
2026-01-20T23:14:33+00:00,SAT-57954,345.92930637868943,42.753032079107065,683.265869638585,-2.5777445685015086,90283.51863763644,10.5,10500090283.518637,47.655,-122.3035,60.0,14.55
2026-01-20T23:14:34+00:00,SAT-57954,346.65015433397946,42.98451869856847,680.6950356475428,-2.5143338146938468,88062.60581206947,10.5,10500088062.605812,47.655,-122.3035,60.0,14.566666666666666
2026-01-20T23:14:35+00:00,SAT-57954,347.3818018845274,43.21272480423539,678.1874424148281,-2.4502139335980457,85816.85634926638,10.5,10500085816.85635,47.655,-122.3035,60.0,14.583333333333334
2026-01-20T23:14:36+00:00,SAT-57954,348.1242556800901,43.437449473337956,675.7437971666563,-2.385392844398593,83546.5476125661,10.5,10500083546.547613,47.655,-122.3035,60.0,14.6
2026-01-20T23:14:37+00:00,SAT-57954,348.87750823135684,43.658488726634396,673.3647992312893,-2.319879283379965,81251.98558360543,10.5,10500081251.985584,47.655,-122.3035,60.0,14.616666666666667
2026-01-20T23:14:38+00:00,SAT-57954,349.6415370782204,43.875635859670794,671.0511392241249,-2.25368282272047,78933.50552055895,10.5,10500078933.50552,47.655,-122.3035,60.0,14.633333333333333
2026-01-20T23:14:39+00:00,SAT-57954,350.41630396610213,44.08868180544649,668.8034982140438,-2.1868138731089375,76591.47204978667,10.5,10500076591.47205,47.655,-122.3035,60.0,14.65
2026-01-20T23:14:40+00:00,SAT-57954,351.201754032496,44.29741552738393,666.6225468871485,-2.1192836850884573,74226.27921289735,10.5,10500074226.279213,47.655,-122.3035,60.0,14.666666666666666
2026-01-20T23:14:41+00:00,SAT-57954,351.9978150095644,44.50162444261266,664.5089447091584,-2.051104362361444,71838.35093274816,10.5,10500071838.350933,47.655,-122.3035,60.0,14.683333333333334
2026-01-20T23:14:42+00:00,SAT-57954,352.80439645523734,44.70109487665532,662.46333907454,-1.9822888810403665,69428.14168768664,10.5,10500069428.141687,47.655,-122.3035,60.0,14.7
2026-01-20T23:14:43+00:00,SAT-57954,353.621389024585,44.8956125498222,660.4863644364337,-1.912851069388582,66996.1358019891,10.5,10500066996.135801,47.655,-122.3035,60.0,14.716666666666667
2026-01-20T23:14:44+00:00,SAT-57954,354.4486637751209,45.0849630908673,658.5786414567888,-1.8428056094407992,64542.84750261593,10.5,10500064542.847502,47.655,-122.3035,60.0,14.733333333333333
2026-01-20T23:14:45+00:00,SAT-57954,355.28607152268296,45.26893257907916,656.7407761548799,-1.772168055428961,62068.82156456414,10.5,10500062068.821564,47.655,-122.3035,60.0,14.75
2026-01-20T23:14:46+00:00,SAT-57954,356.13344226667084,45.447308115265514,654.9733590374482,-1.7009548137569923,59574.63260949819,10.5,10500059574.63261,47.655,-122.3035,60.0,14.766666666666667
2026-01-20T23:14:47+00:00,SAT-57954,356.99058467782527,45.61987841626599,653.2769642488151,-1.6291831309830538,57060.88468483775,10.5,10500057060.884686,47.655,-122.3035,60.0,14.783333333333333
2026-01-20T23:14:48+00:00,SAT-57954,357.8572856613739,45.786434431822336,651.6521487329788,-1.556871097000996,54528.21137518562,10.5,10500054528.211374,47.655,-122.3035,60.0,14.8
2026-01-20T23:14:49+00:00,SAT-57954,358.733310013408,45.94676998305098,650.0994513925408,-1.4840376241398228,51977.275070302596,10.5,10500051977.27507,47.655,-122.3035,60.0,14.816666666666666
2026-01-20T23:14:50+00:00,SAT-57954,359.61840016929375,46.10068241745276,648.6193922684739,-1.4107024382906819,49408.76665433711,10.5,10500049408.766655,47.655,-122.3035,60.0,14.833333333333334
2026-01-20T23:14:51+00:00,SAT-57954,0.5122760599446219,46.24797327868603,647.2124717287434,-1.3368860557748603,46823.40469564459,10.5,10500046823.404696,47.655,-122.3035,60.0,14.85
2026-01-20T23:14:52+00:00,SAT-57954,1.414635077830401,46.38844898627926,645.8791696799937,-1.2626097582130809,44221.9345666039,10.5,10500044221.934566,47.655,-122.3035,60.0,14.866666666666667
2026-01-20T23:14:53+00:00,SAT-57954,2.3251521586161923,46.521921521380044,644.6199448043023,-1.187895584553565,41605.12816440643,10.5,10500041605.128164,47.655,-122.3035,60.0,14.883333333333333
2026-01-20T23:14:54+00:00,SAT-57954,3.2434799999001793,46.648209116380976,643.4352338038813,-1.1127662943482006,38973.78262483209,10.5,10500038973.782625,47.655,-122.3035,60.0,14.9
2026-01-20T23:14:55+00:00,SAT-57954,4.169249404719295,46.76713694114909,642.3254506824063,-1.0372453362816674,36328.71922000621,10.5,10500036328.71922,47.655,-122.3035,60.0,14.916666666666666
2026-01-20T23:14:56+00:00,SAT-57954,5.102069757891228,46.87853778189314,641.2909860577314,-0.9613568249490978,33670.78254505498,10.5,10500033670.782545,47.655,-122.3035,60.0,14.933333333333334
2026-01-20T23:14:57+00:00,SAT-57954,6.041529647282235,46.98225270888118,640.3322064977627,-0.8851255064795825,31000.839314095145,10.5,10500031000.839314,47.655,-122.3035,60.0,14.95
2026-01-20T23:14:58+00:00,SAT-57954,6.987197626862354,47.078131727001164,639.4494538906188,-0.8085767126393527,28319.7767527334,10.5,10500028319.776752,47.655,-122.3035,60.0,14.966666666666667
2026-01-20T23:14:59+00:00,SAT-57954,7.938623108251318,47.166034403006755,638.6430448605623,-0.7317363368002257,25628.50175637964,10.5,10500025628.501757,47.655,-122.3035,60.0,14.983333333333333
