DopplerPredictor/satellites_20260205_234138/SAT-54180.csv

timestamp,satellite,azimuth_deg,elevation_deg,distance_km,relative_velocity_kms,doppler_shift_hz,tx_freq_ghz,rx_freq_hz,ue_lat,ue_lon,ue_alt_m,time_minutes
2026-01-20T23:06:00+00:00,SAT-54180,295.43416025689555,30.043074167902258,987.0702991717706,-5.812735203233679,203586.57466277428,10.5,10500203586.574663,47.655,-122.3035,60.0,6.0
2026-01-20T23:06:01+00:00,SAT-54180,295.3998557653632,30.298992010301625,981.2731471094593,-5.797261174654983,203044.60872687236,10.5,10500203044.608727,47.655,-122.3035,60.0,6.016666666666667
2026-01-20T23:06:02+00:00,SAT-54180,295.3649054976534,30.55757734121011,975.4914275919914,-5.781503652261977,202492.71363841568,10.5,10500202492.713638,47.655,-122.3035,60.0,6.033333333333333
2026-01-20T23:06:03+00:00,SAT-54180,295.32929262824786,30.81887014881445,969.7254233531738,-5.765456702037573,201930.68156302493,10.5,10500201930.681562,47.655,-122.3035,60.0,6.05
2026-01-20T23:06:04+00:00,SAT-54180,295.2929997421888,31.082911008158586,963.9754230449213,-5.749114196465092,201358.29788914658,10.5,10500201358.29789,47.655,-122.3035,60.0,6.066666666666666
2026-01-20T23:06:05+00:00,SAT-54180,295.2560088093363,31.34974108049638,958.2417214302391,-5.732469921248816,200775.3449658582,10.5,10500200775.344965,47.655,-122.3035,60.0,6.083333333333333
2026-01-20T23:06:06+00:00,SAT-54180,295.2183011568555,31.61940211704923,952.5246194697683,-5.715517484255117,200181.5989136015,10.5,10500200181.598913,47.655,-122.3035,60.0,6.1
2026-01-20T23:06:07+00:00,SAT-54180,295.1798574405371,31.89193645811364,946.8244244991469,-5.69825043082498,199576.83366291452,10.5,10500199576.833662,47.655,-122.3035,60.0,6.116666666666666
2026-01-20T23:06:08+00:00,SAT-54180,295.1406576140725,32.167387037114636,941.1414502913686,-5.680662060217595,198960.81452551,10.5,10500198960.814526,47.655,-122.3035,60.0,6.133333333333334
2026-01-20T23:06:09+00:00,SAT-54180,295.10068089750365,32.445797375348484,935.4760173022031,-5.662745613540127,198333.3047763708,10.5,10500198333.304777,47.655,-122.3035,60.0,6.15
2026-01-20T23:06:10+00:00,SAT-54180,295.0599057429913,32.72721158510451,929.8284527281938,-5.644494166588423,197694.06190057803,10.5,10500197694.061901,47.655,-122.3035,60.0,6.166666666666667
2026-01-20T23:06:11+00:00,SAT-54180,295.01830979920317,33.011674367032576,924.1990906715257,-5.625900618470395,197042.83719485413,10.5,10500197042.837194,47.655,-122.3035,60.0,6.183333333333334
2026-01-20T23:06:12+00:00,SAT-54180,294.9758698737752,33.29923100612946,918.5882723162393,-5.606957728546348,196379.3770613691,10.5,10500196379.377062,47.655,-122.3035,60.0,6.2
2026-01-20T23:06:13+00:00,SAT-54180,294.9325618934109,33.58992736874517,912.9963460676032,-5.587658134364448,195703.42363591646,10.5,10500195703.423635,47.655,-122.3035,60.0,6.216666666666667
2026-01-20T23:06:14+00:00,SAT-54180,294.8883608615946,33.88380989973274,907.4236676735999,-5.56799430473639,195014.713144425,10.5,10500195014.713144,47.655,-122.3035,60.0,6.233333333333333
2026-01-20T23:06:15+00:00,SAT-54180,294.8432408140946,34.180925616292114,901.8706003932112,-5.547958539137972,194312.97588196403,10.5,10500194312.975882,47.655,-122.3035,60.0,6.25
2026-01-20T23:06:16+00:00,SAT-54180,294.79717477190724,34.481322100724974,896.3375151652986,-5.527542980237467,193597.93665153979,10.5,10500193597.936651,47.655,-122.3035,60.0,6.266666666666667
2026-01-20T23:06:17+00:00,SAT-54180,294.7501346913286,34.785047492740944,890.8247907649902,-5.506739635678934,192869.31552703973,10.5,10500192869.315527,47.655,-122.3035,60.0,6.283333333333333
2026-01-20T23:06:18+00:00,SAT-54180,294.70209141087673,35.09215048183276,885.3328139383443,-5.485540333596355,192126.82629514893,10.5,10500192126.826296,47.655,-122.3035,60.0,6.3
2026-01-20T23:06:19+00:00,SAT-54180,294.6530145953325,35.40268029598738,879.8619795813779,-5.46393674603506,191370.17727566758,10.5,10500191370.177277,47.655,-122.3035,60.0,6.316666666666666
2026-01-20T23:06:20+00:00,SAT-54180,294.60287267624307,35.716686690311654,874.4126908957355,-5.4419203809729355,190599.0710420601,10.5,10500190599.071041,47.655,-122.3035,60.0,6.333333333333333
2026-01-20T23:06:21+00:00,SAT-54180,294.55163278875136,36.0342199337857,868.9853595523192,-5.419482583916741,189813.20447736478,10.5,10500189813.204477,47.655,-122.3035,60.0,6.35
2026-01-20T23:06:22+00:00,SAT-54180,294.4992607046106,36.35533079454739,863.5804058533213,-5.396614539024135,189012.2688134917,10.5,10500189012.268814,47.655,-122.3035,60.0,6.366666666666666
2026-01-20T23:06:23+00:00,SAT-54180,294.4457207608732,36.68007052360048,858.1982588931431,-5.373307252166612,188195.94903801556,10.5,10500188195.949038,47.655,-122.3035,60.0,6.383333333333334
2026-01-20T23:06:24+00:00,SAT-54180,294.3909757843273,37.00849083572068,852.8393567362034,-5.3495515618863365,187363.92427793008,10.5,10500187363.924278,47.655,-122.3035,60.0,6.4
2026-01-20T23:06:25+00:00,SAT-54180,294.3349870108852,37.3406438890593,847.5041465838164,-5.325338188436186,186515.86951723768,10.5,10500186515.869516,47.655,-122.3035,60.0,6.416666666666667
2026-01-20T23:06:26+00:00,SAT-54180,294.2777139995071,37.67658226583301,842.1930848921669,-5.300657619449982,185651.45159263752,10.5,10500185651.451593,47.655,-122.3035,60.0,6.433333333333334
2026-01-20T23:06:27+00:00,SAT-54180,294.2191145413388,38.01635894372317,836.9066376043033,-5.275500201702852,184770.33240736145,10.5,10500184770.332407,47.655,-122.3035,60.0,6.45
2026-01-20T23:06:28+00:00,SAT-54180,294.1591445622388,38.36002727057525,831.6452802906225,-5.249856128812175,183872.16850040917,10.5,10500183872.1685,47.655,-122.3035,60.0,6.466666666666667
2026-01-20T23:06:29+00:00,SAT-54180,294.0977580187487,38.70764093594717,826.4094983016113,-5.223715431711388,182956.61071290052,10.5,10500182956.610712,47.655,-122.3035,60.0,6.483333333333333
2026-01-20T23:06:30+00:00,SAT-54180,294.03490678733317,39.059253939435635,821.1997869300999,-5.197067949702933,182023.30317422727,10.5,10500182023.303175,47.655,-122.3035,60.0,6.5
2026-01-20T23:06:31+00:00,SAT-54180,293.97054054621134,39.41492055419543,816.0166516023747,-5.169903402299817,181071.8858182486,10.5,10500181071.885818,47.655,-122.3035,60.0,6.516666666666667
2026-01-20T23:06:32+00:00,SAT-54180,293.9046066484824,39.77469529230331,810.8606079976497,-5.1422112911769355,180101.99094921135,10.5,10500180101.99095,47.655,-122.3035,60.0,6.533333333333333
2026-01-20T23:06:33+00:00,SAT-54180,293.8370499873893,40.138632860206506,805.7321822653192,-5.113981046764776,179113.24837608205,10.5,10500179113.248377,47.655,-122.3035,60.0,6.55
2026-01-20T23:06:34+00:00,SAT-54180,293.76781285061287,40.50678812098858,800.6319110960114,-5.085201851649911,178105.27922728483,10.5,10500178105.279228,47.655,-122.3035,60.0,6.566666666666666
2026-01-20T23:06:35+00:00,SAT-54180,293.6968347660858,40.87921604060538,795.560341968768,-5.055862801745719,177077.70159558198,10.5,10500177077.701595,47.655,-122.3035,60.0,6.583333333333333
2026-01-20T23:06:36+00:00,SAT-54180,293.6240523350492,41.255971641674584,790.5180332374845,-5.0259528364852155,176030.12809313156,10.5,10500176030.128094,47.655,-122.3035,60.0,6.6
2026-01-20T23:06:37+00:00,SAT-54180,293.54939905362744,41.637109948334135,785.5055542869726,-4.995460724559395,174962.16535198377,10.5,10500174962.165352,47.655,-122.3035,60.0,6.616666666666666
2026-01-20T23:06:38+00:00,SAT-54180,293.47280512164383,42.022685925575516,780.523485703242,-4.964375158483719,173873.4173361995,10.5,10500173873.417336,47.655,-122.3035,60.0,6.633333333333334
2026-01-20T23:06:39+00:00,SAT-54180,293.39419723592164,42.41275442123881,775.5724193494746,-4.9326845978082465,172763.47985040565,10.5,10500172763.47985,47.655,-122.3035,60.0,6.65
2026-01-20T23:06:40+00:00,SAT-54180,293.3134983701861,42.80737009098776,770.6529585983624,-4.90037751102262,171631.94901233143,10.5,10500171631.949013,47.655,-122.3035,60.0,6.666666666666667
2026-01-20T23:06:41+00:00,SAT-54180,293.23062753489427,43.206587337117185,765.7657183231948,-4.867442147275187,170478.41325744582,10.5,10500170478.413258,47.655,-122.3035,60.0,6.683333333333334
2026-01-20T23:06:42+00:00,SAT-54180,293.1454995217278,43.61046022394979,760.9113251166094,-4.833866678460694,169302.45831547,10.5,10500169302.458315,47.655,-122.3035,60.0,6.7
2026-01-20T23:06:43+00:00,SAT-54180,293.0580246262535,44.01904239864559,756.0904173676399,-4.799639201371837,168103.6672857337,10.5,10500168103.667286,47.655,-122.3035,60.0,6.716666666666667
2026-01-20T23:06:44+00:00,SAT-54180,292.9681083485023,44.43238700635006,751.3036453366169,-4.764747668902704,166881.6182276286,10.5,10500166881.618227,47.655,-122.3035,60.0,6.733333333333333
2026-01-20T23:06:45+00:00,SAT-54180,292.875651070748,44.85054659299828,746.5516712986791,-4.7291800304993545,165635.88907978206,10.5,10500165635.88908,47.655,-122.3035,60.0,6.75
2026-01-20T23:06:46+00:00,SAT-54180,292.7805477070051,45.27357301342215,741.8351695472147,-4.6929240924126185,164366.05276551854,10.5,10500164366.052765,47.655,-122.3035,60.0,6.766666666666667
2026-01-20T23:06:47+00:00,SAT-54180,292.68268732592975,45.701517320105246,737.1548265366704,-4.655967660839195,163071.6822062667,10.5,10500163071.682207,47.655,-122.3035,60.0,6.783333333333333
2026-01-20T23:06:48+00:00,SAT-54180,292.58195274013076,46.13442965692816,732.5113408826063,-4.618298459091241,161752.3474204879,10.5,10500161752.34742,47.655,-122.3035,60.0,6.8
2026-01-20T23:06:49+00:00,SAT-54180,292.4782200622047,46.572359137478756,727.9054234443586,-4.5799042324816135,160407.61919720125,10.5,10500160407.619198,47.655,-122.3035,60.0,6.816666666666666
2026-01-20T23:06:50+00:00,SAT-54180,292.3713582209918,47.01535372457395,723.3377973030975,-4.54077265136216,159037.06569997396,10.5,10500159037.0657,47.655,-122.3035,60.0,6.833333333333333
2026-01-20T23:06:51+00:00,SAT-54180,292.2612284378322,47.46346009164771,718.8091978365871,-4.500891475545633,157640.25822567273,10.5,10500157640.258226,47.655,-122.3035,60.0,6.85
2026-01-20T23:06:52+00:00,SAT-54180,292.1476836535513,47.916723490532725,714.3203726299646,-4.460248386668133,156216.76533308718,10.5,10500156216.765333,47.655,-122.3035,60.0,6.866666666666666
2026-01-20T23:06:53+00:00,SAT-54180,292.03056790795955,48.37518759275249,709.8720815537067,-4.418831211485628,154766.16066371853,10.5,10500154766.160664,47.655,-122.3035,60.0,6.883333333333334
2026-01-20T23:06:54+00:00,SAT-54180,291.9097156584658,48.838894342510336,705.4650966189002,-4.376627759835198,153288.01726649702,10.5,10500153288.017267,47.655,-122.3035,60.0,6.9
2026-01-20T23:06:55+00:00,SAT-54180,291.78495103996653,49.30788378213742,701.1002019941145,-4.333625988974501,151781.913353645,10.5,10500151781.913353,47.655,-122.3035,60.0,6.916666666666667
2026-01-20T23:06:56+00:00,SAT-54180,291.65608705201396,49.78219388266371,696.7781938583762,-4.289813919899575,150247.42936977267,10.5,10500150247.429369,47.655,-122.3035,60.0,6.933333333333334
2026-01-20T23:06:57+00:00,SAT-54180,291.522924671361,50.26186035310736,692.4998803376013,-4.245179745672902,148684.1517859848,10.5,10500148684.151787,47.655,-122.3035,60.0,6.95
2026-01-20T23:06:58+00:00,SAT-54180,291.38525187673423,50.74691644817703,688.2660813329918,-4.199711774942277,147091.6711216728,10.5,10500147091.671122,47.655,-122.3035,60.0,6.966666666666667
2026-01-20T23:06:59+00:00,SAT-54180,291.24284258023215,51.2373927555986,684.077628405758,-4.153398552291821,145469.58615971624,10.5,10500145469.58616,47.655,-122.3035,60.0,6.983333333333333
2026-01-20T23:07:00+00:00,SAT-54180,291.0954554497708,51.73331698214522,679.9353645418156,-4.106228816998037,143817.50250194548,10.5,10500143817.502502,47.655,-122.3035,60.0,7.0
2026-01-20T23:07:01+00:00,SAT-54180,290.9428326145015,52.234713719189536,675.8401439576165,-4.058191534019789,142135.0336545417,10.5,10500142135.033655,47.655,-122.3035,60.0,7.016666666666667
2026-01-20T23:07:02+00:00,SAT-54180,290.78469823727374,52.74160419464892,671.7928318750688,-4.009275993962333,140421.8045292003,10.5,10500140421.80453,47.655,-122.3035,60.0,7.033333333333333
2026-01-20T23:07:03+00:00,SAT-54180,290.6207569358198,53.254006019109156,667.7943041967662,-3.9594717538998196,138677.44937048454,10.5,10500138677.449371,47.655,-122.3035,60.0,7.05
2026-01-20T23:07:04+00:00,SAT-54180,290.4506920395755,53.77193290530835,663.8454472402315,-3.9087687702702016,136901.6164103672,10.5,10500136901.616411,47.655,-122.3035,60.0,7.066666666666666
2026-01-20T23:07:05+00:00,SAT-54180,290.27416365484993,54.29539438369334,659.9471573396244,-3.85715730430251,135093.96455589402,10.5,10500135093.964556,47.655,-122.3035,60.0,7.083333333333333
2026-01-20T23:07:06+00:00,SAT-54180,290.0908065228167,54.82439548318666,656.1003405417671,-3.8046281332942353,133254.1707890112,10.5,10500133254.17079,47.655,-122.3035,60.0,7.1
2026-01-20T23:07:07+00:00,SAT-54180,289.9002276313643,55.35893641595863,652.3059120914595,-3.7511724169918437,131381.9254866457,10.5,10500131381.925488,47.655,-122.3035,60.0,7.116666666666666
2026-01-20T23:07:08+00:00,SAT-54180,289.7020035631124,55.8990122181438,648.5647960500557,-3.6967818619691175,129476.93817793019,10.5,10500129476.938177,47.655,-122.3035,60.0,7.133333333333334
2026-01-20T23:07:09+00:00,SAT-54180,289.4956775315541,56.44461238469886,644.8779247501026,-3.6414486901747054,127538.93644260526,10.5,10500127538.936443,47.655,-122.3035,60.0,7.15
2026-01-20T23:07:10+00:00,SAT-54180,289.2807560720215,56.995720468983244,641.2462382813462,-3.5851657180610528,125567.66868244916,10.5,10500125567.668682,47.655,-122.3035,60.0,7.166666666666667
2026-01-20T23:07:11+00:00,SAT-54180,289.05670533478406,57.552313659735745,637.6706838978225,-3.5279263988008203,123562.90559987539,10.5,10500123562.9056,47.655,-122.3035,60.0,7.183333333333334
2026-01-20T23:07:12+00:00,SAT-54180,288.82294692607485,58.11436232711489,634.1522153828431,-3.469724836864403,121524.44070849917,10.5,10500121524.440708,47.655,-122.3035,60.0,7.2
2026-01-20T23:07:13+00:00,SAT-54180,288.5788532345757,58.681829529378554,630.6917923994441,-3.410555876416884,119452.09342917253,10.5,10500119452.09343,47.655,-122.3035,60.0,7.216666666666667
2026-01-20T23:07:14+00:00,SAT-54180,288.32374216402604,59.25467048733196,627.2903797526753,-3.3504151130158575,117345.70949969163,10.5,10500117345.7095,47.655,-122.3035,60.0,7.233333333333333
2026-01-20T23:07:15+00:00,SAT-54180,288.0568711888708,59.83283200914243,623.9489466402201,-3.2892989568786875,115205.1631906838,10.5,10500115205.16319,47.655,-122.3035,60.0,7.25
2026-01-20T23:07:16+00:00,SAT-54180,287.77743062805246,60.416251867441765,620.6684658399215,-3.2272046762260325,113030.35882368108,10.5,10500113030.358824,47.655,-122.3035,60.0,7.266666666666667
2026-01-20T23:07:17+00:00,SAT-54180,287.48453601806676,61.004858118142344,617.4499128540782,-3.1641304442936984,110821.2324176742,10.5,10500110821.232418,47.655,-122.3035,60.0,7.283333333333333
2026-01-20T23:07:18+00:00,SAT-54180,287.1772194444794,61.59856835271565,614.2942650068557,-3.10007538477816,108577.75328080695,10.5,10500108577.75328,47.655,-122.3035,60.0,7.3
2026-01-20T23:07:19+00:00,SAT-54180,286.8544196666203,62.19728887303535,611.2025004963735,-3.035039636642202,106299.92628014385,10.5,10500106299.926281,47.655,-122.3035,60.0,7.316666666666666
2026-01-20T23:07:20+00:00,SAT-54180,286.51497083771864,62.800913780027216,608.1755973821618,-2.969024345925595,103987.7915548454,10.5,10500103987.791555,47.655,-122.3035,60.0,7.333333333333333
2026-01-20T23:07:21+00:00,SAT-54180,286.15758959666863,63.409323946433716,605.2145325807822,-2.9020318053689462,101641.42940638599,10.5,10500101641.429407,47.655,-122.3035,60.0,7.35
2026-01-20T23:07:22+00:00,SAT-54180,285.78086024162985,64.02238588470351,602.3202807222032,-2.834065396350992,99260.95826495213,10.5,10500099260.958265,47.655,-122.3035,60.0,7.366666666666666
2026-01-20T23:07:23+00:00,SAT-54180,285.3832176800497,64.63995044824897,599.4938130640787,-2.765129710850662,96846.53896107002,10.5,10500096846.538961,47.655,-122.3035,60.0,7.383333333333334
2026-01-20T23:07:24+00:00,SAT-54180,284.9629277462437,65.2618513754229,596.736096284395,-2.6952305519456523,94398.37474306757,10.5,10500094398.374743,47.655,-122.3035,60.0,7.4
2026-01-20T23:07:25+00:00,SAT-54180,284.51806443612,65.88790361846053,594.0480912736172,-2.6243749874261715,91916.71315485462,10.5,10500091916.713156,47.655,-122.3035,60.0,7.416666666666667
2026-01-20T23:07:26+00:00,SAT-54180,284.0464834961715,66.51790142804907,591.4307518733683,-2.552571387200433,89401.84734602144,10.5,10500089401.847345,47.655,-122.3035,60.0,7.433333333333334
2026-01-20T23:07:27+00:00,SAT-54180,283.5457917029505,67.15161614080343,588.8850235778023,-2.4798294570649606,86854.11725461781,10.5,10500086854.117254,47.655,-122.3035,60.0,7.45
2026-01-20T23:07:28+00:00,SAT-54180,283.01331103229694,67.78879360796266,586.4118422012953,-2.4061602691469584,84273.91067337345,10.5,10500084273.910673,47.655,-122.3035,60.0,7.466666666666667
2026-01-20T23:07:29+00:00,SAT-54180,282.44603675852915,68.42915118933946,584.0121325157797,-2.3315763105596163,81661.66495381272,10.5,10500081661.664953,47.655,-122.3035,60.0,7.483333333333333
2026-01-20T23:07:30+00:00,SAT-54180,281.8405883220217,69.0723742245983,581.6868068395513,-2.2560914712607434,79017.86658101254,10.5,10500079017.866581,47.655,-122.3035,60.0,7.5
2026-01-20T23:07:31+00:00,SAT-54180,281.19315159066383,69.71811185013058,579.4367636381842,-2.1797210956432957,76343.05298052097,10.5,10500076343.05298,47.655,-122.3035,60.0,7.516666666666667
2026-01-20T23:07:32+00:00,SAT-54180,280.49941083523595,70.36597203419429,577.2628860739967,-2.102482006036732,73637.81334147403,10.5,10500073637.813341,47.655,-122.3035,60.0,7.533333333333333
2026-01-20T23:07:33+00:00,SAT-54180,279.7544684318368,71.01551564383483,575.1660405320757,-2.0243925025432405,70902.78861085966,10.5,10500070902.78861,47.655,-122.3035,60.0,7.55
2026-01-20T23:07:34+00:00,SAT-54180,278.9527499292699,71.66624931125178,573.1470751464656,-1.9454723467113006,68138.67092169696,10.5,10500068138.670921,47.655,-122.3035,60.0,7.566666666666666
2026-01-20T23:07:35+00:00,SAT-54180,278.087891702331,72.31761681021472,571.2068183426409,-1.8657428317594658,65346.20605256985,10.5,10500065346.206053,47.655,-122.3035,60.0,7.583333333333333
2026-01-20T23:07:36+00:00,SAT-54180,277.1526079143819,72.96898861555574,569.3460773099407,-1.7852267209414956,62526.191268913455,10.5,10500062526.191269,47.655,-122.3035,60.0,7.6
2026-01-20T23:07:37+00:00,SAT-54180,276.1385331519998,73.61964915686849,567.5656365354766,-1.703948261762919,59679.475820938256,10.5,10500059679.47582,47.655,-122.3035,60.0,7.616666666666666
2026-01-20T23:07:38+00:00,SAT-54180,275.0360366632353,74.26878122926452,565.8662563238588,-1.6219331837566802,56806.960865723784,10.5,10500056806.960865,47.655,-122.3035,60.0,7.633333333333334
2026-01-20T23:07:39+00:00,SAT-54180,273.83400403084084,74.91544685584245,564.2486713191408,-1.539208665255289,53909.598303438754,10.5,10500053909.598303,47.655,-122.3035,60.0,7.65
2026-01-20T23:07:40+00:00,SAT-54180,272.51958249018816,75.55856371948175,562.7135890599063,-1.4558033111418456,50988.38999808787,10.5,10500050988.389997,47.655,-122.3035,60.0,7.666666666666667
2026-01-20T23:07:41+00:00,SAT-54180,271.07788739144627,76.19687609827594,561.2616885565407,-1.371747134567407,48044.387137176665,10.5,10500048044.387136,47.655,-122.3035,60.0,7.683333333333334
2026-01-20T23:07:42+00:00,SAT-54180,269.4916703193418,76.82891901977044,559.89361888674,-1.2870715016466407,45078.6882947193,10.5,10500045078.688295,47.655,-122.3035,60.0,7.7
2026-01-20T23:07:43+00:00,SAT-54180,267.7409554320206,77.45297411733283,558.6099978461734,-1.2018091064385443,42092.43855495763,10.5,10500042092.438555,47.655,-122.3035,60.0,7.716666666666667
2026-01-20T23:07:44+00:00,SAT-54180,265.80266154796055,78.06701554780047,557.4114106240996,-1.1159939093881366,39086.827356328744,10.5,10500039086.827356,47.655,-122.3035,60.0,7.733333333333333
2026-01-20T23:07:45+00:00,SAT-54180,263.6502467941452,78.66864431905091,556.2984085403752,-1.0296610875423282,36063.08674781421,10.5,10500036063.086748,47.655,-122.3035,60.0,7.75
2026-01-20T23:07:46+00:00,SAT-54180,261.2534445731459,79.2550097990003,555.2715078321154,-0.9428469735133653,33022.48925118168,10.5,10500033022.489252,47.655,-122.3035,60.0,7.766666666666667
2026-01-20T23:07:47+00:00,SAT-54180,258.5782104606199,79.82271832168126,554.3311885012253,-0.8555889833679031,29966.345335355243,10.5,10500029966.345335,47.655,-122.3035,60.0,7.783333333333333
2026-01-20T23:07:48+00:00,SAT-54180,255.58707571884437,80.36773132234526,553.4778932338503,-0.7679255574546019,26896.001343947482,10.5,10500026896.001345,47.655,-122.3035,60.0,7.8
2026-01-20T23:07:49+00:00,SAT-54180,252.24020717917884,80.88526024197117,552.7120263788416,-0.679896062034821,23812.836049950332,10.5,10500023812.83605,47.655,-122.3035,60.0,7.816666666666666
2026-01-20T23:07:50+00:00,SAT-54180,248.49759509516858,81.36967363949961,552.0339530243234,-0.5915407299780105,20718.258578636793,10.5,10500020718.25858,47.655,-122.3035,60.0,7.833333333333333
2026-01-20T23:07:51+00:00,SAT-54180,244.32288626170268,81.81444465435077,551.4439981334098,-0.5029005494707929,17613.704509682244,10.5,10500017613.70451,47.655,-122.3035,60.0,7.85
2026-01-20T23:07:52+00:00,SAT-54180,239.68934547976872,82.21218357551464,550.9424457909117,-0.414017198300145,14500.633575483484,10.5,10500014500.633575,47.655,-122.3035,60.0,7.866666666666666
2026-01-20T23:07:53+00:00,SAT-54180,234.5880765699594,82.55481678579086,550.5295385155858,-0.32493292321022016,11380.525435724308,10.5,10500011380.525436,47.655,-122.3035,60.0,7.883333333333334
2026-01-20T23:07:54+00:00,SAT-54180,229.03774610570665,82.83397817314899,550.205476692702,-0.2356904618300086,8254.876942951949,10.5,10500008254.876944,47.655,-122.3035,60.0,7.9
2026-01-20T23:07:55+00:00,SAT-54180,223.093582465308,83.0416534113208,549.970418084475,-0.14633293000787528,5125.198196556001,10.5,10500005125.198196,47.655,-122.3035,60.0,7.916666666666667
2026-01-20T23:07:56+00:00,SAT-54180,216.851893016798,83.17104304987782,549.8244774528584,-0.05690372203124872,1993.0090480398662,10.5,10500001993.009048,47.655,-122.3035,60.0,7.933333333333334
2026-01-20T23:07:57+00:00,SAT-54180,210.44605021466978,83.21749410407998,549.7677262818532,0.03255359251334148,-1140.1645113770192,10.5,10499998859.83549,47.655,-122.3035,60.0,7.95
2026-01-20T23:07:58+00:00,SAT-54180,204.0322163090742,83.17924683828745,549.8001926026774,0.12199537680735371,-4272.794135725769,10.5,10499995727.205864,47.655,-122.3035,60.0,7.966666666666667
2026-01-20T23:07:59+00:00,SAT-54180,197.767706456082,83.05774059082106,549.921860926715,0.2113780323097711,-7403.352819678328,10.5,10499992596.64718,47.655,-122.3035,60.0,7.983333333333333
2026-01-20T23:08:00+00:00,SAT-54180,191.78895948709967,82.85736197415518,550.1326722836901,0.3006581038786761,-10530.318580349673,10.5,10499989469.68142,47.655,-122.3035,60.0,8.0
2026-01-20T23:08:01+00:00,SAT-54180,186.19631667615852,82.58473204255523,550.4325243646832,0.38979238535384364,-13652.17815524685,10.5,10499986347.821844,47.655,-122.3035,60.0,8.016666666666667
2026-01-20T23:08:02+00:00,SAT-54180,181.04900108220622,82.24778083087247,550.8212717704432,0.47873802414284283,-16767.430665316635,10.5,10499983232.569334,47.655,-122.3035,60.0,8.033333333333333
2026-01-20T23:08:03+00:00,SAT-54180,176.36895288008407,81.85486869594115,551.2987263640092,0.5674526218301279,-19874.591138701504,10.5,10499980125.408861,47.655,-122.3035,60.0,8.05
2026-01-20T23:08:04+00:00,SAT-54180,172.14957080225287,81.414117010976,551.8646577236686,0.6558943317613961,-22972.1939285566,10.5,10499977027.806072,47.655,-122.3035,60.0,8.066666666666666
2026-01-20T23:08:05+00:00,SAT-54180,168.36549117753503,80.9329924750166,552.5187936932399,0.7440219610806489,-26058.79628681924,10.5,10499973941.203712,47.655,-122.3035,60.0,8.083333333333334
2026-01-20T23:08:06+00:00,SAT-54180,164.98101245894287,80.4181097482978,553.2608210341181,0.8317950521875302,-29132.981217189485,10.5,10499970867.018784,47.655,-122.3035,60.0,8.1
2026-01-20T23:08:07+00:00,SAT-54180,161.95628526520383,79.87518715222298,554.0903861585584,0.9191739867115939,-32193.36111674876,10.5,10499967806.638884,47.655,-122.3035,60.0,8.116666666666667
2026-01-20T23:08:08+00:00,SAT-54180,159.25133811168303,79.30909292858213,555.0070959666576,1.0061200529712366,-35238.580138657075,10.5,10499964761.41986,47.655,-122.3035,60.0,8.133333333333333
2026-01-20T23:08:09+00:00,SAT-54180,156.82840480296326,78.72393552791992,556.0105187506114,1.0925955397597475,-38267.317476937154,10.5,10499961732.682524,47.655,-122.3035,60.0,8.15
2026-01-20T23:08:10+00:00,SAT-54180,154.6530756269023,78.12316828217108,557.1001851925071,1.1785637969120177,-41278.28948777686,10.5,10499958721.710512,47.655,-122.3035,60.0,8.166666666666666
2026-01-20T23:08:11+00:00,SAT-54180,152.69470577327476,77.50969196557962,558.2755894225214,1.2639893165056726,-44270.25253353626,10.5,10499955729.747467,47.655,-122.3035,60.0,8.183333333333334
2026-01-20T23:08:12+00:00,SAT-54180,150.92639240488057,76.88594735102119,559.5361901581001,1.3488377862249086,-47242.00485177495,10.5,10499952757.995148,47.655,-122.3035,60.0,8.2
2026-01-20T23:08:13+00:00,SAT-54180,149.32472522293475,76.2539949786825,560.8814118963597,1.4330761488423447,-50192.38863855814,10.5,10499949807.61136,47.655,-122.3035,60.0,8.216666666666667
2026-01-20T23:08:14+00:00,SAT-54180,147.86943644807243,75.61558203281321,562.3106461658116,1.5166726602767153,-53120.29208188256,10.5,10499946879.707918,47.655,-122.3035,60.0,8.233333333333333
2026-01-20T23:08:15+00:00,SAT-54180,146.54302309645163,74.97219748654936,563.8232528359868,1.5995969146930809,-56024.65024079208,10.5,10499943975.34976,47.655,-122.3035,60.0,8.25
2026-01-20T23:08:16+00:00,SAT-54180,145.3303808812437,74.32511714457321,565.418561452096,1.6818199102275249,-58904.44734733457,10.5,10499941095.552652,47.655,-122.3035,60.0,8.266666666666667
2026-01-20T23:08:17+00:00,SAT-54180,144.21846873703092,73.67544022740111,567.0958726352354,1.7633140543802552,-61758.71699545116,10.5,10499938241.283005,47.655,-122.3035,60.0,8.283333333333333
2026-01-20T23:08:18+00:00,SAT-54180,143.19601138331086,73.02411904219726,568.8544594879733,1.8440532126038258,-64586.543842741274,10.5,10499935413.456158,47.655,-122.3035,60.0,8.3
2026-01-20T23:08:19+00:00,SAT-54180,142.25324084646937,72.37198303112244,570.6935690483933,1.92401271411908,-67387.06381416153,10.5,10499932612.936186,47.655,-122.3035,60.0,8.316666666666666
2026-01-20T23:08:20+00:00,SAT-54180,141.3816746830955,71.71975830397955,572.6124237499396,2.0031693630579928,-70159.46449229527,10.5,10499929840.535507,47.655,-122.3035,60.0,8.333333333333334
2026-01-20T23:08:21+00:00,SAT-54180,140.5739271668187,71.06808354129994,574.6102228923726,2.081501468844288,-72902.98618141029,10.5,10499927097.013819,47.655,-122.3035,60.0,8.35
2026-01-20T23:08:22+00:00,SAT-54180,139.82354927027077,70.41752297855939,576.6861441430259,2.158988826317789,-75616.92121132942,10.5,10499924383.078789,47.655,-122.3035,60.0,8.366666666666667
2026-01-20T23:08:23+00:00,SAT-54180,139.1248933959733,69.76857706170964,578.8393450182409,2.2356127086925253,-78300.61369079376,10.5,10499921699.386309,47.655,-122.3035,60.0,8.383333333333333
2026-01-20T23:08:24+00:00,SAT-54180,138.47299912000432,69.12169122554269,581.068964357776,2.3113558963590703,-80953.46051624234,10.5,10499919046.539484,47.655,-122.3035,60.0,8.4
2026-01-20T23:08:25+00:00,SAT-54180,137.86349665067664,68.4772631485924,583.3741238279441,2.3862026191894037,-83574.90935108426,10.5,10499916425.090649,47.655,-122.3035,60.0,8.416666666666666
2026-01-20T23:08:26+00:00,SAT-54180,137.29252519806056,67.83564879953903,585.7539293672074,2.46013856988225,-86164.4590931091,10.5,10499913835.540907,47.655,-122.3035,60.0,8.433333333333334
2026-01-20T23:08:27+00:00,SAT-54180,136.75666382149655,67.19716748441982,588.2074726450828,2.5331508686970765,-88721.6586393221,10.5,10499911278.34136,47.655,-122.3035,60.0,8.45
2026-01-20T23:08:28+00:00,SAT-54180,136.25287274443775,66.5621060927399,590.7338324858758,2.6052280519285573,-91246.10648227132,10.5,10499908753.893518,47.655,-122.3035,60.0,8.466666666666667
2026-01-20T23:08:29+00:00,SAT-54180,135.77844343315388,65.93072268318114,593.3320762809186,2.676360018426735,-93737.44883695747,10.5,10499906262.551163,47.655,-122.3035,60.0,8.483333333333333
2026-01-20T23:08:30+00:00,SAT-54180,135.3309560348263,65.30324953746792,596.0012613474737,2.7465380336059835,-96195.37978124461,10.5,10499903804.620218,47.655,-122.3035,60.0,8.5
2026-01-20T23:08:31+00:00,SAT-54180,134.90824298499064,64.67989576324898,598.7404362916337,2.8157546463771235,-98619.63834647166,10.5,10499901380.361654,47.655,-122.3035,60.0,8.516666666666667
2026-01-20T23:08:32+00:00,SAT-54180,134.5083578218805,64.06084954338588,601.548642288378,2.8840037105617715,-101010.0092674733,10.5,10499898989.990732,47.655,-122.3035,60.0,8.533333333333333
2026-01-20T23:08:33+00:00,SAT-54180,134.12954837353004,63.44628006946764,604.4249143829843,2.951280295007827,-103366.3198344442,10.5,10499896633.680166,47.655,-122.3035,60.0,8.55
2026-01-20T23:08:34+00:00,SAT-54180,133.77023365865358,62.836339235382354,607.368282702798,3.017580671832952,-105688.43948117601,10.5,10499894311.560518,47.655,-122.3035,60.0,8.566666666666666
2026-01-20T23:08:35+00:00,SAT-54180,133.4289839209906,62.23116311433606,610.3777736572758,3.0829022387246328,-107976.27706367665,10.5,10499892023.722937,47.655,-122.3035,60.0,8.583333333333334
2026-01-20T23:08:36+00:00,SAT-54180,133.1045033346826,61.630873266835486,613.452411060539,3.147243542971601,-110229.7817018526,10.5,10499889770.218298,47.655,-122.3035,60.0,8.6
2026-01-20T23:08:37+00:00,SAT-54180,132.7956149713675,61.03557788688008,616.5912172778916,3.2106041492434754,-112448.93814859241,10.5,10499887551.061852,47.655,-122.3035,60.0,8.616666666666667
2026-01-20T23:08:38+00:00,SAT-54180,132.50124771636857,60.44537283995102,619.7932142404741,3.2729846450378615,-114633.7669805474,10.5,10499885366.233019,47.655,-122.3035,60.0,8.633333333333333
2026-01-20T23:08:39+00:00,SAT-54180,132.2204248373586,59.86034258398452,623.0574244653504,3.33438660321223,-116784.32328583933,10.5,10499883215.676714,47.655,-122.3035,60.0,8.65
2026-01-20T23:08:40+00:00,SAT-54180,131.95225397678362,59.28056099814516,626.382872038225,3.394812496431851,-118900.69366766537,10.5,10499881099.306332,47.655,-122.3035,60.0,8.666666666666666
2026-01-20T23:08:41+00:00,SAT-54180,131.69591837305492,58.70609214050342,629.7685835108379,3.4542656765241317,-120982.99552119948,10.5,10499879017.004478,47.655,-122.3035,60.0,8.683333333333334
2026-01-20T23:08:42+00:00,SAT-54180,131.4506691361311,58.1369909335663,633.2135887777722,3.512750305647488,-123031.37462283533,10.5,10499876968.625378,47.655,-122.3035,60.0,8.7
2026-01-20T23:08:43+00:00,SAT-54180,131.21581843830506,57.57330379509992,636.7169218846096,3.570271355264488,-125046.0050942213,10.5,10499874953.994905,47.655,-122.3035,60.0,8.716666666666667
2026-01-20T23:08:44+00:00,SAT-54180,130.9907334941708,57.015069210683194,640.2776218350681,3.626834480126089,-127027.08498865551,10.5,10499872972.91501,47.655,-122.3035,60.0,8.733333333333333
2026-01-20T23:08:45+00:00,SAT-54180,130.77483123446993,56.462318274407615,643.8947332724562,3.6824460877715888,-128974.838725268,10.5,10499871025.161274,47.655,-122.3035,60.0,8.75
2026-01-20T23:08:46+00:00,SAT-54180,130.56757357141913,55.915075172220384,647.5673072304438,3.73711312947203,-130889.50976697457,10.5,10499869110.490232,47.655,-122.3035,60.0,8.766666666666667
2026-01-20T23:08:47+00:00,SAT-54180,130.36846319837647,55.37335765539145,651.2944016753376,3.79084326977639,-132771.3665587014,10.5,10499867228.633442,47.655,-122.3035,60.0,8.783333333333333
2026-01-20T23:08:48+00:00,SAT-54180,130.17703983358507,54.8371774508992,655.075082217444,3.84364461864546,-134620.6931455805,10.5,10499865379.306854,47.655,-122.3035,60.0,8.8
2026-01-20T23:08:49+00:00,SAT-54180,129.9928768794493,54.306540676980084,658.9084225552898,3.8955258746886208,-136437.79418970746,10.5,10499863562.20581,47.655,-122.3035,60.0,8.816666666666666
2026-01-20T23:08:50+00:00,SAT-54180,129.8155784234633,53.7814482065796,662.7935050626909,3.946496159124515,-138222.98915474187,10.5,10499861777.010845,47.655,-122.3035,60.0,8.833333333333334
2026-01-20T23:08:51+00:00,SAT-54180,129.6447765569416,53.261896025701574,666.7294212102292,3.9965650578998853,-139976.61378108716,10.5,10499860023.386219,47.655,-122.3035,60.0,8.85
2026-01-20T23:08:52+00:00,SAT-54180,129.48012896346106,52.74787555953521,670.7152720287351,4.045742552086968,-141699.01764811296,10.5,10499858300.982351,47.655,-122.3035,60.0,8.866666666666667
2026-01-20T23:08:53+00:00,SAT-54180,129.3213167513662,52.2393739838847,674.7501685033521,4.094038920305177,-143390.56075654965,10.5,10499856609.439243,47.655,-122.3035,60.0,8.883333333333333
2026-01-20T23:08:54+00:00,SAT-54180,129.16804250361324,51.73637452626577,678.8332318702895,4.141464858218176,-145051.61771378134,10.5,10499854948.382286,47.655,-122.3035,60.0,8.9
2026-01-20T23:08:55+00:00,SAT-54180,129.02002851083944,51.23885673120317,682.9635940327448,4.188031268444213,-146682.57037561713,10.5,10499853317.429625,47.655,-122.3035,60.0,8.916666666666666
2026-01-20T23:08:56+00:00,SAT-54180,128.87701518208516,50.746796732256094,687.1403977673068,4.233749367187114,-148283.81158095947,10.5,10499851716.18842,47.655,-122.3035,60.0,8.933333333333334
2026-01-20T23:08:57+00:00,SAT-54180,128.73875959991065,50.260167492661175,691.3627970366979,4.278630530483786,-149855.7397667414,10.5,10499850144.260233,47.655,-122.3035,60.0,8.95
2026-01-20T23:08:58+00:00,SAT-54180,128.60503421529947,49.77893904713172,695.6299571491804,4.322686417973267,-151398.76330284233,10.5,10499848601.236696,47.655,-122.3035,60.0,8.966666666666667
2026-01-20T23:08:59+00:00,SAT-54180,128.47562565674542,49.303078713403366,699.9410550413977,4.365928780204185,-152913.29374317997,10.5,10499847086.706257,47.655,-122.3035,60.0,8.983333333333333
2026-01-20T23:09:00+00:00,SAT-54180,128.3503336534066,48.83255131072442,704.2952793690406,4.408369546600107,-154399.748906629,10.5,10499845600.251093,47.655,-122.3035,60.0,9.0
2026-01-20T23:09:01+00:00,SAT-54180,128.22897005022736,48.36731935407462,708.6918306852411,4.450020750628617,-155858.55025612577,10.5,10499844141.449743,47.655,-122.3035,60.0,9.016666666666667
2026-01-20T23:09:02+00:00,SAT-54180,128.11135791187533,47.907343243340975,713.1299215443402,4.490894530801499,-157290.12293369882,10.5,10499842709.877066,47.655,-122.3035,60.0,9.033333333333333
2026-01-20T23:09:03+00:00,SAT-54180,127.99733070350086,47.45258143976567,717.608776606648,4.531003084233613,-158694.89413390425,10.5,10499841305.105865,47.655,-122.3035,60.0,9.05
2026-01-20T23:09:04+00:00,SAT-54180,127.88673154266111,47.002990635319655,722.1276326968912,4.570358665289885,-160073.2930564377,10.5,10499839926.706944,47.655,-122.3035,60.0,9.066666666666666
2026-01-20T23:09:05+00:00,SAT-54180,127.77941251386207,46.55852591091211,726.685738861309,4.608973549565361,-161425.74964456342,10.5,10499838574.250355,47.655,-122.3035,60.0,9.083333333333334
2026-01-20T23:09:06+00:00,SAT-54180,127.67523404089036,46.119140887543935,731.2823563888263,4.646860016700645,-162752.6939832381,10.5,10499837247.306017,47.655,-122.3035,60.0,9.1
2026-01-20T23:09:07+00:00,SAT-54180,127.57406431060438,45.68478786897171,735.916758815089,4.684030370636481,-164054.55700851238,10.5,10499835945.442991,47.655,-122.3035,60.0,9.116666666666667
2026-01-20T23:09:08+00:00,SAT-54180,127.47577874291824,45.25541797300029,740.588231946698,4.7204968703946175,-165331.76808318336,10.5,10499834668.231916,47.655,-122.3035,60.0,9.133333333333333
2026-01-20T23:09:09+00:00,SAT-54180,127.38025950442758,44.83098126029995,745.2960738164114,4.7562717248530415,-166584.75481380167,10.5,10499833415.245186,47.655,-122.3035,60.0,9.15
2026-01-20T23:09:10+00:00,SAT-54180,127.28739506049881,44.41142685495814,750.0395946331358,4.791367132821271,-167813.94445427755,10.5,10499832186.055546,47.655,-122.3035,60.0,9.166666666666666
2026-01-20T23:09:11+00:00,SAT-54180,127.19707976102612,43.996703053424895,754.8181167718827,4.825795192230121,-169019.7607253224,10.5,10499830980.239275,47.655,-122.3035,60.0,9.183333333333334
2026-01-20T23:09:12+00:00,SAT-54180,127.10921346015654,43.58675743389322,759.6309746731623,4.85956793347588,-170202.62498230272,10.5,10499829797.375017,47.655,-122.3035,60.0,9.2
2026-01-20T23:09:13+00:00,SAT-54180,127.02370116388923,43.181536955346594,764.4775147756287,4.89269729580511,-171362.95538813606,10.5,10499828637.044611,47.655,-122.3035,60.0,9.216666666666667
2026-01-20T23:09:14+00:00,SAT-54180,126.94045270461741,42.780988051784206,769.3570954251761,4.925195163916257,-172501.16819523426,10.5,10499827498.831804,47.655,-122.3035,60.0,9.233333333333333
2026-01-20T23:09:15+00:00,SAT-54180,126.85938243896211,42.38505671702386,774.2690868205347,4.95707325788344,-173617.6738901688,10.5,10499826382.326109,47.655,-122.3035,60.0,9.25
2026-01-20T23:09:16+00:00,SAT-54180,126.7804089699347,41.993688592364634,779.21287084909,4.988343204636169,-174712.87969719296,10.5,10499825287.120302,47.655,-122.3035,60.0,9.266666666666667
2026-01-20T23:09:17+00:00,SAT-54180,126.70345488764879,41.60682904246395,784.187840993986,5.019016526684097,-175787.18918333502,10.5,10499824212.810816,47.655,-122.3035,60.0,9.283333333333333
2026-01-20T23:09:18+00:00,SAT-54180,126.6284465288309,41.224423226777326,789.1934022299861,5.049104600612501,-176841.00080473424,10.5,10499823158.999195,47.655,-122.3035,60.0,9.3
2026-01-20T23:09:19+00:00,SAT-54180,126.55531375413494,40.84641616903934,794.228970877941,5.078618682556032,-177874.70879883954,10.5,10499822125.2912,47.655,-122.3035,60.0,9.316666666666666
2026-01-20T23:09:20+00:00,SAT-54180,126.48398974039347,40.472752819864446,799.2939744846584,5.107569839294786,-178888.7007711023,10.5,10499821111.299229,47.655,-122.3035,60.0,9.333333333333334
2026-01-20T23:09:21+00:00,SAT-54180,126.41441078862627,40.103378119779585,804.3878516340587,5.135969107959192,-179883.36328851714,10.5,10499820116.636711,47.655,-122.3035,60.0,9.35
2026-01-20T23:09:22+00:00,SAT-54180,126.3465161422343,39.73823704627674,809.5100519176033,5.163827226770729,-180859.0724490229,10.5,10499819140.927551,47.655,-122.3035,60.0,9.366666666666667
2026-01-20T23:09:23+00:00,SAT-54180,126.2802478221684,39.37727467626037,814.6600356361871,5.191154896219623,-181816.20302905032,10.5,10499818183.79697,47.655,-122.3035,60.0,9.383333333333333
2026-01-20T23:09:24+00:00,SAT-54180,126.2155504686854,39.020436225743424,819.8372737625092,5.217962603236439,-182755.12232526744,10.5,10499817244.877674,47.655,-122.3035,60.0,9.4
2026-01-20T23:09:25+00:00,SAT-54180,126.1523711965276,38.667667098492444,825.0412477280853,5.244260725585752,-183676.19381088766,10.5,10499816323.806189,47.655,-122.3035,60.0,9.416666666666666
2026-01-20T23:09:26+00:00,SAT-54180,126.09065945792469,38.31891292395519,830.2714493143737,5.270059404269699,-184579.77266670213,10.5,10499815420.227333,47.655,-122.3035,60.0,9.433333333333334
2026-01-20T23:09:27+00:00,SAT-54180,126.0303669163736,37.97411960055321,835.5273804166487,5.295368703501972,-185466.2113840459,10.5,10499814533.788616,47.655,-122.3035,60.0,9.45
2026-01-20T23:09:28+00:00,SAT-54180,125.9714473261869,37.63323332523614,840.8085529674175,5.320198445717817,-186335.85398615024,10.5,10499813664.146013,47.655,-122.3035,60.0,9.466666666666667
2026-01-20T23:09:29+00:00,SAT-54180,125.91385642217475,37.29620063107928,846.1144886952899,5.344558348909001,-187189.04083819385,10.5,10499812810.959162,47.655,-122.3035,60.0,9.483333333333333
2026-01-20T23:09:30+00:00,SAT-54180,125.85755181413329,36.962968413230456,851.4447190208145,5.368457955210038,-188026.1061460906,10.5,10499811973.893854,47.655,-122.3035,60.0,9.5
2026-01-20T23:09:31+00:00,SAT-54180,125.8024928891686,36.63348395704345,856.7987848810939,5.391906586576852,-188847.37640416872,10.5,10499811152.623596,47.655,-122.3035,60.0,9.516666666666667
2026-01-20T23:09:32+00:00,SAT-54180,125.74864072038737,36.30769496644581,862.1762365101953,5.414913481022447,-189653.1751667205,10.5,10499810346.824833,47.655,-122.3035,60.0,9.533333333333333
2026-01-20T23:09:33+00:00,SAT-54180,125.69595797958112,35.98554958174169,867.5766333554329,5.437487622770636,-190443.81709926698,10.5,10499809556.182901,47.655,-122.3035,60.0,9.55
2026-01-20T23:09:34+00:00,SAT-54180,125.64440885728413,35.66699640567477,872.9995438242604,5.459637942322082,-191219.61498571743,10.5,10499808780.385014,47.655,-122.3035,60.0,9.566666666666666
2026-01-20T23:09:35+00:00,SAT-54180,125.59395898518157,35.35198451562237,878.444545230689,5.481373074317689,-191980.87124772076,10.5,10499808019.128752,47.655,-122.3035,60.0,9.583333333333334
2026-01-20T23:09:36+00:00,SAT-54180,125.5445753660715,35.04046348821994,883.9112235002242,5.502701596768322,-192727.88632350246,10.5,10499807272.113676,47.655,-122.3035,60.0,9.6
2026-01-20T23:09:37+00:00,SAT-54180,125.49622630511946,34.732383408323045,889.3991731133842,5.5236318544890946,-193460.95248378627,10.5,10499806539.047516,47.655,-122.3035,60.0,9.616666666666667
2026-01-20T23:09:38+00:00,SAT-54180,125.44888134716369,34.42769488660257,894.9079968731327,5.544172091676501,-194180.3584752064,10.5,10499805819.641525,47.655,-122.3035,60.0,9.633333333333333
2026-01-20T23:09:39+00:00,SAT-54180,125.40251121617523,34.126349068167,900.4373058045273,5.564330330093599,-194886.38525383713,10.5,10499805113.614746,47.655,-122.3035,60.0,9.65
2026-01-20T23:09:40+00:00,SAT-54180,125.35708775957403,33.82829764658357,905.9867189328835,5.584114460807491,-195579.3091982276,10.5,10499804420.690802,47.655,-122.3035,60.0,9.666666666666666
2026-01-20T23:09:41+00:00,SAT-54180,125.31258389467864,33.53349287152581,911.5558631534292,5.603532246646823,-196259.40219547367,10.5,10499803740.597805,47.655,-122.3035,60.0,9.683333333333334
2026-01-20T23:09:42+00:00,SAT-54180,125.2689735581473,33.24188755523954,917.1443731034103,5.622591231757209,-196926.92847346645,10.5,10499803073.071527,47.655,-122.3035,60.0,9.7
2026-01-20T23:09:43+00:00,SAT-54180,125.22623165926576,32.953435082642976,922.7518909439927,5.6412988647029945,-197582.14891243674,10.5,10499802417.851088,47.655,-122.3035,60.0,9.716666666666667
2026-01-20T23:09:44+00:00,SAT-54180,125.1843340344746,32.66808941395469,928.3780662649389,5.659662392966667,-198225.3173498781,10.5,10499801774.68265,47.655,-122.3035,60.0,9.733333333333333
2026-01-20T23:09:45+00:00,SAT-54180,125.14325740556075,32.385805091842734,934.0225558840633,5.6776889733015485,-198856.68444556487,10.5,10499801143.315554,47.655,-122.3035,60.0,9.75
2026-01-20T23:09:46+00:00,SAT-54180,125.10297933893676,32.10653724211487,939.6850237567487,5.695385545334733,-199476.49325459247,10.5,10499800523.506746,47.655,-122.3035,60.0,9.766666666666667
2026-01-20T23:09:47+00:00,SAT-54180,125.06347820847851,31.830241579928565,945.3651407593994,5.712758952363691,-200084.98345818542,10.5,10499799915.016542,47.655,-122.3035,60.0,9.783333333333333
2026-01-20T23:09:48+00:00,SAT-54180,125.02473315909587,31.55687440924365,951.0625845933725,5.72981588379707,-200682.38934773082,10.5,10499799317.610653,47.655,-122.3035,60.0,9.8
2026-01-20T23:09:49+00:00,SAT-54180,124.9867240728757,31.28639262448377,956.7770396314999,5.746562893704854,-201268.94047448307,10.5,10499798731.059526,47.655,-122.3035,60.0,9.816666666666666
2026-01-20T23:09:50+00:00,SAT-54180,124.94943153674295,31.018753710673046,962.5081967831123,5.763006346026032,-201844.8597305051,10.5,10499798155.14027,47.655,-122.3035,60.0,9.833333333333334
2026-01-20T23:09:51+00:00,SAT-54180,124.91283681247435,30.753915745522825,968.2557533044196,5.779152533744116,-202410.3675226987,10.5,10499797589.632477,47.655,-122.3035,60.0,9.85
2026-01-20T23:09:52+00:00,SAT-54180,124.87692180699526,30.491837395435166,974.0194127277438,5.795007614181224,-202965.67950653,10.5,10499797034.320494,47.655,-122.3035,60.0,9.866666666666667
2026-01-20T23:09:53+00:00,SAT-54180,124.84166904502358,30.23247791414843,979.7988847262222,5.8105775437167475,-203511.00429960067,10.5,10499796488.9957,47.655,-122.3035,60.0,9.883333333333333
