DopplerPredictor/satellites_20260205_234138/SAT-53546.csv

timestamp,satellite,azimuth_deg,elevation_deg,distance_km,relative_velocity_kms,doppler_shift_hz,tx_freq_ghz,rx_freq_hz,ue_lat,ue_lon,ue_alt_m,time_minutes
2026-01-20T23:01:35+00:00,SAT-53546,300.2243719901122,30.07802459034015,986.0142480602633,-4.258377128896436,149146.37997134865,10.5,10500149146.37997,47.655,-122.3035,60.0,1.5833333333333333
2026-01-20T23:01:36+00:00,SAT-53546,300.55922295686514,30.26618169461787,981.7672870527933,-4.2274644516172915,148063.68725253773,10.5,10500148063.687252,47.655,-122.3035,60.0,1.6
2026-01-20T23:01:37+00:00,SAT-53546,300.8982301508673,30.454763186594665,977.5511558499807,-4.196145578201366,146966.76782680885,10.5,10500146966.767826,47.655,-122.3035,60.0,1.6166666666666667
2026-01-20T23:01:38+00:00,SAT-53546,301.24144946612194,30.643742253335304,973.3662595590065,-4.164416557366637,145855.4833035516,10.5,10500145855.483303,47.655,-122.3035,60.0,1.6333333333333333
2026-01-20T23:01:39+00:00,SAT-53546,301.5889370411817,30.833090894708068,969.2130072277405,-4.132273482403094,144729.696853256,10.5,10500144729.696854,47.655,-122.3035,60.0,1.65
2026-01-20T23:01:40+00:00,SAT-53546,301.94074922024646,31.02277989396424,965.0918118002901,-4.099712505374695,143589.2737049252,10.5,10500143589.273705,47.655,-122.3035,60.0,1.6666666666666667
2026-01-20T23:01:41+00:00,SAT-53546,302.29694251227545,31.212778788854138,961.003090058382,-4.06672980470612,142434.08001082623,10.5,10500142434.080011,47.655,-122.3035,60.0,1.6833333333333333
2026-01-20T23:01:42+00:00,SAT-53546,302.65757354387716,31.40305584118182,956.9472625950734,-4.033321657322539,141263.98537312986,10.5,10500141263.985373,47.655,-122.3035,60.0,1.7
2026-01-20T23:01:43+00:00,SAT-53546,303.0226990148098,31.593578009704597,952.9247537165161,-3.999484391226726,140078.86118296086,10.5,10500140078.861183,47.655,-122.3035,60.0,1.7166666666666666
2026-01-20T23:01:44+00:00,SAT-53546,303.39237564581845,31.784310920937887,948.9359913910133,-3.9652144152698297,138878.58166309577,10.5,10500138878.581663,47.655,-122.3035,60.0,1.7333333333333334
2026-01-20T23:01:45+00:00,SAT-53546,303.7666601252474,31.975218841509207,944.9814071683913,-3.9305082051046654,137663.02337598827,10.5,10500137663.023376,47.655,-122.3035,60.0,1.75
2026-01-20T23:01:46+00:00,SAT-53546,304.1456090503501,32.16626465007751,941.0614361133743,-3.8953623421015156,136432.06658676488,10.5,10500136432.066587,47.655,-122.3035,60.0,1.7666666666666666
2026-01-20T23:01:47+00:00,SAT-53546,304.52927886814297,32.35740981146054,937.1765167001518,-3.859773493581298,135185.5945709069,10.5,10500135185.59457,47.655,-122.3035,60.0,1.7833333333333334
2026-01-20T23:01:48+00:00,SAT-53546,304.91772581014266,32.54861435024667,933.327090726658,-3.8237383944521874,133923.49297108725,10.5,10500133923.492971,47.655,-122.3035,60.0,1.8
2026-01-20T23:01:49+00:00,SAT-53546,305.3110058207971,32.73983682398661,929.5136032471654,-3.787253958724466,132645.65370289233,10.5,10500132645.653704,47.655,-122.3035,60.0,1.8166666666666667
2026-01-20T23:01:50+00:00,SAT-53546,305.70917449237817,32.931034302565116,925.7365023936632,-3.750317117586503,131351.96928355776,10.5,10500131351.969284,47.655,-122.3035,60.0,1.8333333333333333
2026-01-20T23:01:51+00:00,SAT-53546,306.11228697904545,33.12216234023026,921.9962393587255,-3.712924995071543,130042.33898456246,10.5,10500130042.338985,47.655,-122.3035,60.0,1.85
2026-01-20T23:01:52+00:00,SAT-53546,306.5203979236104,33.31317495727473,918.2932682031819,-3.675074805551694,128716.66524143443,10.5,10500128716.665241,47.655,-122.3035,60.0,1.8666666666666667
2026-01-20T23:01:53+00:00,SAT-53546,306.93356136910575,33.50402461755511,914.6280457660237,-3.636763903374602,127374.85539223712,10.5,10500127374.855392,47.655,-122.3035,60.0,1.8833333333333333
2026-01-20T23:01:54+00:00,SAT-53546,307.3518306701554,33.69466220962466,911.0010315248004,-3.597989781594809,126016.82163313625,10.5,10500126016.821632,47.655,-122.3035,60.0,1.9
2026-01-20T23:01:55+00:00,SAT-53546,307.77525839909634,33.88503702905566,907.4126874572876,-3.558750086762824,124642.48153637556,10.5,10500124642.481537,47.655,-122.3035,60.0,1.9166666666666667
2026-01-20T23:01:56+00:00,SAT-53546,308.2038962483433,34.07509676293331,903.8634778883994,-3.5190425909970453,123251.75707211746,10.5,10500123251.757072,47.655,-122.3035,60.0,1.9333333333333333
2026-01-20T23:01:57+00:00,SAT-53546,308.63779492400187,34.264787474380114,900.3538693649613,-3.478865278621132,121844.57764285011,10.5,10500121844.577642,47.655,-122.3035,60.0,1.95
2026-01-20T23:01:58+00:00,SAT-53546,309.07700404404665,34.45405359341297,896.8843304440687,-3.4382162589806757,120420.87702985875,10.5,10500120420.87703,47.655,-122.3035,60.0,1.9666666666666666
2026-01-20T23:01:59+00:00,SAT-53546,309.52157202063506,34.64283790498255,893.4553315684044,-3.397093837574407,118980.59588454114,10.5,10500118980.595884,47.655,-122.3035,60.0,1.9833333333333334
2026-01-20T23:02:00+00:00,SAT-53546,309.9715459450569,34.83108154284657,890.0673448706094,-3.355496498616921,117523.68111768065,10.5,10500117523.681118,47.655,-122.3035,60.0,2.0
2026-01-20T23:02:01+00:00,SAT-53546,310.42697146487245,35.018723984696656,886.720843995047,-3.313422933931094,116050.08691138081,10.5,10500116050.086912,47.655,-122.3035,60.0,2.0166666666666666
2026-01-20T23:02:02+00:00,SAT-53546,310.8878926589892,35.205703051258105,883.4163038907493,-3.2708720034351417,114559.77333515504,10.5,10500114559.773335,47.655,-122.3035,60.0,2.033333333333333
2026-01-20T23:02:03+00:00,SAT-53546,311.3543519016314,35.39195490571197,880.154200643775,-3.2278428224920055,113052.70940527148,10.5,10500113052.709406,47.655,-122.3035,60.0,2.05
2026-01-20T23:02:04+00:00,SAT-53546,311.826389732269,35.57741406077126,876.9350112224479,-3.1843346655369045,111528.86970938242,10.5,10500111528.869709,47.655,-122.3035,60.0,2.066666666666667
2026-01-20T23:02:05+00:00,SAT-53546,312.30404470649734,35.76201338320042,873.7592133187112,-3.1403470913206037,109988.2387930731,10.5,10500109988.238792,47.655,-122.3035,60.0,2.0833333333333335
2026-01-20T23:02:06+00:00,SAT-53546,312.7873532588193,35.9456841086078,870.6272850645742,-3.0958798484430465,108430.80785125018,10.5,10500108430.807852,47.655,-122.3035,60.0,2.1
2026-01-20T23:02:07+00:00,SAT-53546,313.2763495464107,36.12835585411801,867.5397048427733,-3.0509329459770993,106856.57720168379,10.5,10500106856.577202,47.655,-122.3035,60.0,2.1166666666666667
2026-01-20T23:02:08+00:00,SAT-53546,313.77106529755156,36.30995663860957,864.4969510269958,-3.0055066273313167,105265.55536957113,10.5,10500105265.55537,47.655,-122.3035,60.0,2.1333333333333333
2026-01-20T23:02:09+00:00,SAT-53546,314.271529650902,36.49041290512071,861.4995017481724,-2.9596014059794435,103657.76033893474,10.5,10500103657.76034,47.655,-122.3035,60.0,2.15
2026-01-20T23:02:10+00:00,SAT-53546,314.77776899516005,36.66964954925102,858.5478346251374,-2.913218060894185,102033.2193926938,10.5,10500102033.219393,47.655,-122.3035,60.0,2.1666666666666665
2026-01-20T23:02:11+00:00,SAT-53546,315.2898068033859,36.847589951387164,855.6424264998404,-2.8663576197599494,100391.9685247034,10.5,10500100391.968525,47.655,-122.3035,60.0,2.183333333333333
2026-01-20T23:02:12+00:00,SAT-53546,315.80766345962763,37.02415601213996,852.7837531893017,-2.819021414448209,98734.05438273631,10.5,10500098734.054382,47.655,-122.3035,60.0,2.2
2026-01-20T23:02:13+00:00,SAT-53546,316.33135609075356,37.199268195605164,849.9722891822406,-2.7712110455723478,97059.53302704384,10.5,10500097059.533028,47.655,-122.3035,60.0,2.216666666666667
2026-01-20T23:02:14+00:00,SAT-53546,316.8608983882883,37.37284557508123,847.2085073710542,-2.7229284332937587,95368.4717098002,10.5,10500095368.47171,47.655,-122.3035,60.0,2.2333333333333334
2026-01-20T23:02:15+00:00,SAT-53546,317.39630043605246,37.544805886727474,844.4928787331258,-2.674175749736489,93660.94650797764,10.5,10500093660.946508,47.655,-122.3035,60.0,2.25
2026-01-20T23:02:16+00:00,SAT-53546,317.93756852202347,37.71506558392697,841.825872079538,-2.6249555195096823,91937.04584406744,10.5,10500091937.045843,47.655,-122.3035,60.0,2.2666666666666666
2026-01-20T23:02:17+00:00,SAT-53546,318.48470496670365,37.88353990306584,839.2079537035324,-2.5752705700874126,90196.86874817188,10.5,10500090196.868748,47.655,-122.3035,60.0,2.283333333333333
2026-01-20T23:02:18+00:00,SAT-53546,319.03770794051945,38.05014293145188,836.6395870784561,-2.5251240179246297,88440.5243717259,10.5,10500088440.524372,47.655,-122.3035,60.0,2.3
2026-01-20T23:02:19+00:00,SAT-53546,319.59657127661035,38.214787679650165,834.1212325695562,-2.474519348396571,86668.13478731342,10.5,10500086668.134787,47.655,-122.3035,60.0,2.316666666666667
2026-01-20T23:02:20+00:00,SAT-53546,320.16128429961805,38.377386164449,831.6533470660493,-2.423460353267019,84879.83279854125,10.5,10500084879.832798,47.655,-122.3035,60.0,2.3333333333333335
2026-01-20T23:02:21+00:00,SAT-53546,320.7318316419534,38.53784949335705,829.2363836755519,-2.371951151651479,83075.76267425824,10.5,10500083075.762674,47.655,-122.3035,60.0,2.35
2026-01-20T23:02:22+00:00,SAT-53546,321.30819306495164,38.69608795604119,826.8707913976085,-2.3199962176030935,81256.08111473065,10.5,10500081256.081114,47.655,-122.3035,60.0,2.3666666666666667
2026-01-20T23:02:23+00:00,SAT-53546,321.89034328828615,38.85201112326976,824.5570147697055,-2.267600375000076,79420.95707257853,10.5,10500079420.957073,47.655,-122.3035,60.0,2.3833333333333333
2026-01-20T23:02:24+00:00,SAT-53546,322.47825182140645,39.00552795124035,822.2954935183816,-2.2147687723218805,77570.57086933036,10.5,10500077570.57087,47.655,-122.3035,60.0,2.4
2026-01-20T23:02:25+00:00,SAT-53546,323.071882792411,39.156546889882875,820.0866622355001,-2.161506927893585,75705.1157800729,10.5,10500075705.11578,47.655,-122.3035,60.0,2.4166666666666665
2026-01-20T23:02:26+00:00,SAT-53546,323.67119479269115,39.30497599986854,817.9309500093925,-2.1078206996327196,73824.79697385701,10.5,10500073824.796974,47.655,-122.3035,60.0,2.433333333333333
2026-01-20T23:02:27+00:00,SAT-53546,324.2761407199131,39.45072307317447,815.828780086176,-2.0537163205002598,71929.83275534146,10.5,10500071929.832756,47.655,-122.3035,60.0,2.45
2026-01-20T23:02:28+00:00,SAT-53546,324.8866676374319,39.59369576159164,813.7805694957182,-1.9992003615399632,70020.45327027411,10.5,10500070020.45327,47.655,-122.3035,60.0,2.466666666666667
2026-01-20T23:02:29+00:00,SAT-53546,325.50271663183946,39.73380170807412,811.7867287144578,-1.9442797624253014,68096.90157537474,10.5,10500068096.901575,47.655,-122.3035,60.0,2.4833333333333334
2026-01-20T23:02:30+00:00,SAT-53546,326.1242226880997,39.87094868542368,809.847661297765,-1.8889618188520494,66159.43319677014,10.5,10500066159.433197,47.655,-122.3035,60.0,2.5
2026-01-20T23:02:31+00:00,SAT-53546,326.7511145720189,40.00504473914523,807.9637635248725,-1.8332541843415786,64208.316193153114,10.5,10500064208.316193,47.655,-122.3035,60.0,2.5166666666666666
2026-01-20T23:02:32+00:00,SAT-53546,327.38331472476136,40.135998335234355,806.1354240420101,-1.7771648779729114,62243.83142659169,10.5,10500062243.831427,47.655,-122.3035,60.0,2.533333333333333
2026-01-20T23:02:33+00:00,SAT-53546,328.0207391733222,40.26371851306245,804.363023497826,-1.720702257816042,60266.27163205167,10.5,10500060266.271631,47.655,-122.3035,60.0,2.55
2026-01-20T23:02:34+00:00,SAT-53546,328.66329744628587,40.388115040602926,802.6469342053063,-1.6638750578281822,58275.942709659204,10.5,10500058275.942709,47.655,-122.3035,60.0,2.566666666666667
2026-01-20T23:02:35+00:00,SAT-53546,329.3108925181345,40.50909857620654,800.9875197668933,-1.6066923453057296,56273.162234488766,10.5,10500056273.162235,47.655,-122.3035,60.0,2.5833333333333335
2026-01-20T23:02:36+00:00,SAT-53546,329.96342075548927,40.626580830836076,799.385134742042,-1.5491635504330554,54258.26049148669,10.5,10500054258.260492,47.655,-122.3035,60.0,2.6
2026-01-20T23:02:37+00:00,SAT-53546,330.62077189276164,40.740474735550706,797.840124285303,-1.4912984253536592,52231.57904196983,10.5,10500052231.579042,47.655,-122.3035,60.0,2.6166666666666667
2026-01-20T23:02:38+00:00,SAT-53546,331.28282901096446,40.85069460865143,796.3528238252285,-1.4331070860319786,50193.4721898033,10.5,10500050193.472189,47.655,-122.3035,60.0,2.6333333333333333
2026-01-20T23:02:39+00:00,SAT-53546,331.9494685547052,40.95715632807313,794.9235587015254,-1.3745999663240422,48144.30537276039,10.5,10500048144.305372,47.655,-122.3035,60.0,2.65
2026-01-20T23:02:40+00:00,SAT-53546,332.62056035224055,41.059777502051915,793.5526438480161,-1.3157878269408172,46084.45547645692,10.5,10500046084.455477,47.655,-122.3035,60.0,2.6666666666666665
2026-01-20T23:02:41+00:00,SAT-53546,333.29596766225745,41.1584776415392,792.2403834666607,-1.2566817464031657,44014.310517555576,10.5,10500044014.310518,47.655,-122.3035,60.0,2.683333333333333
2026-01-20T23:02:42+00:00,SAT-53546,333.9755472403164,41.25317833246189,790.9870707105973,-1.1972931236168678,41934.26973395413,10.5,10500041934.269733,47.655,-122.3035,60.0,2.7
2026-01-20T23:02:43+00:00,SAT-53546,334.6591494329248,41.34380340809422,789.7929873646185,-1.1376336462738053,39844.742478061125,10.5,10500039844.742477,47.655,-122.3035,60.0,2.716666666666667
2026-01-20T23:02:44+00:00,SAT-53546,335.34661828150064,41.430279118337985,788.658403557157,-1.0777153091500302,37746.14885767178,10.5,10500037746.148857,47.655,-122.3035,60.0,2.7333333333333334
2026-01-20T23:02:45+00:00,SAT-53546,336.0377916633957,41.51253429901473,787.5835774540259,-1.0175503757261533,35638.91839175157,10.5,10500035638.918392,47.655,-122.3035,60.0,2.75
2026-01-20T23:02:46+00:00,SAT-53546,336.7325014398181,41.59050053622871,786.5687549904352,-0.957151389993797,33523.49042394812,10.5,10500033523.490423,47.655,-122.3035,60.0,2.7666666666666666
2026-01-20T23:02:47+00:00,SAT-53546,337.4305736389133,41.664112328913745,785.614169591231,-0.8965311540221405,31400.31333687679,10.5,10500031400.313337,47.655,-122.3035,60.0,2.783333333333333
2026-01-20T23:02:48+00:00,SAT-53546,338.13182865523174,41.73330724629898,784.7200419135113,-0.8357027184249856,29269.84421823696,10.5,10500029269.844217,47.655,-122.3035,60.0,2.8
2026-01-20T23:02:49+00:00,SAT-53546,338.83608147273,41.798026080575944,783.8865795987474,-0.7746793682107758,27132.548365219867,10.5,10500027132.548365,47.655,-122.3035,60.0,2.816666666666667
2026-01-20T23:02:50+00:00,SAT-53546,339.5431419087352,41.8582129937383,783.1139770390172,-0.7134746136754259,24988.898965536922,10.5,10500024988.898966,47.655,-122.3035,60.0,2.8333333333333335
2026-01-20T23:02:51+00:00,SAT-53546,340.25281488249254,41.91381565831929,782.4024151523214,-0.6521021681975638,22839.376319715226,10.5,10500022839.37632,47.655,-122.3035,60.0,2.85
2026-01-20T23:02:52+00:00,SAT-53546,340.9649006973516,41.96478539034639,781.752061180047,-0.5905759442797536,20684.46770244438,10.5,10500020684.467703,47.655,-122.3035,60.0,2.8666666666666667
2026-01-20T23:02:53+00:00,SAT-53546,341.67919535197024,42.01107727530507,781.163068488374,-0.5289100280488218,18524.666469470118,10.5,10500018524.66647,47.655,-122.3035,60.0,2.8833333333333333
2026-01-20T23:02:54+00:00,SAT-53546,342.39549086028165,42.05265028481848,780.6355763951208,-0.46711867339646523,16360.471852373566,10.5,10500016360.471853,47.655,-122.3035,60.0,2.9
2026-01-20T23:02:55+00:00,SAT-53546,343.1135755989857,42.08946738500424,780.1697100024252,-0.4052162776432745,14192.388106222414,10.5,10500014192.388105,47.655,-122.3035,60.0,2.9166666666666665
2026-01-20T23:02:56+00:00,SAT-53546,343.8332346619051,42.12149563452017,779.7655800537024,-0.34321737089724724,12020.92413686103,10.5,10500012020.924137,47.655,-122.3035,60.0,2.933333333333333
2026-01-20T23:02:57+00:00,SAT-53546,344.55425023546303,42.14870627287141,779.4232828012125,-0.2811365980943177,9846.592871893847,10.5,10500009846.592873,47.655,-122.3035,60.0,2.95
2026-01-20T23:02:58+00:00,SAT-53546,345.2764019873435,42.171074797953736,779.1428998915408,-0.21898869928883205,7669.9105703744435,10.5,10500007669.91057,47.655,-122.3035,60.0,2.966666666666667
2026-01-20T23:02:59+00:00,SAT-53546,345.9994674606486,42.18858103229118,778.9244982707341,-0.15678849671008013,5491.3963694705135,10.5,10500005491.39637,47.655,-122.3035,60.0,2.9833333333333334
2026-01-20T23:03:00+00:00,SAT-53546,346.72322248774606,42.201209178156425,778.7681301023471,-0.09455087275421974,3311.5715136479757,10.5,10500003311.571514,47.655,-122.3035,60.0,3.0
2026-01-20T23:03:01+00:00,SAT-53546,347.44744159919753,42.20894786056087,778.6738327074348,-0.032290756749979506,1130.9588911499063,10.5,10500001130.95889,47.655,-122.3035,60.0,3.0166666666666666
2026-01-20T23:03:02+00:00,SAT-53546,348.1718984541547,42.21179015859079,778.6416285177474,0.029976896340704356,-1049.9177119972637,10.5,10499998950.082289,47.655,-122.3035,60.0,3.033333333333333
2026-01-20T23:03:03+00:00,SAT-53546,348.8963662626282,42.20973362427544,778.6715250501659,0.09223712222866536,-3230.534183088042,10.5,10499996769.465816,47.655,-122.3035,60.0,3.05
2026-01-20T23:03:04+00:00,SAT-53546,349.6206182134294,42.20278028928145,778.7635148973983,0.15447496506537792,-5410.366705043887,10.5,10499994589.633295,47.655,-122.3035,60.0,3.066666666666667
2026-01-20T23:03:05+00:00,SAT-53546,350.34442790420565,42.19093665928844,778.9175757364,0.21667549624785118,-7588.892415040133,10.5,10499992411.107586,47.655,-122.3035,60.0,3.0833333333333335
2026-01-20T23:03:06+00:00,SAT-53546,351.06756977006296,42.17421369598759,779.1336703555436,0.27882383072193806,-9765.589975516828,10.5,10499990234.410025,47.655,-122.3035,60.0,3.1
2026-01-20T23:03:07+00:00,SAT-53546,351.7898195021804,42.1526267870005,779.411746698053,0.340905146871897,-11939.940270795332,10.5,10499988060.059729,47.655,-122.3035,60.0,3.1166666666666667
2026-01-20T23:03:08+00:00,SAT-53546,352.5109544696476,42.126195703593716,779.7517379252708,0.402904700689559,-14111.426903342479,10.5,10499985888.573097,47.655,-122.3035,60.0,3.1333333333333333
2026-01-20T23:03:09+00:00,SAT-53546,353.2307541230526,42.09494454686463,780.1535624940589,0.46480784806332237,-16279.536974425437,10.5,10499983720.463026,47.655,-122.3035,60.0,3.15
2026-01-20T23:03:10+00:00,SAT-53546,353.9490004007271,42.05890168204753,780.6171242564249,0.5266000563645464,-18443.761489916258,10.5,10499981556.23851,47.655,-122.3035,60.0,3.1666666666666665
2026-01-20T23:03:11+00:00,SAT-53546,354.665478111205,42.01809966211959,781.142312570709,0.588266923812631,-20603.596038538853,10.5,10499979396.403961,47.655,-122.3035,60.0,3.183333333333333
2026-01-20T23:03:12+00:00,SAT-53546,355.37997530926674,41.97257514049259,781.7290024320798,0.6497941958319426,-22758.54136475774,10.5,10499977241.458635,47.655,-122.3035,60.0,3.2
2026-01-20T23:03:13+00:00,SAT-53546,356.09228365681577,41.92236877348415,782.3770546193441,0.7111677819788355,-24908.103961633926,10.5,10499975091.896038,47.655,-122.3035,60.0,3.216666666666667
2026-01-20T23:03:14+00:00,SAT-53546,356.8021987681153,41.86752511301328,783.0863158586409,0.7723737693970252,-27051.79654208901,10.5,10499972948.203459,47.655,-122.3035,60.0,3.2333333333333334
2026-01-20T23:03:15+00:00,SAT-53546,357.5095205352382,41.808092490325095,783.8566190005496,0.8333984379817219,-29189.138570017258,10.5,10499970810.86143,47.655,-122.3035,60.0,3.25
2026-01-20T23:03:16+00:00,SAT-53546,358.21405343536605,41.744122891192404,784.6877832123279,0.8942282729598492,-31319.65670089811,10.5,10499968680.3433,47.655,-122.3035,60.0,3.2666666666666666
2026-01-20T23:03:17+00:00,SAT-53546,358.91560681751133,41.675671823395575,785.5796141826913,0.9548499902265779,-33442.88566918874,10.5,10499966557.11433,47.655,-122.3035,60.0,3.283333333333333
2026-01-20T23:03:18+00:00,SAT-53546,359.61399517765915,41.60279817613999,786.5319043518634,1.0152505334755364,-35558.368187811895,10.5,10499964441.631813,47.655,-122.3035,60.0,3.3
2026-01-20T23:03:19+00:00,SAT-53546,0.3090383988227355,41.52556407422072,787.5444331387635,1.0754170908660046,-37665.65553191151,10.5,10499962334.344467,47.655,-122.3035,60.0,3.316666666666667
2026-01-20T23:03:20+00:00,SAT-53546,1.0005619741250114,41.44403472610895,788.6169671848161,1.1353371250482842,-39764.30859046822,10.5,10499960235.69141,47.655,-122.3035,60.0,3.3333333333333335
2026-01-20T23:03:21+00:00,SAT-53546,1.6883972194860395,41.35827826563027,789.7492606277085,1.1949983540607332,-41853.89719723268,10.5,10499958146.102802,47.655,-122.3035,60.0,3.35
2026-01-20T23:03:22+00:00,SAT-53546,2.3723814427443473,41.26836559164835,790.9410553560922,1.254388788518749,-43934.00143324107,10.5,10499956065.998568,47.655,-122.3035,60.0,3.3666666666666667
2026-01-20T23:03:23+00:00,SAT-53546,3.052358108407476,41.17437020216198,792.1920813013742,1.3134967323905642,-46004.21165398672,10.5,10499953995.788345,47.655,-122.3035,60.0,3.3833333333333333
2026-01-20T23:03:24+00:00,SAT-53546,3.7281769728042886,41.07636802626803,793.5020567302879,1.3723107830381591,-48064.128490853065,10.5,10499951935.87151,47.655,-122.3035,60.0,3.4
2026-01-20T23:03:25+00:00,SAT-53546,4.399694192477031,40.974437254686116,794.8706885374955,1.4308198546566115,-50113.363672058826,10.5,10499949886.636328,47.655,-122.3035,60.0,3.4166666666666665
2026-01-20T23:03:26+00:00,SAT-53546,5.066772418663985,40.86865816775284,796.2976725615749,1.489013181731008,-52151.54014373365,10.5,10499947848.459856,47.655,-122.3035,60.0,3.433333333333333
2026-01-20T23:03:27+00:00,SAT-53546,5.729280867333168,40.75911296302198,797.7826939044495,1.5468803212075575,-54178.2921459597,10.5,10499945821.707853,47.655,-122.3035,60.0,3.45
2026-01-20T23:03:28+00:00,SAT-53546,6.387095365722541,40.645885583166724,799.3254272529853,1.6044111636908174,-56193.26560494588,10.5,10499943806.734396,47.655,-122.3035,60.0,3.466666666666667
2026-01-20T23:03:29+00:00,SAT-53546,7.040098380919086,40.529061544099996,800.925537211755,1.6615959379963263,-58196.11829248028,10.5,10499941803.881708,47.655,-122.3035,60.0,3.4833333333333334
2026-01-20T23:03:30+00:00,SAT-53546,7.688179028030594,40.40872776435995,802.5826786403417,1.7184252163054756,-60186.5200064756,10.5,10499939813.479994,47.655,-122.3035,60.0,3.5
2026-01-20T23:03:31+00:00,SAT-53546,8.33123305959296,40.28497239624733,804.2964969957849,1.7748899198973427,-62164.152771722154,10.5,10499937835.847229,47.655,-122.3035,60.0,3.5166666666666666
2026-01-20T23:03:32+00:00,SAT-53546,8.969162837366197,40.15788465916061,806.0666286807419,1.83098131851862,-64128.710817820196,10.5,10499935871.289183,47.655,-122.3035,60.0,3.533333333333333
2026-01-20T23:03:33+00:00,SAT-53546,9.601877285619338,40.02755467603747,807.8927013910208,1.886691029070379,-66079.9005331848,10.5,10499933920.099466,47.655,-122.3035,60.0,3.55
2026-01-20T23:03:34+00:00,SAT-53546,10.229291826925325,39.89407331337333,809.7743344618057,1.942011050620475,-68017.4416913283,10.5,10499931982.55831,47.655,-122.3035,60.0,3.566666666666667
2026-01-20T23:03:35+00:00,SAT-53546,10.851328314169823,39.7575320226253,811.7111392487969,1.9969337114921473,-69941.06559767941,10.5,10499930058.934402,47.655,-122.3035,60.0,3.5833333333333335
2026-01-20T23:03:36+00:00,SAT-53546,11.467914929565369,39.6180226895836,813.7027194565854,2.0514517097357214,-71850.51650707329,10.5,10499928149.483494,47.655,-122.3035,60.0,3.6
2026-01-20T23:03:37+00:00,SAT-53546,12.078986084792946,39.47563748538097,815.7486715073875,2.1055581037234945,-73745.55129434475,10.5,10499926254.448706,47.655,-122.3035,60.0,3.6166666666666667
2026-01-20T23:03:38+00:00,SAT-53546,12.68448230549214,39.33046872296596,817.8485849004019,2.1592463054375504,-75625.93921923905,10.5,10499924374.060781,47.655,-122.3035,60.0,3.6333333333333333
2026-01-20T23:03:39+00:00,SAT-53546,13.284350103310434,39.18260871905703,820.0020425644703,2.2125100968017803,-77491.46249842847,10.5,10499922508.537502,47.655,-122.3035,60.0,3.65
2026-01-20T23:03:40+00:00,SAT-53546,13.878541842976325,39.03214966019118,822.2086212270292,2.2653436033778274,-79341.91538423287,10.5,10499920658.084616,47.655,-122.3035,60.0,3.6666666666666665
2026-01-20T23:03:41+00:00,SAT-53546,14.46701559369621,38.87918347595461,824.4678917568235,2.3177412977348393,-81177.1042826428,10.5,10499918822.895718,47.655,-122.3035,60.0,3.683333333333333
2026-01-20T23:03:42+00:00,SAT-53546,15.049734974897506,38.72380171745344,826.7794195099874,2.369698022890847,-82996.8485743357,10.5,10499917003.151426,47.655,-122.3035,60.0,3.7
2026-01-20T23:03:43+00:00,SAT-53546,15.626669002022947,38.56609543981411,829.1427646994972,2.4212089622229804,-84800.97956080435,10.5,10499915199.02044,47.655,-122.3035,60.0,3.716666666666667
2026-01-20T23:03:44+00:00,SAT-53546,16.197791919317208,38.40615509237277,831.5574827346195,2.472269637107424,-86589.34038169817,10.5,10499913410.659618,47.655,-122.3035,60.0,3.7333333333333334
2026-01-20T23:03:45+00:00,SAT-53546,16.76308302859354,38.244070414696516,834.0231245580029,2.5228759083538645,-88361.78606506363,10.5,10499911638.213936,47.655,-122.3035,60.0,3.75
2026-01-20T23:03:46+00:00,SAT-53546,17.322526515645457,38.079930338186585,836.5392369842032,2.573023980418126,-90118.1836748886,10.5,10499909881.816324,47.655,-122.3035,60.0,3.7666666666666666
2026-01-20T23:03:47+00:00,SAT-53546,17.87611127554381,37.91382289309478,839.1053630424072,2.6227103907404814,-91858.41193768475,10.5,10499908141.588062,47.655,-122.3035,60.0,3.783333333333333
2026-01-20T23:03:48+00:00,SAT-53546,18.423830734270542,37.745835121867984,841.7210423085243,2.6719319838677373,-93582.36033613374,10.5,10499906417.639664,47.655,-122.3035,60.0,3.8
2026-01-20T23:03:49+00:00,SAT-53546,18.965682664677153,37.5760529997176,844.3858112114697,2.720685936562466,-95289.92998851856,10.5,10499904710.070011,47.655,-122.3035,60.0,3.816666666666667
2026-01-20T23:03:50+00:00,SAT-53546,19.501669008483116,37.404561359033615,847.0992033644907,2.7689697391022987,-96981.03299374574,10.5,10499903018.967007,47.655,-122.3035,60.0,3.8333333333333335
2026-01-20T23:03:51+00:00,SAT-53546,20.03179569536546,37.23144382037588,849.8607498778404,2.8167811908107643,-98655.59227481642,10.5,10499901344.407724,47.655,-122.3035,60.0,3.85
2026-01-20T23:03:52+00:00,SAT-53546,20.556072462930366,37.05678272900053,852.6699796669944,2.864118379526994,-100313.54085976853,10.5,10499899686.45914,47.655,-122.3035,60.0,3.8666666666666667
2026-01-20T23:03:53+00:00,SAT-53546,21.074512675322936,36.88065909777085,855.5264197403943,2.910979695635507,-101954.82237305924,10.5,10499898045.177628,47.655,-122.3035,60.0,3.8833333333333333
2026-01-20T23:03:54+00:00,SAT-53546,21.587133147524817,36.70315255414774,858.4295955011808,2.9573638110436984,-103579.39029926775,10.5,10499896420.609701,47.655,-122.3035,60.0,3.9
2026-01-20T23:03:55+00:00,SAT-53546,22.09395396917088,36.52434129328607,861.3790310279633,3.0032696917464317,-105187.20842316032,10.5,10499894812.791576,47.655,-122.3035,60.0,3.9166666666666665
2026-01-20T23:03:56+00:00,SAT-53546,22.594998334359076,36.34430203501189,864.3742493681175,3.048696539663335,-106778.24879258643,10.5,10499893221.751207,47.655,-122.3035,60.0,3.933333333333333
2026-01-20T23:03:57+00:00,SAT-53546,23.090292365831846,36.163109988754464,867.4147727730779,3.0936438614866963,-108352.49412982335,10.5,10499891647.50587,47.655,-122.3035,60.0,3.95
2026-01-20T23:03:58+00:00,SAT-53546,23.57986495547618,35.98083881861103,870.5001230022948,3.1381113944144237,-109909.93523043014,10.5,10499890090.06477,47.655,-122.3035,60.0,3.966666666666667
2026-01-20T23:03:59+00:00,SAT-53546,24.063747597130337,35.797560616959096,873.6298215531201,3.182099142823685,-111450.57224771376,10.5,10499888549.427752,47.655,-122.3035,60.0,3.9833333333333334
2026-01-20T23:04:00+00:00,SAT-53546,24.541974230604144,35.61334587978122,876.8033899272717,3.225607321943775,-112974.41271991452,10.5,10499887025.58728,47.655,-122.3035,60.0,4.0
2026-01-20T23:04:01+00:00,SAT-53546,25.014581082271896,35.428263488979326,880.0203498411191,3.2686364204144045,-114481.47376126204,10.5,10499885518.52624,47.655,-122.3035,60.0,4.016666666666667
2026-01-20T23:04:02+00:00,SAT-53546,25.481606520672898,35.24238069457949,883.2802234983623,3.3111871105438784,-115971.778918837,10.5,10499884028.22108,47.655,-122.3035,60.0,4.033333333333333
2026-01-20T23:04:03+00:00,SAT-53546,25.943090904301126,35.05576310542298,886.5825337732066,3.35326031157826,-117445.36038852496,10.5,10499882554.639612,47.655,-122.3035,60.0,4.05
2026-01-20T23:04:04+00:00,SAT-53546,26.39907644449692,34.86847467935383,889.9268044566393,3.3948571351455055,-118902.2571042391,10.5,10499881097.742895,47.655,-122.3035,60.0,4.066666666666666
2026-01-20T23:04:05+00:00,SAT-53546,26.849607066238114,34.68057771944484,893.3125604482955,3.4359789076520726,-120342.51552234431,10.5,10499879657.484478,47.655,-122.3035,60.0,4.083333333333333
2026-01-20T23:04:06+00:00,SAT-53546,27.29472827788679,34.49213287171186,896.7393279706612,3.4766271373570126,-121766.18846845251,10.5,10499878233.811531,47.655,-122.3035,60.0,4.1
2026-01-20T23:04:07+00:00,SAT-53546,27.73448704233533,34.30319912722358,900.2066347504376,3.5168035019028054,-123173.33470069969,10.5,10499876826.665298,47.655,-122.3035,60.0,4.116666666666666
2026-01-20T23:04:08+00:00,SAT-53546,28.16893165256804,34.1138338272352,903.7140101874705,3.556509901396996,-124564.02076888956,10.5,10499875435.97923,47.655,-122.3035,60.0,4.133333333333334
2026-01-20T23:04:09+00:00,SAT-53546,28.59811161966048,33.924092667674586,907.2609855766204,3.595748363257584,-125938.31768177648,10.5,10499874061.682318,47.655,-122.3035,60.0,4.15
2026-01-20T23:04:10+00:00,SAT-53546,29.02207755447314,33.7340297108105,910.8470942347292,3.6345210950246742,-127296.30275675273,10.5,10499872703.697243,47.655,-122.3035,60.0,4.166666666666667
2026-01-20T23:04:11+00:00,SAT-53546,29.440881061794347,33.543697395921434,914.4718716802621,3.6728304551863746,-128638.05859804832,10.5,10499871361.941402,47.655,-122.3035,60.0,4.183333333333334
2026-01-20T23:04:12+00:00,SAT-53546,29.85457463643534,33.35314655323896,918.1348557838484,3.7106789462206393,-129963.67285302658,10.5,10499870036.327147,47.655,-122.3035,60.0,4.2
2026-01-20T23:04:13+00:00,SAT-53546,30.263211564096792,33.16242641979825,921.8355869118883,3.7480692225701153,-131273.23849149738,10.5,10499868726.761509,47.655,-122.3035,60.0,4.216666666666667
2026-01-20T23:04:14+00:00,SAT-53546,30.66684582847123,32.97158465628731,925.573608078106,3.7850040555184488,-132566.85257553647,10.5,10499867433.147425,47.655,-122.3035,60.0,4.233333333333333
2026-01-20T23:04:15+00:00,SAT-53546,31.06553201973255,32.780667366965176,929.3484650600823,3.8214863342395002,-133844.61629623367,10.5,10499866155.383703,47.655,-122.3035,60.0,4.25
2026-01-20T23:04:16+00:00,SAT-53546,31.45932524846033,32.58971912060909,933.1597065168246,3.8575191063711958,-135106.63639476066,10.5,10499864893.363605,47.655,-122.3035,60.0,4.266666666666667
2026-01-20T23:04:17+00:00,SAT-53546,31.84828106874912,32.39878297045054,937.0068841468094,3.893105494303985,-136353.02223043866,10.5,10499863646.97777,47.655,-122.3035,60.0,4.283333333333333
2026-01-20T23:04:18+00:00,SAT-53546,32.23245539735233,32.207900479176615,940.8895527625317,3.928248726125322,-137583.8868645451,10.5,10499862416.113136,47.655,-122.3035,60.0,4.3
2026-01-20T23:04:19+00:00,SAT-53546,32.61190444105252,32.017111743099825,944.8072703959207,3.9629521406505357,-138799.34723651595,10.5,10499861200.652763,47.655,-122.3035,60.0,4.316666666666666
2026-01-20T23:04:20+00:00,SAT-53546,32.98668462900718,31.826455416725505,948.7595984087694,3.997219166235019,-139999.52342185905,10.5,10499860000.476578,47.655,-122.3035,60.0,4.333333333333333
2026-01-20T23:04:21+00:00,SAT-53546,33.356852547428936,31.635968738906588,952.746101582036,4.031053341389656,-141184.53935419346,10.5,10499858815.460646,47.655,-122.3035,60.0,4.35
2026-01-20T23:04:22+00:00,SAT-53546,33.72246488040882,31.44568755846063,956.7663482257027,4.064458215742512,-142354.51935650888,10.5,10499857645.480644,47.655,-122.3035,60.0,4.366666666666666
2026-01-20T23:04:23+00:00,SAT-53546,34.083578345810665,31.255646364806516,960.8199101898641,4.0974374960445274,-143509.59325490284,10.5,10499856490.406746,47.655,-122.3035,60.0,4.383333333333334
2026-01-20T23:04:24+00:00,SAT-53546,34.440249648571076,31.06587831194694,964.9063630214276,4.129994899020073,-144649.8912247845,10.5,10499855350.108776,47.655,-122.3035,60.0,4.4
2026-01-20T23:04:25+00:00,SAT-53546,34.79253542438134,30.87641524956941,969.0252859740629,4.162134239034992,-145775.5468613804,10.5,10499854224.453138,47.655,-122.3035,60.0,4.416666666666667
2026-01-20T23:04:26+00:00,SAT-53546,35.14049219495519,30.687287750124373,973.1762621055774,4.193859364378792,-146886.69494806742,10.5,10499853113.305052,47.655,-122.3035,60.0,4.433333333333334
2026-01-20T23:04:27+00:00,SAT-53546,35.484176321263405,30.498525138879213,977.3588783117532,4.225174189731511,-147983.47259349955,10.5,10499852016.527407,47.655,-122.3035,60.0,4.45
2026-01-20T23:04:28+00:00,SAT-53546,35.82364396294825,30.31015552243358,981.5727253925561,4.256082670771912,-149066.01834227954,10.5,10499850933.981657,47.655,-122.3035,60.0,4.466666666666667
2026-01-20T23:04:29+00:00,SAT-53546,36.158951038842716,30.122205818286144,985.817398093027,4.286588820952797,-150134.4727625015,10.5,10499849865.527237,47.655,-122.3035,60.0,4.483333333333333
