DopplerPredictor/satellites_20260205_234138/SAT-64098.csv

timestamp,satellite,azimuth_deg,elevation_deg,distance_km,relative_velocity_kms,doppler_shift_hz,tx_freq_ghz,rx_freq_hz,ue_lat,ue_lon,ue_alt_m,time_minutes
2026-01-20T23:10:09+00:00,SAT-64098,335.55954301508973,30.016568045621305,858.1392804620244,-3.0136678404958617,105551.39557649095,10.5,10500105551.395576,47.655,-122.3035,60.0,10.15
2026-01-20T23:10:10+00:00,SAT-64098,336.04814169467863,30.16412449808938,855.1336918491227,-2.966231563938377,103889.97651619694,10.5,10500103889.976517,47.655,-122.3035,60.0,10.166666666666666
2026-01-20T23:10:11+00:00,SAT-64098,336.5415950439668,30.31048260847278,852.1754123426674,-2.918296050752953,102211.07207742367,10.5,10500102211.072077,47.655,-122.3035,60.0,10.183333333333334
2026-01-20T23:10:12+00:00,SAT-64098,337.03990464117044,30.455578811597867,849.2649398409014,-2.86986257930378,100514.72703389253,10.5,10500100514.727034,47.655,-122.3035,60.0,10.2
2026-01-20T23:10:13+00:00,SAT-64098,337.54306922158526,30.599348550540167,846.4027709671319,-2.820932718850004,98800.99634769678,10.5,10500098800.996347,47.655,-122.3035,60.0,10.216666666666667
2026-01-20T23:10:14+00:00,SAT-64098,338.0510845624261,30.74172632007319,843.5894007796124,-2.7715083445044177,97069.94569321816,10.5,10500097069.945694,47.655,-122.3035,60.0,10.233333333333333
2026-01-20T23:10:15+00:00,SAT-64098,338.56394336889736,30.882645714352225,840.8253224665112,-2.7215916767095547,95321.65283974663,10.5,10500095321.65284,47.655,-122.3035,60.0,10.25
2026-01-20T23:10:16+00:00,SAT-64098,339.0816351669109,31.022039480179547,838.1110270015073,-2.671185238000132,93556.20613711832,10.5,10500093556.206137,47.655,-122.3035,60.0,10.266666666666667
2026-01-20T23:10:17+00:00,SAT-64098,339.6041461875331,31.159839571734903,835.4470028425067,-2.6202919095778205,91773.7064972032,10.5,10500091773.706497,47.655,-122.3035,60.0,10.283333333333333
2026-01-20T23:10:18+00:00,SAT-64098,340.13145926222484,31.29597721189486,832.8337355739382,-2.568914883673392,89974.26572542601,10.5,10500089974.265726,47.655,-122.3035,60.0,10.3
2026-01-20T23:10:19+00:00,SAT-64098,340.66355370929034,31.43038295485396,830.2717075965575,-2.517057745320295,88158.00938482281,10.5,10500088158.009384,47.655,-122.3035,60.0,10.316666666666666
2026-01-20T23:10:20+00:00,SAT-64098,341.200405237963,31.562986756775636,827.7613977356986,-2.4647243967232964,86325.07414711083,10.5,10500086325.074146,47.655,-122.3035,60.0,10.333333333333334
2026-01-20T23:10:21+00:00,SAT-64098,341.7419858386559,31.69371804631468,825.3032809249507,-2.411919120240631,84475.60999858985,10.5,10500084475.609999,47.655,-122.3035,60.0,10.35
2026-01-20T23:10:22+00:00,SAT-64098,342.28826368837696,31.822505802231795,822.8978278270265,-2.3586465431446824,82609.77900591203,10.5,10500082609.779005,47.655,-122.3035,60.0,10.366666666666667
2026-01-20T23:10:23+00:00,SAT-64098,342.8392030510776,31.949278632931257,820.5455044897707,-2.3049116954693276,80727.75734214082,10.5,10500080727.757341,47.655,-122.3035,60.0,10.383333333333333
2026-01-20T23:10:24+00:00,SAT-64098,343.39476419458447,32.073964862860926,818.2467719444791,-2.250719953402649,78829.73330412406,10.5,10500078829.733305,47.655,-122.3035,60.0,10.4
2026-01-20T23:10:25+00:00,SAT-64098,343.9549032983689,32.19649261957937,816.0020858606723,-2.196077081760253,76915.90880008948,10.5,10500076915.9088,47.655,-122.3035,60.0,10.416666666666666
2026-01-20T23:10:26+00:00,SAT-64098,344.51957237564426,32.31678992674481,813.8118961585097,-2.140989230100058,74986.49921356796,10.5,10500074986.499214,47.655,-122.3035,60.0,10.433333333333334
2026-01-20T23:10:27+00:00,SAT-64098,345.0887192000056,32.43478480045271,811.6766466250788,-2.0854629263291447,73041.7331794785,10.5,10500073041.73318,47.655,-122.3035,60.0,10.45
2026-01-20T23:10:28+00:00,SAT-64098,345.6622872362954,32.55040534866341,809.5967745370612,-2.029505084224645,71081.85284754152,10.5,10500071081.852848,47.655,-122.3035,60.0,10.466666666666667
2026-01-20T23:10:29+00:00,SAT-64098,346.2402155798621,32.6635798743469,807.5727102758956,-1.9731230131932154,69107.11422409686,10.5,10500069107.114223,47.655,-122.3035,60.0,10.483333333333333
2026-01-20T23:10:30+00:00,SAT-64098,346.82243890604605,32.77423698232939,805.6048769332097,-1.9163243916751305,67117.78624060273,10.5,10500067117.786242,47.655,-122.3035,60.0,10.5
2026-01-20T23:10:31+00:00,SAT-64098,347.4088874198381,32.88230568763399,803.6936899427759,-1.8591173044666778,65114.15206082375,10.5,10500065114.152061,47.655,-122.3035,60.0,10.516666666666667
2026-01-20T23:10:32+00:00,SAT-64098,347.9994868252263,32.98771552868813,801.8395566752445,-1.801510220420611,63096.50829980658,10.5,10500063096.508299,47.655,-122.3035,60.0,10.533333333333333
2026-01-20T23:10:33+00:00,SAT-64098,348.59415829780227,33.09039668186063,800.042876055116,-1.7435119843617768,61065.16474073092,10.5,10500061065.164742,47.655,-122.3035,60.0,10.55
2026-01-20T23:10:34+00:00,SAT-64098,349.1928184646739,33.190280077845706,798.3040381857797,-1.6851318244498192,59020.44459278259,10.5,10500059020.444593,47.655,-122.3035,60.0,10.566666666666666
2026-01-20T23:10:35+00:00,SAT-64098,349.7953793973825,33.28729752052177,796.6234239672032,-1.626379361712111,56962.684825037075,10.5,10500056962.684826,47.655,-122.3035,60.0,10.583333333333334
2026-01-20T23:10:36+00:00,SAT-64098,350.40174862042966,33.381381808139594,795.0014047041195,-1.5672645796082532,54892.23510047961,10.5,10500054892.2351,47.655,-122.3035,60.0,10.6
2026-01-20T23:10:37+00:00,SAT-64098,351.0118291213628,33.47246685422897,793.4383417445663,-1.5077978337218239,52809.45811545116,10.5,10500052809.458115,47.655,-122.3035,60.0,10.616666666666667
2026-01-20T23:10:38+00:00,SAT-64098,351.6255193771916,33.56048781020659,791.9345861087606,-1.4479898554735595,50714.729729699786,10.5,10500050714.72973,47.655,-122.3035,60.0,10.633333333333333
2026-01-20T23:10:39+00:00,SAT-64098,352.2427133966333,33.64538118900573,790.490478114267,-1.3878517253775609,48608.43802969983,10.5,10500048608.43803,47.655,-122.3035,60.0,10.65
2026-01-20T23:10:40+00:00,SAT-64098,352.8633007662971,33.727084987597394,789.1063470278417,-1.3273948855320623,46490.98376613148,10.5,10500046490.983767,47.655,-122.3035,60.0,10.666666666666666
2026-01-20T23:10:41+00:00,SAT-64098,353.48716671747695,33.80553881031021,787.7825107048174,-1.2666311056666695,44362.77916471144,10.5,10500044362.779165,47.655,-122.3035,60.0,10.683333333333334
2026-01-20T23:10:42+00:00,SAT-64098,354.1141921934772,33.88068398983659,786.5192752623497,-1.2055725121418859,42224.24894187899,10.5,10500042224.248941,47.655,-122.3035,60.0,10.7
2026-01-20T23:10:43+00:00,SAT-64098,354.74425394750824,33.95246370923532,785.3169347237438,-1.144231542041875,40075.82869693035,10.5,10500040075.828697,47.655,-122.3035,60.0,10.716666666666667
2026-01-20T23:10:44+00:00,SAT-64098,355.3772246359879,34.02082312010163,784.1757707085621,-1.0826209606286343,37917.96552333768,10.5,10500037917.965523,47.655,-122.3035,60.0,10.733333333333333
2026-01-20T23:10:45+00:00,SAT-64098,356.01297293888,34.08570946023092,783.0960521053271,-1.0207538183239853,35751.1165020764,10.5,10500035751.116503,47.655,-122.3035,60.0,10.75
2026-01-20T23:10:46+00:00,SAT-64098,356.65136367459854,34.147072166761916,782.0780347871262,-0.9586434782910439,33575.749667644945,10.5,10500033575.749668,47.655,-122.3035,60.0,10.766666666666667
2026-01-20T23:10:47+00:00,SAT-64098,357.29225795051815,34.20486298859095,781.1219612997074,-0.8963035747403761,31392.342547769997,10.5,10500031392.342548,47.655,-122.3035,60.0,10.783333333333333
2026-01-20T23:10:48+00:00,SAT-64098,357.9355133093224,34.259036093497414,780.2280605911611,-0.8337480069383431,29201.381953553355,10.5,10500029201.381954,47.655,-122.3035,60.0,10.8
2026-01-20T23:10:49+00:00,SAT-64098,358.5809838910897,34.30954817169049,779.3965477475722,-0.7709909257369898,27003.363507691687,10.5,10500027003.363508,47.655,-122.3035,60.0,10.816666666666666
2026-01-20T23:10:50+00:00,SAT-64098,359.2285206071745,34.35635853492665,778.6276237421102,-0.7080467272130386,24798.79142168715,10.5,10500024798.791422,47.655,-122.3035,60.0,10.833333333333334
2026-01-20T23:10:51+00:00,SAT-64098,359.8779713331035,34.39942921122105,777.9214751904622,-0.6449300218648172,22588.177416993527,10.5,10500022588.177418,47.655,-122.3035,60.0,10.85
2026-01-20T23:10:52+00:00,SAT-64098,0.529181099762406,34.438725033292236,777.2782741369857,-0.581655625683599,20372.040412296792,10.5,10500020372.040413,47.655,-122.3035,60.0,10.866666666666667
2026-01-20T23:10:53+00:00,SAT-64098,1.1819922991591179,34.474213721689246,776.698177849766,-0.5182385511992791,18150.906209896817,10.5,10500018150.90621,47.655,-122.3035,60.0,10.883333333333333
2026-01-20T23:10:54+00:00,SAT-64098,1.8362449093451683,34.50586596224218,776.1813286246057,-0.45469397735081957,15925.306440442893,10.5,10500015925.30644,47.655,-122.3035,60.0,10.9
2026-01-20T23:10:55+00:00,SAT-64098,2.491776714423373,34.53365547623304,775.7278536190604,-0.39103723974761523,13695.778221845594,10.5,10500013695.778221,47.655,-122.3035,60.0,10.916666666666666
2026-01-20T23:10:56+00:00,SAT-64098,3.148423541118537,34.557559084196505,775.3378646961892,-0.3272838094539862,11462.863416219949,10.5,10500011462.863417,47.655,-122.3035,60.0,10.933333333333334
2026-01-20T23:10:57+00:00,SAT-64098,3.8060194982581605,34.57755676239601,775.0114582894632,-0.2634492774480718,9227.108085570162,10.5,10500009227.108086,47.655,-122.3035,60.0,10.95
2026-01-20T23:10:58+00:00,SAT-64098,4.464397227906938,34.59363169204438,774.748715283172,-0.19954933339056824,6989.061748181025,10.5,10500006989.061749,47.655,-122.3035,60.0,10.966666666666667
2026-01-20T23:10:59+00:00,SAT-64098,5.123388158123885,34.605770300727116,774.5497009140064,-0.13559974758686597,4749.2767468556285,10.5,10500004749.276747,47.655,-122.3035,60.0,10.983333333333333
2026-01-20T23:11:00+00:00,SAT-64098,5.782822763881041,34.613962296010726,774.4144646906301,-0.07161635030542704,2508.3075245574855,10.5,10500002508.307524,47.655,-122.3035,60.0,11.0
2026-01-20T23:11:01+00:00,SAT-64098,6.4425308215214745,34.618200690940455,774.3430403338766,-0.007615015204992646,266.71004396122197,10.5,10500000266.710045,47.655,-122.3035,60.0,11.016666666666667
2026-01-20T23:11:02+00:00,SAT-64098,7.102341685042659,34.61848182155346,774.3354457334766,0.056388362784665844,-1974.958987257082,10.5,10499998025.041012,47.655,-122.3035,60.0,11.033333333333333
2026-01-20T23:11:03+00:00,SAT-64098,7.76208454314654,34.61480535598794,774.3916829268422,0.12037788690825162,-4216.142797483724,10.5,10499995783.857203,47.655,-122.3035,60.0,11.05
2026-01-20T23:11:04+00:00,SAT-64098,8.421588695147735,34.6071742953127,774.5117380972478,0.18433767562262898,-6456.285147899232,10.5,10499993543.714851,47.655,-122.3035,60.0,11.066666666666666
2026-01-20T23:11:05+00:00,SAT-64098,9.08068380712889,34.59559496622218,774.6955815890005,0.24825188683623833,-8694.831181445206,10.5,10499991305.16882,47.655,-122.3035,60.0,11.083333333333334
2026-01-20T23:11:06+00:00,SAT-64098,9.739200189228065,34.58007700518209,774.9431679467868,0.31210473283932216,-10931.227945743993,10.5,10499989068.772055,47.655,-122.3035,60.0,11.1
2026-01-20T23:11:07+00:00,SAT-64098,10.396969050700818,34.56063333467712,775.2544359699078,0.37588050068163203,-13164.925106812181,10.5,10499986835.074894,47.655,-122.3035,60.0,11.116666666666667
2026-01-20T23:11:08+00:00,SAT-64098,11.053822759539944,34.537280131331215,775.6293087868387,0.4395635753904488,-15395.375762253876,10.5,10499984604.624237,47.655,-122.3035,60.0,11.133333333333333
2026-01-20T23:11:09+00:00,SAT-64098,11.709595103391065,34.510036785871534,776.067693952943,0.503138453911559,-17622.03692953266,10.5,10499982377.96307,47.655,-122.3035,60.0,11.15
2026-01-20T23:11:10+00:00,SAT-64098,12.364121534801653,34.478925855685084,776.5694835620931,0.5665897620879877,-19844.370140638664,10.5,10499980155.62986,47.655,-122.3035,60.0,11.166666666666666
2026-01-20T23:11:11+00:00,SAT-64098,13.017239411511033,34.44397301000123,777.1345543752182,0.6299022815477472,-22061.84238381122,10.5,10499977938.157616,47.655,-122.3035,60.0,11.183333333333334
2026-01-20T23:11:12+00:00,SAT-64098,13.668788239100847,34.405206967326876,777.7627679756755,0.6930609583186692,-24273.926405266764,10.5,10499975726.073595,47.655,-122.3035,60.0,11.2
2026-01-20T23:11:13+00:00,SAT-64098,14.318609894438705,34.362659426538556,778.4539709332073,0.7560509229988863,-26480.101415654382,10.5,10499973519.898584,47.655,-122.3035,60.0,11.216666666666667
2026-01-20T23:11:14+00:00,SAT-64098,14.966548844710461,34.316364991222464,779.2079949880165,0.8188575143274288,-28679.853915597847,10.5,10499971320.146084,47.655,-122.3035,60.0,11.233333333333333
2026-01-20T23:11:15+00:00,SAT-64098,15.612452361887115,34.26636108738207,780.0246572583503,0.8814662774487813,-30872.677634913027,10.5,10499969127.322365,47.655,-122.3035,60.0,11.25
2026-01-20T23:11:16+00:00,SAT-64098,16.256170712809563,34.21268787640434,780.9037604463517,0.9438630029248487,-33058.07489897198,10.5,10499966941.9251,47.655,-122.3035,60.0,11.266666666666667
2026-01-20T23:11:17+00:00,SAT-64098,16.89755735705527,34.15538816117133,781.8450930828187,1.0060337238069756,-35235.55652615265,10.5,10499964764.443474,47.655,-122.3035,60.0,11.283333333333333
2026-01-20T23:11:18+00:00,SAT-64098,17.53646911943895,34.0945072882578,782.8484297690449,1.0679647381916282,-37404.64261783429,10.5,10499962595.357382,47.655,-122.3035,60.0,11.3
2026-01-20T23:11:19+00:00,SAT-64098,18.172766357255902,34.030093045056574,783.9135314411525,1.1296426151632617,-39564.8627665418,10.5,10499960435.137234,47.655,-122.3035,60.0,11.316666666666666
2026-01-20T23:11:20+00:00,SAT-64098,18.806313110793532,33.962195553254716,785.0401456403549,1.191054224317825,-41715.757089983774,10.5,10499958284.24291,47.655,-122.3035,60.0,11.333333333333334
2026-01-20T23:11:21+00:00,SAT-64098,19.43697725098861,33.890867157645744,786.2280068126629,1.2521867299281417,-43856.8760266994,10.5,10499956143.123974,47.655,-122.3035,60.0,11.35
2026-01-20T23:11:22+00:00,SAT-64098,20.064630603949837,33.81616231284249,787.4768366027699,1.3130276051087584,-45987.78083217145,10.5,10499954012.219168,47.655,-122.3035,60.0,11.366666666666667
2026-01-20T23:11:23+00:00,SAT-64098,20.689149065389564,33.73813746708901,788.7863441620674,1.3735646480717347,-48108.04414817272,10.5,10499951891.955853,47.655,-122.3035,60.0,11.383333333333333
2026-01-20T23:11:24+00:00,SAT-64098,21.310412705104206,33.65685094348114,790.1562264728694,1.433786005753654,-50217.250830283956,10.5,10499949782.74917,47.655,-122.3035,60.0,11.4
2026-01-20T23:11:25+00:00,SAT-64098,21.928305864191447,33.57236281858637,791.5861686962041,1.4936801430745519,-52314.99687121146,10.5,10499947685.003128,47.655,-122.3035,60.0,11.416666666666666
2026-01-20T23:11:26+00:00,SAT-64098,22.542717222017224,33.48473480208622,793.075844488943,1.5532358856719575,-54400.890897514015,10.5,10499945599.109102,47.655,-122.3035,60.0,11.433333333333334
2026-01-20T23:11:27+00:00,SAT-64098,23.153539866552276,33.39403011348548,794.6249163635517,1.6124424286088577,-56474.55447459257,10.5,10499943525.445526,47.655,-122.3035,60.0,11.45
2026-01-20T23:11:28+00:00,SAT-64098,23.760671351384413,33.30031335832557,796.2330360565265,1.6712893095604033,-58535.621167575315,10.5,10499941464.378832,47.655,-122.3035,60.0,11.466666666666667
2026-01-20T23:11:29+00:00,SAT-64098,24.364013728093365,33.20365040632672,797.8998448700861,1.7297664521249068,-60583.73805825202,10.5,10499939416.261942,47.655,-122.3035,60.0,11.483333333333333
2026-01-20T23:11:30+00:00,SAT-64098,24.9634735811555,33.10410826773477,799.6249740570605,1.7878641480059094,-62618.56512101464,10.5,10499937381.43488,47.655,-122.3035,60.0,11.5
2026-01-20T23:11:31+00:00,SAT-64098,25.558962042605184,33.00175497178986,801.4080451880108,1.8455730672328634,-64639.77558082888,10.5,10499935360.224419,47.655,-122.3035,60.0,11.516666666666667
2026-01-20T23:11:32+00:00,SAT-64098,26.150394798021235,32.89665944600408,803.2486705285395,1.9028842670647617,-66647.05622507687,10.5,10499933352.943775,47.655,-122.3035,60.0,11.533333333333333
2026-01-20T23:11:33+00:00,SAT-64098,26.73769208334722,32.78889139664297,805.1464534254824,1.9597891860003842,-68640.10719377082,10.5,10499931359.892807,47.655,-122.3035,60.0,11.55
2026-01-20T23:11:34+00:00,SAT-64098,27.320778668709305,32.67852119155994,807.1009886871259,2.0162796440874264,-70618.64199037981,10.5,10499929381.35801,47.655,-122.3035,60.0,11.566666666666666
2026-01-20T23:11:35+00:00,SAT-64098,27.899583832129792,32.565619745269686,809.1118629637339,2.072347856420812,-72582.387954598,10.5,10499927417.612045,47.655,-122.3035,60.0,11.583333333333334
2026-01-20T23:11:36+00:00,SAT-64098,28.47404132761129,32.45025840578099,811.1786551415356,2.127986427236548,-74531.08605548627,10.5,10499925468.913944,47.655,-122.3035,60.0,11.6
2026-01-20T23:11:37+00:00,SAT-64098,29.04408934218069,32.33250884451233,813.300936730823,2.183188333986147,-76464.49033369125,10.5,10499923535.509666,47.655,-122.3035,60.0,11.616666666666667
2026-01-20T23:11:38+00:00,SAT-64098,29.60967044093748,32.21244295002279,815.4782722381656,2.237946961728749,-78382.36910600287,10.5,10499921617.630894,47.655,-122.3035,60.0,11.633333333333333
2026-01-20T23:11:39+00:00,SAT-64098,30.170731513394895,32.09013272296715,817.7102195729268,2.292256056283552,-80284.50332455427,10.5,10499919715.496675,47.655,-122.3035,60.0,11.65
2026-01-20T23:11:40+00:00,SAT-64098,30.727223701242625,31.9656501769123,819.9963304070546,2.346109773440984,-82170.68830040525,10.5,10499917829.311699,47.655,-122.3035,60.0,11.666666666666666
2026-01-20T23:11:41+00:00,SAT-64098,31.27910233209994,31.839067239875522,822.3361505839562,2.399502609668718,-84040.73127657382,10.5,10499915959.268723,47.655,-122.3035,60.0,11.683333333333334
2026-01-20T23:11:42+00:00,SAT-64098,31.826326831474827,31.71045566315885,824.7292204582599,2.452429479649999,-85894.4541437563,10.5,10499914105.545856,47.655,-122.3035,60.0,11.7
2026-01-20T23:11:43+00:00,SAT-64098,32.36886064801267,31.57988692961402,827.1750753129099,2.5048856385283056,-87731.69071700667,10.5,10499912268.309282,47.655,-122.3035,60.0,11.716666666666667
2026-01-20T23:11:44+00:00,SAT-64098,32.90667115684749,31.447432169800425,829.6732456987154,2.556866721246992,-89552.28811357696,10.5,10499910447.711887,47.655,-122.3035,60.0,11.733333333333333
2026-01-20T23:11:45+00:00,SAT-64098,33.43972956843757,31.313162079774237,832.2232578131305,2.60836871909304,-91356.10593138044,10.5,10499908643.894068,47.655,-122.3035,60.0,11.75
2026-01-20T23:11:46+00:00,SAT-64098,33.968010829515634,31.17714684391737,834.8246338556426,2.659387987058747,-93143.01650682901,10.5,10499906856.983494,47.655,-122.3035,60.0,11.766666666666667
2026-01-20T23:11:47+00:00,SAT-64098,34.491493523114535,31.03945606118758,837.4768923905036,2.709921221007542,-94912.90411508348,10.5,10499905087.095884,47.655,-122.3035,60.0,11.783333333333333
2026-01-20T23:11:48+00:00,SAT-64098,35.01015976236753,30.900158676369,840.1795486866866,2.759965472504726,-96665.6654894888,10.5,10499903334.33451,47.655,-122.3035,60.0,11.8
2026-01-20T23:11:49+00:00,SAT-64098,35.52399508591143,30.759322914347067,842.9321150726348,2.8095181110916827,-98401.20850025743,10.5,10499901598.7915,47.655,-122.3035,60.0,11.816666666666666
2026-01-20T23:11:50+00:00,SAT-64098,36.032988345531635,30.61701622008415,845.7341012533843,2.858576860583446,-100119.45342576358,10.5,10499899880.546574,47.655,-122.3035,60.0,11.833333333333334
2026-01-20T23:11:51+00:00,SAT-64098,36.53713160012679,30.473305200465635,848.585014663888,2.907139755900889,-101820.33144062394,10.5,10499898179.66856,47.655,-122.3035,60.0,11.85
2026-01-20T23:11:52+00:00,SAT-64098,37.03642000192199,30.3282555720194,851.4843607792886,2.955205131991409,-103503.78422765326,10.5,10499896496.215773,47.655,-122.3035,60.0,11.866666666666667
2026-01-20T23:11:53+00:00,SAT-64098,37.53085168165286,30.181932112766297,854.4316434141393,3.0027716610919852,-105169.76528297401,10.5,10499894830.234716,47.655,-122.3035,60.0,11.883333333333333
2026-01-20T23:11:54+00:00,SAT-64098,38.020427640869926,30.03439861574131,857.4263650587907,3.049838295317234,-106818.2379052076,10.5,10499893181.762094,47.655,-122.3035,60.0,11.9
