DopplerPredictor/satellites_20260205_234138/SAT-55785.csv

timestamp,satellite,azimuth_deg,elevation_deg,distance_km,relative_velocity_kms,doppler_shift_hz,tx_freq_ghz,rx_freq_hz,ue_lat,ue_lon,ue_alt_m,time_minutes
2026-01-20T23:12:06+00:00,SAT-55785,198.29143165013798,30.120454021113062,1036.0676329913883,-5.822303229199242,203921.687404798,10.5,10500203921.687405,47.655,-122.3035,60.0,12.1
2026-01-20T23:12:07+00:00,SAT-55785,198.22614338089102,30.369397943297958,1030.2609385536684,-5.80636166502067,203363.34639451484,10.5,10500203363.346394,47.655,-122.3035,60.0,12.116666666666667
2026-01-20T23:12:08+00:00,SAT-55785,198.15973203527005,30.620773868189453,1024.4701429429938,-5.790141745413106,202795.25619966604,10.5,10500202795.256199,47.655,-122.3035,60.0,12.133333333333333
2026-01-20T23:12:09+00:00,SAT-55785,198.09216956989098,30.874615079488358,1018.6955237685606,-5.773637923346455,202217.22253979376,10.5,10500202217.22254,47.655,-122.3035,60.0,12.15
2026-01-20T23:12:10+00:00,SAT-55785,198.02342700894783,31.130955252227167,1012.9373641717248,-5.756844578999701,201629.04858499425,10.5,10500201629.048586,47.655,-122.3035,60.0,12.166666666666666
2026-01-20T23:12:11+00:00,SAT-55785,197.953474404735,31.389828451267697,1007.1959528985969,-5.739755978058809,201030.53349533395,10.5,10500201030.533495,47.655,-122.3035,60.0,12.183333333333334
2026-01-20T23:12:12+00:00,SAT-55785,197.882280796983,31.651269127442728,1001.4715844142291,-5.72236622228079,200421.47068939375,10.5,10500200421.47069,47.655,-122.3035,60.0,12.2
2026-01-20T23:12:13+00:00,SAT-55785,197.80981417077854,31.915312110784427,995.7645590661035,-5.704669364014929,199801.65185528703,10.5,10500199801.651855,47.655,-122.3035,60.0,12.216666666666667
2026-01-20T23:12:14+00:00,SAT-55785,197.73604141054986,32.18199260829967,990.0751831334094,-5.686659283555246,199170.8626550241,10.5,10500199170.862656,47.655,-122.3035,60.0,12.233333333333333
2026-01-20T23:12:15+00:00,SAT-55785,197.6609282536472,32.45134619542635,984.4037689986341,-5.668329760351489,198528.88521862228,10.5,10500198528.88522,47.655,-122.3035,60.0,12.25
2026-01-20T23:12:16+00:00,SAT-55785,197.58443924033546,32.723408809962024,978.7506352481407,-5.649674475959485,197875.49824743954,10.5,10500197875.498247,47.655,-122.3035,60.0,12.266666666666667
2026-01-20T23:12:17+00:00,SAT-55785,197.5065376610828,32.998216745378066,973.1161067697964,-5.630686916828219,197210.4736093671,10.5,10500197210.47361,47.655,-122.3035,60.0,12.283333333333333
2026-01-20T23:12:18+00:00,SAT-55785,197.42718550288023,33.275806638519065,967.5005149475571,-5.61136054074257,196533.5821683579,10.5,10500196533.582169,47.655,-122.3035,60.0,12.3
2026-01-20T23:12:19+00:00,SAT-55785,197.3463433895378,33.55621546443092,961.9041976900568,-5.591688612538864,195844.58803049033,10.5,10500195844.58803,47.655,-122.3035,60.0,12.316666666666666
2026-01-20T23:12:20+00:00,SAT-55785,197.26397052195395,33.83948052217878,956.3274996230352,-5.571664280194387,195143.2512089449,10.5,10500195143.25121,47.655,-122.3035,60.0,12.333333333333334
2026-01-20T23:12:21+00:00,SAT-55785,197.18002461356247,34.12563942323028,950.7707722058864,-5.551280591416572,194429.3282050278,10.5,10500194429.328205,47.655,-122.3035,60.0,12.35
2026-01-20T23:12:22+00:00,SAT-55785,197.09446182220879,34.41473007958198,945.2343738316587,-5.530530427807954,193702.56970234893,10.5,10500193702.569702,47.655,-122.3035,60.0,12.366666666666667
2026-01-20T23:12:23+00:00,SAT-55785,197.00723667921682,34.7067906872522,939.7186699927147,-5.509406582712478,192962.7232933292,10.5,10500192962.723293,47.655,-122.3035,60.0,12.383333333333333
2026-01-20T23:12:24+00:00,SAT-55785,196.91830201335353,35.00185971247548,934.2240333687522,-5.487901663164284,192209.53004503198,10.5,10500192209.530045,47.655,-122.3035,60.0,12.4
2026-01-20T23:12:25+00:00,SAT-55785,196.82760887227062,35.29997587129519,928.7508440126164,-5.46600820534621,191442.72854300824,10.5,10500191442.728542,47.655,-122.3035,60.0,12.416666666666666
2026-01-20T23:12:26+00:00,SAT-55785,196.7351064373012,35.60117811378343,923.2994894209597,-5.443718576561822,190662.0514579427,10.5,10500190662.051458,47.655,-122.3035,60.0,12.433333333333334
2026-01-20T23:12:27+00:00,SAT-55785,196.6407419353896,35.905505601405636,917.8703647026687,-5.421025030346518,189867.22747587744,10.5,10500189867.227476,47.655,-122.3035,60.0,12.45
2026-01-20T23:12:28+00:00,SAT-55785,196.54446054494136,36.212997685623336,912.4638726923271,-5.39791965178092,189057.9793828558,10.5,10500189057.979383,47.655,-122.3035,60.0,12.466666666666667
2026-01-20T23:12:29+00:00,SAT-55785,196.44620529728417,36.5236938815753,907.0804241182196,-5.374394452848521,188234.02740475035,10.5,10500188234.027405,47.655,-122.3035,60.0,12.483333333333333
2026-01-20T23:12:30+00:00,SAT-55785,196.34591697053443,36.837633845221816,901.7204376752328,-5.350441259173331,187395.08524033643,10.5,10500187395.08524,47.655,-122.3035,60.0,12.5
2026-01-20T23:12:31+00:00,SAT-55785,196.24353397957833,37.15485734193821,896.3843402107143,-5.326051810199008,186540.86356998875,10.5,10500186540.86357,47.655,-122.3035,60.0,12.516666666666667
2026-01-20T23:12:32+00:00,SAT-55785,196.1389922573848,37.47540421867272,891.0725668104234,-5.301217665041911,185671.06675825734,10.5,10500185671.06676,47.655,-122.3035,60.0,12.533333333333333
2026-01-20T23:12:33+00:00,SAT-55785,196.0322251314883,37.7993143681862,885.7855609783736,-5.275930302443056,184785.39635460774,10.5,10500184785.396355,47.655,-122.3035,60.0,12.55
2026-01-20T23:12:34+00:00,SAT-55785,195.92316319064318,38.126627696751214,880.523774716993,-5.250181027901131,183883.54784082618,10.5,10500183883.54784,47.655,-122.3035,60.0,12.566666666666666
2026-01-20T23:12:35+00:00,SAT-55785,195.81173414571023,38.457384083559376,875.2876686999025,-5.223961073146844,182965.2141150324,10.5,10500182965.214115,47.655,-122.3035,60.0,12.583333333333334
2026-01-20T23:12:36+00:00,SAT-55785,195.69786267950712,38.79162334344229,870.0777123454865,-5.197261478132528,182030.08135845614,10.5,10500182030.081358,47.655,-122.3035,60.0,12.6
2026-01-20T23:12:37+00:00,SAT-55785,195.5814702906107,39.129385179161886,864.8943840081547,-5.170073221498244,181077.833604912,10.5,10500181077.833605,47.655,-122.3035,60.0,12.616666666666667
2026-01-20T23:12:38+00:00,SAT-55785,195.46247512390747,39.47070913877024,859.7381710394931,-5.142387138983202,180108.1498832223,10.5,10500180108.149883,47.655,-122.3035,60.0,12.633333333333333
2026-01-20T23:12:39+00:00,SAT-55785,195.34079179272706,39.815634564434895,854.6095699307803,-5.114193913678609,179120.70387583066,10.5,10500179120.703876,47.655,-122.3035,60.0,12.65
2026-01-20T23:12:40+00:00,SAT-55785,195.2163311902554,40.16420053683959,849.5090864652257,-5.08548416211769,178115.16693403857,10.5,10500178115.166935,47.655,-122.3035,60.0,12.666666666666666
2026-01-20T23:12:41+00:00,SAT-55785,195.08900028625604,40.51644582153586,844.4372357843495,-5.056248376647498,177091.20605962252,10.5,10500177091.20606,47.655,-122.3035,60.0,12.683333333333334
2026-01-20T23:12:42+00:00,SAT-55785,194.95870191248918,40.8724088074441,839.3945425118375,-5.02647694251692,176048.4845033282,10.5,10500176048.484503,47.655,-122.3035,60.0,12.7
2026-01-20T23:12:43+00:00,SAT-55785,194.82533453374464,41.23212744219214,834.3815408603497,-4.9961601130146915,174986.6608940985,10.5,10500174986.660894,47.655,-122.3035,60.0,12.716666666666667
2026-01-20T23:12:44+00:00,SAT-55785,194.68879200479327,41.595639161040516,829.3987747631279,-4.965288095228684,173905.39224272672,10.5,10500173905.392242,47.655,-122.3035,60.0,12.733333333333333
2026-01-20T23:12:45+00:00,SAT-55785,194.54896330831585,41.96298081713466,824.4467979200731,-4.933850970310927,172804.33114920036,10.5,10500172804.33115,47.655,-122.3035,60.0,12.75
2026-01-20T23:12:46+00:00,SAT-55785,194.40573227826033,42.334188600926424,819.5261739233421,-4.901838750722977,171683.12780767572,10.5,10500171683.127808,47.655,-122.3035,60.0,12.766666666666667
2026-01-20T23:12:47+00:00,SAT-55785,194.25897730246862,42.7092979582931,814.637476325856,-4.86924134080098,170541.42862530015,10.5,10500170541.428625,47.655,-122.3035,60.0,12.783333333333333
2026-01-20T23:12:48+00:00,SAT-55785,194.10857100679672,43.088343499892936,809.7812887491345,-4.8360486149106015,169378.8789595278,10.5,10500169378.87896,47.655,-122.3035,60.0,12.8
2026-01-20T23:12:49+00:00,SAT-55785,193.9543799144118,43.47135891037685,804.9582049131858,-4.802250342110053,168195.12047950036,10.5,10500168195.12048,47.655,-122.3035,60.0,12.816666666666666
2026-01-20T23:12:50+00:00,SAT-55785,193.79626408490103,43.85837684529475,800.1688287415325,-4.767836277545787,166989.79436711103,10.5,10500166989.794367,47.655,-122.3035,60.0,12.833333333333334
2026-01-20T23:12:51+00:00,SAT-55785,193.6340767240483,44.24942882828989,795.4137743750852,-4.732796105358082,165762.53931731617,10.5,10500165762.539318,47.655,-122.3035,60.0,12.85
2026-01-20T23:12:52+00:00,SAT-55785,193.46766376905086,44.64454513650085,790.6936662429598,-4.69711947030069,164512.99264558963,10.5,10500164512.992645,47.655,-122.3035,60.0,12.866666666666667
2026-01-20T23:12:53+00:00,SAT-55785,193.29686344243524,45.043754680656306,786.0091391017565,-4.660796007564447,163240.7913324714,10.5,10500163240.791332,47.655,-122.3035,60.0,12.883333333333333
2026-01-20T23:12:54+00:00,SAT-55785,193.12150577312804,45.447084879471,781.3608380450986,-4.623815322958859,161945.5713294429,10.5,10500161945.57133,47.655,-122.3035,60.0,12.9
2026-01-20T23:12:55+00:00,SAT-55785,192.94141208337726,45.854561523633365,776.7494185329341,-4.586167024800101,160626.9686757799,10.5,10500160626.968676,47.655,-122.3035,60.0,12.916666666666666
2026-01-20T23:12:56+00:00,SAT-55785,192.75639443703236,46.266208633197195,772.1755463890365,-4.547840760164109,159284.6207682888,10.5,10500159284.620768,47.655,-122.3035,60.0,12.933333333333334
2026-01-20T23:12:57+00:00,SAT-55785,192.56625504497595,46.68204830843437,767.6398977623486,-4.508826155270624,157918.16427330385,10.5,10500157918.164274,47.655,-122.3035,60.0,12.95
2026-01-20T23:12:58+00:00,SAT-55785,192.37078562945902,47.10210056480679,763.1431591477818,-4.469112908000785,156527.23836704472,10.5,10500156527.238367,47.655,-122.3035,60.0,12.966666666666667
2026-01-20T23:12:59+00:00,SAT-55785,192.16976673571068,47.52638316510016,758.6860273147499,-4.428690757286552,155111.4836635043,10.5,10500155111.483664,47.655,-122.3035,60.0,12.983333333333333
2026-01-20T23:13:00+00:00,SAT-55785,191.96296699299086,47.95491143693496,754.2692092662247,-4.387549541464111,153670.54425823202,10.5,10500153670.544258,47.655,-122.3035,60.0,13.0
2026-01-20T23:13:01+00:00,SAT-55785,191.75014231536048,48.38769808319295,749.8934221395994,-4.345679162988817,152204.06649250188,10.5,10500152204.066492,47.655,-122.3035,60.0,13.016666666666667
2026-01-20T23:13:02+00:00,SAT-55785,191.5310350428889,48.824752975579734,745.5593931427427,-4.303069627024059,150711.70030485763,10.5,10500150711.700304,47.655,-122.3035,60.0,13.033333333333333
2026-01-20T23:13:03+00:00,SAT-55785,191.30537301317707,49.26608293738046,741.2678594515652,-4.259711093568609,149193.10105683308,10.5,10500149193.101057,47.655,-122.3035,60.0,13.05
2026-01-20T23:13:04+00:00,SAT-55785,191.07286855629928,49.71169151615425,737.0195680555983,-4.215593868273718,147647.92921132807,10.5,10500147647.92921,47.655,-122.3035,60.0,13.066666666666666
2026-01-20T23:13:05+00:00,SAT-55785,190.83321741001927,50.16157873918999,732.8152756127334,-4.170708406838079,146075.85048653834,10.5,10500146075.850487,47.655,-122.3035,60.0,13.083333333333334
2026-01-20T23:13:06+00:00,SAT-55785,190.5860975474707,50.61574085166819,728.6557482995764,-4.12504539099951,144476.5385175062,10.5,10500144476.538517,47.655,-122.3035,60.0,13.1
2026-01-20T23:13:07+00:00,SAT-55785,190.33116790406103,51.07417004406384,724.5417615860141,-4.078595678383961,142849.67309962012,10.5,10500142849.6731,47.655,-122.3035,60.0,13.116666666666667
2026-01-20T23:13:08+00:00,SAT-55785,190.0680670035611,51.53685415381506,720.4741000597976,-4.031350421301749,141194.94434936173,10.5,10500141194.94435,47.655,-122.3035,60.0,13.133333333333333
2026-01-20T23:13:09+00:00,SAT-55785,189.79641146132914,52.003776358370644,716.453557132649,-3.98330098870559,139512.0499709459,10.5,10500139512.04997,47.655,-122.3035,60.0,13.15
2026-01-20T23:13:10+00:00,SAT-55785,189.51579436861238,52.47491483602484,712.4809348241988,-3.9344390858444673,137800.6994471052,10.5,10500137800.699448,47.655,-122.3035,60.0,13.166666666666666
2026-01-20T23:13:11+00:00,SAT-55785,189.22578353046336,52.95024241512283,708.5570434265908,-3.8847567072172096,136060.6123913254,10.5,10500136060.61239,47.655,-122.3035,60.0,13.183333333333334
2026-01-20T23:13:12+00:00,SAT-55785,188.92591955816732,53.42972619047866,704.682701216009,-3.8342462386114673,134291.52212168195,10.5,10500134291.522121,47.655,-122.3035,60.0,13.2
2026-01-20T23:13:13+00:00,SAT-55785,188.6157137884817,53.91332712248822,700.8587340624373,-3.7829004045321817,132493.17381956257,10.5,10500132493.17382,47.655,-122.3035,60.0,13.216666666666667
2026-01-20T23:13:14+00:00,SAT-55785,188.29464602791847,54.40099959773024,697.0859750918494,-3.7307123583191237,130665.32768596466,10.5,10500130665.327686,47.655,-122.3035,60.0,13.233333333333333
2026-01-20T23:13:15+00:00,SAT-55785,187.96216209195757,54.892690965765595,693.3652642585249,-3.677675727385304,128807.76052593587,10.5,10500128807.760527,47.655,-122.3035,60.0,13.25
2026-01-20T23:13:16+00:00,SAT-55785,187.61767112354332,55.388341044193524,689.6974478722454,-3.6237845553600967,126920.26372218148,10.5,10500126920.263721,47.655,-122.3035,60.0,13.266666666666667
2026-01-20T23:13:17+00:00,SAT-55785,187.26054268055685,55.88788157454752,686.0833781831961,-3.5690334439864864,125002.64820490617,10.5,10500125002.648205,47.655,-122.3035,60.0,13.283333333333333
2026-01-20T23:13:18+00:00,SAT-55785,186.89010354958475,56.39123565182101,682.5239128253463,-3.5134175094521547,123054.74292234404,10.5,10500123054.742922,47.655,-122.3035,60.0,13.3
2026-01-20T23:13:19+00:00,SAT-55785,186.50563427946327,56.89831709870993,679.0199143033855,-3.456932459026736,121076.39752491948,10.5,10500121076.397526,47.655,-122.3035,60.0,13.316666666666666
2026-01-20T23:13:20+00:00,SAT-55785,186.10636539549728,57.40902979609526,675.5722494032246,-3.399574593368244,119067.48244602792,10.5,10500119067.482447,47.655,-122.3035,60.0,13.333333333333334
2026-01-20T23:13:21+00:00,SAT-55785,185.69147327264685,57.92326695406847,672.1817886001999,-3.341340884884465,117027.89164658333,10.5,10500117027.891647,47.655,-122.3035,60.0,13.35
2026-01-20T23:13:22+00:00,SAT-55785,185.26007562678757,58.44091032865911,668.8494053891228,-3.282228969440967,114957.54232459761,10.5,10500114957.542324,47.655,-122.3035,60.0,13.366666666666667
2026-01-20T23:13:23+00:00,SAT-55785,184.81122660078083,58.96182936475343,665.5759756226016,-3.2222371995987746,112856.3767797892,10.5,10500112856.37678,47.655,-122.3035,60.0,13.383333333333333
2026-01-20T23:13:24+00:00,SAT-55785,184.343911401519,59.48588026663509,662.3623767962661,-3.1613646748120243,110724.36347123267,10.5,10500110724.363472,47.655,-122.3035,60.0,13.4
2026-01-20T23:13:25+00:00,SAT-55785,183.8570404521236,60.01290498422654,659.2094873038787,-3.0996113082540377,108561.49935789044,10.5,10500108561.499357,47.655,-122.3035,60.0,13.416666666666666
2026-01-20T23:13:26+00:00,SAT-55785,183.34944301269587,60.54273011163108,656.118185625796,-3.0369777956511226,106367.80880704072,10.5,10500106367.808807,47.655,-122.3035,60.0,13.433333333333334
2026-01-20T23:13:27+00:00,SAT-55785,182.8198602453991,61.075165670801454,653.089349548512,-2.9734657335087236,104143.34773505742,10.5,10500104143.347734,47.655,-122.3035,60.0,13.45
2026-01-20T23:13:28+00:00,SAT-55785,182.26693765559648,61.61000379338286,650.1238552662966,-2.909077556013268,101888.20139744581,10.5,10500101888.201397,47.655,-122.3035,60.0,13.466666666666667
2026-01-20T23:13:29+00:00,SAT-55785,181.68921690198817,62.14701725596474,647.2225765457581,-2.8438166855854132,99602.48966185414,10.5,10500099602.489662,47.655,-122.3035,60.0,13.483333333333333
2026-01-20T23:13:30+00:00,SAT-55785,181.08512689548715,62.685957891338866,644.3863837402603,-2.77768743704517,97286.36365153083,10.5,10500097286.363651,47.655,-122.3035,60.0,13.5
2026-01-20T23:13:31+00:00,SAT-55785,180.45297420521993,63.22655481432534,641.6161428999129,-2.710695162440054,94940.01081781906,10.5,10500094940.010818,47.655,-122.3035,60.0,13.516666666666667
2026-01-20T23:13:32+00:00,SAT-55785,179.79093269547158,63.768512487548875,638.9127147371277,-2.642846192801066,92563.65290020467,10.5,10500092563.6529,47.655,-122.3035,60.0,13.533333333333333
2026-01-20T23:13:33+00:00,SAT-55785,179.09703242847797,64.31150856832419,636.2769536502567,-2.5741479309297715,90157.54917611237,10.5,10500090157.549175,47.655,-122.3035,60.0,13.55
2026-01-20T23:13:34+00:00,SAT-55785,178.36914780611554,64.85519154283952,633.7097066546972,-2.504608834216158,87721.99585911416,10.5,10500087721.99586,47.655,-122.3035,60.0,13.566666666666666
2026-01-20T23:13:35+00:00,SAT-55785,177.6049850133324,65.39917810123937,631.2118123311297,-2.4342384511300783,85257.32737701434,10.5,10500085257.327377,47.655,-122.3035,60.0,13.583333333333334
2026-01-20T23:13:36+00:00,SAT-55785,176.80206882611705,65.94305023741907,628.7840997373621,-2.363047472787138,82763.91817790476,10.5,10500082763.918179,47.655,-122.3035,60.0,13.6
2026-01-20T23:13:37+00:00,SAT-55785,175.95772890204992,66.48635204947516,626.427387268749,-2.291047691357767,80242.1812734747,10.5,10500080242.181274,47.655,-122.3035,60.0,13.616666666666667
2026-01-20T23:13:38+00:00,SAT-55785,175.06908578603662,67.02858619087304,624.142481560087,-2.2182520790145883,77692.57100408168,10.5,10500077692.571005,47.655,-122.3035,60.0,13.633333333333333
2026-01-20T23:13:39+00:00,SAT-55785,174.13303687841912,67.56920997036868,621.9301763087777,-2.144674747551813,75115.5816244518,10.5,10500075115.581625,47.655,-122.3035,60.0,13.65
2026-01-20T23:13:40+00:00,SAT-55785,173.14624282799795,68.10763104588916,619.791251138259,-2.07033101981909,72511.74980559532,10.5,10500072511.749805,47.655,-122.3035,60.0,13.666666666666666
2026-01-20T23:13:41+00:00,SAT-55785,172.10511487674157,68.64320271521308,617.7264703901983,-1.995237364966426,69881.65236680995,10.5,10500069881.652367,47.655,-122.3035,60.0,13.683333333333334
2026-01-20T23:13:42+00:00,SAT-55785,171.00580400315926,69.1752187526934,615.7365819812649,-1.9194114678268621,67225.90870575553,10.5,10500067225.908707,47.655,-122.3035,60.0,13.7
2026-01-20T23:13:43+00:00,SAT-55785,169.84419284172864,69.70290781924757,613.8223161907042,-1.8428721811345339,64545.1791249285,10.5,10500064545.179125,47.655,-122.3035,60.0,13.716666666666667
2026-01-20T23:13:44+00:00,SAT-55785,168.61589180976893,70.22542742600679,611.9843844955711,-1.7656395648829952,61840.16621015679,10.5,10500061840.16621,47.655,-122.3035,60.0,13.733333333333333
2026-01-20T23:13:45+00:00,SAT-55785,167.31624116074872,70.74185750950339,610.2234783667031,-1.687734830670067,59111.61288132106,10.5,10500059111.61288,47.655,-122.3035,60.0,13.75
2026-01-20T23:13:46+00:00,SAT-55785,165.94032127990195,71.25119366129854,608.5402681202069,-1.6091803710277104,56360.30341961091,10.5,10500056360.30342,47.655,-122.3035,60.0,13.766666666666667
2026-01-20T23:13:47+00:00,SAT-55785,164.4829739751744,71.75234015274489,606.9354017396869,-1.5299997108513363,53587.06176637383,10.5,10500053587.061766,47.655,-122.3035,60.0,13.783333333333333
2026-01-20T23:13:48+00:00,SAT-55785,162.93883826888816,72.24410291294994,605.4095037469203,-1.450217530098043,50792.75231810352,10.5,10500050792.752317,47.655,-122.3035,60.0,13.8
2026-01-20T23:13:49+00:00,SAT-55785,161.30240473671608,72.72518274588444,603.9631740498903,-1.369859583806293,47978.277125190645,10.5,10500047978.277124,47.655,-122.3035,60.0,13.816666666666666
2026-01-20T23:13:50+00:00,SAT-55785,159.56809326345885,73.1941691243623,602.596986870588,-1.288952713680401,45144.5762976606,10.5,10500045144.576298,47.655,-122.3035,60.0,13.833333333333334
2026-01-20T23:13:51+00:00,SAT-55785,157.73035941736393,73.6495350905751,601.3114896612574,-1.2075248041775513,42292.62646715511,10.5,10500042292.626467,47.655,-122.3035,60.0,13.85
2026-01-20T23:13:52+00:00,SAT-55785,155.78383504379698,74.08963390109182,600.1072020644414,-1.125604739843002,39423.43929263064,10.5,10500039423.439293,47.655,-122.3035,60.0,13.866666666666667
2026-01-20T23:13:53+00:00,SAT-55785,153.72350838627983,74.51269824477126,598.9846149155727,-1.0432223730164039,36538.06032929702,10.5,10500036538.06033,47.655,-122.3035,60.0,13.883333333333333
2026-01-20T23:13:54+00:00,SAT-55785,151.5449479642382,74.91684304640523,597.9441892777734,-0.9604084547748968,33637.5666099526,10.5,10500033637.56661,47.655,-122.3035,60.0,13.9
2026-01-20T23:13:55+00:00,SAT-55785,149.2445723325111,75.30007301644696,596.9863555455292,-0.8771946182458424,30723.066060525598,10.5,10500030723.066061,47.655,-122.3035,60.0,13.916666666666666
2026-01-20T23:13:56+00:00,SAT-55785,146.8199639077074,75.66029625761485,596.1115125650022,-0.7936132995722965,27795.694731950574,10.5,10500027795.694733,47.655,-122.3035,60.0,13.933333333333334
2026-01-20T23:13:57+00:00,SAT-55785,144.27021971859486,75.99534521359911,595.3200268331674,-0.7096976852914261,24856.614957138027,10.5,10500024856.614958,47.655,-122.3035,60.0,13.95
2026-01-20T23:13:58+00:00,SAT-55785,141.59632426855262,76.30300613872853,594.612231749432,-0.6254816558918759,21907.013374114627,10.5,10500021907.013374,47.655,-122.3035,60.0,13.966666666666667
2026-01-20T23:13:59+00:00,SAT-55785,138.8015207141701,76.58105789260986,593.9884269235431,-0.5409997214784826,18948.098672729346,10.5,10500018948.098673,47.655,-122.3035,60.0,13.983333333333333
2026-01-20T23:14:00+00:00,SAT-55785,135.89164701239704,76.82732021887055,593.4488775476599,-0.45628694538582665,15981.098919276948,10.5,10500015981.098919,47.655,-122.3035,60.0,14.0
2026-01-20T23:14:01+00:00,SAT-55785,132.87539547076793,77.03971072230131,592.9938138446072,-0.3713788798550159,13007.259303626868,10.5,10500013007.259304,47.655,-122.3035,60.0,14.016666666666667
2026-01-20T23:14:02+00:00,SAT-55785,129.76444953894529,77.21630857014027,592.6234305802788,-0.2863114953667441,10027.83966416798,10.5,10500010027.839664,47.655,-122.3035,60.0,14.033333333333333
2026-01-20T23:14:03+00:00,SAT-55785,126.57345386627928,77.35542160877425,592.33788664652,-0.20112110075206485,7044.111689749983,10.5,10500007044.11169,47.655,-122.3035,60.0,14.05
2026-01-20T23:14:04+00:00,SAT-55785,123.319784654126,77.45565235491202,592.1373047236843,-0.11584426959480026,4057.3563419844368,10.5,10500004057.356342,47.655,-122.3035,60.0,14.066666666666666
2026-01-20T23:14:05+00:00,SAT-55785,120.02310750571615,77.51595748186905,592.0217710165898,-0.030517760800348737,1068.8610732284058,10.5,10500001068.861073,47.655,-122.3035,60.0,14.083333333333334
2026-01-20T23:14:06+00:00,SAT-55785,116.70473761084878,77.53569524076015,591.991335069695,0.05482155835996904,-1920.082868728055,10.5,10499998079.917131,47.655,-122.3035,60.0,14.1
2026-01-20T23:14:07+00:00,SAT-55785,113.38684685060757,77.51465594398145,592.0460096590219,0.1401367940090192,-4908.183304246772,10.5,10499995091.816696,47.655,-122.3035,60.0,14.116666666666667
2026-01-20T23:14:08+00:00,SAT-55785,110.09158807493827,77.45307217826237,592.1857707656253,0.22539110356009628,-7894.149850097334,10.5,10499992105.85015,47.655,-122.3035,60.0,14.133333333333333
2026-01-20T23:14:09+00:00,SAT-55785,106.84022124087168,77.35160759864291,592.4105576267408,0.3105477735801305,-10876.696646555967,10.5,10499989123.303354,47.655,-122.3035,60.0,14.15
2026-01-20T23:14:10+00:00,SAT-55785,103.65232582076423,77.21132556060624,592.7202728645955,0.39557030243257474,-13854.545251909021,10.5,10499986145.454748,47.655,-122.3035,60.0,14.166666666666666
2026-01-20T23:14:11+00:00,SAT-55785,100.54516868904805,77.0336410045953,593.1147826976357,0.48042247589097703,-16826.427290760126,10.5,10499983173.57271,47.655,-122.3035,60.0,14.183333333333334
2026-01-20T23:14:12+00:00,SAT-55785,97.53327099039213,76.82026052093617,593.5939172271671,0.5650684392332579,-19791.086979076732,10.5,10499980208.913021,47.655,-122.3035,60.0,14.2
2026-01-20T23:14:13+00:00,SAT-55785,94.62818747953732,76.57311616517596,594.1574707958945,0.6494727788877249,-22747.28398377891,10.5,10499977252.716017,47.655,-122.3035,60.0,14.216666666666667
2026-01-20T23:14:14+00:00,SAT-55785,91.83848449919911,76.29429837761725,594.8052024278892,0.733600585685469,-25693.79563810583,10.5,10499974306.204361,47.655,-122.3035,60.0,14.233333333333333
2026-01-20T23:14:15+00:00,SAT-55785,89.16988298239305,75.98599250361396,595.5368363316412,0.8174175391995628,-28629.419895531228,10.5,10499971370.580105,47.655,-122.3035,60.0,14.25
2026-01-20T23:14:16+00:00,SAT-55785,86.62552215778719,75.65042215289186,596.3520624872218,0.9008899544792985,-31552.97696659412,10.5,10499968447.023033,47.655,-122.3035,60.0,14.266666666666667
2026-01-20T23:14:17+00:00,SAT-55785,84.20629805453869,75.28980133575712,597.2505372800559,0.9839848631656204,-34463.31215990435,10.5,10499965536.68784,47.655,-122.3035,60.0,14.283333333333333
2026-01-20T23:14:18+00:00,SAT-55785,81.91123535129259,74.90629609299552,598.2318842155934,1.06667006103699,-37359.297547399925,10.5,10499962640.702452,47.655,-122.3035,60.0,14.3
2026-01-20T23:14:19+00:00,SAT-55785,79.73785971582417,74.50199543505275,599.2956946813971,1.1489141817408937,-40239.834546736274,10.5,10499959760.165453,47.655,-122.3035,60.0,14.316666666666666
2026-01-20T23:14:20+00:00,SAT-55785,77.6825471859137,74.07889075208273,600.4415287827671,1.230686725276003,-43103.854918852,10.5,10499956896.14508,47.655,-122.3035,60.0,14.333333333333334
2026-01-20T23:14:21+00:00,SAT-55785,75.7408362721177,73.63886253140303,601.6689162067673,1.3119581306753527,-45950.32331364122,10.5,10499954049.676687,47.655,-122.3035,60.0,14.35
2026-01-20T23:14:22+00:00,SAT-55785,73.90769570426718,73.18367305334553,602.9773571587443,1.3926998110823972,-48778.2384984654,10.5,10499951221.761501,47.655,-122.3035,60.0,14.366666666666667
2026-01-20T23:14:23+00:00,SAT-55785,72.17774639203616,72.71496379187055,604.3663233338259,1.4728841897229346,-51586.634618042364,10.5,10499948413.365381,47.655,-122.3035,60.0,14.383333333333333
2026-01-20T23:14:24+00:00,SAT-55785,70.54543975767987,72.2342563505912,605.8352589242942,1.5524847421206325,-54374.58267301254,10.5,10499945625.417328,47.655,-122.3035,60.0,14.4
2026-01-20T23:14:25+00:00,SAT-55785,69.00519675493582,71.74295593054269,607.3835816690641,1.6314760271800088,-57141.19160859642,10.5,10499942858.808392,47.655,-122.3035,60.0,14.416666666666666
2026-01-20T23:14:26+00:00,SAT-55785,67.5515129145297,71.24235651260867,609.0106839341591,1.7098337253382299,-59885.60965083189,10.5,10499940114.390348,47.655,-122.3035,60.0,14.433333333333334
2026-01-20T23:14:27+00:00,SAT-55785,66.17903495785254,70.73364710445426,610.7159338312366,1.7875346362381026,-62607.02422507266,10.5,10499937392.975775,47.655,-122.3035,60.0,14.45
2026-01-20T23:14:28+00:00,SAT-55785,64.88261428851318,70.21791856970701,612.4986763337946,1.86455671818308,-65304.66333786936,10.5,10499934695.336662,47.655,-122.3035,60.0,14.466666666666667
2026-01-20T23:14:29+00:00,SAT-55785,63.65734206431353,69.69617066141981,614.3582344327251,1.9408790993166978,-67977.79596852076,10.5,10499932022.204031,47.655,-122.3035,60.0,14.483333333333333
2026-01-20T23:14:30+00:00,SAT-55785,62.4985699618384,69.16931900891875,616.2939103030177,2.016482099488478,-70625.73283491013,10.5,10499929374.267164,47.655,-122.3035,60.0,14.5
2026-01-20T23:14:31+00:00,SAT-55785,61.40192004409704,68.63820187780698,618.3049864922722,2.091347206004981,-73247.82554420464,10.5,10499926752.174456,47.655,-122.3035,60.0,14.516666666666667
2026-01-20T23:14:32+00:00,SAT-55785,60.36328654334711,68.1035866011992,620.3907270850237,2.1654570870229253,-75843.46706193895,10.5,10499924156.532938,47.655,-122.3035,60.0,14.533333333333333
2026-01-20T23:14:33+00:00,SAT-55785,59.37883176526589,67.56617560404021,622.5503788804292,2.238795627520474,-78412.09297188181,10.5,10499921587.907028,47.655,-122.3035,60.0,14.55
2026-01-20T23:14:34+00:00,SAT-55785,58.44497786411189,67.02661198260402,624.783172605826,2.311347876563077,-80953.17962906293,10.5,10499919046.820372,47.655,-122.3035,60.0,14.566666666666666
2026-01-20T23:14:35+00:00,SAT-55785,57.5583958813972,66.48548465219469,627.0883240776983,2.383100050911328,-83466.24428613525,10.5,10499916533.755714,47.655,-122.3035,60.0,14.583333333333334
2026-01-20T23:14:36+00:00,SAT-55785,56.71599305264406,65.94333305518913,629.4650353662407,2.454039536251616,-85950.84513647761,10.5,10499914049.154863,47.655,-122.3035,60.0,14.6
2026-01-20T23:14:37+00:00,SAT-55785,55.91489915750031,65.40065144830214,631.9124959611531,2.5241548735118013,-88406.58083491185,10.5,10499911593.419165,47.655,-122.3035,60.0,14.616666666666667
2026-01-20T23:14:38+00:00,SAT-55785,55.152452490351976,64.85789279704059,634.4298839237824,2.5934357362092237,-90833.08970433421,10.5,10499909166.910295,47.655,-122.3035,60.0,14.633333333333333
2026-01-20T23:14:39+00:00,SAT-55785,54.426185861010254,64.31547230690371,637.0163670166768,2.6618728745034566,-93230.04777620621,10.5,10499906769.952225,47.655,-122.3035,60.0,14.65
2026-01-20T23:14:40+00:00,SAT-55785,53.73381292175595,63.77377062691659,639.6711037773423,2.729458168361178,-95597.17065261319,10.5,10499904402.829348,47.655,-122.3035,60.0,14.666666666666666
2026-01-20T23:14:41+00:00,SAT-55785,53.07321498700928,63.23313673190672,642.3932446450193,2.7961845386929274,-97934.21039389768,10.5,10499902065.789606,47.655,-122.3035,60.0,14.683333333333334
2026-01-20T23:14:42+00:00,SAT-55785,52.442428508004944,62.69389054158364,645.1819329988375,2.8620459492302137,-100240.95558440381,10.5,10499899759.044416,47.655,-122.3035,60.0,14.7
2026-01-20T23:14:43+00:00,SAT-55785,51.839633250779784,62.15632528383491,648.03630619784,2.927037361927836,-102517.22977047769,10.5,10499897482.77023,47.655,-122.3035,60.0,14.716666666666667
2026-01-20T23:14:44+00:00,SAT-55785,51.26314122433454,61.62070963645393,650.9554965765317,2.9911547285956614,-104762.891167377,10.5,10499895237.108833,47.655,-122.3035,60.0,14.733333333333333
2026-01-20T23:14:45+00:00,SAT-55785,50.71138635865375,61.08728966317529,653.9386324320792,3.0543949510784625,-106977.83126460058,10.5,10499893022.168736,47.655,-122.3035,60.0,14.75
2026-01-20T23:14:46+00:00,SAT-55785,50.18291492823606,60.55629057087583,656.9848389718004,3.1167558239414355,-109161.97281849256,10.5,10499890838.027182,47.655,-122.3035,60.0,14.766666666666667
2026-01-20T23:14:47+00:00,SAT-55785,49.676376697713,60.02791830937392,660.0932392034902,3.1782360411506203,-111315.27008621916,10.5,10499888684.729914,47.655,-122.3035,60.0,14.783333333333333
2026-01-20T23:14:48+00:00,SAT-55785,49.19051674729922,59.50236101953864,663.2629548324109,3.2388351345578528,-113437.70667125139,10.5,10499886562.29333,47.655,-122.3035,60.0,14.8
2026-01-20T23:14:49+00:00,SAT-55785,48.72416794993421,58.979790356928,666.4931070969322,3.2985534597382036,-115529.29502733234,10.5,10499884470.704973,47.655,-122.3035,60.0,14.816666666666666
2026-01-20T23:14:50+00:00,SAT-55785,48.27624405329718,58.46036269632464,669.782817590045,3.35739213171962,-117590.07420745723,10.5,10499882409.925793,47.655,-122.3035,60.0,14.833333333333334
2026-01-20T23:14:51+00:00,SAT-55785,47.8457333305387,57.944220237408985,673.1312090167797,3.4153530184303165,-119620.10963437353,10.5,10499880379.890366,47.655,-122.3035,60.0,14.85
2026-01-20T23:14:52+00:00,SAT-55785,47.431692751750134,57.4314920129811,676.5374059450863,3.4724386877074673,-121619.49124460098,10.5,10499878380.508755,47.655,-122.3035,60.0,14.866666666666667
2026-01-20T23:14:53+00:00,SAT-55785,47.033242641336315,56.922294816752725,680.0005355038687,3.528652393258648,-123588.33299674204,10.5,10499876411.667004,47.655,-122.3035,60.0,14.883333333333333
2026-01-20T23:14:54+00:00,SAT-55785,46.64956177882974,56.416734053231146,683.519728067015,3.583997993648303,-125526.77003404529,10.5,10499874473.229965,47.655,-122.3035,60.0,14.9
2026-01-20T23:14:55+00:00,SAT-55785,46.2798829132429,55.91490452698518,687.0941178566339,3.6384799784569557,-127434.95960061156,10.5,10499872565.0404,47.655,-122.3035,60.0,14.916666666666666
2026-01-20T23:14:56+00:00,SAT-55785,45.92348864661489,55.416891162456245,690.7228435723788,3.692103387452169,-129313.07821041907,10.5,10499870686.92179,47.655,-122.3035,60.0,14.933333333333334
2026-01-20T23:14:57+00:00,SAT-55785,45.57970766511894,54.92276967576023,694.4050489401594,3.7448737994864687,-131161.32125848182,10.5,10499868838.678741,47.655,-122.3035,60.0,14.95
2026-01-20T23:14:58+00:00,SAT-55785,45.247911282409206,54.432607193735365,698.1398832497821,3.7967972780048913,-132979.90111229336,10.5,10499867020.098888,47.655,-122.3035,60.0,14.966666666666667
2026-01-20T23:14:59+00:00,SAT-55785,44.92751027084587,53.946462830910455,701.9265018382428,3.847880369243462,-134769.0470487298,10.5,10499865230.952951,47.655,-122.3035,60.0,14.983333333333333
