DopplerPredictor/satellites_20260205_234138/SAT-60286.csv

timestamp,satellite,azimuth_deg,elevation_deg,distance_km,relative_velocity_kms,doppler_shift_hz,tx_freq_ghz,rx_freq_hz,ue_lat,ue_lon,ue_alt_m,time_minutes
2026-01-20T23:05:18+00:00,SAT-60286,291.8774642088627,30.10016325894757,878.0721681858677,-4.605407968365241,161300.8679085417,10.5,10500161300.867908,47.655,-122.3035,60.0,5.3
2026-01-20T23:05:19+00:00,SAT-60286,292.2246031744802,30.32323403942503,873.4791066807193,-4.572858679556382,160160.8541311003,10.5,10500160160.854132,47.655,-122.3035,60.0,5.316666666666666
2026-01-20T23:05:20+00:00,SAT-60286,292.5769552349691,30.54732474357894,868.9185072042281,-4.539789215825836,159002.6216275637,10.5,10500159002.621628,47.655,-122.3035,60.0,5.333333333333333
2026-01-20T23:05:21+00:00,SAT-60286,292.93461409792104,30.77240810709072,864.3908885367996,-4.506192465104112,157825.92130317425,10.5,10500157825.921303,47.655,-122.3035,60.0,5.35
2026-01-20T23:05:22+00:00,SAT-60286,293.2976747419359,30.998454989630886,859.8967765518397,-4.472061306471447,156630.50375320046,10.5,10500156630.503754,47.655,-122.3035,60.0,5.366666666666666
2026-01-20T23:05:23+00:00,SAT-60286,293.6662333820536,31.22543430250224,855.4367042245862,-4.437388668126381,155416.12129324148,10.5,10500155416.121294,47.655,-122.3035,60.0,5.383333333333334
2026-01-20T23:05:24+00:00,SAT-60286,294.0403874338191,31.45331293752733,851.0112115831195,-4.402167471952566,154182.52601772238,10.5,10500154182.526018,47.655,-122.3035,60.0,5.4
2026-01-20T23:05:25+00:00,SAT-60286,294.4202354669275,31.682055691534963,846.6208457146599,-4.366390746804133,152929.47376762694,10.5,10500152929.473768,47.655,-122.3035,60.0,5.416666666666667
2026-01-20T23:05:26+00:00,SAT-60286,294.80587716155424,31.91162519517649,842.2661606588864,-4.330051493092948,151656.71938777043,10.5,10500151656.719387,47.655,-122.3035,60.0,5.433333333333334
2026-01-20T23:05:27+00:00,SAT-60286,295.1974132464654,32.14198183332583,837.9477174362991,-4.293142873381187,150364.023402158,10.5,10500150364.023401,47.655,-122.3035,60.0,5.45
2026-01-20T23:05:28+00:00,SAT-60286,295.59494544590285,32.37308367419124,833.6660838865077,-4.255657987006203,149051.1441203939,10.5,10500149051.144121,47.655,-122.3035,60.0,5.466666666666667
2026-01-20T23:05:29+00:00,SAT-60286,295.99857639882873,32.604886385284125,829.4218347312839,-4.2175901422606685,147717.84717058163,10.5,10500147717.84717,47.655,-122.3035,60.0,5.483333333333333
2026-01-20T23:05:30+00:00,SAT-60286,296.408409593692,32.83734316292492,825.2155513661672,-4.178932673184049,146363.89908258634,10.5,10500146363.899082,47.655,-122.3035,60.0,5.5
2026-01-20T23:05:31+00:00,SAT-60286,296.82454927801126,33.07040465108507,821.0478218347873,-4.139679034058829,144989.0705976923,10.5,10500144989.070599,47.655,-122.3035,60.0,5.516666666666667
2026-01-20T23:05:32+00:00,SAT-60286,297.24710036675907,33.3040188646358,816.9192407089431,-4.099822803396606,143593.13680821273,10.5,10500143593.136808,47.655,-122.3035,60.0,5.533333333333333
2026-01-20T23:05:33+00:00,SAT-60286,297.67616834114745,33.538131112389436,812.8304089647066,-4.059357661071252,142175.8763565965,10.5,10500142175.876356,47.655,-122.3035,60.0,5.55
2026-01-20T23:05:34+00:00,SAT-60286,298.1118591342895,33.772683918571104,808.7819338813337,-4.018277472199949,140737.0743732968,10.5,10500140737.074373,47.655,-122.3035,60.0,5.566666666666666
2026-01-20T23:05:35+00:00,SAT-60286,298.55427901400265,34.00761694907409,804.7744288565142,-3.9765762348306013,139276.52064456308,10.5,10500139276.520645,47.655,-122.3035,60.0,5.583333333333333
2026-01-20T23:05:36+00:00,SAT-60286,299.00353444832336,34.24286693502295,800.8085132738015,-3.93424811320152,137794.0107773357,10.5,10500137794.010777,47.655,-122.3035,60.0,5.6
2026-01-20T23:05:37+00:00,SAT-60286,299.4597319618416,34.478367598772195,796.8848123368654,-3.8912874651592446,136289.34715953417,10.5,10500136289.34716,47.655,-122.3035,60.0,5.616666666666666
2026-01-20T23:05:38+00:00,SAT-60286,299.92297798162014,34.71404958241122,793.0039568764026,-3.8476888588162046,134762.33954347894,10.5,10500134762.339544,47.655,-122.3035,60.0,5.633333333333334
2026-01-20T23:05:39+00:00,SAT-60286,300.3933786712935,34.94984037853022,789.1665831404358,-3.8034470552810324,133212.8044410338,10.5,10500133212.804441,47.655,-122.3035,60.0,5.65
2026-01-20T23:05:40+00:00,SAT-60286,300.87103974850584,35.18566426153191,785.3733326018341,-3.758557073518207,131640.56739526507,10.5,10500131640.567396,47.655,-122.3035,60.0,5.666666666666667
2026-01-20T23:05:41+00:00,SAT-60286,301.35606629484926,35.4214422249061,781.6248517011492,-3.713014153105451,130045.46167604801,10.5,10500130045.461676,47.655,-122.3035,60.0,5.683333333333334
2026-01-20T23:05:42+00:00,SAT-60286,301.848562545326,35.65709191865872,777.9217916265924,-3.666813836289373,128427.33115400262,10.5,10500128427.331154,47.655,-122.3035,60.0,5.7
2026-01-20T23:05:43+00:00,SAT-60286,302.34863167180634,35.89252759478641,774.2648080121778,-3.619951901418084,126786.02796902209,10.5,10500126786.02797,47.655,-122.3035,60.0,5.716666666666667
2026-01-20T23:05:44+00:00,SAT-60286,302.85637554069876,36.12766005193536,770.6545607022539,-3.5724244762838504,125121.41650001224,10.5,10500125121.4165,47.655,-122.3035,60.0,5.733333333333333
2026-01-20T23:05:45+00:00,SAT-60286,303.3718944680577,36.36239659123547,767.0917134029963,-3.5242279583603,123433.37057126084,10.5,10500123433.370571,47.655,-122.3035,60.0,5.75
2026-01-20T23:05:46+00:00,SAT-60286,303.8952869456304,36.59664097146038,763.5769334134491,-3.475359132468379,121721.77757359718,10.5,10500121721.777575,47.655,-122.3035,60.0,5.766666666666667
2026-01-20T23:05:47+00:00,SAT-60286,304.42664936479684,36.83029337695581,760.1108912392151,-3.4258150808981958,119986.53531647903,10.5,10500119986.535316,47.655,-122.3035,60.0,5.783333333333333
2026-01-20T23:05:48+00:00,SAT-60286,304.9660757084798,37.06325038529051,756.6942602957864,-3.375593305179619,118227.55629291381,10.5,10500118227.556293,47.655,-122.3035,60.0,5.8
2026-01-20T23:05:49+00:00,SAT-60286,305.51365724132035,37.29540494934097,753.3277164904262,-3.3246916981213017,116444.76670014717,10.5,10500116444.7667,47.655,-122.3035,60.0,5.816666666666666
2026-01-20T23:05:50+00:00,SAT-60286,306.0694821765649,37.52664638457799,750.0119378319399,-3.2731085227213326,114638.10570102464,10.5,10500114638.105701,47.655,-122.3035,60.0,5.833333333333333
2026-01-20T23:05:51+00:00,SAT-60286,306.63363531927854,37.756860362495146,746.747604061479,-3.220842514087921,112807.52899368525,10.5,10500112807.528994,47.655,-122.3035,60.0,5.85
2026-01-20T23:05:52+00:00,SAT-60286,307.20619770571204,37.9859289194754,743.5353961816951,-3.1678928380631888,110953.00736239163,10.5,10500110953.007362,47.655,-122.3035,60.0,5.866666666666666
2026-01-20T23:05:53+00:00,SAT-60286,307.78724621644204,38.21373047195031,740.3759960271616,-3.1142591327674722,109074.52813258716,10.5,10500109074.528133,47.655,-122.3035,60.0,5.883333333333334
2026-01-20T23:05:54+00:00,SAT-60286,308.3768531763408,38.4401398443338,737.2700857933611,-3.059941523097304,107172.09567867678,10.5,10500107172.095678,47.655,-122.3035,60.0,5.9
2026-01-20T23:05:55+00:00,SAT-60286,308.97508593776297,38.66502830863754,734.2183475512153,-3.0049406353336825,105245.7319356702,10.5,10500105245.731936,47.655,-122.3035,60.0,5.916666666666667
2026-01-20T23:05:56+00:00,SAT-60286,309.58200644713577,38.88826363652872,731.2214627470433,-2.949257640854438,103295.47793017395,10.5,10500103295.47793,47.655,-122.3035,60.0,5.933333333333334
2026-01-20T23:05:57+00:00,SAT-60286,310.1976708016557,39.10971016679918,728.2801116589264,-2.8928942232804897,101321.39262971432,10.5,10500101321.39263,47.655,-122.3035,60.0,5.95
2026-01-20T23:05:58+00:00,SAT-60286,310.8221287817781,39.32922888331211,725.394972885839,-2.83585264410252,99323.55524126113,10.5,10500099323.55524,47.655,-122.3035,60.0,5.966666666666667
2026-01-20T23:05:59+00:00,SAT-60286,311.4554233801729,39.54667751151628,722.5667227713277,-2.778135748977309,97302.06543175194,10.5,10500097302.065432,47.655,-122.3035,60.0,5.983333333333333
2026-01-20T23:06:00+00:00,SAT-60286,312.09759031685957,39.761910629913125,719.7960348209107,-2.719746962619235,95257.04314917079,10.5,10500095257.04315,47.655,-122.3035,60.0,6.0
2026-01-20T23:06:01+00:00,SAT-60286,312.74865753955015,39.974779796250424,717.0835791245731,-2.6606903312333277,93188.63010873321,10.5,10500093188.630108,47.655,-122.3035,60.0,6.016666666666667
2026-01-20T23:06:02+00:00,SAT-60286,313.408644721021,40.185133692788845,714.4300217369424,-2.600970522253143,91096.98978370565,10.5,10500091096.989784,47.655,-122.3035,60.0,6.033333333333333
2026-01-20T23:06:03+00:00,SAT-60286,314.07756274666144,40.3928182879978,711.8360240577257,-2.5405928475685773,88982.30821894146,10.5,10500088982.308218,47.655,-122.3035,60.0,6.05
2026-01-20T23:06:04+00:00,SAT-60286,314.75541319958404,40.59767701709693,709.3022421889794,-2.4795632896867277,86844.7949471452,10.5,10500086844.794947,47.655,-122.3035,60.0,6.066666666666666
2026-01-20T23:06:05+00:00,SAT-60286,315.44218784783544,40.79955098225128,706.8293262662925,-2.4178884520657355,84684.6812493536,10.5,10500084684.68125,47.655,-122.3035,60.0,6.083333333333333
2026-01-20T23:06:06+00:00,SAT-60286,316.13786811558685,40.998279166678145,704.4179198394982,-2.3555756624320554,82502.22377354329,10.5,10500082502.223774,47.655,-122.3035,60.0,6.1
2026-01-20T23:06:07+00:00,SAT-60286,316.8424245827211,41.193698675433694,702.0686591503477,-2.292632929572369,80297.70302130107,10.5,10500080297.703022,47.655,-122.3035,60.0,6.116666666666666
2026-01-20T23:06:08+00:00,SAT-60286,317.555816477843,41.385644991317264,699.7821724532761,-2.229068947580147,78071.42349655622,10.5,10500078071.423496,47.655,-122.3035,60.0,6.133333333333334
2026-01-20T23:06:09+00:00,SAT-60286,318.27799118036586,41.57395224978642,697.5590793319329,-2.1648931205227266,75823.71456952607,10.5,10500075823.71457,47.655,-122.3035,60.0,6.15
2026-01-20T23:06:10+00:00,SAT-60286,319.00888374149775,41.75845353462265,695.3999899911109,-2.1001155730248646,73554.9308473967,10.5,10500073554.930847,47.655,-122.3035,60.0,6.166666666666667
2026-01-20T23:06:11+00:00,SAT-60286,319.7484164255926,41.938981193127454,693.3055045381215,-2.034747150397061,71265.45217881745,10.5,10500071265.452179,47.655,-122.3035,60.0,6.183333333333334
2026-01-20T23:06:12+00:00,SAT-60286,320.4964982731702,42.11536716970431,691.2762122640395,-1.9687993937644255,68955.6827828086,10.5,10500068955.682783,47.655,-122.3035,60.0,6.2
2026-01-20T23:06:13+00:00,SAT-60286,321.2530246808047,42.28744335520081,689.3126909497554,-1.902284602728401,66626.0534434399,10.5,10500066626.053444,47.655,-122.3035,60.0,6.216666666666667
2026-01-20T23:06:14+00:00,SAT-60286,322.0178770342109,42.455041959049026,687.4155061095316,-1.8352157720368583,64277.01929174954,10.5,10500064277.01929,47.655,-122.3035,60.0,6.233333333333333
2026-01-20T23:06:15+00:00,SAT-60286,322.79092235528043,42.61799589253075,685.5852102977195,-1.7676066273125834,61909.061057106795,10.5,10500061909.061058,47.655,-122.3035,60.0,6.25
2026-01-20T23:06:16+00:00,SAT-60286,323.5720130034,42.776139170836245,683.8223423798453,-1.6994716085025912,59522.684487537066,10.5,10500059522.684488,47.655,-122.3035,60.0,6.266666666666667
2026-01-20T23:06:17+00:00,SAT-60286,324.3609864178527,42.92930732826109,682.127426820198,-1.630825865389403,57118.42019250774,10.5,10500057118.420193,47.655,-122.3035,60.0,6.283333333333333
2026-01-20T23:06:18+00:00,SAT-60286,325.1576649109818,43.0773378463036,680.5009729738997,-1.5616852472161198,54696.823279554475,10.5,10500054696.82328,47.655,-122.3035,60.0,6.3
2026-01-20T23:06:19+00:00,SAT-60286,325.9618555147204,43.22007059262814,678.9434743893188,-1.492066307914734,52258.47353739869,10.5,10500052258.473537,47.655,-122.3035,60.0,6.316666666666666
2026-01-20T23:06:20+00:00,SAT-60286,326.7733498937763,43.35734827068766,677.4554081052704,-1.421986259064418,49803.9737883479,10.5,10500049803.97379,47.655,-122.3035,60.0,6.333333333333333
2026-01-20T23:06:21+00:00,SAT-60286,327.5919243046699,43.48901687335009,676.0372339951325,-1.3514629980988644,47333.95087623611,10.5,10500047333.950876,47.655,-122.3035,60.0,6.35
2026-01-20T23:06:22+00:00,SAT-60286,328.41733964255513,43.6149261454149,674.6893940828294,-1.2805150622872403,44849.05405464211,10.5,10500044849.054054,47.655,-122.3035,60.0,6.366666666666666
2026-01-20T23:06:23+00:00,SAT-60286,329.24934154372994,43.734930046025696,673.4123119047133,-1.2091616269212409,42349.95492339247,10.5,10500042349.954924,47.655,-122.3035,60.0,6.383333333333334
2026-01-20T23:06:24+00:00,SAT-60286,330.08766057014697,43.848887212719404,672.2063918732492,-1.1374224717070245,39837.34625146492,10.5,10500039837.34625,47.655,-122.3035,60.0,6.4
2026-01-20T23:06:25+00:00,SAT-60286,330.93201246232235,43.956661421690164,671.0720186742244,-1.0653179638515295,37311.941384599675,10.5,10500037311.941385,47.655,-122.3035,60.0,6.416666666666667
2026-01-20T23:06:26+00:00,SAT-60286,331.7820984717028,44.058122043248225,670.0095566808204,-0.9928690512478857,34774.47400662361,10.5,10500034774.474007,47.655,-122.3035,60.0,6.433333333333334
2026-01-20T23:06:27+00:00,SAT-60286,332.63760578663783,44.153144490795654,669.0193493744827,-0.9200971956010597,32225.695797227585,10.5,10500032225.695797,47.655,-122.3035,60.0,6.45
2026-01-20T23:06:28+00:00,SAT-60286,333.49820800650593,44.241610654870634,668.1017188324896,-0.8470243850191271,29666.376872966015,10.5,10500029666.376873,47.655,-122.3035,60.0,6.466666666666667
2026-01-20T23:06:29+00:00,SAT-60286,334.36356572625584,44.32340932705554,667.2569652029573,-0.7736730838235225,27097.30402939952,10.5,10500027097.30403,47.655,-122.3035,60.0,6.483333333333333
2026-01-20T23:06:30+00:00,SAT-60286,335.2333271837728,44.39843660501563,666.4853662299047,-0.7000662013414212,24519.279648072144,10.5,10500024519.279648,47.655,-122.3035,60.0,6.5
2026-01-20T23:06:31+00:00,SAT-60286,336.1071289836868,44.46659627770706,665.78717680944,-0.6262270667887577,21933.120816808394,10.5,10500021933.120817,47.655,-122.3035,60.0,6.516666666666667
2026-01-20T23:06:32+00:00,SAT-60286,336.98459690333846,44.527800188679684,665.1626285709978,-0.5521793768692093,19339.657494408006,10.5,10500019339.657494,47.655,-122.3035,60.0,6.533333333333333
2026-01-20T23:06:33+00:00,SAT-60286,337.8653467478216,44.581968572224156,664.6119295108371,-0.47794718922286206,16739.732281190514,10.5,10500016739.73228,47.655,-122.3035,60.0,6.55
2026-01-20T23:06:34+00:00,SAT-60286,338.74898530905045,44.62903036436506,664.135263632072,-0.4035548504972322,14134.197899738154,10.5,10500014134.197899,47.655,-122.3035,60.0,6.566666666666666
2026-01-20T23:06:35+00:00,SAT-60286,339.63511134051834,44.668923480007514,663.7327906564383,-0.32902698360899113,11523.916748747586,10.5,10500011523.916748,47.655,-122.3035,60.0,6.583333333333333
2026-01-20T23:06:36+00:00,SAT-60286,340.52331662312247,44.70159505990777,663.4046457487665,-0.2543884319424517,8909.758948624862,10.5,10500008909.75895,47.655,-122.3035,60.0,6.6
2026-01-20T23:06:37+00:00,SAT-60286,341.4131870541766,44.727001681340205,663.1509392971044,-0.17966422920895955,6292.601285833799,10.5,10500006292.601286,47.655,-122.3035,60.0,6.616666666666666
2026-01-20T23:06:38+00:00,SAT-60286,342.30430379756484,44.745109533333405,662.9717567229005,-0.10487955084952086,3673.3255108104454,10.5,10500003673.32551,47.655,-122.3035,60.0,6.633333333333334
2026-01-20T23:06:39+00:00,SAT-60286,343.1962444543035,44.755894553276796,662.8671583396532,-0.030059674645865137,1052.8169583958777,10.5,10500001052.816957,47.655,-122.3035,60.0,6.65
2026-01-20T23:06:40+00:00,SAT-60286,344.0885842639519,44.759342524698965,662.8371792508467,0.04477006266576875,-1568.0369717325307,10.5,10499998431.963028,47.655,-122.3035,60.0,6.666666666666667
2026-01-20T23:06:41+00:00,SAT-60286,344.98089731291446,44.755449135048835,662.8818292911527,0.11958430622411911,-4188.348245082439,10.5,10499995811.651754,47.655,-122.3035,60.0,6.683333333333334
2026-01-20T23:06:42+00:00,SAT-60286,345.87275777379176,44.744219993267166,663.0010930083545,0.19435772808044796,-6807.229769751925,10.5,10499993192.77023,47.655,-122.3035,60.0,6.7
2026-01-20T23:06:43+00:00,SAT-60286,346.76374111927163,44.725670606575115,663.1949296901872,0.2690650678656517,-9423.796820763726,10.5,10499990576.203178,47.655,-122.3035,60.0,6.716666666666667
2026-01-20T23:06:44+00:00,SAT-60286,347.65342533705194,44.69982631711533,663.4632734317368,0.34368117886101823,-12037.16865365803,10.5,10499987962.831347,47.655,-122.3035,60.0,6.733333333333333
2026-01-20T23:06:45+00:00,SAT-60286,348.5413921374248,44.66672219841929,663.8060332487853,0.41818106291724494,-14646.469727504193,10.5,10499985353.530273,47.655,-122.3035,60.0,6.75
2026-01-20T23:06:46+00:00,SAT-60286,349.42722810740247,44.62640291361301,664.223093225982,0.49253992288950543,-17250.831541398573,10.5,10499982749.168459,47.655,-122.3035,60.0,6.766666666666667
2026-01-20T23:06:47+00:00,SAT-60286,350.31052586541614,44.578922534813806,664.7143127173086,0.5667331879361207,-19849.393520531015,10.5,10499980150.60648,47.655,-122.3035,60.0,6.783333333333333
2026-01-20T23:06:48+00:00,SAT-60286,351.1908851351476,44.52434432773869,665.279526571777,0.6407365704687776,-22441.305010822405,10.5,10499977558.694988,47.655,-122.3035,60.0,6.8
2026-01-20T23:06:49+00:00,SAT-60286,352.06791380818026,44.46274050019117,665.918545415922,0.7145260923201292,-25025.726195424693,10.5,10499974974.273804,47.655,-122.3035,60.0,6.816666666666666
2026-01-20T23:06:50+00:00,SAT-60286,352.94122892409507,44.39419191931006,666.6311559623932,0.788078125627534,-27601.829526642417,10.5,10499972398.170473,47.655,-122.3035,60.0,6.833333333333333
2026-01-20T23:06:51+00:00,SAT-60286,353.8104575981109,44.31878779831292,667.4171213593207,0.8613694310290749,-30168.801063718845,10.5,10499969831.198936,47.655,-122.3035,60.0,6.85
2026-01-20T23:06:52+00:00,SAT-60286,354.6752378846589,44.23662535533489,668.2761815777741,0.9343771889394041,-32725.84156824834,10.5,10499967274.158432,47.655,-122.3035,60.0,6.866666666666666
2026-01-20T23:06:53+00:00,SAT-60286,355.53521956570717,44.14780944751817,669.2080538304139,1.0070790414913415,-35272.167973148564,10.5,10499964727.832027,47.655,-122.3035,60.0,6.883333333333334
2026-01-20T23:06:54+00:00,SAT-60286,356.3900648739914,44.052452181928,670.2124330319718,1.079453104860585,-37807.01381432399,10.5,10499962192.986185,47.655,-122.3035,60.0,6.9
2026-01-20T23:06:55+00:00,SAT-60286,357.2394491213282,43.95067250883508,671.2889922720228,1.1514780199681296,-40329.63100647902,10.5,10499959670.368994,47.655,-122.3035,60.0,6.916666666666667
2026-01-20T23:06:56+00:00,SAT-60286,358.08306126911776,43.84259579643796,672.4373833383232,1.2231329735426726,-42839.29058081261,10.5,10499957160.70942,47.655,-122.3035,60.0,6.933333333333334
2026-01-20T23:06:57+00:00,SAT-60286,358.9206044113915,43.72835339264741,673.6572372611561,1.2943977156761746,-45335.2832998882,10.5,10499954664.7167,47.655,-122.3035,60.0,6.95
2026-01-20T23:06:58+00:00,SAT-60286,359.75179617290945,43.608082176990465,674.9481648751836,1.3652525904486787,-47816.92073024441,10.5,10499952183.07927,47.655,-122.3035,60.0,6.966666666666667
2026-01-20T23:06:59+00:00,SAT-60286,0.5763690341288882,43.481924104129604,676.3097574118422,1.435678563057078,-50283.53619255932,10.5,10499949716.463808,47.655,-122.3035,60.0,6.983333333333333
2026-01-20T23:07:00+00:00,SAT-60286,1.3940705816025458,43.35002574199535,677.7415871187951,1.5056572301680615,-52734.485124254345,10.5,10499947265.514875,47.655,-122.3035,60.0,7.0
2026-01-20T23:07:01+00:00,SAT-60286,2.204663676458257,43.21253780864631,679.2432078897097,1.575170845594012,-55169.145978772845,10.5,10499944830.854021,47.655,-122.3035,60.0,7.016666666666667
2026-01-20T23:07:02+00:00,SAT-60286,3.007926554627324,43.06961470889031,680.8141559196403,1.6442023190763293,-57586.920182966904,10.5,10499942413.079817,47.655,-122.3035,60.0,7.033333333333333
2026-01-20T23:07:03+00:00,SAT-60286,3.8036528483737713,42.9214140754134,682.4539503591989,1.7127352697625993,-59987.23401009406,10.5,10499940012.76599,47.655,-122.3035,60.0,7.05
2026-01-20T23:07:04+00:00,SAT-60286,4.591651561714631,42.76809631165171,684.1620940220608,1.7807539863180772,-62369.537182752654,10.5,10499937630.462818,47.655,-122.3035,60.0,7.066666666666666
2026-01-20T23:07:05+00:00,SAT-60286,5.371746956619243,42.60982414683864,685.9380740526857,1.848243470278994,-64733.30439129806,10.5,10499935266.695608,47.655,-122.3035,60.0,7.083333333333333
2026-01-20T23:07:06+00:00,SAT-60286,6.143778398423497,42.44676219750985,687.7813626372783,1.915189433154304,-67078.0351923336,10.5,10499932921.964808,47.655,-122.3035,60.0,7.1
2026-01-20T23:07:07+00:00,SAT-60286,6.907600141726338,42.279076541305415,689.6914177118585,1.9815783133196756,-69403.25460040958,10.5,10499930596.7454,47.655,-122.3035,60.0,7.116666666666666
2026-01-20T23:07:08+00:00,SAT-60286,7.663081071177737,42.10693430276812,691.6676836871779,2.0473972557016573,-71708.5123764768,10.5,10499928291.487623,47.655,-122.3035,60.0,7.133333333333334
2026-01-20T23:07:09+00:00,SAT-60286,8.410104387568206,41.93050325565509,693.7095921533778,2.1126341336058463,-73993.38379240144,10.5,10499926006.616207,47.655,-122.3035,60.0,7.15
2026-01-20T23:07:10+00:00,SAT-60286,9.148567262132941,41.749951439155794,695.8165626064147,2.1772775501250354,-76257.4696802842,10.5,10499923742.53032,47.655,-122.3035,60.0,7.166666666666667
2026-01-20T23:07:11+00:00,SAT-60286,9.878380455182455,41.5654467907437,697.9880031758923,2.241316808924329,-78500.39540923158,10.5,10499921499.604591,47.655,-122.3035,60.0,7.183333333333334
2026-01-20T23:07:12+00:00,SAT-60286,10.599467894180455,41.377156798943574,700.2233113237535,2.304741956038153,-80721.812349264,10.5,10499919278.18765,47.655,-122.3035,60.0,7.2
2026-01-20T23:07:13+00:00,SAT-60286,11.311766241058766,41.185248170564556,702.5218745846619,2.3675437271677375,-82921.39602545052,10.5,10499917078.603975,47.655,-122.3035,60.0,7.216666666666667
2026-01-20T23:07:14+00:00,SAT-60286,12.01522442112348,40.98988652077103,704.8830712538181,2.429713582137019,-85098.84732470055,10.5,10499914901.152676,47.655,-122.3035,60.0,7.233333333333333
2026-01-20T23:07:15+00:00,SAT-60286,12.709803147319853,40.791236078892915,707.3062711091419,2.491243653978676,-87253.8907125412,10.5,10499912746.109287,47.655,-122.3035,60.0,7.25
2026-01-20T23:07:16+00:00,SAT-60286,13.395474417386009,40.58945941717124,709.7908360826757,2.5521267916193793,-89386.2757281355,10.5,10499910613.724272,47.655,-122.3035,60.0,7.266666666666667
2026-01-20T23:07:17+00:00,SAT-60286,14.072221016028564,40.384717194693444,712.3361209745605,2.612356496053238,-91495.77474880639,10.5,10499908504.22525,47.655,-122.3035,60.0,7.283333333333333
2026-01-20T23:07:18+00:00,SAT-60286,14.740035994812615,40.17716792506334,714.9414741033528,2.6719269524090636,-93582.18411316794,10.5,10499906417.815887,47.655,-122.3035,60.0,7.3
2026-01-20T23:07:19+00:00,SAT-60286,15.3989221608788,39.96696775974007,717.6062379883284,2.7308329803061957,-95645.32238237646,10.5,10499904354.677618,47.655,-122.3035,60.0,7.316666666666666
2026-01-20T23:07:20+00:00,SAT-60286,16.048891555105318,39.754270293250734,720.3297499822693,2.789070057843998,-97685.03118034404,10.5,10499902314.96882,47.655,-122.3035,60.0,7.333333333333333
2026-01-20T23:07:21+00:00,SAT-60286,16.68996494210546,39.539226383967474,723.1113429281796,2.846634258447932,-99701.17298182091,10.5,10499900298.827019,47.655,-122.3035,60.0,7.35
2026-01-20T23:07:22+00:00,SAT-60286,17.3221712928707,39.32198399675039,725.9503457530163,2.903522289043082,-101693.6324493939,10.5,10499898306.36755,47.655,-122.3035,60.0,7.366666666666666
2026-01-20T23:07:23+00:00,SAT-60286,17.945547287227562,39.102688058982714,728.8460840994885,2.959731453401351,-103662.31514974998,10.5,10499896337.68485,47.655,-122.3035,60.0,7.383333333333334
2026-01-20T23:07:24+00:00,SAT-60286,18.56013681938668,38.88148033519695,731.7978809213062,3.0152595857696065,-105607.14522905332,10.5,10499894392.85477,47.655,-122.3035,60.0,7.4
2026-01-20T23:07:25+00:00,SAT-60286,19.165990503934033,38.65849932169465,734.8050570122322,3.0701051285736907,-107528.0681344684,10.5,10499892471.931866,47.655,-122.3035,60.0,7.416666666666667
2026-01-20T23:07:26+00:00,SAT-60286,19.763165213879475,38.433880149661846,737.8669316126305,3.1242670289625343,-109425.04699069717,10.5,10499890574.953009,47.655,-122.3035,60.0,7.433333333333334
2026-01-20T23:07:27+00:00,SAT-60286,20.35172361383883,38.20775450959592,740.9828229128373,3.1777447746454017,-111298.06385515115,10.5,10499888701.936146,47.655,-122.3035,60.0,7.45
2026-01-20T23:07:28+00:00,SAT-60286,20.93173371845181,37.980250585892875,744.1520485922706,3.230538345866901,-113147.1180359129,10.5,10499886852.881964,47.655,-122.3035,60.0,7.466666666666667
2026-01-20T23:07:29+00:00,SAT-60286,21.50326846008633,37.75149300701065,747.3739263106465,3.2826482109854727,-114972.22593687619,10.5,10499885027.774063,47.655,-122.3035,60.0,7.483333333333333
2026-01-20T23:07:30+00:00,SAT-60286,22.066405274927348,37.52160280723222,750.6477741947838,3.3340752865546315,-116773.41965962209,10.5,10499883226.58034,47.655,-122.3035,60.0,7.5
2026-01-20T23:07:31+00:00,SAT-60286,22.621225701811788,37.290697401765776,753.9729112855973,3.3848209788765407,-118550.74845880106,10.5,10499881449.251541,47.655,-122.3035,60.0,7.516666666666667
2026-01-20T23:07:32+00:00,SAT-60286,23.167815007866928,37.058890568755174,757.3486580265351,3.434887047741303,-120304.27396970637,10.5,10499879695.72603,47.655,-122.3035,60.0,7.533333333333333
2026-01-20T23:07:33+00:00,SAT-60286,23.706261811355137,36.826292449730126,760.7743366161154,3.484275744931716,-122034.07505929658,10.5,10499877965.92494,47.655,-122.3035,60.0,7.55
2026-01-20T23:07:34+00:00,SAT-60286,24.236657747498963,36.5930095488326,764.2492714986054,3.5329896363698503,-123740.24159701653,10.5,10499876259.758404,47.655,-122.3035,60.0,7.566666666666666
2026-01-20T23:07:35+00:00,SAT-60286,24.75909712542431,36.359144751765896,767.7727896773125,3.5810317064728756,-125422.87810977951,10.5,10499874577.121891,47.655,-122.3035,60.0,7.583333333333333
2026-01-20T23:07:36+00:00,SAT-60286,25.27367662162365,36.12479734454094,771.3442211319626,3.6284052609800335,-127082.10037855706,10.5,10499872917.899622,47.655,-122.3035,60.0,7.6
2026-01-20T23:07:37+00:00,SAT-60286,25.780494977803453,35.89006304497064,774.9628991391579,3.675113952909459,-128718.03634749651,10.5,10499871281.963652,47.655,-122.3035,60.0,7.616666666666666
2026-01-20T23:07:38+00:00,SAT-60286,26.2796527219006,35.65503403801091,778.6281606187254,3.721161765833935,-130330.8255381672,10.5,10499869669.174461,47.655,-122.3035,60.0,7.633333333333334
2026-01-20T23:07:39+00:00,SAT-60286,26.77125190499807,35.419799017241836,782.3393464633854,3.7665529260475625,-131920.61597326575,10.5,10499868079.384027,47.655,-122.3035,60.0,7.65
2026-01-20T23:07:40+00:00,SAT-60286,27.255395844472282,35.18444323631907,786.0958017808223,3.811292008397947,-133487.56788330694,10.5,10499866512.432117,47.655,-122.3035,60.0,7.666666666666667
2026-01-20T23:07:41+00:00,SAT-60286,27.73218889911717,34.94904855758468,789.896876241304,3.8553837922473173,-135031.84866177264,10.5,10499864968.151339,47.655,-122.3035,60.0,7.683333333333334
2026-01-20T23:07:42+00:00,SAT-60286,28.2017362420053,34.71369351308918,793.7419242816474,3.8988333345194617,-136553.6354235247,10.5,10499863446.364576,47.655,-122.3035,60.0,7.7
2026-01-20T23:07:43+00:00,SAT-60286,28.66414365957978,34.47845336387035,797.6303053820359,3.9416458971406803,-138053.11246348012,10.5,10499861946.887537,47.655,-122.3035,60.0,7.716666666666667
2026-01-20T23:07:44+00:00,SAT-60286,29.119517357259394,34.243400166088016,801.5613842704735,3.983826985428804,-139530.47260115677,10.5,10499860469.5274,47.655,-122.3035,60.0,7.733333333333333
2026-01-20T23:07:45+00:00,SAT-60286,29.56796378497378,34.00860283680075,805.5345311655224,4.0253822784946545,-140985.91474303824,10.5,10499859014.085257,47.655,-122.3035,60.0,7.75
2026-01-20T23:07:46+00:00,SAT-60286,30.00958946879936,33.77412722549003,809.549121949631,4.066317648151635,-142419.64454486765,10.5,10499857580.355455,47.655,-122.3035,60.0,7.766666666666667
2026-01-20T23:07:47+00:00,SAT-60286,30.444500858866466,33.54003618561537,813.60453836132,4.106639119724482,-143831.87303900442,10.5,10499856168.12696,47.655,-122.3035,60.0,7.783333333333333
2026-01-20T23:07:48+00:00,SAT-60286,30.872804186057614,33.30638964930139,817.7001681482806,4.146352897393562,-145222.8175220886,10.5,10499854777.182478,47.655,-122.3035,60.0,7.8
2026-01-20T23:07:49+00:00,SAT-60286,31.294605334086665,33.07324470110014,821.8354052457529,4.18546529668841,-146592.6991906791,10.5,10499853407.30081,47.655,-122.3035,60.0,7.816666666666666
2026-01-20T23:07:50+00:00,SAT-60286,31.71000971621447,32.84065565584291,826.0096498875749,4.22398278206601,-147941.74445740427,10.5,10499852058.255543,47.655,-122.3035,60.0,7.833333333333333
2026-01-20T23:07:51+00:00,SAT-60286,32.11912216740295,32.60867413431409,830.2223087547119,4.261911939378374,-149270.18398665963,10.5,10499850729.816013,47.655,-122.3035,60.0,7.85
2026-01-20T23:07:52+00:00,SAT-60286,32.52204684408572,32.377349140248505,834.4727950963246,4.299259403141082,-150578.25014724472,10.5,10499849421.749853,47.655,-122.3035,60.0,7.866666666666666
2026-01-20T23:07:53+00:00,SAT-60286,32.918887127214056,32.14672714075169,838.7605287783036,4.336031995992087,-151866.18189680047,10.5,10499848133.818104,47.655,-122.3035,60.0,7.883333333333334
2026-01-20T23:07:54+00:00,SAT-60286,33.3097455480914,31.916852138496797,843.084936470887,4.372236496869688,-153134.2166624209,10.5,10499846865.783337,47.655,-122.3035,60.0,7.9
2026-01-20T23:07:55+00:00,SAT-60286,33.694723701391425,31.68776575550291,847.4454516050771,4.407879870259784,-154382.598369862,10.5,10499845617.40163,47.655,-122.3035,60.0,7.916666666666667
2026-01-20T23:07:56+00:00,SAT-60286,34.07392218789811,31.459507303641608,851.8415145576921,4.4429690626960525,-155611.570316117,10.5,10499844388.429684,47.655,-122.3035,60.0,7.933333333333334
2026-01-20T23:07:57+00:00,SAT-60286,34.44744054653304,31.23211386476459,856.2725726334609,4.477511121815503,-156821.37933924538,10.5,10499843178.62066,47.655,-122.3035,60.0,7.95
2026-01-20T23:07:58+00:00,SAT-60286,34.81537720448778,31.00562036328308,860.7380801658551,4.511513059400879,-158012.2710215386,10.5,10499841987.72898,47.655,-122.3035,60.0,7.966666666666667
2026-01-20T23:07:59+00:00,SAT-60286,35.17782942262015,30.780059644342227,865.2374984813325,4.544982016776324,-159184.49548237602,10.5,10499840815.504519,47.655,-122.3035,60.0,7.983333333333333
2026-01-20T23:08:00+00:00,SAT-60286,35.53489326118696,30.5554625421172,869.7702960285295,4.577925077936006,-160338.3008331986,10.5,10499839661.699167,47.655,-122.3035,60.0,8.0
2026-01-20T23:08:01+00:00,SAT-60286,35.886663536114554,30.33185795595281,874.335948321085,4.610349404288405,-161473.93789682412,10.5,10499838526.062103,47.655,-122.3035,60.0,8.016666666666667
2026-01-20T23:08:02+00:00,SAT-60286,36.233233791879236,30.10927291811576,878.9339380148489,4.642262092428361,-162591.65522602235,10.5,10499837408.344774,47.655,-122.3035,60.0,8.033333333333333
