DopplerPredictor/satellites_20260205_234138/SAT-55405.csv

timestamp,satellite,azimuth_deg,elevation_deg,distance_km,relative_velocity_kms,doppler_shift_hz,tx_freq_ghz,rx_freq_hz,ue_lat,ue_lon,ue_alt_m,time_minutes
2026-01-20T23:11:37+00:00,SAT-55405,311.97382905875173,30.091794034371453,1036.3926133835262,-5.421086271580262,189869.37240293337,10.5,10500189869.372402,47.655,-122.3035,60.0,11.616666666666667
2026-01-20T23:11:38+00:00,SAT-55405,311.7868859419401,30.32146174400364,1030.98606029613,-5.400593024881545,189151.61221719667,10.5,10500189151.612217,47.655,-122.3035,60.0,11.633333333333333
2026-01-20T23:11:39+00:00,SAT-55405,311.5970330636232,30.55291431189812,1025.5999455158665,-5.37976875441509,188422.25817888466,10.5,10500188422.258179,47.655,-122.3035,60.0,11.65
2026-01-20T23:11:40+00:00,SAT-55405,311.4042072527804,30.78616297943281,1020.2345991790738,-5.358607820482136,187681.11276189086,10.5,10500187681.112762,47.655,-122.3035,60.0,11.666666666666666
2026-01-20T23:11:41+00:00,SAT-55405,311.2083436427132,31.021218605840367,1014.8903570466706,-5.3371044363938065,186927.97329189305,10.5,10500186927.973291,47.655,-122.3035,60.0,11.683333333333334
2026-01-20T23:11:42+00:00,SAT-55405,311.0093756223521,31.258091634720575,1009.5675606507504,-5.315252800236357,186162.63656132988,10.5,10500186162.63656,47.655,-122.3035,60.0,11.7
2026-01-20T23:11:43+00:00,SAT-55405,310.80723478187315,31.496792064732073,1004.2665573097663,-5.293046950671442,185384.89377891604,10.5,10500185384.89378,47.655,-122.3035,60.0,11.716666666666667
2026-01-20T23:11:44+00:00,SAT-55405,310.601850861565,31.737329412265904,998.9877002875292,-5.270480917162319,184594.5358311994,10.5,10500184594.535831,47.655,-122.3035,60.0,11.733333333333333
2026-01-20T23:11:45+00:00,SAT-55405,310.39315169423446,31.979712679101507,993.7313488023793,-5.247548593838527,183791.34886476878,10.5,10500183791.348866,47.655,-122.3035,60.0,11.75
2026-01-20T23:11:46+00:00,SAT-55405,310.1810631502097,32.22395031260287,988.4978681621594,-5.224243870963076,182975.11889079044,10.5,10500182975.11889,47.655,-122.3035,60.0,11.766666666666667
2026-01-20T23:11:47+00:00,SAT-55405,309.96550907632,32.470050170092776,983.2876297680685,-5.200560470436813,182145.6260236758,10.5,10500182145.626024,47.655,-122.3035,60.0,11.783333333333333
2026-01-20T23:11:48+00:00,SAT-55405,309.7464112391832,32.71801947364328,978.1010112825754,-5.17649210698313,181302.65012645134,10.5,10500181302.650126,47.655,-122.3035,60.0,11.8
2026-01-20T23:11:49+00:00,SAT-55405,309.5236892610807,32.967864770348456,972.9383966365755,-5.152032388928716,180445.96733568102,10.5,10500180445.967335,47.655,-122.3035,60.0,11.816666666666666
2026-01-20T23:11:50+00:00,SAT-55405,309.297260557869,33.21959188584394,967.800176135501,-5.1271748923812925,179575.3526594841,10.5,10500179575.35266,47.655,-122.3035,60.0,11.833333333333334
2026-01-20T23:11:51+00:00,SAT-55405,309.06704027251703,33.47320587920316,962.686746491456,-5.101913024303637,178690.57518180856,10.5,10500178690.575182,47.655,-122.3035,60.0,11.85
2026-01-20T23:11:52+00:00,SAT-55405,308.8329412125914,33.72871098878402,957.5985109919064,-5.076240247432086,177791.40594002837,10.5,10500177791.40594,47.655,-122.3035,60.0,11.866666666666667
2026-01-20T23:11:53+00:00,SAT-55405,308.5948737770824,33.98611058680052,952.5358794440565,-5.050149890316192,176877.6112717286,10.5,10500176877.61127,47.655,-122.3035,60.0,11.883333333333333
2026-01-20T23:11:54+00:00,SAT-55405,308.3527458893688,34.2454071220637,947.4992683086759,-5.023635195833117,175948.95451388482,10.5,10500175948.954514,47.655,-122.3035,60.0,11.9
2026-01-20T23:11:55+00:00,SAT-55405,308.10646292697254,34.50660206242065,942.4891007855407,-4.996689418843468,175005.19942318366,10.5,10500175005.199423,47.655,-122.3035,60.0,11.916666666666666
2026-01-20T23:11:56+00:00,SAT-55405,307.85592764540496,34.7696958396039,937.5058068014861,-4.969305672622777,174046.1047974034,10.5,10500174046.104797,47.655,-122.3035,60.0,11.933333333333334
2026-01-20T23:11:57+00:00,SAT-55405,307.6010401075506,35.03468778333982,932.5498231516077,-4.941477100662275,173071.43049260395,10.5,10500173071.430492,47.655,-122.3035,60.0,11.95
2026-01-20T23:11:58+00:00,SAT-55405,307.341697603834,35.30157606157752,927.6215934691284,-4.913196678004259,172080.930465051,10.5,10500172080.930466,47.655,-122.3035,60.0,11.966666666666667
2026-01-20T23:11:59+00:00,SAT-55405,307.0777945805553,35.57035760713022,922.7215683933966,-4.884457459141024,171074.36145368524,10.5,10500171074.361454,47.655,-122.3035,60.0,11.983333333333333
2026-01-20T23:12:00+00:00,SAT-55405,306.8092225551744,35.84102805455461,917.8502054906484,-4.855252363919021,170051.47548158042,10.5,10500170051.475481,47.655,-122.3035,60.0,12.0
2026-01-20T23:12:01+00:00,SAT-55405,306.5358700409279,36.113581662260515,913.0079693882922,-4.825574321912287,169012.02491251135,10.5,10500169012.024912,47.655,-122.3035,60.0,12.016666666666667
2026-01-20T23:12:02+00:00,SAT-55405,306.257622463383,36.38801123917531,908.1953317652077,-4.795416176254168,167955.75908273438,10.5,10500167955.759083,47.655,-122.3035,60.0,12.033333333333333
2026-01-20T23:12:03+00:00,SAT-55405,305.9743620812352,36.664308062614246,903.4127714379546,-4.7647708012921095,166882.42842175553,10.5,10500166882.428421,47.655,-122.3035,60.0,12.05
2026-01-20T23:12:04+00:00,SAT-55405,305.68596790025214,36.94246179929133,898.6607743296422,-4.733630982929974,165791.78026141244,10.5,10500165791.780262,47.655,-122.3035,60.0,12.066666666666666
2026-01-20T23:12:05+00:00,SAT-55405,305.39231559330767,37.222460415833865,893.9398335581367,-4.701989535363456,164683.5629244425,10.5,10500164683.562925,47.655,-122.3035,60.0,12.083333333333334
2026-01-20T23:12:06+00:00,SAT-55405,305.0932774137436,37.504290092280954,889.2504494078428,-4.669839222304241,163557.5229654194,10.5,10500163557.522964,47.655,-122.3035,60.0,12.1
2026-01-20T23:12:07+00:00,SAT-55405,304.7887221134772,37.78793512712078,884.5931293800559,-4.637172830419794,162413.4077429254,10.5,10500162413.407743,47.655,-122.3035,60.0,12.116666666666667
2026-01-20T23:12:08+00:00,SAT-55405,304.47851485693394,38.0733778427202,879.9683881700646,-4.603983117078453,161250.9635893634,10.5,10500161250.963589,47.655,-122.3035,60.0,12.133333333333333
2026-01-20T23:12:09+00:00,SAT-55405,304.16251713904796,38.36059848353989,875.3767476963732,-4.570262860773475,160069.93757702032,10.5,10500160069.937576,47.655,-122.3035,60.0,12.15
2026-01-20T23:12:10+00:00,SAT-55405,303.8405867011492,38.64957511323592,870.8187370796333,-4.536004845467834,158870.0769697557,10.5,10500158870.07697,47.655,-122.3035,60.0,12.166666666666666
2026-01-20T23:12:11+00:00,SAT-55405,303.5125774494055,38.94028350654365,866.2948926371874,-4.501201890911428,157651.13028483858,10.5,10500157651.130285,47.655,-122.3035,60.0,12.183333333333334
2026-01-20T23:12:12+00:00,SAT-55405,303.178339373056,39.23269703873706,861.8057578473796,-4.465846823064609,156412.84625705428,10.5,10500156412.846256,47.655,-122.3035,60.0,12.2
2026-01-20T23:12:13+00:00,SAT-55405,302.83771846727774,39.52678656874732,857.3518833433609,-4.429932517292658,155154.97535155772,10.5,10500155154.975351,47.655,-122.3035,60.0,12.216666666666667
2026-01-20T23:12:14+00:00,SAT-55405,302.4905566560642,39.822520320533684,852.9338268638164,-4.393451915788956,153877.27037410674,10.5,10500153877.270374,47.655,-122.3035,60.0,12.233333333333333
2026-01-20T23:12:15+00:00,SAT-55405,302.1366917175007,40.119863761104234,848.5521531863171,-4.356397956226913,152579.48397215045,10.5,10500152579.483973,47.655,-122.3035,60.0,12.25
2026-01-20T23:12:16+00:00,SAT-55405,301.775957218668,40.418779469068895,844.207434131828,-4.318763742974239,151261.37463147758,10.5,10500151261.374632,47.655,-122.3035,60.0,12.266666666666667
2026-01-20T23:12:17+00:00,SAT-55405,301.40818244294144,40.71922701014443,839.9002483984594,-4.280542343814824,149922.69955655673,10.5,10500149922.699556,47.655,-122.3035,60.0,12.283333333333333
2026-01-20T23:12:18+00:00,SAT-55405,301.03319233861515,41.02116279407504,835.6311815979535,-4.241727014499294,148563.2225352467,10.5,10500148563.222536,47.655,-122.3035,60.0,12.3
2026-01-20T23:12:19+00:00,SAT-55405,300.65080745730546,41.32453994233258,831.4008260682217,-4.202311054346942,147182.70888136516,10.5,10500147182.708881,47.655,-122.3035,60.0,12.316666666666666
2026-01-20T23:12:20+00:00,SAT-55405,300.2608439114128,41.62930814113515,827.2097808298923,-4.162287888065034,145780.92830034724,10.5,10500145780.9283,47.655,-122.3035,60.0,12.333333333333334
2026-01-20T23:12:21+00:00,SAT-55405,299.863113334515,41.93541349549853,823.0586514612596,-4.12165106823008,144357.65497614967,10.5,10500144357.654976,47.655,-122.3035,60.0,12.35
2026-01-20T23:12:22+00:00,SAT-55405,299.45742285147475,42.2427983789205,818.9480499707555,-4.080394294963807,142912.6682603869,10.5,10500142912.66826,47.655,-122.3035,60.0,12.366666666666667
2026-01-20T23:12:23+00:00,SAT-55405,299.04357505894643,42.551401280029715,814.8785946498022,-4.0385114118231895,141445.75252838247,10.5,10500141445.75253,47.655,-122.3035,60.0,12.383333333333333
2026-01-20T23:12:24+00:00,SAT-55405,298.62136801899214,42.86115664454402,810.8509099297595,-3.995996426414857,139956.69790117268,10.5,10500139956.6979,47.655,-122.3035,60.0,12.4
2026-01-20T23:12:25+00:00,SAT-55405,298.1905952661394,43.17199471450599,806.8656262183164,-3.9528435166929565,138445.3004660846,10.5,10500138445.300467,47.655,-122.3035,60.0,12.416666666666666
2026-01-20T23:12:26+00:00,SAT-55405,297.7510458303291,43.48384136390689,802.9233797295991,-3.909047105897046,136911.36490137782,10.5,10500136911.3649,47.655,-122.3035,60.0,12.433333333333334
2026-01-20T23:12:27+00:00,SAT-55405,297.3025042708802,43.79661793641284,799.0248122395445,-3.864601755686561,135354.70073336165,10.5,10500135354.700733,47.655,-122.3035,60.0,12.45
2026-01-20T23:12:28+00:00,SAT-55405,296.8447507419292,44.11024107110381,795.1705709478499,-3.819502322120071,133775.12779944832,10.5,10500133775.1278,47.655,-122.3035,60.0,12.466666666666667
2026-01-20T23:12:29+00:00,SAT-55405,296.37756106479657,44.42462253738351,791.3613081843642,-3.7737438630190114,132172.47300363914,10.5,10500132172.473003,47.655,-122.3035,60.0,12.483333333333333
2026-01-20T23:12:30+00:00,SAT-55405,295.9007068349377,44.739669059685326,787.5976812078651,-3.727321715592287,130546.57303526634,10.5,10500130546.573036,47.655,-122.3035,60.0,12.5
2026-01-20T23:12:31+00:00,SAT-55405,295.41395554883024,45.05528214608472,783.880351927422,-3.680231494871961,128897.27431420438,10.5,10500128897.274315,47.655,-122.3035,60.0,12.516666666666667
2026-01-20T23:12:32+00:00,SAT-55405,294.9170707612148,45.37135791499161,780.209986625316,-3.6324690993960513,127224.43318990547,10.5,10500127224.43319,47.655,-122.3035,60.0,12.533333333333333
2026-01-20T23:12:33+00:00,SAT-55405,294.40981227558973,45.68778692102491,776.5872556742946,-3.584030760908735,125527.917682111,10.5,10500125527.917683,47.655,-122.3035,60.0,12.55
2026-01-20T23:12:34+00:00,SAT-55405,293.89193636517496,46.004453984572336,773.0128332052595,-3.5349130310625223,123807.60701510537,10.5,10500123807.607016,47.655,-122.3035,60.0,12.566666666666666
2026-01-20T23:12:35+00:00,SAT-55405,293.36319603578136,46.321238020406824,769.4873967882152,-3.4851128156473705,122063.39281656442,10.5,10500122063.392817,47.655,-122.3035,60.0,12.583333333333334
2026-01-20T23:12:36+00:00,SAT-55405,292.8233413278844,46.638011870307814,766.0116270790811,-3.434627396541328,120295.17988635974,10.5,10500120295.179886,47.655,-122.3035,60.0,12.6
2026-01-20T23:12:37+00:00,SAT-55405,292.27211966305947,46.954642139671435,762.5862074446111,-3.3834544172006082,118502.88568835972,10.5,10500118502.885689,47.655,-122.3035,60.0,12.616666666666667
2026-01-20T23:12:38+00:00,SAT-55405,291.70927624405147,47.270989035783245,759.2118236017865,-3.331591981003794,116686.44379485969,10.5,10500116686.443794,47.655,-122.3035,60.0,12.633333333333333
2026-01-20T23:12:39+00:00,SAT-55405,291.1345544956542,47.58690621943395,755.889163159124,-3.279038570112653,114845.80104474428,10.5,10500114845.801044,47.655,-122.3035,60.0,12.65
2026-01-20T23:12:40+00:00,SAT-55405,290.5476965772424,47.90224065455257,752.6189152389105,-3.2257931292080744,112980.92047627423,10.5,10500112980.920477,47.655,-122.3035,60.0,12.666666666666666
2026-01-20T23:12:41+00:00,SAT-55405,289.9484439468109,48.216832472571944,749.4017700159224,-3.1718550806708463,111091.78185878141,10.5,10500111091.781858,47.655,-122.3035,60.0,12.683333333333334
2026-01-20T23:12:42+00:00,SAT-55405,289.3365379904213,48.53051484689825,746.2384182410068,-3.117224320627965,109178.38155419384,10.5,10500109178.381554,47.655,-122.3035,60.0,12.7
2026-01-20T23:12:43+00:00,SAT-55405,288.7117207251014,48.84311387724248,743.1295507686053,-3.061901252461844,107240.73369066998,10.5,10500107240.73369,47.655,-122.3035,60.0,12.716666666666667
2026-01-20T23:12:44+00:00,SAT-55405,288.0737355732941,49.15444848932622,740.0758580508591,-3.0058868008984283,105278.87065602397,10.5,10500105278.870657,47.655,-122.3035,60.0,12.733333333333333
2026-01-20T23:12:45+00:00,SAT-55405,287.42232821658257,49.46433035010317,737.0780296176615,-2.949182442931344,103292.84418082029,10.5,10500103292.844181,47.655,-122.3035,60.0,12.75
2026-01-20T23:12:46+00:00,SAT-55405,286.7572475291068,49.77256380241916,734.1367535258723,-2.891790200441154,101282.72507986882,10.5,10500101282.72508,47.655,-122.3035,60.0,12.766666666666667
2026-01-20T23:12:47+00:00,SAT-55405,286.07824660279323,50.07894581748618,731.2527158158914,-2.833712683710403,99248.60477630573,10.5,10500099248.604776,47.655,-122.3035,60.0,12.783333333333333
2026-01-20T23:12:48+00:00,SAT-55405,285.38508385728096,50.383265972914536,728.4265999248337,-2.77495310181163,97190.59566542569,10.5,10500097190.595665,47.655,-122.3035,60.0,12.8
2026-01-20T23:12:49+00:00,SAT-55405,284.67752424476834,50.685306455577546,725.6590860893447,-2.7155152524686383,95108.8307595807,10.5,10500095108.83076,47.655,-122.3035,60.0,12.816666666666666
2026-01-20T23:12:50+00:00,SAT-55405,283.95534055683464,50.984842089745946,722.9508507585269,-2.655403607515174,93003.46668130431,10.5,10500093003.46668,47.655,-122.3035,60.0,12.833333333333334
2026-01-20T23:12:51+00:00,SAT-55405,283.218314813687,51.28164040390231,720.3025659216377,-2.5946232248505527,90874.68057962552,10.5,10500090874.68058,47.655,-122.3035,60.0,12.85
2026-01-20T23:12:52+00:00,SAT-55405,282.4662397772055,51.57546172020614,717.7148985235947,-2.5331798743184524,88722.67453887632,10.5,10500088722.67454,47.655,-122.3035,60.0,12.866666666666667
2026-01-20T23:12:53+00:00,SAT-55405,281.69892053685305,51.86605929338507,715.1885097549406,-2.4710799669378214,86547.67310005886,10.5,10500086547.6731,47.655,-122.3035,60.0,12.883333333333333
2026-01-20T23:12:54+00:00,SAT-55405,280.91617621508203,52.15317948042904,712.724054412385,-2.408330581443384,84349.9241904062,10.5,10500084349.92419,47.655,-122.3035,60.0,12.9
2026-01-20T23:12:55+00:00,SAT-55405,280.11784176796,52.43656195500243,710.3221802328808,-2.3449395495238763,82129.70210878589,10.5,10500082129.702108,47.655,-122.3035,60.0,12.916666666666666
2026-01-20T23:12:56+00:00,SAT-55405,279.30376985569654,52.71593997702778,707.9835271426876,-2.2809153383778,79887.30341230566,10.5,10500079887.303411,47.655,-122.3035,60.0,12.933333333333334
2026-01-20T23:12:57+00:00,SAT-55405,278.47383283987267,52.991040696856956,705.7087266235656,-2.216267183357252,77623.05156206146,10.5,10500077623.051561,47.655,-122.3035,60.0,12.95
2026-01-20T23:12:58+00:00,SAT-55405,277.62792482249284,53.26158552658813,703.498400946682,-2.151004993171089,75337.29360295125,10.5,10500075337.293604,47.655,-122.3035,60.0,12.966666666666667
2026-01-20T23:12:59+00:00,SAT-55405,276.7659637893384,53.52729055457171,701.3531625010589,-2.085139451789474,73030.40373280332,10.5,10500073030.403732,47.655,-122.3035,60.0,12.983333333333333
2026-01-20T23:13:00+00:00,SAT-55405,275.8878937789244,53.78786702960716,699.2736130203905,-2.01868193213558,70702.78027949452,10.5,10500070702.78028,47.655,-122.3035,60.0,13.0
2026-01-20T23:13:01+00:00,SAT-55405,274.9936871288388,54.04302189444246,697.2603428959368,-1.9516445614598028,68354.847990632,10.5,10500068354.84799,47.655,-122.3035,60.0,13.016666666666667
2026-01-20T23:13:02+00:00,SAT-55405,274.08334672648584,54.292458389351395,695.3139304242193,-1.8840401802179219,65987.05659329222,10.5,10500065987.056593,47.655,-122.3035,60.0,13.033333333333333
2026-01-20T23:13:03+00:00,SAT-55405,273.1569082851058,54.53587671437529,693.4349410957268,-1.815882390085037,63599.88247567217,10.5,10500063599.882475,47.655,-122.3035,60.0,13.05
2026-01-20T23:13:04+00:00,SAT-55405,272.21444258437907,54.772974762765784,691.6239268357378,-1.7471854893993315,61193.82642605699,10.5,10500061193.826426,47.655,-122.3035,60.0,13.066666666666666
2026-01-20T23:13:05+00:00,SAT-55405,271.2560576986469,55.00344891180242,689.8814253095238,-1.6779645196317836,58769.41526038566,10.5,10500058769.41526,47.655,-122.3035,60.0,13.083333333333334
2026-01-20T23:13:06+00:00,SAT-55405,270.28190113486585,55.226994885230134,688.2079591812102,-1.6082352327086513,56327.20067774633,10.5,10500056327.200678,47.655,-122.3035,60.0,13.1
2026-01-20T23:13:07+00:00,SAT-55405,269.292161884633,55.44330867622267,686.6040354052242,-1.538014076632029,53867.758756747324,10.5,10500053867.758757,47.655,-122.3035,60.0,13.116666666666667
2026-01-20T23:13:08+00:00,SAT-55405,268.2870723497671,55.65208753138129,685.0701445320854,-1.4673182141728056,51391.69061022362,10.5,10500051391.69061,47.655,-122.3035,60.0,13.133333333333333
2026-01-20T23:13:09+00:00,SAT-55405,267.2669100865844,55.85303099757922,683.6067599955549,-1.3961654715175982,48899.62058663524,10.5,10500048899.620586,47.655,-122.3035,60.0,13.15
2026-01-20T23:13:10+00:00,SAT-55405,266.2319993705017,56.0458420184076,682.2143374509956,-1.324574355993807,46392.19689087367,10.5,10500046392.196892,47.655,-122.3035,60.0,13.166666666666666
2026-01-20T23:13:11+00:00,SAT-55405,265.1827125046373,56.230228084740475,680.8933140960588,-1.2525640068802932,43870.089861443674,10.5,10500043870.08986,47.655,-122.3035,60.0,13.183333333333334
2026-01-20T23:13:12+00:00,SAT-55405,264.1194708732564,56.405902424232686,679.6441080404272,-1.1801542116381394,41333.992538933264,10.5,10500041333.992538,47.655,-122.3035,60.0,13.2
2026-01-20T23:13:13+00:00,SAT-55405,263.04274566080056,56.572585231684684,678.467117659369,-1.1073653465573163,38784.61858720883,10.5,10500038784.618587,47.655,-122.3035,60.0,13.216666666666667
2026-01-20T23:13:14+00:00,SAT-55405,261.95305825220777,56.73000492140244,677.3627210064894,-1.0342183831358551,36222.70251684077,10.5,10500036222.702517,47.655,-122.3035,60.0,13.233333333333333
2026-01-20T23:13:15+00:00,SAT-55405,260.85098023317573,56.87789940137669,676.3312752201168,-0.9607348466978005,33648.99823572915,10.5,10500033648.998236,47.655,-122.3035,60.0,13.25
2026-01-20T23:13:16+00:00,SAT-55405,259.7371329945978,57.01601735210104,675.3731159709614,-0.8869367925455048,31064.278213856203,10.5,10500031064.278214,47.655,-122.3035,60.0,13.266666666666667
2026-01-20T23:13:17+00:00,SAT-55405,258.6121869042164,57.14411950111216,674.4885569335595,-0.8128467706076081,28469.332245109,10.5,10500028469.332245,47.655,-122.3035,60.0,13.283333333333333
2026-01-20T23:13:18+00:00,SAT-55405,257.4768600334245,57.26197987941356,673.6778892929711,-0.7384878054020919,25864.966745500864,10.5,10500025864.966745,47.655,-122.3035,60.0,13.3
2026-01-20T23:13:19+00:00,SAT-55405,256.3319164112822,57.36938704918505,672.9413812714638,-0.6638833522475559,23252.003219505066,10.5,10500023252.00322,47.655,-122.3035,60.0,13.316666666666666
2026-01-20T23:13:20+00:00,SAT-55405,255.1781638207332,57.46614528610626,672.2792776988678,-0.5890572730267251,20631.277411190287,10.5,10500020631.27741,47.655,-122.3035,60.0,13.333333333333334
2026-01-20T23:13:21+00:00,SAT-55405,254.01645111740683,57.55207570569973,671.6917996071,-0.5140337811971987,18003.637378264484,10.5,10500018003.637379,47.655,-122.3035,60.0,13.35
2026-01-20T23:13:22+00:00,SAT-55405,252.84766512157805,57.6270173158315,671.1791438795335,-0.4388374303471026,15369.9430912454,10.5,10500015369.94309,47.655,-122.3035,60.0,13.366666666666667
2026-01-20T23:13:23+00:00,SAT-55405,251.67272703732743,57.69082798871863,670.7414829117778,-0.36349304949985667,12731.064167559864,10.5,10500012731.064167,47.655,-122.3035,60.0,13.383333333333333
2026-01-20T23:13:24+00:00,SAT-55405,250.4925885076249,57.7433853322222,670.3789643369814,-0.28802572172091745,10087.879122261418,10.5,10500010087.879122,47.655,-122.3035,60.0,13.4
2026-01-20T23:13:25+00:00,SAT-55405,249.30822727038594,57.784587455268536,670.0917107724728,-0.212460732515303,7441.273560693384,10.5,10500007441.273561,47.655,-122.3035,60.0,13.416666666666666
2026-01-20T23:13:26+00:00,SAT-55405,248.12064251262703,57.81435361262188,669.8798196178618,-0.13682353195187957,4792.138851921137,10.5,10500004792.138851,47.655,-122.3035,60.0,13.433333333333334
2026-01-20T23:13:27+00:00,SAT-55405,246.93084994851097,57.83262472212088,669.7433628909173,-0.061139692913869476,2141.370666488313,10.5,10500002141.370667,47.655,-122.3035,60.0,13.45
2026-01-20T23:13:28+00:00,SAT-55405,245.7398766820947,57.83936374652557,669.682387105083,0.014565134108694427,-510.1326069426719,10.5,10499999489.867393,47.655,-122.3035,60.0,13.466666666666667
2026-01-20T23:13:29+00:00,SAT-55405,244.54875593267042,57.83455593406914,669.696913192077,0.09026526333347401,-3161.4713436235847,10.5,10499996838.528656,47.655,-122.3035,60.0,13.483333333333333
2026-01-20T23:13:30+00:00,SAT-55405,243.35852167716527,57.81820891467145,669.786936466696,0.1659350165342156,-5811.746183452233,10.5,10499994188.253817,47.655,-122.3035,60.0,13.5
2026-01-20T23:13:31+00:00,SAT-55405,242.1702032785109,57.79035265036346,669.95242663435,0.24154876783460494,-8460.059599842742,10.5,10499991539.940401,47.655,-122.3035,60.0,13.516666666666667
2026-01-20T23:13:32+00:00,SAT-55405,240.9848201830257,57.75103924038954,670.1933278432717,0.31708098469504853,-11105.517335256012,10.5,10499988894.482664,47.655,-122.3035,60.0,13.533333333333333
2026-01-20T23:13:33+00:00,SAT-55405,239.80337673913755,57.70034258434642,670.509558777604,0.39250627300142243,-13747.229980398424,10.5,10499986252.77002,47.655,-122.3035,60.0,13.55
2026-01-20T23:13:34+00:00,SAT-55405,238.62685720920274,57.63835790758211,670.9010127954533,0.4677994180606206,-16384.314410059364,10.5,10499983615.68559,47.655,-122.3035,60.0,13.566666666666666
2026-01-20T23:13:35+00:00,SAT-55405,237.45622103310228,57.56520115618734,671.3675581078303,0.542935426707706,-19015.895257881748,10.5,10499980984.104742,47.655,-122.3035,60.0,13.583333333333334
2026-01-20T23:13:36+00:00,SAT-55405,236.29239840382482,57.481008269849355,671.9090379995841,0.6178895661924731,-21641.10627833395,10.5,10499978358.893723,47.655,-122.3035,60.0,13.6
2026-01-20T23:13:37+00:00,SAT-55405,235.1362861991164,57.38593434296548,672.5252710891184,0.6926374076836951,-24259.09187041256,10.5,10499975740.908129,47.655,-122.3035,60.0,13.616666666666667
2026-01-20T23:13:38+00:00,SAT-55405,233.98874429921517,57.28015268447681,673.2160516314962,0.7671548614716022,-26869.00831058206,10.5,10499973130.99169,47.655,-122.3035,60.0,13.633333333333333
2026-01-20T23:13:39+00:00,SAT-55405,232.85059233964336,57.163853789864255,673.9811498566512,0.8414182141229386,-29470.025054102112,10.5,10499970529.974945,47.655,-122.3035,60.0,13.65
2026-01-20T23:13:40+00:00,SAT-55405,231.72260691169365,57.037244237853415,674.820312344658,0.9154041675743715,-32061.32610424409,10.5,10499967938.673895,47.655,-122.3035,60.0,13.666666666666666
2026-01-20T23:13:41+00:00,SAT-55405,230.60551921939808,56.90054552480514,675.7332624399849,0.9890898671164682,-34642.11099240834,10.5,10499965357.889008,47.655,-122.3035,60.0,13.683333333333334
2026-01-20T23:13:42+00:00,SAT-55405,229.5000132135702,56.75399285191057,676.7197006936619,1.062452946036483,-37211.59634170341,10.5,10499962788.403658,47.655,-122.3035,60.0,13.7
2026-01-20T23:13:43+00:00,SAT-55405,228.40672417416374,56.5978338759911,677.7793053499685,1.1354715374079143,-39769.016279866184,10.5,10499960230.98372,47.655,-122.3035,60.0,13.716666666666667
2026-01-20T23:13:44+00:00,SAT-55405,227.32623777124158,56.43232744175211,678.9117328448797,1.208124325885337,-42313.62425333608,10.5,10499957686.375746,47.655,-122.3035,60.0,13.733333333333333
2026-01-20T23:13:45+00:00,SAT-55405,226.2590895344315,56.25774230194481,680.1166183561684,1.2803905535138673,-44844.693230726996,10.5,10499955155.306768,47.655,-122.3035,60.0,13.75
2026-01-20T23:13:46+00:00,SAT-55405,225.20576476170834,56.07435584385022,681.3935763593023,1.3522500634992058,-47361.51723583941,10.5,10499952638.482763,47.655,-122.3035,60.0,13.766666666666667
2026-01-20T23:13:47+00:00,SAT-55405,224.166698793872,55.8824528272647,682.7422012269916,1.42368330464389,-49863.41150303669,10.5,10499950136.588497,47.655,-122.3035,60.0,13.783333333333333
2026-01-20T23:13:48+00:00,SAT-55405,223.14227766214412,55.68232414940754,684.1620678331641,1.49467136794839,-52349.713759170336,10.5,10499947650.286242,47.655,-122.3035,60.0,13.8
2026-01-20T23:13:49+00:00,SAT-55405,222.13283904181426,55.47426564075809,685.6527321934395,1.5651960022339144,-54819.78477075665,10.5,10499945180.215229,47.655,-122.3035,60.0,13.816666666666666
2026-01-20T23:13:50+00:00,SAT-55405,221.1386734941896,55.25857690235831,687.2137321211886,1.6352396207049231,-57273.00857382373,10.5,10499942726.991426,47.655,-122.3035,60.0,13.833333333333334
2026-01-20T23:13:51+00:00,SAT-55405,220.16002596426307,55.03556019214355,688.8445878901332,1.7047853326812263,-59708.79358530385,10.5,10499940291.206415,47.655,-122.3035,60.0,13.85
2026-01-20T23:13:52+00:00,SAT-55405,219.197097475972,54.80551936202056,690.5448029285981,1.77381693744446,-62126.572387510925,10.5,10499937873.427612,47.655,-122.3035,60.0,13.866666666666667
2026-01-20T23:13:53+00:00,SAT-55405,218.25004701610075,54.56875885501708,692.31386450762,1.8423189544958398,-64525.802787895074,10.5,10499935474.197212,47.655,-122.3035,60.0,13.883333333333333
2026-01-20T23:13:54+00:00,SAT-55405,217.31899354397822,54.32558276055577,694.1512444592388,1.9102766111198939,-66905.96738347196,10.5,10499933094.032616,47.655,-122.3035,60.0,13.9
2026-01-20T23:13:55+00:00,SAT-55405,216.40401812119535,54.07629393567739,696.0563998823824,1.977675872431945,-69266.57461321265,10.5,10499930733.425386,47.655,-122.3035,60.0,13.916666666666666
2026-01-20T23:13:56+00:00,SAT-55405,215.50516610263549,53.821193187679405,698.0287738787196,2.0445034148910866,-71607.15783035613,10.5,10499928392.842169,47.655,-122.3035,60.0,13.933333333333334
2026-01-20T23:13:57+00:00,SAT-55405,214.62244939132012,53.56057852591071,700.0677962620967,2.1107466718425263,-73927.27689749461,10.5,10499926072.723103,47.655,-122.3035,60.0,13.95
2026-01-20T23:13:58+00:00,SAT-55405,213.75584869194185,53.29474447296731,702.1728843133952,2.1763937767618837,-76226.516198749,10.5,10499923773.4838,47.655,-122.3035,60.0,13.966666666666667
2026-01-20T23:13:59+00:00,SAT-55405,212.90531579017502,53.02398144734672,704.3434434787839,2.2414336274442386,-78504.48688794067,10.5,10499921495.513111,47.655,-122.3035,60.0,13.983333333333333
2026-01-20T23:14:00+00:00,SAT-55405,212.0707757784675,52.7485752005887,706.5788681319908,2.30585583412709,-80760.82507163822,10.5,10499919239.174929,47.655,-122.3035,60.0,14.0
2026-01-20T23:14:01+00:00,SAT-55405,211.25212926464056,52.46880632152779,708.8785422848346,2.369650722693031,-82995.19192132853,10.5,10499917004.808079,47.655,-122.3035,60.0,14.016666666666667
2026-01-20T23:14:02+00:00,SAT-55405,210.44925451989442,52.18494979816448,711.2418403009518,2.432809357352354,-85207.27446785776,10.5,10499914792.725533,47.655,-122.3035,60.0,14.033333333333333
2026-01-20T23:14:03+00:00,SAT-55405,209.66200954860855,51.8972746322076,713.6681276321448,2.4953234870994403,-87396.78372610734,10.5,10499912603.216274,47.655,-122.3035,60.0,14.05
2026-01-20T23:14:04+00:00,SAT-55405,208.89023409681423,51.60604351250654,716.15676150133,2.5571855857392465,-89563.45609689117,10.5,10499910436.543903,47.655,-122.3035,60.0,14.066666666666666
2026-01-20T23:14:05+00:00,SAT-55405,208.13375155778638,51.311512533054945,718.7070916254054,2.618388811831087,-91707.0519640171,10.5,10499908292.948036,47.655,-122.3035,60.0,14.083333333333334
2026-01-20T23:14:06+00:00,SAT-55405,207.39237079576236,51.0139309619443,721.3184608981697,2.6789269866542487,-93827.35492254981,10.5,10499906172.645077,47.655,-122.3035,60.0,14.1
2026-01-20T23:14:07+00:00,SAT-55405,206.6658878772303,50.71354105568436,723.9902060512645,2.7387946204114235,-95924.1726965658,10.5,10499904075.827303,47.655,-122.3035,60.0,14.116666666666667
2026-01-20T23:14:08+00:00,SAT-55405,205.95408769072904,50.41057791023042,726.7216583412521,2.7979868590836623,-97997.33527778892,10.5,10499902002.664722,47.655,-122.3035,60.0,14.133333333333333
2026-01-20T23:14:09+00:00,SAT-55405,205.256745479618,50.10526935451292,729.5121441836891,2.8564994950237024,-100046.69529661375,10.5,10499899953.304703,47.655,-122.3035,60.0,14.15
2026-01-20T23:14:10+00:00,SAT-55405,204.5736282671862,49.797835876087774,732.3609857977634,2.914328940929529,-102072.12711054945,10.5,10499897927.872889,47.655,-122.3035,60.0,14.166666666666666
2026-01-20T23:14:11+00:00,SAT-55405,203.90449618641438,49.4884905799722,735.2675018249797,2.971472215418048,-104073.5262989488,10.5,10499895926.473701,47.655,-122.3035,60.0,14.183333333333334
2026-01-20T23:14:12+00:00,SAT-55405,203.24910371215742,49.177439176398494,738.2310079334513,3.0279269291409006,-106050.80917672536,10.5,10499893949.190823,47.655,-122.3035,60.0,14.2
2026-01-20T23:14:13+00:00,SAT-55405,202.60720079881477,48.86487999463613,741.2508174083489,3.083691251384772,-108003.91162455497,10.5,10499891996.088375,47.655,-122.3035,60.0,14.216666666666667
2026-01-20T23:14:14+00:00,SAT-55405,201.97853392988767,48.55100402219293,744.3262417090382,3.1387639305044917,-109932.78980452925,10.5,10499890067.210196,47.655,-122.3035,60.0,14.233333333333333
2026-01-20T23:14:15+00:00,SAT-55405,201.36284707214799,48.23599496133962,747.4565910465946,3.193144222180319,-111837.41764742242,10.5,10499888162.582352,47.655,-122.3035,60.0,14.25
2026-01-20T23:14:16+00:00,SAT-55405,200.75988255755084,47.92002931001225,750.6411748897689,3.2468319242168904,-113717.78807149762,10.5,10499886282.21193,47.655,-122.3035,60.0,14.266666666666667
2026-01-20T23:14:17+00:00,SAT-55405,200.16938187434948,47.603276454005275,753.8793025056598,3.2998273031607375,-115573.91041234181,10.5,10499884426.089588,47.655,-122.3035,60.0,14.283333333333333
2026-01-20T23:14:18+00:00,SAT-55405,199.59108639435445,47.28589877924001,757.170283427197,3.3521311330360306,-117405.81177955557,10.5,10499882594.188221,47.655,-122.3035,60.0,14.3
2026-01-20T23:14:19+00:00,SAT-55405,199.024738017775,46.96805179109044,760.5134279592593,3.4037446223066667,-119213.5344986564,10.5,10499880786.465502,47.655,-122.3035,60.0,14.316666666666666
2026-01-20T23:14:20+00:00,SAT-55405,198.4700797618036,46.64988424992016,763.9080476119502,3.454669441311112,-120997.13707196289,10.5,10499879002.862928,47.655,-122.3035,60.0,14.333333333333334
2026-01-20T23:14:21+00:00,SAT-55405,197.92685627876102,46.33153831148244,767.3534555612339,3.5049076582672507,-122756.69193721388,10.5,10499877243.308064,47.655,-122.3035,60.0,14.35
2026-01-20T23:14:22+00:00,SAT-55405,197.3948143241117,46.01314967937248,770.8489670457465,3.554461767887052,-124492.2864697752,10.5,10499875507.71353,47.655,-122.3035,60.0,14.366666666666667
2026-01-20T23:14:23+00:00,SAT-55405,196.87370316247174,45.69484775951428,774.3938997921495,3.6033346182404524,-126204.02042110328,10.5,10499873795.979578,47.655,-122.3035,60.0,14.383333333333333
2026-01-20T23:14:24+00:00,SAT-55405,196.36327493312487,45.37675582478652,777.9875743675385,3.6515294312225013,-127892.00663559143,10.5,10499872107.993364,47.655,-122.3035,60.0,14.4
2026-01-20T23:14:25+00:00,SAT-55405,195.86328496271778,45.05899118009774,781.6293145522669,3.6990498000989196,-129556.37096460463,10.5,10499870443.629036,47.655,-122.3035,60.0,14.416666666666666
2026-01-20T23:14:26+00:00,SAT-55405,195.37349203373495,44.741665329186326,785.3184477103208,3.7458995990785535,-131197.2490993246,10.5,10499868802.7509,47.655,-122.3035,60.0,14.433333333333334
2026-01-20T23:14:27+00:00,SAT-55405,194.89365862506975,44.424884149766044,789.0543050695085,3.7920830395652962,-132814.7885409299,10.5,10499867185.211458,47.655,-122.3035,60.0,14.45
2026-01-20T23:14:28+00:00,SAT-55405,194.42355110572694,44.1087480634357,792.8362220577517,3.8376046041492384,-134409.14628868684,10.5,10499865590.853712,47.655,-122.3035,60.0,14.466666666666667
2026-01-20T23:14:29+00:00,SAT-55405,193.9629399033309,43.793352210244954,796.6635385735468,3.882469062886092,-135980.48941012373,10.5,10499864019.51059,47.655,-122.3035,60.0,14.483333333333333
2026-01-20T23:14:30+00:00,SAT-55405,193.51159963846698,43.478786620238886,800.535599272656,3.9266814410823994,-137528.99391273278,10.5,10499862471.006086,47.655,-122.3035,60.0,14.5
2026-01-20T23:14:31+00:00,SAT-55405,193.06930923445395,43.16513638555345,804.4517538226769,3.9702469860433616,-139054.84357933814,10.5,10499860945.15642,47.655,-122.3035,60.0,14.516666666666667
2026-01-20T23:14:32+00:00,SAT-55405,192.6358520048562,42.852481832506534,808.4113571244447,4.013171179732079,-140558.23041147628,10.5,10499859441.769588,47.655,-122.3035,60.0,14.533333333333333
2026-01-20T23:14:33+00:00,SAT-55405,192.21101571564384,42.54089868960359,812.4137695460618,4.055459710148388,-142039.35362696176,10.5,10499857960.646374,47.655,-122.3035,60.0,14.55
2026-01-20T23:14:34+00:00,SAT-55405,191.79459262922472,42.23045825443476,816.4583571283803,4.097118445985989,-143498.4187722724,10.5,10499856501.581228,47.655,-122.3035,60.0,14.566666666666666
2026-01-20T23:14:35+00:00,SAT-55405,191.38637953216875,41.92122755881481,820.5444917652153,4.138153441286194,-144935.63788554358,10.5,10499855064.362114,47.655,-122.3035,60.0,14.583333333333334
2026-01-20T23:14:36+00:00,SAT-55405,190.98617774463423,41.613269529596565,824.6715513881903,4.17857090485442,-146351.22842540426,10.5,10499853648.771574,47.655,-122.3035,60.0,14.6
2026-01-20T23:14:37+00:00,SAT-55405,190.59379311810946,41.30664314765601,828.8389201210915,4.2183772062266875,-147745.41347994888,10.5,10499852254.58652,47.655,-122.3035,60.0,14.616666666666667
2026-01-20T23:14:38+00:00,SAT-55405,190.20903601802942,41.00140360212046,833.0459884401644,4.257578824743322,-149118.41998308338,10.5,10499850881.580017,47.655,-122.3035,60.0,14.633333333333333
2026-01-20T23:14:39+00:00,SAT-55405,189.83172129982893,40.69760244386077,837.2921532836244,4.296182388275185,-150470.48007088105,10.5,10499849529.51993,47.655,-122.3035,60.0,14.65
2026-01-20T23:14:40+00:00,SAT-55405,189.46166826966777,40.3952877316194,841.57681819979,4.334194604951075,-151801.82869038783,10.5,10499848198.17131,47.655,-122.3035,60.0,14.666666666666666
2026-01-20T23:14:41+00:00,SAT-55405,189.09870064249804,40.09450417841095,845.8993934271236,4.371622311215624,-153112.70528281288,10.5,10499846887.294718,47.655,-122.3035,60.0,14.683333333333334
2026-01-20T23:14:42+00:00,SAT-55405,188.742646486858,39.795293289858776,850.2592960222071,4.408472389015782,-154403.35088304893,10.5,10499845596.649117,47.655,-122.3035,60.0,14.7
2026-01-20T23:14:43+00:00,SAT-55405,188.393338170177,39.49769350360849,854.6559499051168,4.444751833787525,-155674.0105008546,10.5,10499844325.9895,47.655,-122.3035,60.0,14.716666666666667
2026-01-20T23:14:44+00:00,SAT-55405,188.0506122911989,39.201740319359864,859.0887859726141,4.480467667928527,-156924.93009030112,10.5,10499843075.06991,47.655,-122.3035,60.0,14.733333333333333
2026-01-20T23:14:45+00:00,SAT-55405,187.71430961477952,38.90746643012305,863.5572421250295,4.515627007665012,-158156.35889173244,10.5,10499841843.641108,47.655,-122.3035,60.0,14.75
2026-01-20T23:14:46+00:00,SAT-55405,187.38427499603247,38.614901844358634,868.0607633598433,4.550236979959724,-159368.54652153092,10.5,10499840631.453478,47.655,-122.3035,60.0,14.766666666666667
2026-01-20T23:14:47+00:00,SAT-55405,187.06035730769997,38.32407400904296,872.5988017823923,4.584304749630798,-160561.74392193477,10.5,10499839438.256079,47.655,-122.3035,60.0,14.783333333333333
2026-01-20T23:14:48+00:00,SAT-55405,186.74240936149872,38.035007926349785,877.1708166436233,4.617837526705053,-161736.20361858152,10.5,10499838263.796381,47.655,-122.3035,60.0,14.8
2026-01-20T23:14:49+00:00,SAT-55405,186.4302878266676,37.74772626545534,881.7762743851808,4.6508425276714505,-162892.17836344047,10.5,10499837107.821636,47.655,-122.3035,60.0,14.816666666666666
2026-01-20T23:14:50+00:00,SAT-55405,186.12385314898475,37.46224947243804,886.4146486458521,4.683326971360704,-164029.9209904987,10.5,10499835970.07901,47.655,-122.3035,60.0,14.833333333333334
2026-01-20T23:14:51+00:00,SAT-55405,185.82296946856675,37.1785958760846,891.0854202639016,4.715298090806364,-165149.68483118684,10.5,10499834850.315168,47.655,-122.3035,60.0,14.85
2026-01-20T23:14:52+00:00,SAT-55405,185.52750453531004,36.89678178877091,895.7880772912376,4.746763110949718,-166251.72293351038,10.5,10499833748.277067,47.655,-122.3035,60.0,14.866666666666667
2026-01-20T23:14:53+00:00,SAT-55405,185.23732962522988,36.616821604600986,900.5221149853402,4.777729245975719,-167336.2879687422,10.5,10499832663.71203,47.655,-122.3035,60.0,14.883333333333333
2026-01-20T23:14:54+00:00,SAT-55405,184.9523194563146,36.338727893693985,905.287035798534,4.808203693102142,-168403.63201389308,10.5,10499831596.367987,47.655,-122.3035,60.0,14.9
2026-01-20T23:14:55+00:00,SAT-55405,184.67235210463642,36.062511492927364,910.082349361067,4.838193622774635,-169454.0062083005,10.5,10499830545.993792,47.655,-122.3035,60.0,14.916666666666666
2026-01-20T23:14:56+00:00,SAT-55405,184.39730892101218,35.7881815934499,914.90757245441,4.867706193411192,-170487.66127004274,10.5,10499829512.33873,47.655,-122.3035,60.0,14.933333333333334
2026-01-20T23:14:57+00:00,SAT-55405,184.12707444721954,35.5157458236718,919.7622289992596,4.896748505959679,-171504.84590435104,10.5,10499828495.154095,47.655,-122.3035,60.0,14.95
2026-01-20T23:14:58+00:00,SAT-55405,183.86153633521062,35.24521033125445,924.6458499982263,4.925327639540559,-172505.80805196866,10.5,10499827494.191948,47.655,-122.3035,60.0,14.966666666666667
2026-01-20T23:14:59+00:00,SAT-55405,183.60058526514308,34.976579859594956,929.5579735140607,4.953450626719329,-173490.794023087,10.5,10499826509.205976,47.655,-122.3035,60.0,14.983333333333333
