DopplerPredictor/satellites_20260205_234138/SAT-55784.csv

timestamp,satellite,azimuth_deg,elevation_deg,distance_km,relative_velocity_kms,doppler_shift_hz,tx_freq_ghz,rx_freq_hz,ue_lat,ue_lon,ue_alt_m,time_minutes
2026-01-20T23:07:27+00:00,SAT-55784,192.0316503300272,30.08456341649303,1038.9773657627284,-5.719397117029672,200317.4800641968,10.5,10500200317.480064,47.655,-122.3035,60.0,7.45
2026-01-20T23:07:28+00:00,SAT-55784,191.9221711988791,30.32832088574226,1033.2733015600927,-5.702317355530689,199719.27456918292,10.5,10500199719.274569,47.655,-122.3035,60.0,7.466666666666667
2026-01-20T23:07:29+00:00,SAT-55784,191.8108794218192,30.57433320424763,1027.5862713304723,-5.6849460103995195,199110.85658197233,10.5,10500199110.856583,47.655,-122.3035,60.0,7.483333333333333
2026-01-20T23:07:30+00:00,SAT-55784,191.6977313323528,30.822627484015264,1021.9165658758043,-5.667277510286352,198492.03097032782,10.5,10500198492.03097,47.655,-122.3035,60.0,7.5
2026-01-20T23:07:31+00:00,SAT-55784,191.58268188276526,31.073231000138975,1016.2644815544388,-5.6493061786847365,197862.59891898194,10.5,10500197862.598919,47.655,-122.3035,60.0,7.516666666666667
2026-01-20T23:07:32+00:00,SAT-55784,191.4656845905459,31.326171178531887,1010.6303203860145,-5.631026228583588,197222.35774232744,10.5,10500197222.357742,47.655,-122.3035,60.0,7.533333333333333
2026-01-20T23:07:33+00:00,SAT-55784,191.34669148223804,31.58147558243494,1005.0143901616685,-5.6124317891529065,196571.10181906415,10.5,10500196571.10182,47.655,-122.3035,60.0,7.55
2026-01-20T23:07:34+00:00,SAT-55784,191.2256530342633,31.839171899118103,999.4170045276264,-5.593516834296222,195908.62008980336,10.5,10500195908.62009,47.655,-122.3035,60.0,7.566666666666666
2026-01-20T23:07:35+00:00,SAT-55784,191.10251811257405,32.09928792221199,993.8384831400579,-5.574275275927591,195234.6993240227,10.5,10500195234.699324,47.655,-122.3035,60.0,7.583333333333333
2026-01-20T23:07:36+00:00,SAT-55784,190.97723390720824,32.361851537138875,988.2791517268951,-5.554700892249087,194549.12160804064,10.5,10500194549.121609,47.655,-122.3035,60.0,7.6
2026-01-20T23:07:37+00:00,SAT-55784,190.84974586559738,32.62689070201376,982.7393422211893,-5.534787355291605,193851.66530961177,10.5,10500193851.66531,47.655,-122.3035,60.0,7.616666666666666
2026-01-20T23:07:38+00:00,SAT-55784,190.7199976219604,32.894433428495354,977.2193928669968,-5.514528225581226,193142.10489112063,10.5,10500193142.10489,47.655,-122.3035,60.0,7.633333333333334
2026-01-20T23:07:39+00:00,SAT-55784,190.58793092344027,33.1645077609802,971.7196483305836,-5.493916941868478,192420.2105498565,10.5,10500192420.21055,47.655,-122.3035,60.0,7.65
2026-01-20T23:07:40+00:00,SAT-55784,190.4534855532028,33.4371417538076,966.2404598218758,-5.472946862736411,191685.74967530475,10.5,10500191685.749676,47.655,-122.3035,60.0,7.666666666666667
2026-01-20T23:07:41+00:00,SAT-55784,190.31659924834133,33.71236344894687,960.7821851744116,-5.451611200768731,190938.48454343597,10.5,10500190938.484543,47.655,-122.3035,60.0,7.683333333333334
2026-01-20T23:07:42+00:00,SAT-55784,190.17720761601086,33.99020084877525,955.3451889909499,-5.429903046385443,190178.17315153123,10.5,10500190178.173151,47.655,-122.3035,60.0,7.7
2026-01-20T23:07:43+00:00,SAT-55784,190.03524404454637,34.270681888180846,949.9298427653051,-5.407815403631165,189404.5704716402,10.5,10500189404.57047,47.655,-122.3035,60.0,7.716666666666667
2026-01-20T23:07:44+00:00,SAT-55784,189.8906396094701,34.55383440663584,944.5365249684926,-5.385341185591251,188617.42829003435,10.5,10500188617.42829,47.655,-122.3035,60.0,7.733333333333333
2026-01-20T23:07:45+00:00,SAT-55784,189.7433229746106,34.83968611814655,939.165621139443,-5.362473105326549,187816.49138728087,10.5,10500187816.491386,47.655,-122.3035,60.0,7.75
2026-01-20T23:07:46+00:00,SAT-55784,189.59322029222986,35.12826457328079,933.8175240844905,-5.339203840151766,187001.5032919659,10.5,10500187001.503292,47.655,-122.3035,60.0,7.766666666666667
2026-01-20T23:07:47+00:00,SAT-55784,189.44025509266152,35.41959712760193,928.4926339130241,-5.315525962918304,186172.20387392867,10.5,10500186172.203875,47.655,-122.3035,60.0,7.783333333333333
2026-01-20T23:07:48+00:00,SAT-55784,189.28434817083453,35.713710904243605,923.1913581416696,-5.291431867272798,185328.32672649948,10.5,10500185328.326727,47.655,-122.3035,60.0,7.8
2026-01-20T23:07:49+00:00,SAT-55784,189.12541746946056,36.01063274980584,917.9141118730156,-5.266913867135154,184469.60265064146,10.5,10500184469.60265,47.655,-122.3035,60.0,7.816666666666666
2026-01-20T23:07:50+00:00,SAT-55784,188.96337795338638,36.31038919296416,912.6613178751242,-5.241964193073178,183595.7595279744,10.5,10500183595.759527,47.655,-122.3035,60.0,7.833333333333333
2026-01-20T23:07:51+00:00,SAT-55784,188.79814147723374,36.613006400219476,907.4334066646613,-5.216574939947795,182706.52048708926,10.5,10500182706.520487,47.655,-122.3035,60.0,7.85
2026-01-20T23:07:52+00:00,SAT-55784,188.62961664861152,36.91851012570193,902.2308166422404,-5.190738086844294,181801.6046016244,10.5,10500181801.6046,47.655,-122.3035,60.0,7.866666666666666
2026-01-20T23:07:53+00:00,SAT-55784,188.4577086835084,37.22692565890147,897.053994207885,-5.164445529528381,180880.72802701392,10.5,10500180880.728027,47.655,-122.3035,60.0,7.883333333333334
2026-01-20T23:07:54+00:00,SAT-55784,188.2823192531758,37.538277770979896,891.9033938441278,-5.1376890689905235,179943.6035992623,10.5,10500179943.6036,47.655,-122.3035,60.0,7.9
2026-01-20T23:07:55+00:00,SAT-55784,188.10334632347792,37.85259065698332,886.7794782105306,-5.110460349185732,178989.9386543279,10.5,10500178989.938654,47.655,-122.3035,60.0,7.916666666666667
2026-01-20T23:07:56+00:00,SAT-55784,187.92068398873545,38.1698878704819,881.6827183002973,-5.082750989636855,178019.43967245158,10.5,10500178019.439672,47.655,-122.3035,60.0,7.933333333333334
2026-01-20T23:07:57+00:00,SAT-55784,187.7342222914043,38.4901922623842,876.6135934646442,-5.054552454624282,177031.80769662643,10.5,10500177031.807697,47.655,-122.3035,60.0,7.95
2026-01-20T23:07:58+00:00,SAT-55784,187.54384703803532,38.81352590757506,871.5725915676225,-5.0258561765795395,176026.7426543638,10.5,10500176026.742655,47.655,-122.3035,60.0,7.966666666666667
2026-01-20T23:07:59+00:00,SAT-55784,187.34943960037006,39.13991003489288,866.5602090178842,-4.996653428143124,175003.93887661712,10.5,10500175003.938877,47.655,-122.3035,60.0,7.983333333333333
2026-01-20T23:08:00+00:00,SAT-55784,187.1508767117739,39.46936494431253,861.5769509280437,-4.966935445332836,173963.08941165818,10.5,10500173963.08941,47.655,-122.3035,60.0,8.0
2026-01-20T23:08:01+00:00,SAT-55784,186.94803024754205,39.80190992711161,856.6233311512028,-4.936693409843627,172903.88540514276,10.5,10500172903.885405,47.655,-122.3035,60.0,8.016666666666667
2026-01-20T23:08:02+00:00,SAT-55784,186.74076699449725,40.13756317991976,851.6998723351273,-4.905918354563696,171826.01279088485,10.5,10500171826.01279,47.655,-122.3035,60.0,8.033333333333333
2026-01-20T23:08:03+00:00,SAT-55784,186.52894841306818,40.47634170689875,846.8071060706555,-4.874601298512568,170729.15701695858,10.5,10500170729.157017,47.655,-122.3035,60.0,8.05
2026-01-20T23:08:04+00:00,SAT-55784,186.31243038036644,40.81826122519639,841.9455729055293,-4.842733214064715,169613.0018977312,10.5,10500169613.001898,47.655,-122.3035,60.0,8.066666666666666
2026-01-20T23:08:05+00:00,SAT-55784,186.09106292137636,41.163336062319225,837.115822390914,-4.810304940366071,168477.22658134295,10.5,10500168477.226582,47.655,-122.3035,60.0,8.083333333333334
2026-01-20T23:08:06+00:00,SAT-55784,185.8646899306103,41.51157904085877,832.3184132142713,-4.777307345423353,167321.51122676075,10.5,10500167321.511227,47.655,-122.3035,60.0,8.1
2026-01-20T23:08:07+00:00,SAT-55784,185.63314887035366,41.86300136792274,827.5539131705727,-4.743731238943991,166145.53395106393,10.5,10500166145.53395,47.655,-122.3035,60.0,8.116666666666667
2026-01-20T23:08:08+00:00,SAT-55784,185.3962704580013,42.21761251137516,822.8228992204455,-4.709567346002086,164948.96990711457,10.5,10500164948.969908,47.655,-122.3035,60.0,8.133333333333333
2026-01-20T23:08:09+00:00,SAT-55784,185.15387833829186,42.57542006638975,818.1259575745778,-4.674806446738874,163731.49617645878,10.5,10500163731.496176,47.655,-122.3035,60.0,8.15
2026-01-20T23:08:10+00:00,SAT-55784,184.90578873040909,42.93642962452632,813.4636836387992,-4.639439246627308,162492.7872254436,10.5,10500162492.787226,47.655,-122.3035,60.0,8.166666666666666
2026-01-20T23:08:11+00:00,SAT-55784,184.6518100639613,43.30064462472688,808.8366820885494,-4.603456469674483,161232.51816956006,10.5,10500161232.51817,47.655,-122.3035,60.0,8.183333333333334
2026-01-20T23:08:12+00:00,SAT-55784,184.39174259073374,43.66806620248491,804.2455668503932,-4.5668488415251005,159950.36418165514,10.5,10500159950.364182,47.655,-122.3035,60.0,8.2
2026-01-20T23:08:13+00:00,SAT-55784,184.1253779765862,44.03869302846466,799.6909611003871,-4.52960710063977,158646.0008834431,10.5,10500158646.000883,47.655,-122.3035,60.0,8.216666666666667
2026-01-20T23:08:14+00:00,SAT-55784,183.85249887196989,44.41252113815406,795.1734972512985,-4.491722033245279,157319.10556961186,10.5,10500157319.10557,47.655,-122.3035,60.0,8.233333333333333
2026-01-20T23:08:15+00:00,SAT-55784,183.57287845720802,44.78954375403724,790.6938169049666,-4.453184429099019,155969.3556585059,10.5,10500155969.355658,47.655,-122.3035,60.0,8.25
2026-01-20T23:08:16+00:00,SAT-55784,183.28627996799503,45.169751093155114,786.2525708487827,-4.413985167087928,154596.43169016362,10.5,10500154596.43169,47.655,-122.3035,60.0,8.266666666666667
2026-01-20T23:08:17+00:00,SAT-55784,182.99245618989292,45.553130170267984,781.8504189667979,-4.374115187283017,153200.01634754828,10.5,10500153200.016348,47.655,-122.3035,60.0,8.283333333333333
2026-01-20T23:08:18+00:00,SAT-55784,182.69114892958035,45.93966458663801,777.4880301787041,-4.333565513739756,151779.79525511424,10.5,10500151779.795256,47.655,-122.3035,60.0,8.3
2026-01-20T23:08:19+00:00,SAT-55784,182.3820884572396,46.32933430795983,773.1660823560748,-4.292327248624453,150335.45677308785,10.5,10500150335.456774,47.655,-122.3035,60.0,8.316666666666666
2026-01-20T23:08:20+00:00,SAT-55784,182.0649929219504,46.722115428210905,768.8852622444625,-4.25039163618362,148866.69423794514,10.5,10500148866.694239,47.655,-122.3035,60.0,8.333333333333334
2026-01-20T23:08:21+00:00,SAT-55784,181.73956773293642,47.117979925022325,764.6462653217014,-4.207750067999476,147373.20614648185,10.5,10500147373.206146,47.655,-122.3035,60.0,8.35
2026-01-20T23:08:22+00:00,SAT-55784,181.40550490997873,47.51689540077258,760.4497956509649,-4.164394034532971,145854.6944586451,10.5,10500145854.694458,47.655,-122.3035,60.0,8.366666666666667
2026-01-20T23:08:23+00:00,SAT-55784,181.0624824071219,47.91882480325937,756.2965657821521,-4.120315243253752,144310.86873494458,10.5,10500144310.868734,47.655,-122.3035,60.0,8.383333333333333
2026-01-20T23:08:24+00:00,SAT-55784,180.7101633944531,48.32372614086414,752.1872965354621,-4.0755055848842,142741.44495417597,10.5,10500142741.444954,47.655,-122.3035,60.0,8.4
2026-01-20T23:08:25+00:00,SAT-55784,180.34819550936257,48.731552177211086,748.1227168186311,-4.02995714089061,141146.14577579335,10.5,10500141146.145775,47.655,-122.3035,60.0,8.416666666666666
2026-01-20T23:08:26+00:00,SAT-55784,179.97621007421878,49.142250108052515,744.1035634367012,-3.9836622561180604,139524.70308389023,10.5,10500139524.703083,47.655,-122.3035,60.0,8.433333333333334
2026-01-20T23:08:27+00:00,SAT-55784,179.59382127269802,49.55576122606071,740.1305808293464,-3.936613490122799,137876.85628265335,10.5,10500137876.856283,47.655,-122.3035,60.0,8.45
2026-01-20T23:08:28+00:00,SAT-55784,179.20062529727073,49.972020560341626,736.2045208567381,-3.8888037206586112,136202.3559208932,10.5,10500136202.35592,47.655,-122.3035,60.0,8.466666666666667
2026-01-20T23:08:29+00:00,SAT-55784,178.7961994513534,50.39095650520049,732.3261424821995,-3.840226119818196,134500.96285641403,10.5,10500134500.962856,47.655,-122.3035,60.0,8.483333333333333
2026-01-20T23:08:30+00:00,SAT-55784,178.38010122041956,50.812490424179934,728.4962114786575,-3.7908741477676973,132772.44803657074,10.5,10500132772.448036,47.655,-122.3035,60.0,8.5
2026-01-20T23:08:31+00:00,SAT-55784,177.95186731153942,51.236536229581596,724.7155001413394,-3.7407416645982545,131016.59641578332,10.5,10500131016.596416,47.655,-122.3035,60.0,8.516666666666667
2026-01-20T23:08:32+00:00,SAT-55784,177.51101264852778,51.66299994952475,720.9847868889213,-3.6898228974715064,129233.2058048332,10.5,10500129233.205805,47.655,-122.3035,60.0,8.533333333333333
2026-01-20T23:08:33+00:00,SAT-55784,177.05702934134422,52.091779265721215,717.3048558974427,-3.6381124439232657,127422.08698657219,10.5,10500127422.086987,47.655,-122.3035,60.0,8.55
2026-01-20T23:08:34+00:00,SAT-55784,176.5893856303596,52.52276302428949,713.6764967309223,-3.585605367031994,125583.06704912482,10.5,10500125583.067049,47.655,-122.3035,60.0,8.566666666666666
2026-01-20T23:08:35+00:00,SAT-55784,176.10752479545087,52.955830729256384,710.1005038770655,-3.5322971940622363,123715.98933837583,10.5,10500123715.989338,47.655,-122.3035,60.0,8.583333333333334
2026-01-20T23:08:36+00:00,SAT-55784,175.61086404853313,53.390852006710986,706.5776762843238,-3.478183906623834,121820.71311330407,10.5,10500121820.713114,47.655,-122.3035,60.0,8.6
2026-01-20T23:08:37+00:00,SAT-55784,175.0987934177728,53.827686036961865,703.1088169087642,-3.4232620231991935,119897.11643643661,10.5,10500119897.116436,47.655,-122.3035,60.0,8.616666666666667
2026-01-20T23:08:38+00:00,SAT-55784,174.57067461819753,54.26618096490035,699.694732178639,-3.367528609341346,117945.09653102791,10.5,10500117945.09653,47.655,-122.3035,60.0,8.633333333333333
2026-01-20T23:08:39+00:00,SAT-55784,174.02583992885315,54.70617327897469,696.3362314487802,-3.310981295782588,115964.57041530102,10.5,10500115964.570415,47.655,-122.3035,60.0,8.65
2026-01-20T23:08:40+00:00,SAT-55784,173.46359108891983,55.147487158590764,693.0341264369363,-3.2536183164334314,113955.4762333315,10.5,10500113955.476233,47.655,-122.3035,60.0,8.666666666666666
2026-01-20T23:08:41+00:00,SAT-55784,172.88319822417276,55.58993379174727,689.7892306222101,-3.195438551135579,111917.7747524375,10.5,10500111917.774752,47.655,-122.3035,60.0,8.683333333333334
2026-01-20T23:08:42+00:00,SAT-55784,172.28389882149511,56.03331066312115,686.6023586008597,-3.136441514476006,109851.44897140162,10.5,10500109851.44897,47.655,-122.3035,60.0,8.7
2026-01-20T23:08:43+00:00,SAT-55784,171.66489678321054,56.47740080489472,683.474325453255,-3.0766274388882606,107756.5070310299,10.5,10500107756.50703,47.655,-122.3035,60.0,8.716666666666667
2026-01-20T23:08:44+00:00,SAT-55784,171.02536157049624,56.9219720232422,680.405946027956,-3.015997262947656,105632.98180419998,10.5,10500105632.981804,47.655,-122.3035,60.0,8.733333333333333
2026-01-20T23:08:45+00:00,SAT-55784,170.3644274843415,57.36677608793055,677.3980342374625,-2.9545526762130248,103480.93246640902,10.5,10500103480.932467,47.655,-122.3035,60.0,8.75
2026-01-20T23:08:46+00:00,SAT-55784,169.68119311099272,57.81154789369646,674.4514023092462,-2.8922961465132913,101300.44545146482,10.5,10500101300.445452,47.655,-122.3035,60.0,8.766666666666667
2026-01-20T23:08:47+00:00,SAT-55784,168.97472097758705,58.25600459267814,671.5668600095648,-2.8292309332474574,99091.6349173077,10.5,10500099091.634918,47.655,-122.3035,60.0,8.783333333333333
2026-01-20T23:08:48+00:00,SAT-55784,168.24403747319414,58.69984469801021,668.7452138540156,-2.765361151102401,96854.64497767724,10.5,10500096854.644978,47.655,-122.3035,60.0,8.8
2026-01-20T23:08:49+00:00,SAT-55784,167.48813307900502,59.14274716984897,665.9872662545393,-2.7006917350427604,94589.6484759099,10.5,10500094589.648476,47.655,-122.3035,60.0,8.816666666666666
2026-01-20T23:08:50+00:00,SAT-55784,166.7059630036808,59.58437047286692,663.2938147013429,-2.635228531159917,92296.85016685486,10.5,10500092296.850166,47.655,-122.3035,60.0,8.833333333333334
2026-01-20T23:08:51+00:00,SAT-55784,165.89644826400334,60.02435163104638,660.6656508542137,-2.568978277736747,89976.4860536813,10.5,10500089976.486053,47.655,-122.3035,60.0,8.85
2026-01-20T23:08:52+00:00,SAT-55784,165.0584773309424,60.462305270018554,658.1035596527204,-2.5019486074332153,87628.82346442739,10.5,10500087628.823465,47.655,-122.3035,60.0,8.866666666666667
2026-01-20T23:08:53+00:00,SAT-55784,164.19090843673786,60.89782265933415,655.6083184242348,-2.434148146891357,85254.16454058776,10.5,10500085254.164541,47.655,-122.3035,60.0,8.883333333333333
2026-01-20T23:08:54+00:00,SAT-55784,163.29257261765162,61.33047078355921,653.1806958926127,-2.365586449642512,82852.8438872414,10.5,10500082852.843887,47.655,-122.3035,60.0,8.9
2026-01-20T23:08:55+00:00,SAT-55784,162.36227767379384,61.75979142833781,650.8214512537909,-2.296274058817711,80425.23076943439,10.5,10500080425.23077,47.655,-122.3035,60.0,8.916666666666666
2026-01-20T23:08:56+00:00,SAT-55784,161.3988131359366,62.18530032127202,648.5313331888391,-2.226222495074023,77971.72868930959,10.5,10500077971.72869,47.655,-122.3035,60.0,8.933333333333334
2026-01-20T23:08:57+00:00,SAT-55784,160.40095641127525,62.6064863358186,646.3110788890558,-2.1554442968887577,75492.77679738012,10.5,10500075492.776798,47.655,-122.3035,60.0,8.95
2026-01-20T23:08:58+00:00,SAT-55784,159.3674802412353,63.02281079296943,644.1614130408756,-2.0839530113974116,72988.8495716354,10.5,10500072988.849571,47.655,-122.3035,60.0,8.966666666666667
2026-01-20T23:08:59+00:00,SAT-55784,158.29716165232963,63.433706881286405,642.0830468199161,-2.01176319654953,70460.45689304854,10.5,10500070460.456894,47.655,-122.3035,60.0,8.983333333333333
2026-01-20T23:09:00+00:00,SAT-55784,157.18879256094505,63.83857923150823,640.0766768828734,-1.9388904304591943,67908.14437307006,10.5,10500067908.144373,47.655,-122.3035,60.0,9.0
2026-01-20T23:09:01+00:00,SAT-55784,156.04119218668637,64.2368036865539,638.1429843500911,-1.8653513263698043,65332.49387775774,10.5,10500065332.493877,47.655,-122.3035,60.0,9.016666666666667
2026-01-20T23:09:02+00:00,SAT-55784,154.85322141883225,64.62772731308361,636.2826337732089,-1.7911635054892217,62734.12257634856,10.5,10500062734.122576,47.655,-122.3035,60.0,9.033333333333333
2026-01-20T23:09:03+00:00,SAT-55784,153.62379928796338,65.01066869594412,634.4962721298974,-1.7163456092966967,60113.68337229923,10.5,10500060113.683372,47.655,-122.3035,60.0,9.05
2026-01-20T23:09:04+00:00,SAT-55784,152.35192161486356,65.38491857861348,632.7845278063236,-1.6409172737798083,57471.864000954905,10.5,10500057471.864,47.655,-122.3035,60.0,9.066666666666666
2026-01-20T23:09:05+00:00,SAT-55784,151.03668190916366,65.74974090110886,631.1480096053081,-1.5648991437865905,54809.38753222137,10.5,10500054809.387531,47.655,-122.3035,60.0,9.083333333333334
2026-01-20T23:09:06+00:00,SAT-55784,149.67729446784838,66.10437430712413,629.58730574017,-1.4883128378280102,52127.01113779889,10.5,10500052127.011137,47.655,-122.3035,60.0,9.1
2026-01-20T23:09:07+00:00,SAT-55784,148.27311960737185,66.44803417450338,628.1029828636732,-1.4111809197625025,49425.52509945489,10.5,10500049425.525099,47.655,-122.3035,60.0,9.116666666666667
2026-01-20T23:09:08+00:00,SAT-55784,146.823690824895,66.77991523489685,626.6955851252135,-1.33352691003017,46705.75320249312,10.5,10500046705.753202,47.655,-122.3035,60.0,9.133333333333333
2026-01-20T23:09:09+00:00,SAT-55784,145.32874350549497,67.09919485349297,625.3656332168023,-1.2553752248813856,43968.55060728229,10.5,10500043968.550608,47.655,-122.3035,60.0,9.15
2026-01-20T23:09:10+00:00,SAT-55784,143.78824477119824,67.40503700722238,624.1136234796571,-1.1767511722605954,41214.803705089376,10.5,10500041214.803705,47.655,-122.3035,60.0,9.166666666666666
2026-01-20T23:09:11+00:00,SAT-55784,142.20242376305433,67.69659701870799,622.940027014898,-1.0976808972137304,38445.42820601634,10.5,10500038445.428205,47.655,-122.3035,60.0,9.183333333333334
2026-01-20T23:09:12+00:00,SAT-55784,140.57180160159731,67.97302706220762,621.8452888486896,-1.0181913683562211,35661.36866505268,10.5,10500035661.368666,47.655,-122.3035,60.0,9.2
2026-01-20T23:09:13+00:00,SAT-55784,138.89721997564413,68.23348245860103,620.8298271108814,-0.9383103240103428,32863.596595577466,10.5,10500032863.596596,47.655,-122.3035,60.0,9.216666666666667
2026-01-20T23:09:14+00:00,SAT-55784,137.1798672634511,68.47712872988852,619.8940322673628,-0.8580662235548593,30053.108765418052,10.5,10500030053.108765,47.655,-122.3035,60.0,9.233333333333333
2026-01-20T23:09:15+00:00,SAT-55784,135.42130090520854,68.70314936243268,619.0382664009403,-0.7774882255194825,27230.92642962541,10.5,10500027230.92643,47.655,-122.3035,60.0,9.25
2026-01-20T23:09:16+00:00,SAT-55784,133.62346459419396,68.91075419781158,618.26286251406,-0.6966061109720116,24398.09264716767,10.5,10500024398.092648,47.655,-122.3035,60.0,9.266666666666667
2026-01-20T23:09:17+00:00,SAT-55784,131.78869901477808,69.09918830913092,617.5681239079398,-0.6154502525977349,21555.671197959946,10.5,10500021555.671198,47.655,-122.3035,60.0,9.283333333333333
2026-01-20T23:09:18+00:00,SAT-55784,129.91974470396624,69.26774120637022,616.9543235925371,-0.5340515501424323,18704.744321805254,10.5,10500018704.744322,47.655,-122.3035,60.0,9.3
2026-01-20T23:09:19+00:00,SAT-55784,128.01973595809844,69.41575615468528,616.4217037609016,-0.4524413772544933,15846.410856580587,10.5,10500015846.410856,47.655,-122.3035,60.0,9.316666666666666
2026-01-20T23:09:20+00:00,SAT-55784,126.09218486640506,69.54263936767342,615.9704753165424,-0.37065152188458733,12981.784150781295,10.5,10500012981.784151,47.655,-122.3035,60.0,9.333333333333334
2026-01-20T23:09:21+00:00,SAT-55784,124.14095498671308,69.64786880736483,615.6008174602384,-0.28871412770113786,10111.990011643145,10.5,10500010111.990011,47.655,-122.3035,60.0,9.35
2026-01-20T23:09:22+00:00,SAT-55784,122.17022459388313,69.73100231102876,615.312877335271,-0.20666163041750085,7238.164475050799,10.5,10500007238.164474,47.655,-122.3035,60.0,9.366666666666667
2026-01-20T23:09:23+00:00,SAT-55784,120.18444000431744,69.7916847638291,615.1067697361655,-0.12452669323763552,4361.451544572122,10.5,10500004361.451544,47.655,-122.3035,60.0,9.383333333333333
2026-01-20T23:09:24+00:00,SAT-55784,118.18826003017274,69.82965405439946,614.9825768818075,-0.042342146021308584,1483.0010607663125,10.5,10500001483.00106,47.655,-122.3035,60.0,9.4
2026-01-20T23:09:25+00:00,SAT-55784,116.18649305565908,69.84474558546988,614.9403482492365,0.03985908401027329,-1396.0337257979638,10.5,10499998603.966274,47.655,-122.3035,60.0,9.416666666666666
2026-01-20T23:09:26+00:00,SAT-55784,114.1840288270428,69.8368951571945,614.980100476543,0.12204403443139315,-4274.498331541176,10.5,10499995725.501669,47.655,-122.3035,60.0,9.433333333333334
2026-01-20T23:09:27+00:00,SAT-55784,112.18576733727218,69.80614010719972,615.1018173277602,0.20417977675969706,-7151.239461723947,10.5,10499992848.760538,47.655,-122.3035,60.0,9.45
2026-01-20T23:09:28+00:00,SAT-55784,110.19654727403478,69.75261865822823,615.3054497267154,0.2862334789700209,-10025.107199945702,10.5,10499989974.8928,47.655,-122.3035,60.0,9.466666666666667
2026-01-20T23:09:29+00:00,SAT-55784,108.22107674038303,69.6765675018618,615.5909158532285,0.36817247498785305,-12894.957442099685,10.5,10499987105.042559,47.655,-122.3035,60.0,9.483333333333333
2026-01-20T23:09:30+00:00,SAT-55784,106.26386860654635,69.57831771549118,615.9581013086186,0.4499643216870712,-15759.653892674802,10.5,10499984240.346107,47.655,-122.3035,60.0,9.5
2026-01-20T23:09:31+00:00,SAT-55784,104.32918269060018,69.45828917972084,616.4068593380543,0.5315768728298197,-18618.0706544429,10.5,10499981381.929346,47.655,-122.3035,60.0,9.516666666666667
2026-01-20T23:09:32+00:00,SAT-55784,102.42097640084764,69.31698370850283,616.9370111266458,0.6129783333100759,-21469.094128297907,10.5,10499978530.905872,47.655,-122.3035,60.0,9.533333333333333
2026-01-20T23:09:33+00:00,SAT-55784,100.54286510112772,69.15497715237352,617.5483461496351,0.6941373185142276,-24311.62509231433,10.5,10499975688.374908,47.655,-122.3035,60.0,9.55
2026-01-20T23:09:34+00:00,SAT-55784,98.69809280313297,68.97291074997298,618.2406225817892,0.7750229214166283,-27144.58105171744,10.5,10499972855.41895,47.655,-122.3035,60.0,9.566666666666666
2026-01-20T23:09:35+00:00,SAT-55784,96.88951326796555,68.7714820075694,619.0135677737068,0.8556047611549874,-29966.897940198905,10.5,10499970033.10206,47.655,-122.3035,60.0,9.583333333333334
2026-01-20T23:09:36+00:00,SAT-55784,95.11958117847959,68.55143538320813,619.8668787765706,0.9358530403275763,-32777.53212670731,10.5,10499967222.467873,47.655,-122.3035,60.0,9.6
2026-01-20T23:09:37+00:00,SAT-55784,93.3903525662895,68.31355302244623,620.8002229240448,1.0157385963432448,-35575.46221394293,10.5,10499964424.537786,47.655,-122.3035,60.0,9.616666666666667
2026-01-20T23:09:38+00:00,SAT-55784,91.70349341926214,68.05864576453259,621.813238465383,1.0952329488887675,-38359.690700865,10.5,10499961640.3093,47.655,-122.3035,60.0,9.633333333333333
2026-01-20T23:09:39+00:00,SAT-55784,90.06029518942572,67.78754459969869,622.905535245878,1.1743083508937562,-41129.24576769853,10.5,10499958870.754232,47.655,-122.3035,60.0,9.65
2026-01-20T23:09:40+00:00,SAT-55784,88.46169581992011,67.5010927158572,624.0766954381376,1.2529378212912676,-43883.18242334939,10.5,10499956116.817577,47.655,-122.3035,60.0,9.666666666666666
2026-01-20T23:09:41+00:00,SAT-55784,86.90830493433351,67.20013823838288,625.3262743060354,1.3310951935273836,-46620.58420441493,10.5,10499953379.415796,47.655,-122.3035,60.0,9.683333333333334
2026-01-20T23:09:42+00:00,SAT-55784,85.40043185273036,66.88552772049296,626.6538010170398,1.4087551513294607,-49340.56442793947,10.5,10499950659.435572,47.655,-122.3035,60.0,9.7
2026-01-20T23:09:43+00:00,SAT-55784,83.93811525975539,66.5581004156135,628.058779490217,1.4858932573798915,-52042.267195690634,10.5,10499947957.732805,47.655,-122.3035,60.0,9.716666666666667
2026-01-20T23:09:44+00:00,SAT-55784,82.52115349314795,66.21868333309564,629.5406892728273,1.562485981371107,-54724.868376764236,10.5,10499945275.131622,47.655,-122.3035,60.0,9.733333333333333
2026-01-20T23:09:45+00:00,SAT-55784,81.14913458313245,65.86808705440166,631.0989864449051,1.6385107319606536,-57387.57672678631,10.5,10499942612.423273,47.655,-122.3035,60.0,9.75
2026-01-20T23:09:46+00:00,SAT-55784,79.8214653485392,65.50710226857187,632.7331045557081,1.7139458807173693,-60029.634726609365,10.5,10499939970.365273,47.655,-122.3035,60.0,9.766666666666667
2026-01-20T23:09:47+00:00,SAT-55784,78.53739903023003,65.13649697643089,634.4424555840436,1.7887707683417366,-62650.31880017553,10.5,10499937349.6812,47.655,-122.3035,60.0,9.783333333333333
2026-01-20T23:09:48+00:00,SAT-55784,77.2960611003313,64.75701430703066,636.2264309048057,1.8629657308226846,-65248.94023063845,10.5,10499934751.059769,47.655,-122.3035,60.0,9.8
2026-01-20T23:09:49+00:00,SAT-55784,76.09647298878068,64.36937087768635,638.0844022815934,1.936512122097711,-67824.8459540165,10.5,10499932175.154045,47.655,-122.3035,60.0,9.816666666666666
2026-01-20T23:09:50+00:00,SAT-55784,74.93757360403725,63.97425563348999,640.0157228819304,2.0093922892713225,-70377.41769123788,10.5,10499929622.582308,47.655,-122.3035,60.0,9.833333333333334
2026-01-20T23:09:51+00:00,SAT-55784,73.81823863258971,63.57232911226243,642.0197282677702,2.081589613482513,-72906.07337949237,10.5,10499927093.92662,47.655,-122.3035,60.0,9.85
2026-01-20T23:09:52+00:00,SAT-55784,72.7372976114985,63.1642230606516,644.0957374267584,2.1530884916224458,-75410.2665319075,10.5,10499924589.733469,47.655,-122.3035,60.0,9.866666666666667
2026-01-20T23:09:53+00:00,SAT-55784,71.69354888890922,62.750540357173385,646.2430537852608,2.2238743484962797,-77889.48666350685,10.5,10499922110.513336,47.655,-122.3035,60.0,9.883333333333333
2026-01-20T23:09:54+00:00,SAT-55784,70.68577257819162,62.33185518455592,648.4609662335235,2.293933622791221,-80343.25879975213,10.5,10499919656.7412,47.655,-122.3035,60.0,9.9
2026-01-20T23:09:55+00:00,SAT-55784,69.71274166067703,61.908713410218176,650.748750136835,2.3632537566507756,-82771.14311138923,10.5,10499917228.856888,47.655,-122.3035,60.0,9.916666666666666
2026-01-20T23:09:56+00:00,SAT-55784,68.77323139271206,61.481633133122685,653.1056683362931,2.4318232172190775,-85172.73566902177,10.5,10499914827.264332,47.655,-122.3035,60.0,9.933333333333334
2026-01-20T23:09:57+00:00,SAT-55784,67.86602716814564,61.05110535548177,655.5309721710585,2.4996314316981483,-87547.6661685417,10.5,10499912452.333832,47.655,-122.3035,60.0,9.95
2026-01-20T23:09:58+00:00,SAT-55784,66.98993103102204,60.61759476411325,658.0239024358373,2.5666688386496364,-89895.59972793305,10.5,10499910104.400272,47.655,-122.3035,60.0,9.966666666666667
2026-01-20T23:09:59+00:00,SAT-55784,66.14376695247796,60.181540574122934,660.5836903895308,2.632926805631069,-92216.23400254526,10.5,10499907783.765997,47.655,-122.3035,60.0,9.983333333333333
2026-01-20T23:10:00+00:00,SAT-55784,65.32638506698288,59.74335743630681,663.2095586817398,2.698397667824619,-94509.30053803588,10.5,10499905490.699463,47.655,-122.3035,60.0,10.0
2026-01-20T23:10:01+00:00,SAT-55784,64.53666496492976,59.30343636842534,665.900722317796,2.7630746759948956,-96774.56294763226,10.5,10499903225.437052,47.655,-122.3035,60.0,10.016666666666667
2026-01-20T23:10:02+00:00,SAT-55784,63.77351819785552,58.86214571068561,668.6563895718886,2.8269519728966164,-99011.81608582853,10.5,10499900988.183914,47.655,-122.3035,60.0,10.033333333333333
2026-01-20T23:10:03+00:00,SAT-55784,63.03589009964352,58.41983208757851,671.4757628766653,2.8900246086708745,-101220.88658762783,10.5,10499898779.113413,47.655,-122.3035,60.0,10.05
2026-01-20T23:10:04+00:00,SAT-55784,62.32276101841137,57.9768213599975,674.3580397281837,2.9522884560616265,-103401.62989906532,10.5,10499896598.3701,47.655,-122.3035,60.0,10.066666666666666
2026-01-20T23:10:05+00:00,SAT-55784,61.6331470735732,57.53341957519406,677.3024135063105,3.013740232960326,-105553.93106681631,10.5,10499894446.068933,47.655,-122.3035,60.0,10.083333333333334
2026-01-20T23:10:06+00:00,SAT-55784,60.96610049284805,57.089913891326034,680.3080743176024,3.0743774769353407,-107677.70384610903,10.5,10499892322.296154,47.655,-122.3035,60.0,10.1
2026-01-20T23:10:07+00:00,SAT-55784,60.32070961159002,56.64657347955524,683.374209812786,3.134198468102747,-109772.88799933334,10.5,10499890227.112001,47.655,-122.3035,60.0,10.116666666666667
2026-01-20T23:10:08+00:00,SAT-55784,59.69609860515585,56.20365040731525,686.500005927315,3.193202261133626,-111839.45041707178,10.5,10499888160.549583,47.655,-122.3035,60.0,10.133333333333333
2026-01-20T23:10:09+00:00,SAT-55784,59.091426984528034,55.7613804841466,689.6846476538486,3.251388626722395,-113877.38306807286,10.5,10499886122.616932,47.655,-122.3035,60.0,10.15
2026-01-20T23:10:10+00:00,SAT-55784,58.50588891980064,55.3199840816823,692.9273197563542,3.3087580268179524,-115886.70213174108,10.5,10499884113.297869,47.655,-122.3035,60.0,10.166666666666666
2026-01-20T23:10:11+00:00,SAT-55784,57.93871242219165,54.87966692165258,696.227207459511,3.3653115681586727,-117867.4463707358,10.5,10499882132.553629,47.655,-122.3035,60.0,10.183333333333334
2026-01-20T23:10:12+00:00,SAT-55784,57.389158421423,54.440620834229286,699.5834970917684,3.4210510131302634,-119819.67751125936,10.5,10499880180.322489,47.655,-122.3035,60.0,10.2
2026-01-20T23:10:13+00:00,SAT-55784,56.85651975710627,54.00302447906452,702.9953767392375,3.475978726139563,-121743.4783648407,10.5,10499878256.521635,47.655,-122.3035,60.0,10.216666666666667
2026-01-20T23:10:14+00:00,SAT-55784,56.34012011835093,53.56704403796406,706.4620368460971,3.5300976329358655,-123638.95140359597,10.5,10499876361.048597,47.655,-122.3035,60.0,10.233333333333333
2026-01-20T23:10:15+00:00,SAT-55784,55.839312947308144,53.13283387772478,709.9826707744327,3.5834112017939534,-125506.21810117888,10.5,10499874493.781898,47.655,-122.3035,60.0,10.25
2026-01-20T23:10:16+00:00,SAT-55784,55.35348032079257,52.70053718102554,713.5564753453052,3.635923444629268,-127345.41897183855,10.5,10499872654.581028,47.655,-122.3035,60.0,10.266666666666667
2026-01-20T23:10:17+00:00,SAT-55784,54.88203182033225,52.27028654413095,717.1826513809368,3.68763883026486,-129156.71053266134,10.5,10499870843.289467,47.655,-122.3035,60.0,10.283333333333333
2026-01-20T23:10:18+00:00,SAT-55784,54.42440341298317,51.84220455292383,720.8604041603919,3.738562302413482,-130940.26593337969,10.5,10499869059.734066,47.655,-122.3035,60.0,10.3
2026-01-20T23:10:19+00:00,SAT-55784,53.98005633804179,51.41640432564393,724.5889438931943,3.788699233556642,-132696.27334102162,10.5,10499867303.72666,47.655,-122.3035,60.0,10.316666666666666
2026-01-20T23:10:20+00:00,SAT-55784,53.54847601493453,50.992990031211775,728.3674861469461,3.838055397127193,-134424.9349656272,10.5,10499865575.065035,47.655,-122.3035,60.0,10.333333333333334
2026-01-20T23:10:21+00:00,SAT-55784,53.12917097513551,50.572057382052535,732.1952522472052,3.8866369552024116,-136126.46662920827,10.5,10499863873.533371,47.655,-122.3035,60.0,10.35
2026-01-20T23:10:22+00:00,SAT-55784,52.721671821235326,50.153694100869174,736.0714696650867,3.934450414804723,-137801.09623521482,10.5,10499862198.903765,47.655,-122.3035,60.0,10.366666666666667
2026-01-20T23:10:23+00:00,SAT-55784,52.32553021895668,49.73798036601919,739.9953723612832,3.9815026031366583,-139449.0629011585,10.5,10499860550.9371,47.655,-122.3035,60.0,10.383333333333333
2026-01-20T23:10:24+00:00,SAT-55784,51.94031792284984,49.32498923441191,743.9662011053884,4.027800656073105,-141070.61655556262,10.5,10499858929.383444,47.655,-122.3035,60.0,10.4
2026-01-20T23:10:25+00:00,SAT-55784,51.56562583578712,48.91478704172469,747.9832037837388,4.073351998898765,-142666.0172633063,10.5,10499857333.982737,47.655,-122.3035,60.0,10.416666666666666
2026-01-20T23:10:26+00:00,SAT-55784,51.20106310440681,48.50743378193625,752.0456356880513,4.118164287355675,-144235.53316085954,10.5,10499855764.466839,47.655,-122.3035,60.0,10.433333333333334
2026-01-20T23:10:27+00:00,SAT-55784,50.84625625380532,48.10298347115347,756.152759745259,4.1622454353751115,-145779.44142757144,10.5,10499854220.558573,47.655,-122.3035,60.0,10.45
2026-01-20T23:10:28+00:00,SAT-55784,50.50084835472589,47.7014844879944,760.3038467750118,4.205603561399159,-147298.0264056248,10.5,10499852701.973595,47.655,-122.3035,60.0,10.466666666666667
2026-01-20T23:10:29+00:00,SAT-55784,50.16449822946564,47.302979899760814,764.4981756936362,4.248246949584996,-148791.57824124602,10.5,10499851208.421759,47.655,-122.3035,60.0,10.483333333333333
2026-01-20T23:10:30+00:00,SAT-55784,49.83687969465499,46.90750777356572,768.7350336794073,4.290184102426988,-150260.3947277532,10.5,10499849739.605272,47.655,-122.3035,60.0,10.5
2026-01-20T23:10:31+00:00,SAT-55784,49.51768083356187,46.51510146482283,773.0137163903012,4.331423631026059,-151704.7774623257,10.5,10499848295.222538,47.655,-122.3035,60.0,10.516666666666667
2026-01-20T23:10:32+00:00,SAT-55784,49.20660330894597,46.12578989922967,777.3335280723089,4.3719743096814,-153125.03375803638,10.5,10499846874.966242,47.655,-122.3035,60.0,10.533333333333333
2026-01-20T23:10:33+00:00,SAT-55784,48.90336170357156,45.73959783366435,781.6937817221983,4.411845018814586,-154521.47464481296,10.5,10499845478.525354,47.655,-122.3035,60.0,10.55
2026-01-20T23:10:34+00:00,SAT-55784,48.607682895427175,45.3565461071825,786.0937991933522,4.451044726612933,-155894.41422651065,10.5,10499844105.585773,47.655,-122.3035,60.0,10.566666666666666
2026-01-20T23:10:35+00:00,SAT-55784,48.31930546331907,44.976651879144704,790.5329112832972,4.489582505729223,-157244.17026580716,10.5,10499842755.829735,47.655,-122.3035,60.0,10.583333333333334
2026-01-20T23:10:36+00:00,SAT-55784,48.03797912029454,44.59992885226418,795.010457837891,4.527467501212268,-158571.0630609954,10.5,10499841428.93694,47.655,-122.3035,60.0,10.6
2026-01-20T23:10:37+00:00,SAT-55784,47.7634641760089,44.22638748555688,799.5257878235229,4.564708882830438,-159875.41377615175,10.5,10499840124.586224,47.655,-122.3035,60.0,10.616666666666667
2026-01-20T23:10:38+00:00,SAT-55784,47.49553102821984,43.85603519891607,804.078259351768,4.60131588471178,-161157.5458295008,10.5,10499838842.45417,47.655,-122.3035,60.0,10.633333333333333
2026-01-20T23:10:39+00:00,SAT-55784,47.23395967685858,43.48887656269515,808.6672397435747,4.637297770475832,-162417.78367218372,10.5,10499837582.216328,47.655,-122.3035,60.0,10.65
2026-01-20T23:10:40+00:00,SAT-55784,46.978539264175005,43.124913479182,813.292105558675,4.67266383262578,-163656.4527669695,10.5,10499836343.547234,47.655,-122.3035,60.0,10.666666666666666
2026-01-20T23:10:41+00:00,SAT-55784,46.72906763765331,42.76414535368456,817.9522426243931,4.707423317115694,-164873.87694627992,10.5,10499835126.123055,47.655,-122.3035,60.0,10.683333333333334
2026-01-20T23:10:42+00:00,SAT-55784,46.48535093836891,42.40656926148057,822.6470459892199,4.741585524954457,-166070.38197078928,10.5,10499833929.618029,47.655,-122.3035,60.0,10.7
2026-01-20T23:10:43+00:00,SAT-55784,46.247203205043206,42.052180097460955,827.3759199777206,4.7751597268533015,-167246.29254002002,10.5,10499832753.70746,47.655,-122.3035,60.0,10.716666666666667
2026-01-20T23:10:44+00:00,SAT-55784,46.01444600209481,41.70097072353543,832.1382781603182,4.808155139874891,-168401.9314744948,10.5,10499831598.068525,47.655,-122.3035,60.0,10.733333333333333
2026-01-20T23:10:45+00:00,SAT-55784,45.786908067118695,41.35293210915678,836.9335432997885,4.840580968799366,-169537.62116455025,10.5,10499830462.378836,47.655,-122.3035,60.0,10.75
2026-01-20T23:10:46+00:00,SAT-55784,45.5644249744147,41.00805346071844,841.7611473390108,4.8724463894467185,-170653.6829862162,10.5,10499829346.317015,47.655,-122.3035,60.0,10.766666666666667
2026-01-20T23:10:47+00:00,SAT-55784,45.3468388160724,40.666322344661175,846.620531372085,4.903760525491183,-171750.43648915752,10.5,10499828249.56351,47.655,-122.3035,60.0,10.783333333333333
2026-01-20T23:10:48+00:00,SAT-55784,45.13399790015575,40.327724805066325,851.5111455923261,4.934532423470285,-172828.1985213851,10.5,10499827171.80148,47.655,-122.3035,60.0,10.8
2026-01-20T23:10:49+00:00,SAT-55784,44.92575646487185,39.9922454760815,856.4324492153346,4.964771058808521,-173887.28344023073,10.5,10499826112.71656,47.655,-122.3035,60.0,10.816666666666666
2026-01-20T23:10:50+00:00,SAT-55784,44.721974406828096,39.65986768735986,861.3839104080729,4.994485398487963,-174928.005307337,10.5,10499825071.994692,47.655,-122.3035,60.0,10.833333333333334
2026-01-20T23:10:51+00:00,SAT-55784,44.52251702067962,39.33057355922052,866.3650062804463,5.023684280447333,-175950.6736647024,10.5,10499824049.326336,47.655,-122.3035,60.0,10.85
2026-01-20T23:10:52+00:00,SAT-55784,44.32725475616763,39.00434410014994,871.3752227566063,5.052376467558121,-176955.5954251533,10.5,10499823044.404575,47.655,-122.3035,60.0,10.866666666666667
2026-01-20T23:10:53+00:00,SAT-55784,44.13606298526624,38.68115929504152,876.4140545000826,5.080570678695222,-177943.07596056946,10.5,10499822056.92404,47.655,-122.3035,60.0,10.883333333333333
2026-01-20T23:10:54+00:00,SAT-55784,43.9488217800089,38.36099818632638,881.481004869907,5.108275496930357,-178913.41588642885,10.5,10499821086.584114,47.655,-122.3035,60.0,10.9
2026-01-20T23:10:55+00:00,SAT-55784,43.76541570430751,38.043838956040126,886.5755857851723,5.135499462325622,-179866.91431183042,10.5,10499820133.085688,47.655,-122.3035,60.0,10.916666666666666
2026-01-20T23:10:56+00:00,SAT-55784,43.58573361316217,37.72965899733823,891.6973176821382,5.162250944547186,-180803.86437788722,10.5,10499819196.135622,47.655,-122.3035,60.0,10.933333333333334
2026-01-20T23:10:57+00:00,SAT-55784,43.40966846567304,37.418434989460295,896.8457293442935,5.18853832213728,-181724.55953658928,10.5,10499818275.440464,47.655,-122.3035,60.0,10.95
2026-01-20T23:10:58+00:00,SAT-55784,43.237117141954855,37.11014295755697,902.0203579112075,5.21436977915361,-182629.28642825596,10.5,10499817370.713572,47.655,-122.3035,60.0,10.966666666666667
2026-01-20T23:10:59+00:00,SAT-55784,43.067980274967276,36.804758340920635,907.2207486845663,5.239753436798528,-183518.3294917464,10.5,10499816481.670507,47.655,-122.3035,60.0,10.983333333333333
2026-01-20T23:11:00+00:00,SAT-55784,42.90216208680883,36.50225604946322,912.4464550654865,5.2646973198276195,-184391.96978794577,10.5,10499815608.030212,47.655,-122.3035,60.0,11.0
2026-01-20T23:11:01+00:00,SAT-55784,42.73957023392726,36.20261051873608,917.6970384583282,5.28920931458764,-185250.48353007672,10.5,10499814749.51647,47.655,-122.3035,60.0,11.016666666666667
2026-01-20T23:11:02+00:00,SAT-55784,42.58011566104785,35.90579576399061,922.9720681326542,5.313297234021261,-186094.14436044035,10.5,10499813905.85564,47.655,-122.3035,60.0,11.033333333333333
2026-01-20T23:11:03+00:00,SAT-55784,42.423712460285564,35.611785427341204,928.2711211500258,5.336968750262134,-186923.2209896101,10.5,10499813076.77901,47.655,-122.3035,60.0,11.05
2026-01-20T23:11:04+00:00,SAT-55784,42.27027773905282,35.32055282575033,933.5937822235702,5.3602314415777474,-187737.97884056962,10.5,10499812262.02116,47.655,-122.3035,60.0,11.066666666666666
2026-01-20T23:11:05+00:00,SAT-55784,42.11973149286551,35.03207099353177,938.9396436243649,5.383092765453102,-188538.67910598865,10.5,10499811461.320894,47.655,-122.3035,60.0,11.083333333333334
2026-01-20T23:11:06+00:00,SAT-55784,41.9719964850636,34.74631272366973,944.3083050609806,5.40556007996833,-189325.57949695806,10.5,10499810674.420504,47.655,-122.3035,60.0,11.1
2026-01-20T23:11:07+00:00,SAT-55784,41.82699813163111,34.46325060546506,949.6993735803419,5.427640626314668,-190098.93363062528,10.5,10499809901.06637,47.655,-122.3035,60.0,11.116666666666667
2026-01-20T23:11:08+00:00,SAT-55784,41.68466439205534,34.18285706073443,955.1124634511518,5.449341493282098,-190858.98978640093,10.5,10499809141.010214,47.655,-122.3035,60.0,11.133333333333333
2026-01-20T23:11:09+00:00,SAT-55784,41.54492566586309,33.90510437954435,960.5471960118994,5.470669732045852,-191605.99492626815,10.5,10499808394.005074,47.655,-122.3035,60.0,11.15
2026-01-20T23:11:10+00:00,SAT-55784,41.40771469175881,33.62996474791152,966.0031996333462,5.4916322232599715,-192340.1900398365,10.5,10499807659.80996,47.655,-122.3035,60.0,11.166666666666666
2026-01-20T23:11:11+00:00,SAT-55784,41.27296645419071,33.357410280360625,971.4801095484607,5.512235724553474,-193061.81180785902,10.5,10499806938.188192,47.655,-122.3035,60.0,11.183333333333334
2026-01-20T23:11:12+00:00,SAT-55784,41.140618093309264,33.08741304803283,976.9775677297254,5.532486932473977,-193771.09477175956,10.5,10499806228.905228,47.655,-122.3035,60.0,11.2
2026-01-20T23:11:13+00:00,SAT-55784,41.01060881780636,32.81994510200623,982.4952228282165,5.552392387826664,-194468.26801820338,10.5,10499805531.731981,47.655,-122.3035,60.0,11.216666666666667
2026-01-20T23:11:14+00:00,SAT-55784,40.88287982368742,32.55497849960175,988.0327300182813,5.571958557380039,-195153.55804077772,10.5,10499804846.44196,47.655,-122.3035,60.0,11.233333333333333
2026-01-20T23:11:15+00:00,SAT-55784,40.757374215161846,32.29248532512129,993.5897509236991,5.591191729362958,-195827.18507985634,10.5,10499804172.81492,47.655,-122.3035,60.0,11.25
2026-01-20T23:11:16+00:00,SAT-55784,40.63403693118999,32.032437714040846,999.1659534396205,5.610098157405312,-196489.3681640109,10.5,10499803510.631836,47.655,-122.3035,60.0,11.266666666666667
2026-01-20T23:11:17+00:00,SAT-55784,40.51281467255549,31.77480786899516,1004.7610116980591,5.628683942229929,-197140.32096636086,10.5,10499802859.679033,47.655,-122.3035,60.0,11.283333333333333
2026-01-20T23:11:18+00:00,SAT-55784,40.39365583455678,31.51956808001629,1010.3746059153983,5.646955094262705,-197780.25399744514,10.5,10499802219.746002,47.655,-122.3035,60.0,11.3
2026-01-20T23:11:19+00:00,SAT-55784,40.27651044147372,31.26669074059363,1016.006422302333,5.664917472445234,-198409.3724621817,10.5,10499801590.627539,47.655,-122.3035,60.0,11.316666666666666
2026-01-20T23:11:20+00:00,SAT-55784,40.161330085152905,31.016148365297177,1021.656152912793,5.682576900800978,-199027.8803425077,10.5,10499800972.119658,47.655,-122.3035,60.0,11.333333333333334
2026-01-20T23:11:21+00:00,SAT-55784,40.048067864179686,30.767913601092964,1027.3234956091185,5.699939059144135,-199635.97656954202,10.5,10499800364.02343,47.655,-122.3035,60.0,11.35
2026-01-20T23:11:22+00:00,SAT-55784,39.936678327771126,30.521959242529924,1033.0081539182365,5.717009487373334,-200233.8551739684,10.5,10499799766.144827,47.655,-122.3035,60.0,11.366666666666667
2026-01-20T23:11:23+00:00,SAT-55784,39.827117421916235,30.278258245640547,1038.7098368921218,5.73379366618036,-200821.70811279645,10.5,10499799178.291887,47.655,-122.3035,60.0,11.383333333333333
2026-01-20T23:11:24+00:00,SAT-55784,39.71934243665713,30.03678373743047,1044.4282590487467,5.7502969977333676,-201399.724592806,10.5,10499798600.275408,47.655,-122.3035,60.0,11.4
