DopplerPredictor/satellites_20260211_210122/SAT-58093.csv

timestamp,satellite,azimuth_deg,elevation_deg,distance_km,relative_velocity_kms,doppler_shift_hz,tx_freq_ghz,rx_freq_hz,ue_lat,ue_lon,ue_alt_m,time_minutes
2026-02-06T22:04:23+00:00,SAT-58093,210.1082080405602,40.11379690160196,827.6186362433607,-2.0568735718783735,72040.41305376308,10.5,10500072040.413054,47.655,-122.3035,60.0,9.9
2026-02-06T22:04:24+00:00,SAT-58093,209.50946953035853,40.25793929665073,825.5672768656797,-2.003503015100526,70171.15039817152,10.5,10500070171.150398,47.655,-122.3035,60.0,9.916666666666666
2026-02-06T22:04:25+00:00,SAT-58093,208.90521663882197,40.39926957500673,823.5691449656794,-1.9497409003094006,68288.17372466624,10.5,10500068288.173725,47.655,-122.3035,60.0,9.933333333333334
2026-02-06T22:04:26+00:00,SAT-58093,208.29551006469808,40.537697202714476,821.6246310516592,-1.8955940821045123,66391.72311031714,10.5,10500066391.72311,47.655,-122.3035,60.0,9.95
2026-02-06T22:04:27+00:00,SAT-58093,207.6804165616681,40.67313185360547,819.734118795697,-1.8410697473849982,64482.050270732565,10.5,10500064482.05027,47.655,-122.3035,60.0,9.966666666666667
2026-02-06T22:04:28+00:00,SAT-58093,207.06000904873704,40.80548354939651,817.8979847022371,-1.7861754001218284,62559.41802671767,10.5,10500062559.418026,47.655,-122.3035,60.0,9.983333333333333
