DopplerPredictor/satellites_20260211_210122/SAT-63875.csv

timestamp,satellite,azimuth_deg,elevation_deg,distance_km,relative_velocity_kms,doppler_shift_hz,tx_freq_ghz,rx_freq_hz,ue_lat,ue_lon,ue_alt_m,time_minutes
2026-02-06T21:56:28+00:00,SAT-63875,278.43545720235585,40.063544513243116,847.6686628268766,-2.2468270597199402,78693.38770043165,10.5,10500078693.387701,47.655,-122.3035,60.0,1.9833333333333334
2026-02-06T21:56:29+00:00,SAT-63875,279.0269676797195,40.21906065592991,845.4278592004414,-2.1936537443564506,76831.03327350128,10.5,10500076831.033274,47.655,-122.3035,60.0,2.0
2026-02-06T21:56:30+00:00,SAT-63875,279.62426678769475,40.372004294614314,843.2400863390495,-2.1400638888454027,74954.08984864032,10.5,10500074954.08985,47.655,-122.3035,60.0,2.0166666666666666
2026-02-06T21:56:31+00:00,SAT-63875,280.2273120380959,40.522282845696026,841.1057596661612,-2.08606349146624,73062.7675109676,10.5,10500073062.767511,47.655,-122.3035,60.0,2.033333333333333
2026-02-06T21:56:32+00:00,SAT-63875,280.8360551022768,40.66980350947362,839.025288623039,-2.031658924070429,71157.28942967439,10.5,10500071157.28943,47.655,-122.3035,60.0,2.05
2026-02-06T21:56:33+00:00,SAT-63875,281.4504416696363,40.81447340135772,836.9990762961751,-1.9768568740290402,69237.88982478312,10.5,10500069237.889824,47.655,-122.3035,60.0,2.066666666666667
2026-02-06T21:56:34+00:00,SAT-63875,282.0704113009079,40.95619968435439,835.0275191026192,-1.9216643908450124,67304.81559970608,10.5,10500067304.8156,47.655,-122.3035,60.0,2.0833333333333335
2026-02-06T21:56:35+00:00,SAT-63875,282.6958973028221,41.09488971001463,833.1110064288163,-1.8660888431735156,65358.3248359167,10.5,10500065358.324837,47.655,-122.3035,60.0,2.1
2026-02-06T21:56:36+00:00,SAT-63875,283.3268266030174,41.23045116129147,831.249920312311,-1.810137959275737,63398.688209812266,10.5,10500063398.68821,47.655,-122.3035,60.0,2.1166666666666667
2026-02-06T21:56:37+00:00,SAT-63875,283.9631196482598,41.36279220302568,829.4446350831051,-1.7538197948875751,61426.18786733967,10.5,10500061426.187868,47.655,-122.3035,60.0,2.1333333333333333
2026-02-06T21:56:38+00:00,SAT-63875,284.6046903076785,41.49182163457928,827.6955170370607,-1.6971427555993501,59441.11820782755,10.5,10500059441.118208,47.655,-122.3035,60.0,2.15
2026-02-06T21:56:39+00:00,SAT-63875,285.2514457975089,41.61744904823847,826.0029240869835,-1.640115556954328,57443.78448646778,10.5,10500057443.784487,47.655,-122.3035,60.0,2.1666666666666665
2026-02-06T21:56:40+00:00,SAT-63875,285.9032866100258,41.7395849884703,824.367205453501,-1.582747270044674,55434.50441127867,10.5,10500055434.504412,47.655,-122.3035,60.0,2.183333333333333
2026-02-06T21:56:41+00:00,SAT-63875,286.56010647440456,41.858141117940285,822.7887013104681,-1.525047290754879,53413.60706587967,10.5,10500053413.607065,47.655,-122.3035,60.0,2.2
2026-02-06T21:56:42+00:00,SAT-63875,287.2217923277747,41.97303038425853,821.2677424610436,-1.4670253190885256,51381.432185427155,10.5,10500051381.432186,47.655,-122.3035,60.0,2.216666666666667
2026-02-06T21:56:43+00:00,SAT-63875,287.88822429766793,42.08416718766424,819.8046500343859,-1.4086913870989013,49338.33113486285,10.5,10500049338.331135,47.655,-122.3035,60.0,2.2333333333333334
2026-02-06T21:56:44+00:00,SAT-63875,288.5592757167609,42.19146755282499,818.3997351544966,-1.3500558378456513,47284.66617188661,10.5,10500047284.666172,47.655,-122.3035,60.0,2.25
2026-02-06T21:56:45+00:00,SAT-63875,289.2348131525982,42.29484930054968,817.0532986300443,-1.2911293163230562,45220.81012922643,10.5,10500045220.81013,47.655,-122.3035,60.0,2.2666666666666666
2026-02-06T21:56:46+00:00,SAT-63875,289.9146964573531,42.39423221973961,815.7656306532426,-1.2319227583353545,43147.146025005146,10.5,10500043147.146025,47.655,-122.3035,60.0,2.283333333333333
2026-02-06T21:56:47+00:00,SAT-63875,290.5987788376044,42.48953823882029,814.5370105098168,-1.1724474086277379,41064.067697764585,10.5,10500041064.067698,47.655,-122.3035,60.0,2.3
2026-02-06T21:56:48+00:00,SAT-63875,291.2869069581372,42.580691598297186,813.3677062708939,-1.112714766571633,38971.97790413442,10.5,10500038971.977903,47.655,-122.3035,60.0,2.316666666666667
2026-02-06T21:56:49+00:00,SAT-63875,291.97892104822773,42.66761901821965,812.2579745390567,-1.0527366250674004,36871.28968136918,10.5,10500036871.28968,47.655,-122.3035,60.0,2.3333333333333335
2026-02-06T21:56:50+00:00,SAT-63875,292.67465505262885,42.75024986707513,811.2080601556037,-0.9925250217970389,34762.42464001182,10.5,10500034762.42464,47.655,-122.3035,60.0,2.35
2026-02-06T21:56:51+00:00,SAT-63875,293.37393678767523,42.828516324677324,810.2181959564214,-0.9320922581562593,32645.813626974974,10.5,10500032645.813627,47.655,-122.3035,60.0,2.3666666666666667
2026-02-06T21:56:52+00:00,SAT-63875,294.07658813544845,42.90235354360995,809.2886025089807,-0.8714508755398087,30521.89589495274,10.5,10500030521.895895,47.655,-122.3035,60.0,2.3833333333333333
2026-02-06T21:56:53+00:00,SAT-63875,294.7824252558992,42.97169980523918,808.4194878729782,-0.8106136285786161,28391.11816507228,10.5,10500028391.118166,47.655,-122.3035,60.0,2.4
2026-02-06T21:56:54+00:00,SAT-63875,295.4912588105389,43.03649666932706,807.6110473876728,-0.7495935012812333,26253.935192235385,10.5,10500026253.935192,47.655,-122.3035,60.0,2.4166666666666665
2026-02-06T21:56:55+00:00,SAT-63875,296.20289422762073,43.096689119970954,806.8634634431246,-0.6884036802343908,24110.80882648857,10.5,10500024110.808826,47.655,-122.3035,60.0,2.433333333333333
2026-02-06T21:56:56+00:00,SAT-63875,296.9171319804259,43.152225703817614,806.1769052781574,-0.6270575353366405,21962.207338233726,10.5,10500021962.207338,47.655,-122.3035,60.0,2.45
2026-02-06T21:56:57+00:00,SAT-63875,297.6337678823301,43.203058660468955,805.5515287975388,-0.5655686146091776,19808.605236481184,10.5,10500019808.605236,47.655,-122.3035,60.0,2.466666666666667
2026-02-06T21:56:58+00:00,SAT-63875,298.3525934075364,43.249144045585915,804.9874763943369,-0.5039506272252383,17650.48267446742,10.5,10500017650.482674,47.655,-122.3035,60.0,2.4833333333333334
2026-02-06T21:56:59+00:00,SAT-63875,299.07339602967795,43.2904418451441,804.4848767891982,-0.44221743330072777,15488.325092079673,10.5,10500015488.325092,47.655,-122.3035,60.0,2.5
2026-02-06T21:57:00+00:00,SAT-63875,299.79595958267333,43.32691608081883,804.0438448798102,-0.38038301646839484,13322.622255287508,10.5,10500013322.622255,47.655,-122.3035,60.0,2.5166666666666666
2026-02-06T21:57:01+00:00,SAT-63875,300.52006462576225,43.358534904570284,803.6644816177161,-0.31846148328816876,11153.868235490341,10.5,10500011153.868235,47.655,-122.3035,60.0,2.533333333333333
2026-02-06T21:57:02+00:00,SAT-63875,301.24548883890157,43.38527068411935,803.3468738857167,-0.2564670358932479,8982.560451467738,10.5,10500008982.560452,47.655,-122.3035,60.0,2.55
2026-02-06T21:57:03+00:00,SAT-63875,301.9720074179839,43.40710007669579,803.0910944025544,-0.1944139651170616,6809.199428656563,10.5,10500006809.199429,47.655,-122.3035,60.0,2.566666666666667
2026-02-06T21:57:04+00:00,SAT-63875,302.69939349518006,43.4240040923488,802.8972016344488,-0.13231662536701264,4634.287919123145,10.5,10500004634.28792,47.655,-122.3035,60.0,2.5833333333333335
2026-02-06T21:57:05+00:00,SAT-63875,303.4274185542337,43.43596814498182,802.7652397316946,-0.07018942374158585,2458.330520398387,10.5,10500002458.33052,47.655,-122.3035,60.0,2.6
2026-02-06T21:57:06+00:00,SAT-63875,304.1558528621142,43.44298209200869,802.695238476112,-0.00804680535740812,281.83316156934563,10.5,10500000281.833162,47.655,-122.3035,60.0,2.6166666666666667
2026-02-06T21:57:07+00:00,SAT-63875,304.8844659127775,43.44504026212505,802.6872132431291,0.054096771033992574,-1894.6977507250099,10.5,10499998105.30225,47.655,-122.3035,60.0,2.6333333333333333
2026-02-06T21:57:08+00:00,SAT-63875,305.61302685712286,43.44214147021735,802.7411649881853,0.11622684240073426,-4070.7556599296095,10.5,10499995929.24434,47.655,-122.3035,60.0,2.65
2026-02-06T21:57:09+00:00,SAT-63875,306.3413049502136,43.43428902059278,802.8570802424612,0.1783289618887137,-6245.834576103625,10.5,10499993754.165424,47.655,-122.3035,60.0,2.6666666666666665
2026-02-06T21:57:10+00:00,SAT-63875,307.06906999046356,43.42149069758084,803.0349311290122,0.24038871433183848,-8419.429619154409,10.5,10499991580.570381,47.655,-122.3035,60.0,2.683333333333333
2026-02-06T21:57:11+00:00,SAT-63875,307.79609276001645,43.40375874397865,803.2746753943745,0.30239173385968193,-10591.037635532048,10.5,10499989408.962364,47.655,-122.3035,60.0,2.7
2026-02-06T21:57:12+00:00,SAT-63875,308.5221454572643,43.38110982726475,803.5762564577258,0.36432371815076076,-12760.157697439434,10.5,10499987239.842302,47.655,-122.3035,60.0,2.716666666666667
2026-02-06T21:57:13+00:00,SAT-63875,309.2470021221729,43.35356499404917,803.9396034742647,0.42617044833518336,-14926.291799907207,10.5,10499985073.7082,47.655,-122.3035,60.0,2.7333333333333334
2026-02-06T21:57:14+00:00,SAT-63875,309.97043905889717,43.32114961255195,804.3646314184394,0.48791780138250707,-17088.9452946689,10.5,10499982911.054705,47.655,-122.3035,60.0,2.75
2026-02-06T21:57:15+00:00,SAT-63875,310.6922352392778,43.28389330399134,804.8512411795292,0.5495517681115213,-19247.62752093975,10.5,10499980752.372478,47.655,-122.3035,60.0,2.7666666666666666
2026-02-06T21:57:16+00:00,SAT-63875,311.41217270069654,43.24182986282769,805.3993196751885,0.611058468021245,-21401.852324860927,10.5,10499978598.147675,47.655,-122.3035,60.0,2.783333333333333
2026-02-06T21:57:17+00:00,SAT-63875,312.1300369260278,43.19499716650309,806.0087399797832,0.672424165709346,-23551.13863454208,10.5,10499976448.861366,47.655,-122.3035,60.0,2.8
2026-02-06T21:57:18+00:00,SAT-63875,312.84561721167444,43.143437075040325,806.6793614690986,0.7336352819203322,-25695.010847015667,10.5,10499974304.989153,47.655,-122.3035,60.0,2.816666666666667
2026-02-06T21:57:19+00:00,SAT-63875,313.5587070109516,43.0871953214075,807.4110299760697,0.7946784158222203,-27832.999608460173,10.5,10499972167.000391,47.655,-122.3035,60.0,2.8333333333333335
2026-02-06T21:57:20+00:00,SAT-63875,314.26910427199965,43.02632139235939,808.2035779687249,0.8555403468892364,-29964.641880140236,10.5,10499970035.35812,47.655,-122.3035,60.0,2.85
2026-02-06T21:57:21+00:00,SAT-63875,314.97661173814714,42.96086840188463,809.0568247300087,0.9162080579494559,-32089.481745632464,10.5,10499967910.518255,47.655,-122.3035,60.0,2.8666666666666667
2026-02-06T21:57:22+00:00,SAT-63875,315.6810372424679,42.89089295627593,809.9705765605914,0.9766687514671474,-34207.07098110202,10.5,10499965792.929018,47.655,-122.3035,60.0,2.8833333333333333
2026-02-06T21:57:23+00:00,SAT-63875,316.3821939806223,42.81645501197395,810.944626997916,1.0369098459234862,-36316.96892853991,10.5,10499963683.03107,47.655,-122.3035,60.0,2.9
2026-02-06T21:57:24+00:00,SAT-63875,317.0799007477596,42.73761772837378,811.9787570316362,1.0969190042372212,-38418.7434911749,10.5,10499961581.256508,47.655,-122.3035,60.0,2.9166666666666665
2026-02-06T21:57:25+00:00,SAT-63875,317.7739821670029,42.6544473138109,813.0727353473977,1.156684136031333,-40511.971212861514,10.5,10499959488.028788,47.655,-122.3035,60.0,2.933333333333333
2026-02-06T21:57:26+00:00,SAT-63875,318.4642688885078,42.56701286743107,814.2263185728827,1.2161934119006699,-42596.23777779304,10.5,10499957403.762222,47.655,-122.3035,60.0,2.95
2026-02-06T21:57:27+00:00,SAT-63875,319.1505977661203,42.47538621668815,815.4392515380808,1.2754352705432876,-44671.13826027112,10.5,10499955328.86174,47.655,-122.3035,60.0,2.966666666666667
2026-02-06T21:57:28+00:00,SAT-63875,319.83281201038284,42.379641751716356,816.711267542674,1.3343984342102035,-46736.27766582152,10.5,10499953263.722334,47.655,-122.3035,60.0,2.9833333333333334
2026-02-06T21:57:29+00:00,SAT-63875,320.5107613210594,42.27985625662328,818.0420886388289,1.3930719082246192,-48791.270914355366,10.5,10499951208.729086,47.655,-122.3035,60.0,3.0
2026-02-06T21:57:30+00:00,SAT-63875,321.1843019914775,42.176108739559254,819.4314259135115,1.4514449949968449,-50835.743331030935,10.5,10499949164.256668,47.655,-122.3035,60.0,3.0166666666666666
2026-02-06T21:57:31+00:00,SAT-63875,321.8532969936871,42.0684802611323,820.8789797847762,1.5095072987208842,-52869.330810748026,10.5,10499947130.66919,47.655,-122.3035,60.0,3.033333333333333
2026-02-06T21:57:32+00:00,SAT-63875,322.51761604040536,41.95705376248842,822.3844403027412,1.5672487456525297,-54891.680528372606,10.5,10499945108.319471,47.655,-122.3035,60.0,3.05
2026-02-06T21:57:33+00:00,SAT-63875,323.1771356316217,41.841913892519734,823.9474874707865,1.624659561697254,-56902.45015376993,10.5,10499943097.549847,47.655,-122.3035,60.0,3.066666666666667
2026-02-06T21:57:34+00:00,SAT-63875,323.8317390660023,41.7231468379234,825.5677915444022,1.6817303066329639,-58901.309050430216,10.5,10499941098.69095,47.655,-122.3035,60.0,3.0833333333333335
2026-02-06T21:57:35+00:00,SAT-63875,324.481316447282,41.60084015248211,827.2450133641619,1.7384518507227458,-60887.937456347994,10.5,10499939112.062544,47.655,-122.3035,60.0,3.1
2026-02-06T21:57:36+00:00,SAT-63875,325.12576465768296,41.475082590312574,828.9788046653791,1.7948154269911125,-62862.02831495741,10.5,10499937137.971685,47.655,-122.3035,60.0,3.1166666666666667
2026-02-06T21:57:37+00:00,SAT-63875,325.7649873346008,41.345963938060244,830.7688084398951,1.8508125620640574,-64823.28485285844,10.5,10499935176.715147,47.655,-122.3035,60.0,3.1333333333333333
2026-02-06T21:57:38+00:00,SAT-63875,326.39889479851314,41.2135748552868,832.6146592288923,1.9064351536734625,-66771.42329434904,10.5,10499933228.576706,47.655,-122.3035,60.0,3.15
2026-02-06T21:57:39+00:00,SAT-63875,327.0274039967287,41.078006712846744,834.5159834930068,1.9616754062530715,-68706.17060572367,10.5,10499931293.829393,47.655,-122.3035,60.0,3.1666666666666665
2026-02-06T21:57:40+00:00,SAT-63875,327.6504384046467,40.93935143985507,836.472399918207,2.016525901012851,-70627.26694957395,10.5,10499929372.733051,47.655,-122.3035,60.0,3.183333333333333
2026-02-06T21:57:41+00:00,SAT-63875,328.2679279394634,40.79770136995412,838.4835197915596,2.0709795339892856,-72534.4635150478,10.5,10499927465.536486,47.655,-122.3035,60.0,3.2
2026-02-06T21:57:42+00:00,SAT-63875,328.8798088374272,40.65314909657858,840.5489473152135,2.1250295343209618,-74427.5231579378,10.5,10499925572.476843,47.655,-122.3035,60.0,3.216666666666667
2026-02-06T21:57:43+00:00,SAT-63875,329.48602352722827,40.50578733172966,842.668279938607,2.1786695142646346,-76306.22215245542,10.5,10499923693.777847,47.655,-122.3035,60.0,3.2333333333333334
2026-02-06T21:57:44+00:00,SAT-63875,330.0865205077199,40.35570876637037,844.84110874056,2.2318933754924624,-78170.34690936372,10.5,10499921829.653091,47.655,-122.3035,60.0,3.25
2026-02-06T21:57:45+00:00,SAT-63875,330.68125418737606,40.20300594257109,847.0670187179143,2.2846954055203557,-80019.69735330611,10.5,10499919980.302647,47.655,-122.3035,60.0,3.2666666666666666
2026-02-06T21:57:46+00:00,SAT-63875,331.2701847448232,40.04777112439485,849.3455891703402,2.337070180442209,-81854.08351614767,10.5,10499918145.916483,47.655,-122.3035,60.0,3.283333333333333
