DopplerPredictor/satellites_20260211_210122/SAT-52675.csv

timestamp,satellite,azimuth_deg,elevation_deg,distance_km,relative_velocity_kms,doppler_shift_hz,tx_freq_ghz,rx_freq_hz,ue_lat,ue_lon,ue_alt_m,time_minutes
2026-02-06T22:04:26+00:00,SAT-52675,278.0665349149257,40.17542472083136,805.2644832734844,-4.424340303894651,154959.11238332032,10.5,10500154959.112383,47.655,-122.3035,60.0,9.95
2026-02-06T22:04:27+00:00,SAT-52675,278.41195261726415,40.495377062170064,800.8520040153858,-4.387693433636916,153675.58397078695,10.5,10500153675.583971,47.655,-122.3035,60.0,9.966666666666667
2026-02-06T22:04:28+00:00,SAT-52675,278.76447438164956,40.81743777050808,796.4760733823425,-4.350434654452739,152370.62391927736,10.5,10500152370.623919,47.655,-122.3035,60.0,9.983333333333333
