DopplerPredictor/satellites_20260211_210122/SAT-52539.csv

timestamp,satellite,azimuth_deg,elevation_deg,distance_km,relative_velocity_kms,doppler_shift_hz,tx_freq_ghz,rx_freq_hz,ue_lat,ue_lon,ue_alt_m,time_minutes
2026-02-06T21:59:39+00:00,SAT-52539,335.5247748777126,40.035912327065866,807.8659679733876,-1.1989703095989237,41993.01188153539,10.5,10500041993.01188,47.655,-122.3035,60.0,5.166666666666667
2026-02-06T21:59:40+00:00,SAT-52539,336.1825872356759,40.121686221815125,806.6702119377308,-1.1406107743778606,39949.014097504536,10.5,10500039949.014097,47.655,-122.3035,60.0,5.183333333333334
2026-02-06T21:59:41+00:00,SAT-52539,336.8439162854597,40.20361821656086,805.5326589834349,-1.0820026242591059,37896.30876811655,10.5,10500037896.308767,47.655,-122.3035,60.0,5.2
2026-02-06T21:59:42+00:00,SAT-52539,337.508616986024,40.281644975004816,804.453557058895,-1.02315734922155,35835.29832103472,10.5,10500035835.29832,47.655,-122.3035,60.0,5.216666666666667
2026-02-06T21:59:43+00:00,SAT-52539,338.17653923172827,40.35570556410331,803.433142653331,-0.9640866822665176,33766.39369559602,10.5,10500033766.393696,47.655,-122.3035,60.0,5.233333333333333
2026-02-06T21:59:44+00:00,SAT-52539,338.8475279983393,40.42574158876964,802.4716405544153,-0.9048025992303624,31690.014336247266,10.5,10500031690.014336,47.655,-122.3035,60.0,5.25
2026-02-06T21:59:45+00:00,SAT-52539,339.52142351190537,40.4916973237569,801.5692636060909,-0.8453173100568084,29606.58788686568,10.5,10500029606.587887,47.655,-122.3035,60.0,5.266666666666667
2026-02-06T21:59:46+00:00,SAT-52539,340.19806143762116,40.553519841593456,800.7262124750886,-0.7856432331138101,27516.549291226685,10.5,10500027516.549292,47.655,-122.3035,60.0,5.283333333333333
2026-02-06T21:59:47+00:00,SAT-52539,340.87727307497204,40.61115913479696,799.9426754430639,-0.7257929982036108,25420.34089842885,10.5,10500025420.340899,47.655,-122.3035,60.0,5.3
2026-02-06T21:59:48+00:00,SAT-52539,341.55888558019006,40.66456823394149,799.218828195729,-0.6657794293462904,23318.41185990092,10.5,10500023318.41186,47.655,-122.3035,60.0,5.316666666666666
2026-02-06T21:59:49+00:00,SAT-52539,342.2427222016039,40.713703319592724,798.554833629155,-0.6056155298071018,21211.217604995814,10.5,10500021211.217606,47.655,-122.3035,60.0,5.333333333333333
2026-02-06T21:59:50+00:00,SAT-52539,342.92860252902017,40.758523827784174,797.9508416710084,-0.5453144655713253,19099.219262210114,10.5,10500019099.219263,47.655,-122.3035,60.0,5.35
2026-02-06T21:59:51+00:00,SAT-52539,343.6163427535096,40.798992548435585,797.406989118266,-0.4848895651724893,16982.88365316761,10.5,10500016982.883654,47.655,-122.3035,60.0,5.366666666666666
2026-02-06T21:59:52+00:00,SAT-52539,344.30575595551386,40.83507571748238,796.923399475103,-0.42435428802811886,14862.682183603325,10.5,10500014862.682184,47.655,-122.3035,60.0,5.383333333333334
2026-02-06T21:59:53+00:00,SAT-52539,344.99665238757666,40.86674309995796,796.5001828223599,-0.3637222220032034,12739.090758025794,10.5,10500012739.090757,47.655,-122.3035,60.0,5.4
2026-02-06T21:59:54+00:00,SAT-52539,345.68883978161404,40.89396806579961,796.1374356894403,-0.30300706248780535,10612.589046926445,10.5,10500010612.589046,47.655,-122.3035,60.0,5.416666666666667
2026-02-06T21:59:55+00:00,SAT-52539,346.38212365943116,40.91672765665084,795.8352409470722,-0.2422226015134063,8483.660105588,10.5,10500008483.660105,47.655,-122.3035,60.0,5.433333333333334
2026-02-06T21:59:56+00:00,SAT-52539,347.07630765930446,40.93500264408822,795.5936677109264,-0.18138270851971147,6352.789700456609,10.5,10500006352.7897,47.655,-122.3035,60.0,5.45
2026-02-06T21:59:57+00:00,SAT-52539,347.7711938645072,40.94877757835844,795.4127712644173,-0.12050131681478563,4220.465834918532,10.5,10500004220.465836,47.655,-122.3035,60.0,5.466666666666667
2026-02-06T21:59:58+00:00,SAT-52539,348.4665831416871,40.95804082782775,795.2925929950039,-0.05959240704698356,2087.1781704172404,10.5,10500002087.178171,47.655,-122.3035,60.0,5.483333333333333
2026-02-06T21:59:59+00:00,SAT-52539,349.16227548367976,40.96278460871167,795.2331603469763,0.0013300084695636219,-46.58252253436619,10.5,10499999953.417477,47.655,-122.3035,60.0,5.5
2026-02-06T22:00:00+00:00,SAT-52539,349.85807035629466,40.963005005019305,795.2344867898769,0.06225190192192773,-2180.324930589952,10.5,10499997819.67507,47.655,-122.3035,60.0,5.516666666666667
2026-02-06T22:00:01+00:00,SAT-52539,350.55376704790234,40.95870197855609,795.2965718030403,0.12315924585052042,-4313.557752778638,10.5,10499995686.442247,47.655,-122.3035,60.0,5.533333333333333
2026-02-06T22:00:02+00:00,SAT-52539,351.24916501686135,40.94987936897663,795.4194008759484,0.18403802930832175,-6445.790266469539,10.5,10499993554.209734,47.655,-122.3035,60.0,5.55
2026-02-06T22:00:03+00:00,SAT-52539,351.9440642428498,40.93654488385425,795.6029455246976,0.24487427506729587,-8576.532930013223,10.5,10499991423.46707,47.655,-122.3035,60.0,5.566666666666666
2026-02-06T22:00:04+00:00,SAT-52539,352.63826557679005,40.918710078750614,795.8471633256261,0.30565405255792033,-10705.297835938767,10.5,10499989294.702164,47.655,-122.3035,60.0,5.583333333333333
2026-02-06T22:00:05+00:00,SAT-52539,353.3315710753403,40.896390327676045,796.1519979618492,0.3663634965298727,-12831.59936452992,10.5,10499987168.400635,47.655,-122.3035,60.0,5.6
2026-02-06T22:00:06+00:00,SAT-52539,354.02378434470035,40.869604783693504,796.5173792884029,0.42698882179688297,-14954.954700252238,10.5,10499985045.0453,47.655,-122.3035,60.0,5.616666666666666
2026-02-06T22:00:07+00:00,SAT-52539,354.71471087117857,40.83837633012566,796.9432234120932,0.48751633974002817,-17074.884409768227,10.5,10499982925.115591,47.655,-122.3035,60.0,5.633333333333334
2026-02-06T22:00:08+00:00,SAT-52539,355.40415834540494,40.80273152248459,797.4294327878036,0.5479324683971644,-19190.912795311968,10.5,10499980809.087204,47.655,-122.3035,60.0,5.65
2026-02-06T22:00:09+00:00,SAT-52539,356.0919369701994,40.76270052187515,797.9758963248676,0.6082237562006017,-21302.568726082885,10.5,10499978697.431274,47.655,-122.3035,60.0,5.666666666666667
2026-02-06T22:00:10+00:00,SAT-52539,356.77785977142577,40.718317019186905,798.5824895171127,0.6683768896658346,-23409.38590753762,10.5,10499976590.614092,47.655,-122.3035,60.0,5.683333333333334
2026-02-06T22:00:11+00:00,SAT-52539,357.46174288592874,40.66961815161181,799.2490745805732,0.7283787058504217,-25510.903317752673,10.5,10499974489.096682,47.655,-122.3035,60.0,5.7
2026-02-06T22:00:12+00:00,SAT-52539,358.14340583659157,40.616644411536484,799.9755006036295,0.7882162175952296,-27606.666091479565,10.5,10499972393.333908,47.655,-122.3035,60.0,5.716666666666667
2026-02-06T22:00:13+00:00,SAT-52539,358.822671805575,40.559439547288314,800.7616037223191,0.8478766096074557,-29696.225382955716,10.5,10499970303.774616,47.655,-122.3035,60.0,5.733333333333333
2026-02-06T22:00:14+00:00,SAT-52539,359.49936787505146,40.498050458320556,801.6072072917433,0.9073472703880101,-31779.139484136405,10.5,10499968220.860516,47.655,-122.3035,60.0,5.75
2026-02-06T22:00:15+00:00,SAT-52539,0.1733252710698235,40.43252708269904,802.5121220893132,0.9666157877994586,-33854.973669465406,10.5,10499966145.02633,47.655,-122.3035,60.0,5.766666666666667
2026-02-06T22:00:16+00:00,SAT-52539,0.8443795757304372,40.36292228002549,803.4761465135784,1.0256699698815603,-35923.30092492315,10.5,10499964076.699076,47.655,-122.3035,60.0,5.783333333333333
2026-02-06T22:00:17+00:00,SAT-52539,1.5123709314720946,40.289291708472405,804.499066803813,1.0844978608216946,-37983.7025073786,10.5,10499962016.297493,47.655,-122.3035,60.0,5.8
2026-02-06T22:00:18+00:00,SAT-52539,2.177144230148103,40.211693696808055,805.5806572755309,1.1430877352836335,-40035.76774595895,10.5,10499959964.232254,47.655,-122.3035,60.0,5.816666666666666
2026-02-06T22:00:19+00:00,SAT-52539,2.8385492741335656,40.13018911349529,806.720680550342,1.2014281266350866,-42079.095030697565,10.5,10499957920.90497,47.655,-122.3035,60.0,5.833333333333333
2026-02-06T22:00:20+00:00,SAT-52539,3.496440931933641,40.04484123095632,807.9188878139668,1.2595078197988265,-44113.29156215024,10.5,10499955886.708437,47.655,-122.3035,60.0,5.85
