DopplerPredictor/satellites_20260211_210122/SAT-61889.csv

timestamp,satellite,azimuth_deg,elevation_deg,distance_km,relative_velocity_kms,doppler_shift_hz,tx_freq_ghz,rx_freq_hz,ue_lat,ue_lon,ue_alt_m,time_minutes
2026-02-06T21:57:49+00:00,SAT-61889,336.1849610502108,40.00453145003575,714.7261814491972,-0.924980674900105,32396.73589937711,10.5,10500032396.735899,47.655,-122.3035,60.0,3.3333333333333335
2026-02-06T21:57:50+00:00,SAT-61889,336.9410129773967,40.07796339353819,713.803680519839,-0.8567003065789535,30005.26857509875,10.5,10500030005.268576,47.655,-122.3035,60.0,3.35
2026-02-06T21:57:51+00:00,SAT-61889,337.7005128195959,40.14623337047929,712.9492769085572,-0.7881734981876336,27605.169877122637,10.5,10500027605.169878,47.655,-122.3035,60.0,3.3666666666666667
2026-02-06T21:57:52+00:00,SAT-61889,338.46322088586004,40.209270694890634,712.1632163947502,-0.7194189396934993,25197.094407163986,10.5,10500025197.094408,47.655,-122.3035,60.0,3.3833333333333333
2026-02-06T21:57:53+00:00,SAT-61889,339.22889095628864,40.26700956188403,711.4457261179543,-0.6504556463447587,22781.708159649457,10.5,10500022781.70816,47.655,-122.3035,60.0,3.4
2026-02-06T21:57:54+00:00,SAT-61889,339.9972707100645,40.31938924778898,710.7970142534346,-0.581302929539951,20359.687501443037,10.5,10500020359.687502,47.655,-122.3035,60.0,3.4166666666666665
2026-02-06T21:57:55+00:00,SAT-61889,340.76810218095835,40.366354296815814,710.2172697168287,-0.5119803696702078,17931.718220667117,10.5,10500017931.71822,47.655,-122.3035,60.0,3.433333333333333
2026-02-06T21:57:56+00:00,SAT-61889,341.5411222378841,40.40785469333648,709.7066618958763,-0.44250779917495087,15498.494933241398,10.5,10500015498.494934,47.655,-122.3035,60.0,3.45
2026-02-06T21:57:57+00:00,SAT-61889,342.31606310495437,40.44384601960292,709.2653403990448,-0.3729052622051252,13060.719670118635,10.5,10500013060.71967,47.655,-122.3035,60.0,3.466666666666667
2026-02-06T21:57:58+00:00,SAT-61889,343.0926528889847,40.47428959609611,708.8934348443867,-0.30319299766110985,10619.101283200573,10.5,10500010619.101284,47.655,-122.3035,60.0,3.4833333333333334
2026-02-06T21:57:59+00:00,SAT-61889,343.87061614617136,40.49915260553542,708.5910546653117,-0.23339139940381104,8174.3540517620895,10.5,10500008174.354052,47.655,-122.3035,60.0,3.5
2026-02-06T21:58:00+00:00,SAT-61889,344.6496744470666,40.5184081979606,708.3582889560416,-0.1635209978942068,5727.197039390402,10.5,10500005727.197039,47.655,-122.3035,60.0,3.5166666666666666
2026-02-06T21:58:01+00:00,SAT-61889,345.42954698039716,40.532035577983564,708.1952063353768,-0.09360242235206495,3278.352768623292,10.5,10500003278.352768,47.655,-122.3035,60.0,3.533333333333333
2026-02-06T21:58:02+00:00,SAT-61889,346.20995115414235,40.540020072078015,708.1018548482017,-0.023656373016546273,828.5462493980948,10.5,10500000828.54625,47.655,-122.3035,60.0,3.55
2026-02-06T21:58:03+00:00,SAT-61889,346.9906032075976,40.54235317631907,708.0782618946567,0.04629640795585727,-1621.4960402256063,10.5,10499998378.50396,47.655,-122.3035,60.0,3.566666666666667
2026-02-06T21:58:04+00:00,SAT-61889,347.7712188383882,40.53903258416412,708.124434188332,0.11623516900175995,-4071.0472927190167,10.5,10499995928.952707,47.655,-122.3035,60.0,3.5833333333333335
2026-02-06T21:58:05+00:00,SAT-61889,348.5515138266244,40.53006219381398,708.2403577468857,0.18613917922415174,-6519.381424377238,10.5,10499993480.618576,47.655,-122.3035,60.0,3.6
2026-02-06T21:58:06+00:00,SAT-61889,349.33120465573046,40.51545209531817,708.4259979126575,0.25598775838435267,-8965.774125764374,10.5,10499991034.225874,47.655,-122.3035,60.0,3.6166666666666667
2026-02-06T21:58:07+00:00,SAT-61889,350.11000913499225,40.49521853750425,708.6812994031882,0.3257603086728635,-11409.503974463114,10.5,10499988590.496025,47.655,-122.3035,60.0,3.6333333333333333
2026-02-06T21:58:08+00:00,SAT-61889,350.88764701463873,40.46938387479596,709.0061863934282,0.3954363425657803,-13849.853410724207,10.5,10499986150.14659,47.655,-122.3035,60.0,3.65
2026-02-06T21:58:09+00:00,SAT-61889,351.6638405838478,40.43797649457038,709.4005626257299,0.4649955162096246,-16286.109906744414,10.5,10499983713.890093,47.655,-122.3035,60.0,3.6666666666666665
2026-02-06T21:58:10+00:00,SAT-61889,352.43831526550946,40.40103072505326,709.8643115531297,0.5344176530446683,-18717.566794055296,10.5,10499981282.433207,47.655,-122.3035,60.0,3.683333333333333
2026-02-06T21:58:11+00:00,SAT-61889,353.210800180977,40.35858672511095,710.3972965061961,0.6036827791461548,-21143.524501322263,10.5,10499978856.475498,47.655,-122.3035,60.0,3.7
2026-02-06T21:58:12+00:00,SAT-61889,353.98102870891586,40.310690355674865,710.9993608951197,0.6727711456731298,-23563.291340597578,10.5,10499976436.70866,47.655,-122.3035,60.0,3.716666666666667
2026-02-06T21:58:13+00:00,SAT-61889,354.7487390112531,40.257393034592184,711.6703284341938,0.7416632615999531,-25976.184653716366,10.5,10499974023.815346,47.655,-122.3035,60.0,3.7333333333333334
2026-02-06T21:58:14+00:00,SAT-61889,355.51367454195264,40.19875157497249,712.4100033989388,0.8103399105581937,-28381.531402171007,10.5,10499971618.468597,47.655,-122.3035,60.0,3.75
2026-02-06T21:58:15+00:00,SAT-61889,356.2755845176785,40.13482800922102,713.2181709000233,0.8787821916752651,-30778.669597452925,10.5,10499969221.330402,47.655,-122.3035,60.0,3.7666666666666666
2026-02-06T21:58:16+00:00,SAT-61889,357.03422437608634,40.0656893978957,714.0945971979149,0.9469715246016077,-33166.948477125734,10.5,10499966833.051523,47.655,-122.3035,60.0,3.783333333333333
