DopplerPredictor/satellites_20260211_210122/SAT-56901.csv

timestamp,satellite,azimuth_deg,elevation_deg,distance_km,relative_velocity_kms,doppler_shift_hz,tx_freq_ghz,rx_freq_hz,ue_lat,ue_lon,ue_alt_m,time_minutes
2026-02-06T21:58:32+00:00,SAT-56901,212.26705463374054,40.02063097899414,828.9691069100057,-2.3665775630350403,82887.55687065325,10.5,10500082887.556871,47.655,-122.3035,60.0,4.05
2026-02-06T21:58:33+00:00,SAT-56901,211.68900707368277,40.185914469923866,826.6088738148293,-2.314926646957731,81078.52330646748,10.5,10500081078.523306,47.655,-122.3035,60.0,4.066666666666666
2026-02-06T21:58:34+00:00,SAT-56901,211.10483558704198,40.34882245890836,824.3001531667526,-2.262838033978815,79254.15974533142,10.5,10500079254.159746,47.655,-122.3035,60.0,4.083333333333333
2026-02-06T21:58:35+00:00,SAT-56901,210.5145667304675,40.50925881096275,822.0433814892708,-2.210316813333296,77414.64443378229,10.5,10500077414.644434,47.655,-122.3035,60.0,4.1
2026-02-06T21:58:36+00:00,SAT-56901,209.91823281539325,40.66712677254943,819.8389902302905,-2.157368430134401,75560.16808271811,10.5,10500075560.168083,47.655,-122.3035,60.0,4.116666666666666
2026-02-06T21:58:37+00:00,SAT-56901,209.3158720942527,40.822329093642765,817.6874054072005,-2.1039986609336747,73690.9330114088,10.5,10500073690.933012,47.655,-122.3035,60.0,4.133333333333334
2026-02-06T21:58:38+00:00,SAT-56901,208.70752894765704,40.97476815432371,815.589047276325,-2.0502136454797584,71807.15425982284,10.5,10500071807.15426,47.655,-122.3035,60.0,4.15
2026-02-06T21:58:39+00:00,SAT-56901,208.09325405607444,41.12434609985028,813.5443299706992,-1.9960198757851872,69909.05920570045,10.5,10500069909.059206,47.655,-122.3035,60.0,4.166666666666667
2026-02-06T21:58:40+00:00,SAT-56901,207.4731045659569,41.270964981052394,811.5536611487503,-1.941424200848131,67996.88772992873,10.5,10500067996.88773,47.655,-122.3035,60.0,4.183333333333334
2026-02-06T21:58:41+00:00,SAT-56901,206.8471442446601,41.414526901028665,809.617441638268,-1.8864338086060202,66070.89158448146,10.5,10500066070.891584,47.655,-122.3035,60.0,4.2
2026-02-06T21:58:42+00:00,SAT-56901,206.21544363015013,41.55493416625622,807.7360650983751,-1.8310562549316414,64131.33540798493,10.5,10500064131.335407,47.655,-122.3035,60.0,4.216666666666667
2026-02-06T21:58:43+00:00,SAT-56901,205.57808015902694,41.69208944537624,805.9099176525773,-1.77529945678526,62178.49648587634,10.5,10500062178.496487,47.655,-122.3035,60.0,4.233333333333333
2026-02-06T21:58:44+00:00,SAT-56901,204.93513828188898,41.82589593275931,804.1393775286443,-1.7191716524643355,60212.66335818069,10.5,10500060212.663359,47.655,-122.3035,60.0,4.25
2026-02-06T21:58:45+00:00,SAT-56901,204.2867095775025,41.956257514019676,802.4248147381344,-1.6626814602719044,58234.1378743257,10.5,10500058234.137875,47.655,-122.3035,60.0,4.266666666666667
2026-02-06T21:58:46+00:00,SAT-56901,203.63289282911234,42.0830789405269,800.7665906974078,-1.6058378357224437,56243.23369431015,10.5,10500056243.233694,47.655,-122.3035,60.0,4.283333333333333
2026-02-06T21:58:47+00:00,SAT-56901,202.97379409694278,42.20626600489846,799.1650578913171,-1.5486500736636866,54240.276363018806,10.5,10500054240.276363,47.655,-122.3035,60.0,4.3
2026-02-06T21:58:48+00:00,SAT-56901,202.3095267702987,42.32572572038307,797.620559534787,-1.4911278082449866,52225.60330911446,10.5,10500052225.60331,47.655,-122.3035,60.0,4.316666666666666
2026-02-06T21:58:49+00:00,SAT-56901,201.64021159818117,42.441366503489306,796.1334292344206,-1.4332810139094907,50199.56387978797,10.5,10500050199.563879,47.655,-122.3035,60.0,4.333333333333333
2026-02-06T21:58:50+00:00,SAT-56901,200.96597669604498,42.55309835943004,794.7039906491165,-1.375119994341501,48162.51895364813,10.5,10500048162.518953,47.655,-122.3035,60.0,4.35
2026-02-06T21:58:51+00:00,SAT-56901,200.28695753230735,42.66083306887851,793.3325571617132,-1.3166553646847559,46114.84031793066,10.5,10500046114.840319,47.655,-122.3035,60.0,4.366666666666666
2026-02-06T21:58:52+00:00,SAT-56901,199.60329689760655,42.7644843748823,792.0194315683627,-1.2578980679497962,44056.91124315362,10.5,10500044056.911243,47.655,-122.3035,60.0,4.383333333333334
2026-02-06T21:58:53+00:00,SAT-56901,198.91514483879052,42.86396817197284,790.7649057515431,-1.1988593485104313,41989.125554851445,10.5,10500041989.125555,47.655,-122.3035,60.0,4.4
2026-02-06T21:58:54+00:00,SAT-56901,198.2226585771083,42.959202693441036,789.5692603795037,-1.139550750072005,39911.887562415104,10.5,10500039911.887562,47.655,-122.3035,60.0,4.416666666666667
2026-02-06T21:58:55+00:00,SAT-56901,197.52600239815268,43.050108697972206,788.4327646077345,-1.0799841113069286,37825.61190622998,10.5,10500037825.611906,47.655,-122.3035,60.0,4.433333333333334
2026-02-06T21:58:56+00:00,SAT-56901,196.82534751282978,43.13660965475593,787.3556757847923,-1.0201715416704102,35730.7227106404,10.5,10500035730.722712,47.655,-122.3035,60.0,4.45
2026-02-06T21:58:57+00:00,SAT-56901,196.12087190099226,43.21863192472093,786.3382391822414,-0.9601254259632515,33627.65374375809,10.5,10500033627.653744,47.655,-122.3035,60.0,4.466666666666667
2026-02-06T21:58:58+00:00,SAT-56901,195.41276011988813,43.29610493943022,785.3806877200478,-0.8998584113597906,31516.847963125878,10.5,10500031516.847963,47.655,-122.3035,60.0,4.483333333333333
2026-02-06T21:58:59+00:00,SAT-56901,194.70120308613178,43.36896137546821,784.4832417049083,-0.8393833808765446,29398.7565864773,10.5,10500029398.756586,47.655,-122.3035,60.0,4.5
2026-02-06T21:59:00+00:00,SAT-56901,193.9863978428931,43.43713732243586,783.6461085950411,-0.7787134596103538,27273.83931022279,10.5,10500027273.83931,47.655,-122.3035,60.0,4.516666666666667
2026-02-06T21:59:01+00:00,SAT-56901,193.26854728755646,43.50057244642136,782.8694827587537,-0.7178619933084038,25142.56355888126,10.5,10500025142.563559,47.655,-122.3035,60.0,4.533333333333333
2026-02-06T21:59:02+00:00,SAT-56901,192.54785987956112,43.559210145944235,782.1535452543842,-0.6568425258065729,23005.403694875524,10.5,10500023005.403694,47.655,-122.3035,60.0,4.55
2026-02-06T21:59:03+00:00,SAT-56901,191.82454933344167,43.612997699526126,781.4984636327451,-0.5956688066758515,20862.841286342304,10.5,10500020862.841286,47.655,-122.3035,60.0,4.566666666666666
2026-02-06T21:59:04+00:00,SAT-56901,191.09883426693784,43.6618864066036,780.9043917319377,-0.5343547545643241,18715.363823213334,10.5,10500018715.363823,47.655,-122.3035,60.0,4.583333333333333
2026-02-06T21:59:05+00:00,SAT-56901,190.37093784827306,43.70583171748009,780.3714695087293,-0.47291445200862586,16563.464535490653,10.5,10500016563.464535,47.655,-122.3035,60.0,4.6
2026-02-06T21:59:06+00:00,SAT-56901,189.6410874137604,43.74479335420105,779.8998228751043,-0.4113621356303835,14407.642049884478,10.5,10500014407.64205,47.655,-122.3035,60.0,4.616666666666666
2026-02-06T21:59:07+00:00,SAT-56901,188.90951405537484,43.77873542136175,779.4895635445918,-0.34971216159836244,12248.39918015151,10.5,10500012248.39918,47.655,-122.3035,60.0,4.633333333333334
2026-02-06T21:59:08+00:00,SAT-56901,188.1764522190639,43.807626504217204,779.1407889130384,-0.28797901150272487,10086.243132836287,10.5,10500010086.243134,47.655,-122.3035,60.0,4.65
2026-02-06T21:59:09+00:00,SAT-56901,187.4421392526,43.83143975689676,778.8535819335244,-0.22617726146085798,7921.684425226631,10.5,10500007921.684425,47.655,-122.3035,60.0,4.666666666666667
2026-02-06T21:59:10+00:00,SAT-56901,186.7068149590712,43.850152977221555,778.6280110220889,-0.16432156634604425,5755.236332974943,10.5,10500005755.236334,47.655,-122.3035,60.0,4.683333333333334
2026-02-06T21:59:11+00:00,SAT-56901,185.97072114238986,43.86374866895382,778.4641299791862,-0.10242664763961139,3587.414464629125,10.5,10500003587.414465,47.655,-122.3035,60.0,4.7
2026-02-06T21:59:12+00:00,SAT-56901,185.234101130055,43.87221409143749,778.3619779232538,-0.040507273432103155,1418.7360611889815,10.5,10500001418.736061,47.655,-122.3035,60.0,4.716666666666667
2026-02-06T21:59:13+00:00,SAT-56901,184.4971992903954,43.87554129570877,778.3215792442317,0.021421760424431766,-750.2806640203522,10.5,10499999249.719336,47.655,-122.3035,60.0,4.733333333333333
2026-02-06T21:59:14+00:00,SAT-56901,183.76026055666566,43.873727146964704,778.3429435758728,0.08334564556620934,-2919.1170594598416,10.5,10499997080.88294,47.655,-122.3035,60.0,4.75
2026-02-06T21:59:15+00:00,SAT-56901,183.02352993268337,43.86677333356339,778.4260657832647,0.14524958017938183,-5087.254702996929,10.5,10499994912.745296,47.655,-122.3035,60.0,4.766666666666667
2026-02-06T21:59:16+00:00,SAT-56901,182.28725200848532,43.8546863621971,778.5709259693641,0.20711878602451086,-7254.175998174591,10.5,10499992745.824001,47.655,-122.3035,60.0,4.783333333333333
2026-02-06T21:59:17+00:00,SAT-56901,181.55167047405274,43.837477539418714,778.7774894985058,0.2689385264040418,-9419.364803508295,10.5,10499990580.635197,47.655,-122.3035,60.0,4.8
2026-02-06T21:59:18+00:00,SAT-56901,180.8170276377132,43.815162939562185,779.0457070378341,0.33069412234923057,-11582.306999420649,10.5,10499988417.693,47.655,-122.3035,60.0,4.816666666666666
2026-02-06T21:59:19+00:00,SAT-56901,180.08356395444812,43.78776335937586,779.3755146148773,0.39237097213794275,-13742.49117183728,10.5,10499986257.508827,47.655,-122.3035,60.0,4.833333333333333
2026-02-06T21:59:20+00:00,SAT-56901,179.3515175567804,43.75530425934679,779.7668336945859,0.45395456578590476,-15899.409119731758,10.5,10499984100.59088,47.655,-122.3035,60.0,4.85
2026-02-06T21:59:21+00:00,SAT-56901,178.62112380449418,43.71781569245488,780.2195712708268,0.5154305053265787,-18052.556565412586,10.5,10499981947.443434,47.655,-122.3035,60.0,4.866666666666666
2026-02-06T21:59:22+00:00,SAT-56901,177.8926148401834,43.675332220273056,780.7336199780979,0.576784515475265,-20201.433528025187,10.5,10499979798.566471,47.655,-122.3035,60.0,4.883333333333334
2026-02-06T21:59:23+00:00,SAT-56901,177.16621917042704,43.62789281766205,781.3088582138834,0.6380024649044517,-22345.54506870464,10.5,10499977654.454931,47.655,-122.3035,60.0,4.9
2026-02-06T21:59:24+00:00,SAT-56901,176.4421612547588,43.575540765692146,781.9451502822238,0.6990703834982575,-24484.40189489925,10.5,10499975515.598104,47.655,-122.3035,60.0,4.916666666666667
2026-02-06T21:59:25+00:00,SAT-56901,175.72066111424954,43.518323533702244,782.6423465544957,0.7599744706890142,-26617.520652352934,10.5,10499973382.479347,47.655,-122.3035,60.0,4.933333333333334
2026-02-06T21:59:26+00:00,SAT-56901,175.0019339683398,43.45629265184053,783.4002836385054,0.8207011141150313,-28744.424578579055,10.5,10499971255.575422,47.655,-122.3035,60.0,4.95
2026-02-06T21:59:27+00:00,SAT-56901,174.28618988839452,43.38950357389549,784.2187845661902,0.8812369076970838,-30864.644135975497,10.5,10499969135.355864,47.655,-122.3035,60.0,4.966666666666667
2026-02-06T21:59:28+00:00,SAT-56901,173.57363347134546,43.3180155311682,785.0976589993484,0.9415686592619622,-32977.717278833625,10.5,10499967022.28272,47.655,-122.3035,60.0,4.983333333333333
2026-02-06T21:59:29+00:00,SAT-56901,172.86446354363997,43.2418913789573,786.0367034429715,1.0016834081849413,-35083.19007125217,10.5,10499964916.809929,47.655,-122.3035,60.0,5.0
2026-02-06T21:59:30+00:00,SAT-56901,172.15887288586515,43.16119743559721,787.0357014761713,1.0615684328541302,-37180.61694857036,10.5,10499962819.38305,47.655,-122.3035,60.0,5.016666666666667
2026-02-06T21:59:31+00:00,SAT-56901,171.45704798699137,43.076003315632164,788.0944239905534,1.1212112705059099,-39269.5614120888,10.5,10499960730.438587,47.655,-122.3035,60.0,5.033333333333333
2026-02-06T21:59:32+00:00,SAT-56901,170.75916881880192,42.98638175690342,789.2126294483703,1.1805997260868872,-41349.596339452655,10.5,10499958650.40366,47.655,-122.3035,60.0,5.05
2026-02-06T21:59:33+00:00,SAT-56901,170.06540863913003,42.892408443227005,790.390064149514,1.239721872192782,-43420.30398251116,10.5,10499956579.696018,47.655,-122.3035,60.0,5.066666666666666
2026-02-06T21:59:34+00:00,SAT-56901,169.37593382759206,42.79416182413119,791.6264624984495,1.298566079683332,-45481.27703958112,10.5,10499954518.72296,47.655,-122.3035,60.0,5.083333333333333
2026-02-06T21:59:35+00:00,SAT-56901,168.69090373494416,42.69172292998768,792.9215473016754,1.3571210048736293,-47532.1182068333,10.5,10499952467.881794,47.655,-122.3035,60.0,5.1
2026-02-06T21:59:36+00:00,SAT-56901,168.01047057157407,42.58517518674627,794.2750300524175,1.4153756229995038,-49572.441350391775,10.5,10499950427.55865,47.655,-122.3035,60.0,5.116666666666666
2026-02-06T21:59:37+00:00,SAT-56901,167.3347793078327,42.474604227342454,795.6866112486936,1.4733192059186173,-51601.870725331864,10.5,10499948398.129274,47.655,-122.3035,60.0,5.133333333333334
2026-02-06T21:59:38+00:00,SAT-56901,166.66396761508057,42.36009770488766,797.1559806891391,1.5309413577552204,-53620.0422241103,10.5,10499946379.957775,47.655,-122.3035,60.0,5.15
2026-02-06T21:59:39+00:00,SAT-56901,165.99816581639612,42.24174510377713,798.6828178043843,1.5882320099026996,-55626.60320153333,10.5,10499944373.3968,47.655,-122.3035,60.0,5.166666666666667
2026-02-06T21:59:40+00:00,SAT-56901,165.33749686711,42.11963755255936,800.2667919834444,1.6451814146621915,-57621.21225195401,10.5,10499942378.787748,47.655,-122.3035,60.0,5.183333333333334
2026-02-06T21:59:41+00:00,SAT-56901,164.68207636248175,41.99386763927638,801.907562893769,1.7017801753989443,-59603.54026547564,10.5,10499940396.459734,47.655,-122.3035,60.0,5.2
2026-02-06T21:59:42+00:00,SAT-56901,164.03201255619774,41.86452922703358,803.6047808313632,1.7580192327330997,-61573.26994429442,10.5,10499938426.730055,47.655,-122.3035,60.0,5.216666666666667
2026-02-06T21:59:43+00:00,SAT-56901,163.3874064071662,41.73171727374764,805.35808705714,1.813889868312715,-63530.09593484673,10.5,10499936469.904066,47.655,-122.3035,60.0,5.233333333333333
2026-02-06T21:59:44+00:00,SAT-56901,162.74835164504168,41.59552765519391,807.1671141370327,1.869383722185859,-65473.72543625337,10.5,10499934526.274563,47.655,-122.3035,60.0,5.25
2026-02-06T21:59:45+00:00,SAT-56901,162.11493484845025,41.45605699080607,809.0314862994343,1.9244927809566763,-67403.87778549486,10.5,10499932596.122215,47.655,-122.3035,60.0,5.266666666666667
2026-02-06T21:59:46+00:00,SAT-56901,161.48723554544586,41.31340247484501,810.9508197808257,1.9792093758785467,-69320.2843906258,10.5,10499930679.715609,47.655,-122.3035,60.0,5.283333333333333
2026-02-06T21:59:47+00:00,SAT-56901,160.8653263300846,41.16766171254128,812.9247231694981,2.03352622081061,-71222.6900601729,10.5,10499928777.30994,47.655,-122.3035,60.0,5.3
2026-02-06T21:59:48+00:00,SAT-56901,160.24927298159088,41.01893255861114,814.9527977871373,2.087436335957602,-73110.85033218154,10.5,10499926889.149668,47.655,-122.3035,60.0,5.316666666666666
2026-02-06T21:59:49+00:00,SAT-56901,159.63913462057923,40.8673129668404,817.0346379943444,2.1409331384890065,-74984.53464808168,10.5,10499925015.465351,47.655,-122.3035,60.0,5.333333333333333
2026-02-06T21:59:50+00:00,SAT-56901,159.03496384835,40.71290083869946,819.1698315865377,2.194010392803518,-76843.52461073901,10.5,10499923156.47539,47.655,-122.3035,60.0,5.35
2026-02-06T21:59:51+00:00,SAT-56901,158.43680691254926,40.55579388154462,821.357960140252,2.2466621833155305,-78687.61303132272,10.5,10499921312.386969,47.655,-122.3035,60.0,5.366666666666666
2026-02-06T21:59:52+00:00,SAT-56901,157.84470388819264,40.396089474781625,823.5985993322934,2.2988829809119817,-80516.60625690524,10.5,10499919483.393744,47.655,-122.3035,60.0,5.383333333333334
2026-02-06T21:59:53+00:00,SAT-56901,157.2586888476542,40.23388453744458,825.8913193251792,2.3506675853283663,-82330.32215222655,10.5,10499917669.677847,47.655,-122.3035,60.0,5.4
2026-02-06T21:59:54+00:00,SAT-56901,156.67879005281748,40.06927540617608,828.2356850951036,2.4020111438230183,-84128.59075374635,10.5,10499915871.409246,47.655,-122.3035,60.0,5.416666666666667
