DopplerPredictor/satellites_20260211_210122/SAT-48569.csv

timestamp,satellite,azimuth_deg,elevation_deg,distance_km,relative_velocity_kms,doppler_shift_hz,tx_freq_ghz,rx_freq_hz,ue_lat,ue_lon,ue_alt_m,time_minutes
2026-02-06T21:58:44+00:00,SAT-48569,317.70377296488095,40.01872449641051,815.5187188406856,-2.5009578169905904,87594.12179208724,10.5,10500087594.121792,47.655,-122.3035,60.0,4.25
2026-02-06T21:58:45+00:00,SAT-48569,318.28952445320715,40.196238891747875,813.0244657464701,-2.4489421944161363,85772.31466366453,10.5,10500085772.314663,47.655,-122.3035,60.0,4.266666666666667
2026-02-06T21:58:46+00:00,SAT-48569,318.88187973564237,40.37149535837196,810.5820888281231,-2.396452533531627,83933.90470844362,10.5,10500083933.904709,47.655,-122.3035,60.0,4.283333333333333
2026-02-06T21:58:47+00:00,SAT-48569,319.4808264247784,40.54439057661672,808.1920608531234,-2.34349345160895,82079.05364281703,10.5,10500082079.053642,47.655,-122.3035,60.0,4.3
2026-02-06T21:58:48+00:00,SAT-48569,320.08634618766115,40.714820191126506,805.854849984056,-2.2900699360950725,80207.93614827449,10.5,10500080207.936148,47.655,-122.3035,60.0,4.316666666666666
2026-02-06T21:58:49+00:00,SAT-48569,320.69841450637836,40.88267893161391,803.5709194094298,-2.2361873531506467,78320.74017046082,10.5,10500078320.74017,47.655,-122.3035,60.0,4.333333333333333
2026-02-06T21:58:50+00:00,SAT-48569,321.3170004435218,41.04786074186342,801.3407269659793,-2.181851450694242,76417.66702579803,10.5,10500076417.667027,47.655,-122.3035,60.0,4.35
2026-02-06T21:58:51+00:00,SAT-48569,321.9420664129502,41.21025891660285,799.1647247579288,-2.127068358644767,74498.93140997582,10.5,10500074498.93141,47.655,-122.3035,60.0,4.366666666666666
2026-02-06T21:58:52+00:00,SAT-48569,322.5735679563254,41.36976624600823,797.0433587760182,-2.0718446217013935,72564.7625460432,10.5,10500072564.762547,47.655,-122.3035,60.0,4.383333333333334
2026-02-06T21:58:53+00:00,SAT-48569,323.2114535366861,41.526275170242116,794.9770684838329,-2.016187149797078,70615.40244908135,10.5,10500070615.402449,47.655,-122.3035,60.0,4.4
2026-02-06T21:58:54+00:00,SAT-48569,323.85566432716246,41.679677937735775,792.9662864535503,-1.9601032508499,68651.10707329385,10.5,10500068651.107073,47.655,-122.3035,60.0,4.416666666666667
2026-02-06T21:58:55+00:00,SAT-48569,324.50613401949096,41.82986677320384,791.011437969022,-1.9036006381477495,66672.14657064978,10.5,10500066672.14657,47.655,-122.3035,60.0,4.433333333333334
2026-02-06T21:58:56+00:00,SAT-48569,325.1627886478433,41.97673405332662,789.1129406214881,-1.8466874129844877,64678.804682728616,10.5,10500064678.804682,47.655,-122.3035,60.0,4.45
2026-02-06T21:58:57+00:00,SAT-48569,325.825546422007,42.1201724879549,787.2712039226149,-1.7893720758346856,62671.379132106784,10.5,10500062671.379131,47.655,-122.3035,60.0,4.466666666666667
2026-02-06T21:58:58+00:00,SAT-48569,326.4943175803274,42.26007530868182,785.4866289063822,-1.7316635037917132,60650.18083214418,10.5,10500060650.180832,47.655,-122.3035,60.0,4.483333333333333
2026-02-06T21:58:59+00:00,SAT-48569,327.169004253148,42.39633646181247,783.7596077534745,-1.6735709808004662,58615.5349458621,10.5,10500058615.534946,47.655,-122.3035,60.0,4.5
2026-02-06T21:59:00+00:00,SAT-48569,327.84950035687024,42.52885080941178,782.0905233855208,-1.6151041702377626,56567.77992559275,10.5,10500056567.779926,47.655,-122.3035,60.0,4.516666666666667
2026-02-06T21:59:01+00:00,SAT-48569,328.53569150071735,42.65751433347073,780.479749086679,-1.5562731143855753,54507.26749452964,10.5,10500054507.267494,47.655,-122.3035,60.0,4.533333333333333
2026-02-06T21:59:02+00:00,SAT-48569,329.2274549166472,42.78222434471865,778.9276481257473,-1.4970882434955128,52434.362964204,10.5,10500052434.362965,47.655,-122.3035,60.0,4.55
2026-02-06T21:59:03+00:00,SAT-48569,329.92465941921876,42.90287969629178,777.4345733692345,-1.4375603494024276,50349.44431032181,10.5,10500050349.444311,47.655,-122.3035,60.0,4.566666666666666
2026-02-06T21:59:04+00:00,SAT-48569,330.62716538207786,43.01938099876138,776.0008669207454,-1.3777006008238666,48252.90270861517,10.5,10500048252.902708,47.655,-122.3035,60.0,4.583333333333333
2026-02-06T21:59:05+00:00,SAT-48569,331.3348247508128,43.13163083916815,774.6268597451096,-1.3175205171450786,46145.14161668245,10.5,10500046145.141617,47.655,-122.3035,60.0,4.6
2026-02-06T21:59:06+00:00,SAT-48569,332.0474810754107,43.2395339999746,773.312871318653,-1.2570319675193367,44026.576742477744,10.5,10500044026.576742,47.655,-122.3035,60.0,4.616666666666666
2026-02-06T21:59:07+00:00,SAT-48569,332.7649695744201,43.34299767916211,772.0592092803683,-1.1962471759028737,41897.6362206556,10.5,10500041897.63622,47.655,-122.3035,60.0,4.633333333333334
2026-02-06T21:59:08+00:00,SAT-48569,333.48711723760835,43.441931711157665,770.866169078062,-1.1351786861965951,39758.7593916864,10.5,10500039758.759392,47.655,-122.3035,60.0,4.65
2026-02-06T21:59:09+00:00,SAT-48569,334.21374294583376,43.536248784423876,769.7340336492682,-1.0738393630080276,37610.39682854294,10.5,10500037610.396828,47.655,-122.3035,60.0,4.666666666666667
2026-02-06T21:59:10+00:00,SAT-48569,334.94465762810546,43.62586465771391,768.6630731014026,-1.0122423900919744,35453.01028208565,10.5,10500035453.010283,47.655,-122.3035,60.0,4.683333333333334
2026-02-06T21:59:11+00:00,SAT-48569,335.6796644567544,43.71069837389611,767.653544393469,-0.9504012424113863,33287.071702516136,10.5,10500033287.071703,47.655,-122.3035,60.0,4.7
2026-02-06T21:59:12+00:00,SAT-48569,336.4185590656063,43.79067246818824,766.7056910456331,-0.888329685907776,31113.063231336015,10.5,10500031113.06323,47.655,-122.3035,60.0,4.716666666666667
2026-02-06T21:59:13+00:00,SAT-48569,337.16112980834447,43.86571317213961,765.8197428490237,-0.8260417490637773,28931.47620534757,10.5,10500028931.476206,47.655,-122.3035,60.0,4.733333333333333
2026-02-06T21:59:14+00:00,SAT-48569,337.9071580382771,43.93575061002535,764.9959156038954,-0.763551725750704,26742.811256387216,10.5,10500026742.811256,47.655,-122.3035,60.0,4.75
2026-02-06T21:59:15+00:00,SAT-48569,338.65641843251154,44.00071898931484,764.2344108549511,-0.700874147980853,24547.57735699594,10.5,10500024547.577356,47.655,-122.3035,60.0,4.766666666666667
2026-02-06T21:59:16+00:00,SAT-48569,339.4086793378563,44.0605567817135,763.5354156538403,-0.6380237722351227,22346.291341554657,10.5,10500022346.291342,47.655,-122.3035,60.0,4.783333333333333
2026-02-06T21:59:17+00:00,SAT-48569,340.1637031471674,44.11520689498521,762.8991023352913,-0.5750155681666852,20139.477510639026,10.5,10500020139.47751,47.655,-122.3035,60.0,4.8
2026-02-06T21:59:18+00:00,SAT-48569,340.9212467098835,44.164616834851195,762.3256283045108,-0.5118646953489153,17927.666816633562,10.5,10500017927.666817,47.655,-122.3035,60.0,4.816666666666666
2026-02-06T21:59:19+00:00,SAT-48569,341.6810617632251,44.20873885507005,761.8151358477725,-0.4485864892697434,15711.396373194637,10.5,10500015711.396374,47.655,-122.3035,60.0,4.833333333333333
2026-02-06T21:59:20+00:00,SAT-48569,342.4428953920603,44.2475300956615,761.3677519569757,-0.38519644248953394,13491.20879531968,10.5,10500013491.208796,47.655,-122.3035,60.0,4.85
2026-02-06T21:59:21+00:00,SAT-48569,343.2064905124718,44.28095270808624,760.9835881729912,-0.3217101833972458,11267.651455298053,10.5,10500011267.651455,47.655,-122.3035,60.0,4.866666666666666
2026-02-06T21:59:22+00:00,SAT-48569,343.97158636977787,44.30897396646323,760.6627404501996,-0.2581434653416436,9041.276102040092,10.5,10500009041.276102,47.655,-122.3035,60.0,4.883333333333334
2026-02-06T21:59:23+00:00,SAT-48569,344.73791907208624,44.33156636508702,760.405289031865,-0.19451213675178788,6812.637814570282,10.5,10500006812.637815,47.655,-122.3035,60.0,4.9
2026-02-06T21:59:24+00:00,SAT-48569,345.505222118864,44.34870770002534,760.2112983553089,-0.1308321285396635,4582.294560814024,10.5,10500004582.294561,47.655,-122.3035,60.0,4.916666666666667
2026-02-06T21:59:25+00:00,SAT-48569,346.2732269558687,44.36038113581844,760.0808169696511,-0.06711943414213609,2350.806498582526,10.5,10500002350.8065,47.655,-122.3035,60.0,4.933333333333334
2026-02-06T21:59:26+00:00,SAT-48569,347.041663544049,44.36657525625157,760.0138774734493,-0.0033900858211393325,118.7351455051047,10.5,10500000118.735146,47.655,-122.3035,60.0,4.95
2026-02-06T21:59:27+00:00,SAT-48569,347.8102609239126,44.36728409856587,760.0104964759804,0.06033986188307138,-2113.3572005078577,10.5,10499997886.6428,47.655,-122.3035,60.0,4.966666666666667
2026-02-06T21:59:28+00:00,SAT-48569,348.5787477951839,44.36250717153223,760.0706745750207,0.12405435410866462,-4344.908230283027,10.5,10499995655.09177,47.655,-122.3035,60.0,4.983333333333333
2026-02-06T21:59:29+00:00,SAT-48569,349.3468530938454,44.35224945680437,760.1943963565253,0.18773735484253656,-6575.356294809238,10.5,10499993424.643705,47.655,-122.3035,60.0,5.0
2026-02-06T21:59:30+00:00,SAT-48569,350.1143065683225,44.33652139378756,760.3816304134274,0.2513728683289419,-8804.14115505831,10.5,10499991195.858845,47.655,-122.3035,60.0,5.016666666666667
2026-02-06T21:59:31+00:00,SAT-48569,350.8808393550285,44.31533884791991,760.6323293857857,0.3149449562677778,-11030.704584341702,10.5,10499988969.295416,47.655,-122.3035,60.0,5.033333333333333
2026-02-06T21:59:32+00:00,SAT-48569,351.6461845361426,44.28872306291352,760.9464300180879,0.37843776190902867,-13254.491212199877,10.5,10499986745.508787,47.655,-122.3035,60.0,5.05
2026-02-06T21:59:33+00:00,SAT-48569,352.4100777036324,44.256700596657744,761.3238532405817,0.44183552513329905,-15474.949052586371,10.5,10499984525.050947,47.655,-122.3035,60.0,5.066666666666666
2026-02-06T21:59:34+00:00,SAT-48569,353.17225749341776,44.21930324192507,761.7645042656454,0.505122604522781,-17691.53027688642,10.5,10499982308.469723,47.655,-122.3035,60.0,5.083333333333333
2026-02-06T21:59:35+00:00,SAT-48569,353.93246611463655,44.176567931753866,762.2682727061723,0.5682834964579937,-19903.691882765554,10.5,10499980096.308117,47.655,-122.3035,60.0,5.1
2026-02-06T21:59:36+00:00,SAT-48569,354.6904498573929,44.12853663031322,762.8350327129994,0.6313028488056659,-22110.896173577163,10.5,10499977889.103827,47.655,-122.3035,60.0,5.116666666666666
2026-02-06T21:59:37+00:00,SAT-48569,355.44595957417755,44.07525621033534,763.4646431259871,0.6941654883866174,-24312.611720403864,10.5,10499975687.388279,47.655,-122.3035,60.0,5.133333333333334
2026-02-06T21:59:38+00:00,SAT-48569,356.19875115115457,44.016778316648306,764.1569476524942,0.7568564294969523,-26508.31366050576,10.5,10499973491.68634,47.655,-122.3035,60.0,5.15
2026-02-06T21:59:39+00:00,SAT-48569,356.9485859415729,43.95315921817736,764.9117750543497,0.8193608961990864,-28697.4844780465,10.5,10499971302.515522,47.655,-122.3035,60.0,5.166666666666667
2026-02-06T21:59:40+00:00,SAT-48569,357.6952311792716,43.88445964806717,765.7289393570579,0.8816643342928642,-30879.614423372434,10.5,10499969120.385576,47.655,-122.3035,60.0,5.183333333333334
2026-02-06T21:59:41+00:00,SAT-48569,358.4384603598285,43.81074463366182,766.6082400709404,0.9437524341315766,-33054.20231212606,10.5,10499966945.797688,47.655,-122.3035,60.0,5.2
2026-02-06T21:59:42+00:00,SAT-48569,359.17805359827656,43.73208331634303,767.5494624350339,1.0056111407666635,-35220.75588055643,10.5,10499964779.24412,47.655,-122.3035,60.0,5.216666666666667
2026-02-06T21:59:43+00:00,SAT-48569,359.91379795127233,43.64854876321765,768.5523776711063,1.0672266633087397,-37378.792113381875,10.5,10499962621.207886,47.655,-122.3035,60.0,5.233333333333333
2026-02-06T21:59:44+00:00,SAT-48569,0.6454877046212719,43.560217771678644,769.6167432470079,1.128585505744518,-39527.83832312899,10.5,10499960472.161676,47.655,-122.3035,60.0,5.25
2026-02-06T21:59:45+00:00,SAT-48569,1.3729246418870074,43.46717066602236,770.7423031707564,1.1896744576672618,-41667.431825473905,10.5,10499958332.568174,47.655,-122.3035,60.0,5.266666666666667
2026-02-06T21:59:46+00:00,SAT-48569,2.0959182639759644,43.36949109043227,771.9287882753777,1.2504806313244803,-43797.121236809246,10.5,10499956202.878763,47.655,-122.3035,60.0,5.283333333333333
2026-02-06T21:59:47+00:00,SAT-48569,2.814285993915051,43.26726579546108,773.1759165406958,1.3109914426103835,-45916.46580851953,10.5,10499954083.534191,47.655,-122.3035,60.0,5.3
2026-02-06T21:59:48+00:00,SAT-48569,3.5278533298027517,43.16058442359108,774.4833933961652,1.3711946529470025,-48025.03689383515,10.5,10499951974.963106,47.655,-122.3035,60.0,5.316666666666666
2026-02-06T21:59:49+00:00,SAT-48569,4.236453985846657,43.049539289813836,775.8509120654725,1.4310783600508516,-50122.41762444184,10.5,10499949877.582376,47.655,-122.3035,60.0,5.333333333333333
2026-02-06T21:59:50+00:00,SAT-48569,4.93992999018884,42.934225162333334,777.2781539019288,1.4906310066436894,-52208.203215568356,10.5,10499947791.796785,47.655,-122.3035,60.0,5.35
2026-02-06T21:59:51+00:00,SAT-48569,5.638131753107088,42.81473904280416,778.764788732551,1.5498414061603083,-54282.001866381965,10.5,10499945717.998133,47.655,-122.3035,60.0,5.366666666666666
2026-02-06T21:59:52+00:00,SAT-48569,6.330918114684334,42.69117994558425,780.3104752277794,1.6086987252309575,-56343.434146448926,10.5,10499943656.565853,47.655,-122.3035,60.0,5.383333333333334
2026-02-06T21:59:53+00:00,SAT-48569,7.018156351579694,42.563648680289205,781.9148612537282,1.6671925102174088,-58392.13392513961,10.5,10499941607.866076,47.655,-122.3035,60.0,5.4
2026-02-06T21:59:54+00:00,SAT-48569,7.699722166816707,42.43224763486435,783.5775842508983,1.72531267969295,-60427.748108246196,10.5,10499939572.251892,47.655,-122.3035,60.0,5.416666666666667
2026-02-06T21:59:55+00:00,SAT-48569,8.375499647585587,42.297080562614674,785.2982716053901,1.7830495373323676,-62449.937089444255,10.5,10499937550.06291,47.655,-122.3035,60.0,5.433333333333334
2026-02-06T21:59:56+00:00,SAT-48569,9.04538120246544,42.158252372217326,787.0765410329736,1.8403937762893665,-64458.374903608645,10.5,10499935541.625097,47.655,-122.3035,60.0,5.45
2026-02-06T21:59:57+00:00,SAT-48569,9.709267475623255,42.015868922009574,788.9120009675231,1.8973364783314564,-66452.74919651345,10.5,10499933547.250803,47.655,-122.3035,60.0,5.466666666666667
2026-02-06T21:59:58+00:00,SAT-48569,10.367067238168728,41.87003681950608,790.8042509485884,1.9538691070684309,-68432.76098766475,10.5,10499931567.239012,47.655,-122.3035,60.0,5.483333333333333
2026-02-06T21:59:59+00:00,SAT-48569,11.018697256829954,41.720863227062914,792.752882002215,2.009983530620745,-70398.12546424309,10.5,10499929601.874537,47.655,-122.3035,60.0,5.5
2026-02-06T22:00:00+00:00,SAT-48569,11.664082152217219,41.56845567188432,794.757477044368,2.0656720135789746,-72348.57169948964,10.5,10499927651.4283,47.655,-122.3035,60.0,5.516666666666667
2026-02-06T22:00:01+00:00,SAT-48569,12.303154237039438,41.412921863113155,796.8176112763408,2.120927213855645,-74283.84254244406,10.5,10499925716.157457,47.655,-122.3035,60.0,5.533333333333333
2026-02-06T22:00:02+00:00,SAT-48569,12.935853338482897,41.25436951594673,798.9328525770242,2.1757421589035992,-76203.69378501107,10.5,10499923796.306215,47.655,-122.3035,60.0,5.55
2026-02-06T22:00:03+00:00,SAT-48569,13.562126600804802,41.09290618455174,801.1027618714521,2.2301103084787215,-78107.89636017653,10.5,10499921892.10364,47.655,-122.3035,60.0,5.566666666666666
2026-02-06T22:00:04+00:00,SAT-48569,14.181928295769756,40.92863909756544,803.3268935619492,2.284025483495016,-79996.23385021136,10.5,10499920003.76615,47.655,-122.3035,60.0,5.583333333333333
2026-02-06T22:00:05+00:00,SAT-48569,14.795219601908196,40.76167500633472,805.6047958883182,2.3374819014598494,-81868.50372776361,10.5,10499918131.496273,47.655,-122.3035,60.0,5.6
2026-02-06T22:00:06+00:00,SAT-48569,15.401968386904759,40.59212003805462,807.9360113233726,2.3904741725868313,-83724.51721971514,10.5,10499916275.48278,47.655,-122.3035,60.0,5.616666666666666
2026-02-06T22:00:07+00:00,SAT-48569,16.002148982215026,40.42007955683756,810.3200769645881,2.4429972652746055,-85564.09809810278,10.5,10499914435.901901,47.655,-122.3035,60.0,5.633333333333334
2026-02-06T22:00:08+00:00,SAT-48569,16.595741944019732,40.24565803492415,812.7565248913284,2.495046554880955,-87387.08438839387,10.5,10499912612.915611,47.655,-122.3035,60.0,5.65
2026-02-06T22:00:09+00:00,SAT-48569,17.18273382343193,40.06895892802173,815.2448825707118,2.5466177589310073,-89193.32610020356,10.5,10499910806.6739,47.655,-122.3035,60.0,5.666666666666667
