DopplerPredictor/satellites_20260211_210122/SAT-62870.csv

timestamp,satellite,azimuth_deg,elevation_deg,distance_km,relative_velocity_kms,doppler_shift_hz,tx_freq_ghz,rx_freq_hz,ue_lat,ue_lon,ue_alt_m,time_minutes
2026-02-06T21:58:28+00:00,SAT-62870,344.5844843728843,40.00151324747077,687.2398988899969,-0.1277566277587977,4474.5775141127,10.5,10500004474.577515,47.655,-122.3035,60.0,3.9833333333333334
2026-02-06T21:58:29+00:00,SAT-62870,345.38358908947805,40.01237807822511,687.1124847601264,-0.05522469103222262,1934.2022801598882,10.5,10500001934.20228,47.655,-122.3035,60.0,4.0
2026-02-06T21:58:30+00:00,SAT-62870,346.18308952480385,40.01733341319759,687.0574081188703,0.017324445204829796,-606.7753534036966,10.5,10499999393.224648,47.655,-122.3035,60.0,4.016666666666667
2026-02-06T21:58:31+00:00,SAT-62870,346.9826802024211,40.01637378025445,687.0746861196282,0.0898677829442647,-3147.5498990530955,10.5,10499996852.450102,47.655,-122.3035,60.0,4.033333333333333
2026-02-06T21:58:32+00:00,SAT-62870,347.78205543815284,40.00950058648243,687.164312979448,0.1623823332645755,-5687.316187514106,10.5,10499994312.683813,47.655,-122.3035,60.0,4.05
