DopplerPredictor/satellites_20260211_210122/SAT-48431.csv

timestamp,satellite,azimuth_deg,elevation_deg,distance_km,relative_velocity_kms,doppler_shift_hz,tx_freq_ghz,rx_freq_hz,ue_lat,ue_lon,ue_alt_m,time_minutes
2026-02-06T21:57:46+00:00,SAT-48431,239.41437808024432,40.272372878587475,814.9976317705926,-5.10815995076964,178909.3689711207,10.5,10500178909.36897,47.655,-122.3035,60.0,3.283333333333333
2026-02-06T21:57:47+00:00,SAT-48431,239.39865160930265,40.639759632240384,809.9031660917251,-5.079838097767132,177917.41787765353,10.5,10500177917.417877,47.655,-122.3035,60.0,3.3
2026-02-06T21:57:48+00:00,SAT-48431,239.38247835451506,41.01140016154524,804.8369463388805,-5.0509726263034755,176906.42696617302,10.5,10500176906.426966,47.655,-122.3035,60.0,3.316666666666667
2026-02-06T21:57:49+00:00,SAT-48431,239.3658420300762,41.387350804040445,799.7995146731542,-5.021552933577303,175876.02488172564,10.5,10500175876.024881,47.655,-122.3035,60.0,3.3333333333333335
2026-02-06T21:57:50+00:00,SAT-48431,239.34872555088413,41.76766806881717,794.7914238300173,-4.9915682471403136,174825.83432760436,10.5,10500174825.834328,47.655,-122.3035,60.0,3.35
2026-02-06T21:57:51+00:00,SAT-48431,239.33111098319608,42.15240858951056,789.8132372885112,-4.961007708685427,173755.47499996476,10.5,10500173755.475,47.655,-122.3035,60.0,3.3666666666666667
2026-02-06T21:57:52+00:00,SAT-48431,239.31297949091737,42.54162908014859,784.8655293568734,-4.929860312783316,172664.56144211884,10.5,10500172664.561441,47.655,-122.3035,60.0,3.3833333333333333
2026-02-06T21:57:53+00:00,SAT-48431,239.29431127840968,42.93538628274749,779.9488853192682,-4.898114916075457,171552.70336651464,10.5,10500171552.703367,47.655,-122.3035,60.0,3.4
2026-02-06T21:57:54+00:00,SAT-48431,239.2750855286385,43.33373691160937,775.063901573343,-4.865760300765262,170419.50787846456,10.5,10500170419.50788,47.655,-122.3035,60.0,3.4166666666666665
2026-02-06T21:57:55+00:00,SAT-48431,239.25528033629357,43.73673759866948,770.2111857044691,-4.832785120416707,169264.57757778358,10.5,10500169264.577578,47.655,-122.3035,60.0,3.433333333333333
2026-02-06T21:57:56+00:00,SAT-48431,239.2348726358648,44.1444448302943,765.391356614036,-4.799177949053938,168087.51227846547,10.5,10500168087.512278,47.655,-122.3035,60.0,3.45
2026-02-06T21:57:57+00:00,SAT-48431,239.2138381237387,44.55691488361626,760.6050445987768,-4.76492726604898,166887.90847938642,10.5,10500166887.90848,47.655,-122.3035,60.0,3.466666666666667
2026-02-06T21:57:58+00:00,SAT-48431,239.19215117400634,44.97420375699465,755.8528914451683,-4.730021456102941,165665.35936364642,10.5,10500165665.359364,47.655,-122.3035,60.0,3.4833333333333334
2026-02-06T21:57:59+00:00,SAT-48431,239.16978474763235,45.39636709546499,751.1355505238461,-4.69444888374377,164419.45740779638,10.5,10500164419.457407,47.655,-122.3035,60.0,3.5
2026-02-06T21:58:00+00:00,SAT-48431,239.14671029314187,45.823460117700925,746.4536868097258,-4.658197800597895,163149.79113409817,10.5,10500163149.791134,47.655,-122.3035,60.0,3.5166666666666666
2026-02-06T21:58:01+00:00,SAT-48431,239.12289764005854,46.25553752938327,741.8079769945999,-4.62125646092127,161855.94915691085,10.5,10500161855.949158,47.655,-122.3035,60.0,3.533333333333333
2026-02-06T21:58:02+00:00,SAT-48431,239.09831488206348,46.692653441369,737.1991094845172,-4.583613069756131,160537.51836692094,10.5,10500160537.518368,47.655,-122.3035,60.0,3.55
2026-02-06T21:58:03+00:00,SAT-48431,239.0729282505792,47.13486127742704,732.6277844488624,-4.545255821426491,159194.0852794174,10.5,10500159194.08528,47.655,-122.3035,60.0,3.566666666666667
2026-02-06T21:58:04+00:00,SAT-48431,239.0467019769346,47.582213679480965,728.0947138310479,-4.506172911747731,157825.23646192317,10.5,10500157825.236462,47.655,-122.3035,60.0,3.5833333333333335
2026-02-06T21:58:05+00:00,SAT-48431,239.0195981420652,48.03476240776738,723.6006213470248,-4.4663525534606014,156430.55907475937,10.5,10500156430.559074,47.655,-122.3035,60.0,3.6
2026-02-06T21:58:06+00:00,SAT-48431,238.99157651261567,48.49255823600932,719.1462424684032,-4.425782991670942,155009.64141180925,10.5,10500155009.641413,47.655,-122.3035,60.0,3.6166666666666667
2026-02-06T21:58:07+00:00,SAT-48431,238.96259436166986,48.95565084135655,714.7323243901749,-4.384452540813515,153562.0741951484,10.5,10500153562.074196,47.655,-122.3035,60.0,3.6333333333333333
2026-02-06T21:58:08+00:00,SAT-48431,238.93260627248614,49.42408869117924,710.3596259615689,-4.342349567153626,152087.44996217708,10.5,10500152087.449963,47.655,-122.3035,60.0,3.65
2026-02-06T21:58:09+00:00,SAT-48431,238.9015639238011,49.89791892078657,706.0289176343607,-4.299462540675087,150585.36488295652,10.5,10500150585.364883,47.655,-122.3035,60.0,3.6666666666666665
2026-02-06T21:58:10+00:00,SAT-48431,238.8694158539061,50.377187209093215,701.7409813594311,-4.255780072297782,149055.42006372527,10.5,10500149055.420063,47.655,-122.3035,60.0,3.683333333333333
2026-02-06T21:58:11+00:00,SAT-48431,238.83610720112006,50.86193765082573,697.4966104462097,-4.21129088537404,147497.2205485817,10.5,10500147497.220549,47.655,-122.3035,60.0,3.7
2026-02-06T21:58:12+00:00,SAT-48431,238.8015794188849,51.352212617647716,693.2966094505414,-4.1659838756471315,145910.37741948426,10.5,10500145910.37742,47.655,-122.3035,60.0,3.716666666666667
2026-02-06T21:58:13+00:00,SAT-48431,238.76576996115773,51.84805261772676,689.141794002759,-4.119848154518304,144294.50931164584,10.5,10500144294.509312,47.655,-122.3035,60.0,3.7333333333333334
2026-02-06T21:58:14+00:00,SAT-48431,238.72861193489297,52.34949615214706,685.0329905926037,-4.072873023899302,142649.24153276286,10.5,10500142649.241533,47.655,-122.3035,60.0,3.75
2026-02-06T21:58:15+00:00,SAT-48431,238.69003371637257,52.856579559751175,680.9710363792251,-4.025048072543396,140974.2094369354,10.5,10500140974.209436,47.655,-122.3035,60.0,3.7666666666666666
2026-02-06T21:58:16+00:00,SAT-48431,238.64995852523288,53.3693368648659,676.9567789051076,-3.976363150287279,139269.05752250922,10.5,10500139269.057522,47.655,-122.3035,60.0,3.783333333333333
2026-02-06T21:58:17+00:00,SAT-48431,238.6083039524815,53.88779961307117,672.9910758356882,-3.926808414794705,137533.441069236,10.5,10500137533.441069,47.655,-122.3035,60.0,3.8
2026-02-06T21:58:18+00:00,SAT-48431,238.56498143553227,54.41199670352606,669.0747946523542,-3.8763743944225144,135767.0283401072,10.5,10500135767.02834,47.655,-122.3035,60.0,3.816666666666667
2026-02-06T21:58:19+00:00,SAT-48431,238.51989567300149,54.94195422029338,665.2088122827433,-3.825051980163568,133969.50029916182,10.5,10500133969.5003,47.655,-122.3035,60.0,3.8333333333333335
2026-02-06T21:58:20+00:00,SAT-48431,238.4729439719669,55.477695253240526,661.3940147390814,-3.772832477380474,132140.55242342013,10.5,10500132140.552423,47.655,-122.3035,60.0,3.85
2026-02-06T21:58:21+00:00,SAT-48431,238.42401551794936,56.019239716155056,657.631296704922,-3.719707669976972,130279.89695043699,10.5,10500130279.89695,47.655,-122.3035,60.0,3.8666666666666667
2026-02-06T21:58:22+00:00,SAT-48431,238.3729905558836,56.566604164263794,653.9215610578884,-3.6656698277175703,128387.2631346666,10.5,10500128387.263134,47.655,-122.3035,60.0,3.8833333333333333
2026-02-06T21:58:23+00:00,SAT-48431,238.31973947080988,57.119801603190346,650.2657183851165,-3.610711724812501,126462.39789838628,10.5,10500126462.397898,47.655,-122.3035,60.0,3.9
2026-02-06T21:58:24+00:00,SAT-48431,238.26412175330094,57.67884129030917,646.6646864801601,-3.5548267526252446,124505.06977919061,10.5,10500124505.069778,47.655,-122.3035,60.0,3.9166666666666665
2026-02-06T21:58:25+00:00,SAT-48431,238.2059848302074,58.24372854307527,643.1193897274926,-3.4980088855318483,122515.06773424035,10.5,10500122515.067734,47.655,-122.3035,60.0,3.933333333333333
2026-02-06T21:58:26+00:00,SAT-48431,238.14516274349396,58.81446453217078,639.6307585210577,-3.4402527577646396,120492.2038316545,10.5,10500120492.20383,47.655,-122.3035,60.0,3.95
2026-02-06T21:58:27+00:00,SAT-48431,238.08147465095567,59.39104607613408,636.1997286061817,-3.3815537123630737,118436.31496497578,10.5,10500118436.314964,47.655,-122.3035,60.0,3.966666666666667
2026-02-06T21:58:28+00:00,SAT-48431,238.014723120656,59.97346543366992,632.8272403726668,-3.3219078436286256,116347.26434012082,10.5,10500116347.26434,47.655,-122.3035,60.0,3.9833333333333334
2026-02-06T21:58:29+00:00,SAT-48431,237.94469218564547,60.561710092715224,629.514238105544,-3.2613120170897014,114224.94217463557,10.5,10500114224.942175,47.655,-122.3035,60.0,4.0
2026-02-06T21:58:30+00:00,SAT-48431,237.87114511963088,61.15576255211928,626.261669215911,-3.1997639081831304,112069.26705248491,10.5,10500112069.267052,47.655,-122.3035,60.0,4.016666666666667
2026-02-06T21:58:31+00:00,SAT-48431,237.7938218847691,61.755600098567925,623.0704834331983,-3.1372621287321545,109880.1903538468,10.5,10500109880.190353,47.655,-122.3035,60.0,4.033333333333333
2026-02-06T21:58:32+00:00,SAT-48431,237.71243619107167,62.36119459554189,619.9416318712911,-3.07380614894676,107657.69352323393,10.5,10500107657.693523,47.655,-122.3035,60.0,4.05
2026-02-06T21:58:33+00:00,SAT-48431,237.62667210438082,62.97251224613416,616.8760661724444,-3.0093964329519167,105401.792816266,10.5,10500105401.792816,47.655,-122.3035,60.0,4.066666666666666
2026-02-06T21:58:34+00:00,SAT-48431,237.53618011155115,63.58951336877204,613.8747375160326,-2.944034466583895,103112.54027321425,10.5,10500103112.540274,47.655,-122.3035,60.0,4.083333333333333
2026-02-06T21:58:35+00:00,SAT-48431,237.44057254313608,64.21215216602947,610.9385955995768,-2.877722726260533,100790.02262870668,10.5,10500100790.022629,47.655,-122.3035,60.0,4.1
2026-02-06T21:58:36+00:00,SAT-48431,237.33941823126258,64.84037647206733,608.0685876508197,-2.810464844092694,98434.36709462946,10.5,10500098434.367094,47.655,-122.3035,60.0,4.116666666666666
2026-02-06T21:58:37+00:00,SAT-48431,237.2322362391662,65.47412751878569,605.2656572751298,-2.742265559822809,96045.73967681169,10.5,10500096045.739677,47.655,-122.3035,60.0,4.133333333333334
2026-02-06T21:58:38+00:00,SAT-48431,237.11848848057625,66.11333967479138,602.5307433508402,-2.6731307679177965,93624.34682441832,10.5,10500093624.346825,47.655,-122.3035,60.0,4.15
2026-02-06T21:58:39+00:00,SAT-48431,236.9975709874128,66.75794017365807,599.8647788776193,-2.603067592241405,91170.43804529183,10.5,10500091170.438046,47.655,-122.3035,60.0,4.166666666666667
2026-02-06T21:58:40+00:00,SAT-48431,236.8688035268031,67.40784883565345,597.2686897503693,-2.5320843944951124,88684.3062015879,10.5,10500088684.306202,47.655,-122.3035,60.0,4.183333333333334
2026-02-06T21:58:41+00:00,SAT-48431,236.7314171963313,68.06297776354546,594.7433935247083,-2.460190809739257,86166.28875387585,10.5,10500086166.288754,47.655,-122.3035,60.0,4.2
2026-02-06T21:58:42+00:00,SAT-48431,236.58453952193983,68.7232310125679,592.2897981470236,-2.387397772508036,83616.76867579631,10.5,10500083616.768675,47.655,-122.3035,60.0,4.216666666666667
2026-02-06T21:58:43+00:00,SAT-48431,236.4271764536083,69.38850422440284,589.9088006584826,-2.313717562735549,81036.17606258548,10.5,10500081036.176064,47.655,-122.3035,60.0,4.233333333333333
2026-02-06T21:58:44+00:00,SAT-48431,236.25819047809475,70.0586842203675,587.6012858532398,-2.2391638087258308,78424.98823509837,10.5,10500078424.988235,47.655,-122.3035,60.0,4.25
2026-02-06T21:58:45+00:00,SAT-48431,236.07627384165454,70.73364852830248,585.3681249336806,-2.163751517007846,75783.73078545686,10.5,10500075783.730785,47.655,-122.3035,60.0,4.266666666666667
2026-02-06T21:58:46+00:00,SAT-48431,235.879915560574,71.41326483144869,583.2101741358923,-2.087497089353096,73112.97817307834,10.5,10500073112.978172,47.655,-122.3035,60.0,4.283333333333333
2026-02-06T21:58:47+00:00,SAT-48431,235.66736047570404,72.09739031055912,581.1282733381612,-2.0104183239870896,70413.35376710659,10.5,10500070413.353767,47.655,-122.3035,60.0,4.3
2026-02-06T21:58:48+00:00,SAT-48431,235.43655802965333,72.78587083950745,579.1232446682628,-1.9325344493620733,67685.53102927549,10.5,10500067685.531029,47.655,-122.3035,60.0,4.316666666666666
2026-02-06T21:58:49+00:00,SAT-48431,235.18509763211725,73.47853999799558,577.1958910770699,-1.8538660926989856,64930.23241211541,10.5,10500064930.232412,47.655,-122.3035,60.0,4.333333333333333
2026-02-06T21:58:50+00:00,SAT-48431,234.91012635694986,74.17521781424071,575.3469949435317,-1.7744353041017267,62148.23020353677,10.5,10500062148.230204,47.655,-122.3035,60.0,4.35
2026-02-06T21:58:51+00:00,SAT-48431,234.6082430848035,74.87570916504573,573.5773166556081,-1.694265536408402,59340.345821135445,10.5,10500059340.345821,47.655,-122.3035,60.0,4.366666666666666
2026-02-06T21:58:52+00:00,SAT-48431,234.27536088338044,75.57980168947397,571.8875932112944,-1.6133816504890717,56507.449997742275,10.5,10500056507.449997,47.655,-122.3035,60.0,4.383333333333334
2026-02-06T21:58:53+00:00,SAT-48431,233.90652598152755,76.28726304236395,570.2785368143635,-1.531809858980481,53650.46081077546,10.5,10500053650.460812,47.655,-122.3035,60.0,4.4
2026-02-06T21:58:54+00:00,SAT-48431,233.4956766066677,76.99783719530271,568.7508335262253,-1.4495777591842733,50770.34483447503,10.5,10500050770.344835,47.655,-122.3035,60.0,4.416666666666667
2026-02-06T21:58:55+00:00,SAT-48431,233.03531716227707,77.71123943084744,567.3051418849716,-1.3667142491574298,47868.114201035074,10.5,10500047868.1142,47.655,-122.3035,60.0,4.433333333333334
2026-02-06T21:58:56+00:00,SAT-48431,232.5160712742771,78.42714938944667,565.9420916081095,-1.283249528294176,44944.82662098474,10.5,10500044944.82662,47.655,-122.3035,60.0,4.45
2026-02-06T21:58:57+00:00,SAT-48431,231.92605820571515,79.14520130378156,564.6622822947122,-1.1992150470024467,42001.58362064495,10.5,10500042001.58362,47.655,-122.3035,60.0,4.466666666666667
2026-02-06T21:58:58+00:00,SAT-48431,231.25000647893654,79.86496998408043,563.4662821777592,-1.1146434548326858,39039.52872537974,10.5,10500039039.528725,47.655,-122.3035,60.0,4.483333333333333
2026-02-06T21:58:59+00:00,SAT-48431,230.46796762303225,80.58595028036771,562.3546269282082,-1.0295685588794252,36059.846002643484,10.5,10500036059.846003,47.655,-122.3035,60.0,4.5
2026-02-06T21:59:00+00:00,SAT-48431,229.55340615345173,81.30752627464013,561.3278185005546,-0.9440252551530017,33063.75765832814,10.5,10500033063.757658,47.655,-122.3035,60.0,4.516666666666667
2026-02-06T21:59:01+00:00,SAT-48431,228.47028950843543,82.02892378609398,560.3863240468353,-0.8580494752563766,30052.522169159955,10.5,10500030052.52217,47.655,-122.3035,60.0,4.533333333333333
2026-02-06T21:59:02+00:00,SAT-48431,227.16852532422016,82.74913489088438,559.5305748838111,-0.7716781178839084,27027.431883496676,10.5,10500027027.431883,47.655,-122.3035,60.0,4.55
2026-02-06T21:59:03+00:00,SAT-48431,225.57657543172218,83.46679366045244,558.7609655284697,-0.6849489660987386,23989.810124031723,10.5,10500023989.810123,47.655,-122.3035,60.0,4.566666666666666
2026-02-06T21:59:04+00:00,SAT-48431,223.58907161629173,84.17996315829151,558.077852816026,-0.5979006260188723,20941.009040321347,10.5,10500020941.00904,47.655,-122.3035,60.0,4.583333333333333
2026-02-06T21:59:05+00:00,SAT-48431,221.0452525667116,84.8857530964319,557.4815550790753,-0.5105724338322082,17882.406352057686,10.5,10500017882.406353,47.655,-122.3035,60.0,4.6
2026-02-06T21:59:06+00:00,SAT-48431,217.68998021528614,85.5795967014574,556.9723514194792,-0.4230043706610266,14815.402367262952,10.5,10500014815.402367,47.655,-122.3035,60.0,4.616666666666666
2026-02-06T21:59:07+00:00,SAT-48431,213.10116114366951,86.25380343132153,556.5504810651613,-0.3352369799446376,11741.417088680379,10.5,10500011741.41709,47.655,-122.3035,60.0,4.633333333333334
2026-02-06T21:59:08+00:00,SAT-48431,206.55522724992255,86.89450203860045,556.2161428092971,-0.24731127204723094,8661.886872737556,10.5,10500008661.886873,47.655,-122.3035,60.0,4.65
2026-02-06T21:59:09+00:00,SAT-48431,196.80967479903697,87.47501433827911,555.9694945446414,-0.15926862991176735,5578.2611251466415,10.5,10500005578.261126,47.655,-122.3035,60.0,4.666666666666667
2026-02-06T21:59:10+00:00,SAT-48431,181.99625840509816,87.942780846746,555.8106528919474,-0.07115071158647619,2491.9988869699982,10.5,10500002491.998886,47.655,-122.3035,60.0,4.683333333333334
2026-02-06T21:59:11+00:00,SAT-48431,160.89139503481982,88.20656444554635,555.7396929255998,0.01700064448825119,-595.4344826334407,10.5,10499999404.565517,47.655,-122.3035,60.0,4.7
2026-02-06T21:59:12+00:00,SAT-48431,136.93808785298808,88.1753173586936,555.7566479937063,0.10514352145136253,-3682.5708778814796,10.5,10499996317.429123,47.655,-122.3035,60.0,4.716666666666667
2026-02-06T21:59:13+00:00,SAT-48431,117.03078167003994,87.86199160609381,555.8615096398864,0.1932360218964584,-6767.942874376156,10.5,10499993232.057125,47.655,-122.3035,60.0,4.733333333333333
2026-02-06T21:59:14+00:00,SAT-48431,103.3949926052942,87.36567974549598,556.0542276226746,0.2812363675698358,-9850.087220950953,10.5,10499990149.912779,47.655,-122.3035,60.0,4.75
2026-02-06T21:59:15+00:00,SAT-48431,94.42321638705975,86.77011059635392,556.3347100343536,0.3691029981435717,-12927.548299121998,10.5,10499987072.4517,47.655,-122.3035,60.0,4.766666666666667
2026-02-06T21:59:16+00:00,SAT-48431,88.34889466456974,86.12129108986996,556.7028235182955,0.45679466788311646,-15998.88150879607,10.5,10499984001.118492,47.655,-122.3035,60.0,4.783333333333333
2026-02-06T21:59:17+00:00,SAT-48431,84.05305892703328,85.44252555633001,557.1583935827117,0.5442705397829982,-19062.656565301186,10.5,10499980937.343435,47.655,-122.3035,60.0,4.8
2026-02-06T21:59:18+00:00,SAT-48431,80.88749389169844,84.74607022063749,557.7012050082867,0.6314902859265694,-22117.461014409437,10.5,10499977882.538986,47.655,-122.3035,60.0,4.816666666666666
2026-02-06T21:59:19+00:00,SAT-48431,78.47186107191655,84.03881505462053,558.3310023559025,0.7184141706479135,-25161.903145018718,10.5,10499974838.096855,47.655,-122.3035,60.0,4.833333333333333
2026-02-06T21:59:20+00:00,SAT-48431,76.5743558650461,83.32490582725852,559.0474905572999,0.8050031370620406,-28194.615019806224,10.5,10499971805.38498,47.655,-122.3035,60.0,4.85
2026-02-06T21:59:21+00:00,SAT-48431,75.04771867400538,82.60699774012177,559.850335592042,0.891218900969926,-31214.255764180107,10.5,10499968785.744236,47.655,-122.3035,60.0,4.866666666666666
2026-02-06T21:59:22+00:00,SAT-48431,73.79471203671702,81.88688903579747,560.7391652581265,0.9770240186879329,-34219.513941952784,10.5,10499965780.486057,47.655,-122.3035,60.0,4.883333333333334
2026-02-06T21:59:23+00:00,SAT-48431,72.74888565759441,81.16585969750584,561.7135700102497,1.0623819681352942,-37209.11039536754,10.5,10499962790.889605,47.655,-122.3035,60.0,4.9
2026-02-06T21:59:24+00:00,SAT-48431,71.86344402680187,80.44486197447327,562.7731038789371,1.1472572276696702,-40181.80100625325,10.5,10499959818.198994,47.655,-122.3035,60.0,4.916666666666667
2026-02-06T21:59:25+00:00,SAT-48431,71.10455843508392,79.72463248601612,563.9172854683009,1.2316153219986437,-43136.37830403911,10.5,10499956863.621696,47.655,-122.3035,60.0,4.933333333333334
2026-02-06T21:59:26+00:00,SAT-48431,70.44720783112398,79.00576083856473,565.1455989995842,1.3154229050715063,-46071.67436897567,10.5,10499953928.32563,47.655,-122.3035,60.0,4.95
2026-02-06T21:59:27+00:00,SAT-48431,69.87251016858896,78.28873306786633,566.4574954373754,1.3986477934624375,-48986.56200135493,10.5,10499951013.437998,47.655,-122.3035,60.0,4.966666666666667
2026-02-06T21:59:28+00:00,SAT-48431,69.36596140624864,77.573959996238,567.8523936491171,1.4812590329129882,-51879.95705210962,10.5,10499948120.042948,47.655,-122.3035,60.0,4.983333333333333
2026-02-06T21:59:29+00:00,SAT-48431,68.91624386766097,76.86179622031516,569.3296816309764,1.5632269380782988,-54750.81981489387,10.5,10499945249.180185,47.655,-122.3035,60.0,5.0
2026-02-06T21:59:30+00:00,SAT-48431,68.51440150977363,76.15255313136302,570.8887177733592,1.644523123298216,-57598.156103817884,10.5,10499942401.843897,47.655,-122.3035,60.0,5.016666666666667
2026-02-06T21:59:31+00:00,SAT-48431,68.15325744603105,75.44650803254184,572.5288321571079,1.725120548935439,-60421.018876405855,10.5,10499939578.981123,47.655,-122.3035,60.0,5.033333333333333
2026-02-06T21:59:32+00:00,SAT-48431,67.82699497603373,74.74391063604247,574.2493278959182,1.804993524925687,-63218.50835793779,10.5,10499936781.491642,47.655,-122.3035,60.0,5.05
2026-02-06T21:59:33+00:00,SAT-48431,67.53085120329219,74.0449877862002,576.0494824822927,1.8841177590629625,-65989.77373260373,10.5,10499934010.226267,47.655,-122.3035,60.0,5.066666666666666
2026-02-06T21:59:34+00:00,SAT-48431,67.26088958676887,73.34994693215899,577.928549181652,1.9624703595700617,-68734.01323353387,10.5,10499931265.986767,47.655,-122.3035,60.0,5.083333333333333
2026-02-06T21:59:35+00:00,SAT-48431,67.01382876699773,72.65897873248935,579.8857584290088,2.040029838451682,-71450.4742602386,10.5,10499928549.52574,47.655,-122.3035,60.0,5.1
2026-02-06T21:59:36+00:00,SAT-48431,66.78691211649124,71.97225903723589,581.9203192289876,2.1167761155788574,-74138.45352166265,10.5,10499925861.546478,47.655,-122.3035,60.0,5.116666666666666
2026-02-06T21:59:37+00:00,SAT-48431,66.57780717562188,71.28995041759046,584.0314205599157,2.1926905686061784,-76797.29878449734,10.5,10499923202.701216,47.655,-122.3035,60.0,5.133333333333334
2026-02-06T21:59:38+00:00,SAT-48431,66.38452729775722,70.61220334965483,586.2182328276988,2.267755917753157,-79426.40483773661,10.5,10499920573.595161,47.655,-122.3035,60.0,5.15
2026-02-06T21:59:39+00:00,SAT-48431,66.20537000941955,69.93915718999402,588.4799092047866,2.3419563430385892,-82025.2175987202,10.5,10499917974.782402,47.655,-122.3035,60.0,5.166666666666667
2026-02-06T21:59:40+00:00,SAT-48431,66.03886806330378,69.27094093006995,590.8155870860595,2.415277384244226,-84593.23060943838,10.5,10499915406.76939,47.655,-122.3035,60.0,5.183333333333334
2026-02-06T21:59:41+00:00,SAT-48431,65.88375025517256,68.60767384300435,593.2243894449449,2.4877059577454834,-87129.98562601456,10.5,10499912870.014374,47.655,-122.3035,60.0,5.2
2026-02-06T21:59:42+00:00,SAT-48431,65.73890980300675,67.94946601818397,595.7054262063211,2.559230321299569,-89635.0713854365,10.5,10499910364.928614,47.655,-122.3035,60.0,5.216666666666667
2026-02-06T21:59:43+00:00,SAT-48431,65.60337864474533,67.2964188233989,598.257795584303,2.629840056513168,-92108.12299150055,10.5,10499907891.877008,47.655,-122.3035,60.0,5.233333333333333
2026-02-06T21:59:44+00:00,SAT-48431,65.47630640229956,66.64862530719229,600.8805854025425,2.6995260512436805,-94548.82129842855,10.5,10499905451.178701,47.655,-122.3035,60.0,5.25
2026-02-06T21:59:45+00:00,SAT-48431,65.3569430545611,66.00617055515056,603.5728743969773,2.7682804447967406,-96956.89099145308,10.5,10499903043.109009,47.655,-122.3035,60.0,5.266666666666667
2026-02-06T21:59:46+00:00,SAT-48431,65.24462457985986,65.36913201905105,606.3337334639244,2.8360966011525672,-99332.09964909108,10.5,10499900667.90035,47.655,-122.3035,60.0,5.283333333333333
2026-02-06T21:59:47+00:00,SAT-48431,65.13876099123583,64.7375798187598,609.1622268814706,2.9029690940465316,-101674.2572206022,10.5,10499898325.742779,47.655,-122.3035,60.0,5.3
2026-02-06T21:59:48+00:00,SAT-48431,65.03882631161899,64.11157702036664,612.0574135159857,2.9688936336657057,-103983.21345859178,10.5,10499896016.786541,47.655,-122.3035,60.0,5.316666666666666
2026-02-06T21:59:49+00:00,SAT-48431,64.94435013396861,63.491179907611055,615.0183479555267,3.0338670633774436,-106258.85780443203,10.5,10499893741.142195,47.655,-122.3035,60.0,5.333333333333333
2026-02-06T21:59:50+00:00,SAT-48431,64.8549104798763,62.87643823404794,618.0440816399808,3.0978872909544206,-108501.1169794719,10.5,10499891498.88302,47.655,-122.3035,60.0,5.35
2026-02-06T21:59:51+00:00,SAT-48431,64.77012773108086,62.26739547248227,621.133663922617,3.1609532631309856,-110709.95409389301,10.5,10499889290.045906,47.655,-122.3035,60.0,5.366666666666666
2026-02-06T21:59:52+00:00,SAT-48431,64.68965945016109,61.664089053930454,624.2861431062611,3.2230649044086785,-112885.36650341992,10.5,10499887114.633497,47.655,-122.3035,60.0,5.383333333333334
2026-02-06T21:59:53+00:00,SAT-48431,64.61319594211422,61.06655060451682,627.5005674184437,3.2842231053111415,-115027.38539795749,10.5,10499884972.614601,47.655,-122.3035,60.0,5.4
2026-02-06T21:59:54+00:00,SAT-48431,64.54045643610851,60.47480617162669,630.7759859748323,3.344429635643076,-117136.07276355263,10.5,10499882863.927237,47.655,-122.3035,60.0,5.416666666666667
2026-02-06T21:59:55+00:00,SAT-48431,64.4711857892518,59.88887645397764,634.1114496561535,3.403687140007615,-119211.5212253937,10.5,10499880788.478775,47.655,-122.3035,60.0,5.433333333333334
2026-02-06T21:59:56+00:00,SAT-48431,64.4051516302794,59.30877702065246,637.5060119806476,3.4619990735316444,-121253.85179663947,10.5,10499878746.148203,47.655,-122.3035,60.0,5.45
2026-02-06T21:59:57+00:00,SAT-48431,64.34214187672988,58.734518530437875,640.9587299124188,3.519369658357616,-123263.21235457821,10.5,10499876736.787645,47.655,-122.3035,60.0,5.466666666666667
2026-02-06T21:59:58+00:00,SAT-48431,64.28196256989017,58.16610694759554,644.4686646263954,3.575803835312991,-125239.77594788728,10.5,10499874760.224052,47.655,-122.3035,60.0,5.483333333333333
2026-02-06T21:59:59+00:00,SAT-48431,64.22443598083669,57.60354375489199,648.034882225087,3.6313072369171646,-127183.73985122143,10.5,10499872816.260149,47.655,-122.3035,60.0,5.5
2026-02-06T22:00:00+00:00,SAT-48431,64.16939894892147,57.04682616053496,651.6564544284222,3.6858861289939986,-129095.32352023674,10.5,10499870904.67648,47.655,-122.3035,60.0,5.516666666666667
2026-02-06T22:00:01+00:00,SAT-48431,64.11670142020355,56.495947304058085,655.3324592053565,3.7395473882827117,-130974.76780742922,10.5,10499869025.232193,47.655,-122.3035,60.0,5.533333333333333
2026-02-06T22:00:02+00:00,SAT-48431,64.06620515814326,55.95089645550707,659.0619813831489,3.792298422060639,-132822.33214698386,10.5,10499867177.667852,47.655,-122.3035,60.0,5.55
2026-02-06T22:00:03+00:00,SAT-48431,64.01778260363658,55.411659216506386,662.8441131764771,3.8441471910081533,-134638.295355601,10.5,10499865361.704645,47.655,-122.3035,60.0,5.566666666666666
2026-02-06T22:00:04+00:00,SAT-48431,63.971315864162634,54.87821770802738,666.6779547393585,3.895102103932865,-136422.95194529239,10.5,10499863577.048056,47.655,-122.3035,60.0,5.583333333333333
2026-02-06T22:00:05+00:00,SAT-48431,63.92669581583046,54.350550763490936,670.5626146120748,3.9451720126788965,-138176.6119450824,10.5,10499861823.388056,47.655,-122.3035,60.0,5.6
2026-02-06T22:00:06+00:00,SAT-48431,63.883821303498955,53.828634112516696,674.4972101630215,3.994366186432059,-139899.6000010668,10.5,10499860100.4,47.655,-122.3035,60.0,5.616666666666666
2026-02-06T22:00:07+00:00,SAT-48431,63.842598426805196,53.31244055871259,678.48086800493,4.042694266166081,-141592.25378092684,10.5,10499858407.74622,47.655,-122.3035,60.0,5.633333333333334
2026-02-06T22:00:08+00:00,SAT-48431,63.8029399015499,52.80194015420323,682.5127243656603,4.090166192352542,-143254.92144202537,10.5,10499856745.078558,47.655,-122.3035,60.0,5.65
2026-02-06T22:00:09+00:00,SAT-48431,63.76476448760132,52.29710037395422,686.5919253868941,4.136792251821395,-144887.9632726606,10.5,10499855112.036728,47.655,-122.3035,60.0,5.666666666666667
2026-02-06T22:00:10+00:00,SAT-48431,63.72799647465889,51.79788627499781,690.7176274695657,4.182582977488836,-146491.7481801119,10.5,10499853508.25182,47.655,-122.3035,60.0,5.683333333333334
2026-02-06T22:00:11+00:00,SAT-48431,63.69256522001686,51.304260659312085,694.8889975192884,4.227549134105161,-148066.6531914695,10.5,10499851933.34681,47.655,-122.3035,60.0,5.7
2026-02-06T22:00:12+00:00,SAT-48431,63.658404731746025,50.816184229317045,699.105213177567,4.271701719692143,-149613.0635039775,10.5,10499850386.936497,47.655,-122.3035,60.0,5.716666666666667
2026-02-06T22:00:13+00:00,SAT-48431,63.625453292303355,50.33361573464703,703.3654630544432,4.315051900835983,-151131.3702187192,10.5,10499848868.629782,47.655,-122.3035,60.0,5.733333333333333
2026-02-06T22:00:14+00:00,SAT-48431,63.59365311812503,49.856512118065936,707.66894689661,4.357611010144558,-152621.97025155937,10.5,10499847378.029749,47.655,-122.3035,60.0,5.75
2026-02-06T22:00:15+00:00,SAT-48431,63.56295005130036,49.38482865335633,712.0148757529869,4.39939050430722,-154085.26486422087,10.5,10499845914.735136,47.655,-122.3035,60.0,5.766666666666667
2026-02-06T22:00:16+00:00,SAT-48431,63.53329327963634,48.918519079856466,716.4024720984678,4.44040193533413,-155521.65865696452,10.5,10499844478.341343,47.655,-122.3035,60.0,5.783333333333333
2026-02-06T22:00:17+00:00,SAT-48431,63.50463508249468,48.45753573216973,720.8309699289887,4.480656998700683,-156931.56125481037,10.5,10499843068.438745,47.655,-122.3035,60.0,5.8
2026-02-06T22:00:18+00:00,SAT-48431,63.47693059902689,48.0018296574052,725.2996149046066,4.520167395803029,-158315.38249014862,10.5,10499841684.61751,47.655,-122.3035,60.0,5.816666666666666
2026-02-06T22:00:19+00:00,SAT-48431,63.450137617409204,47.551350739462436,729.8076643554044,4.558944917370039,-159673.53532417887,10.5,10499840326.464676,47.655,-122.3035,60.0,5.833333333333333
2026-02-06T22:00:20+00:00,SAT-48431,63.42421638213259,47.10604780749611,734.3543873705855,4.597001310909151,-161006.43120430366,10.5,10499838993.568796,47.655,-122.3035,60.0,5.85
2026-02-06T22:00:21+00:00,SAT-48431,63.39912941810102,46.66586875067581,738.9390647553663,4.634348449533562,-162314.48597717023,10.5,10499837685.514023,47.655,-122.3035,60.0,5.866666666666666
2026-02-06T22:00:22+00:00,SAT-48431,63.3748413692459,46.230760609900116,743.5609891562466,4.670998098185064,-163598.11170080592,10.5,10499836401.8883,47.655,-122.3035,60.0,5.883333333333334
2026-02-06T22:00:23+00:00,SAT-48431,63.351318851115046,45.80066968577446,748.2194649531281,4.70696205755096,-164857.7216851969,10.5,10499835142.278315,47.655,-122.3035,60.0,5.9
2026-02-06T22:00:24+00:00,SAT-48431,63.32853031530127,45.375541626509225,752.9138082949636,4.742252072478165,-166093.72728456274,10.5,10499833906.272715,47.655,-122.3035,60.0,5.916666666666667
2026-02-06T22:00:25+00:00,SAT-48431,63.30644592492309,44.95532151858934,757.6433470440662,4.776879850001402,-167306.5385287802,10.5,10499832693.461472,47.655,-122.3035,60.0,5.933333333333334
2026-02-06T22:00:26+00:00,SAT-48431,63.28503744024033,44.539953970041665,762.4074207383991,4.810857019363213,-168496.5627231147,10.5,10499831503.437277,47.655,-122.3035,60.0,5.95
2026-02-06T22:00:27+00:00,SAT-48431,63.26427811316412,44.12938319176505,767.2053805139918,4.844195165218621,-169664.20561118826,10.5,10499830335.79439,47.655,-122.3035,60.0,5.966666666666667
2026-02-06T22:00:28+00:00,SAT-48431,63.24414259013306,43.723553070752125,772.0365890604714,4.876905768809331,-170809.8693146509,10.5,10499829190.130686,47.655,-122.3035,60.0,5.983333333333333
2026-02-06T22:00:29+00:00,SAT-48431,63.224606822367534,43.322407243381825,776.9004205179274,4.909000243463255,-171933.9535765245,10.5,10499828066.046423,47.655,-122.3035,60.0,6.0
2026-02-06T22:00:30+00:00,SAT-48431,63.205647983096135,42.92588916091707,781.7962604091798,4.940489876341607,-173036.8537209394,10.5,10499826963.146278,47.655,-122.3035,60.0,6.016666666666667
2026-02-06T22:00:31+00:00,SAT-48431,63.18724439087363,42.53394215523716,786.7235055139507,4.971385856958032,-174118.96165199508,10.5,10499825881.038347,47.655,-122.3035,60.0,6.033333333333333
2026-02-06T22:00:32+00:00,SAT-48431,63.16937543871431,42.146509497809255,791.6815637714772,5.001699294019361,-175180.66644359444,10.5,10499824819.333557,47.655,-122.3035,60.0,6.05
2026-02-06T22:00:33+00:00,SAT-48431,63.15202152827023,41.76353445332433,796.6698541999241,5.031441103109421,-176222.350405656,10.5,10499823777.649595,47.655,-122.3035,60.0,6.066666666666666
2026-02-06T22:00:34+00:00,SAT-48431,63.135164009009074,41.384960338041644,801.6878067037748,5.0606221506748055,-177244.3941271046,10.5,10499822755.605873,47.655,-122.3035,60.0,6.083333333333333
2026-02-06T22:00:35+00:00,SAT-48431,63.11878512151761,41.01073056326741,806.7348620248296,5.089253114852841,-178247.17160147784,10.5,10499821752.828398,47.655,-122.3035,60.0,6.1
2026-02-06T22:00:36+00:00,SAT-48431,63.102867944969,40.6407886858895,811.8104715543984,5.11734457275464,-179231.05328394796,10.5,10499820768.946716,47.655,-122.3035,60.0,6.116666666666666
2026-02-06T22:00:37+00:00,SAT-48431,63.087396348205985,40.275078448927566,816.9140972325469,5.144906942622831,-180196.40406544093,10.5,10499819803.595934,47.655,-122.3035,60.0,6.133333333333334
