DopplerPredictor/satellites_20260211_210122/SAT-57608.csv

timestamp,satellite,azimuth_deg,elevation_deg,distance_km,relative_velocity_kms,doppler_shift_hz,tx_freq_ghz,rx_freq_hz,ue_lat,ue_lon,ue_alt_m,time_minutes
2026-02-06T21:56:04+00:00,SAT-57608,212.52410266143488,40.01033621222294,828.9149161186089,-2.437560782059605,85373.68945961227,10.5,10500085373.689459,47.655,-122.3035,60.0,1.5833333333333333
2026-02-06T21:56:05+00:00,SAT-57608,211.95091989952496,40.18057506848983,826.4838901006225,-2.3863109856477585,83578.70480284552,10.5,10500083578.704803,47.655,-122.3035,60.0,1.6
2026-02-06T21:56:06+00:00,SAT-57608,211.37147854328805,40.34854392129648,824.1039764854163,-2.3346133224016294,81768.03395506737,10.5,10500081768.033955,47.655,-122.3035,60.0,1.6166666666666667
2026-02-06T21:56:07+00:00,SAT-57608,210.78579701668474,40.51414564709266,821.7756219391555,-2.282472490631416,79941.8414709748,10.5,10500079941.84147,47.655,-122.3035,60.0,1.6333333333333333
2026-02-06T21:56:08+00:00,SAT-57608,210.19389937434954,40.677282314882476,819.49926844229,-2.2298935054114213,78100.30299968363,10.5,10500078100.303,47.655,-122.3035,60.0,1.65
2026-02-06T21:56:09+00:00,SAT-57608,209.59581551402636,40.837855299631535,817.2753529736412,-2.1768817348514475,76243.60655510619,10.5,10500076243.606556,47.655,-122.3035,60.0,1.6666666666666667
2026-02-06T21:56:10+00:00,SAT-57608,208.99158137638167,40.99576540481914,815.1043071583115,-2.1234429071123833,74371.95276166695,10.5,10500074371.952763,47.655,-122.3035,60.0,1.6833333333333333
2026-02-06T21:56:11+00:00,SAT-57608,208.38123913746225,41.150912992087086,812.9865569085979,-2.069583116197502,72485.55505713815,10.5,10500072485.555058,47.655,-122.3035,60.0,1.7
2026-02-06T21:56:12+00:00,SAT-57608,207.76483739246265,41.30319811785422,810.9225220591325,-2.015308798085188,70584.63885670691,10.5,10500070584.638857,47.655,-122.3035,60.0,1.7166666666666666
2026-02-06T21:56:13+00:00,SAT-57608,207.1424313383522,41.45252067461161,808.9126160258224,-1.9606267510680149,68669.44226533597,10.5,10500068669.442265,47.655,-122.3035,60.0,1.7333333333333334
2026-02-06T21:56:14+00:00,SAT-57608,206.514082941502,41.59878053997186,806.9572454445074,-1.9055441404738593,66740.21624311684,10.5,10500066740.216244,47.655,-122.3035,60.0,1.75
2026-02-06T21:56:15+00:00,SAT-57608,205.87986109262093,41.74187773219516,805.0568098049092,-1.8500684930089037,64797.22440713798,10.5,10500064797.224407,47.655,-122.3035,60.0,1.7666666666666666
2026-02-06T21:56:16+00:00,SAT-57608,205.23984175064797,41.88171257119961,803.2117010902205,-1.7942076798604714,62840.74243967455,10.5,10500062840.74244,47.655,-122.3035,60.0,1.7833333333333334
2026-02-06T21:56:17+00:00,SAT-57608,204.59410807859086,42.01818584390686,801.4223034335489,-1.7379699475830692,60871.059169948254,10.5,10500060871.05917,47.655,-122.3035,60.0,1.8
2026-02-06T21:56:18+00:00,SAT-57608,203.9427505531915,42.15119897723795,799.6889927435556,-1.6813638901959769,58888.47559686694,10.5,10500058888.475597,47.655,-122.3035,60.0,1.8166666666666667
2026-02-06T21:56:19+00:00,SAT-57608,203.28586706677163,42.2806542139642,798.0121363579211,-1.6243984578194264,56893.305191500105,10.5,10500056893.305191,47.655,-122.3035,60.0,1.8333333333333333
2026-02-06T21:56:20+00:00,SAT-57608,202.6235630073143,42.40645479376695,796.3920926882003,-1.567082953057982,54885.87377040956,10.5,10500054885.87377,47.655,-122.3035,60.0,1.85
2026-02-06T21:56:21+00:00,SAT-57608,201.955951319167,42.528505138134946,794.8292108682817,-1.5094270147176887,52866.51892535513,10.5,10500052866.518925,47.655,-122.3035,60.0,1.8666666666666667
2026-02-06T21:56:22+00:00,SAT-57608,201.2831525485436,42.64671103761375,793.3238304190895,-1.451440637869825,50835.590726012066,10.5,10500050835.590727,47.655,-122.3035,60.0,1.8833333333333333
2026-02-06T21:56:23+00:00,SAT-57608,200.6052948567319,42.76097984369661,791.8762808932712,-1.3931341481234212,48793.450818885925,10.5,10500048793.450819,47.655,-122.3035,60.0,1.9
2026-02-06T21:56:24+00:00,SAT-57608,199.92251401870158,42.871220661214956,790.4868815455463,-1.3345181981835952,46740.4723067708,10.5,10500046740.472307,47.655,-122.3035,60.0,1.9166666666666667
2026-02-06T21:56:25+00:00,SAT-57608,199.2349533969604,42.97734454232539,789.1559410064885,-1.275603759700469,44677.03946326403,10.5,10500044677.039463,47.655,-122.3035,60.0,1.9333333333333333
2026-02-06T21:56:26+00:00,SAT-57608,198.54276389165793,43.07926468105474,787.8837569644345,-1.2164021321642868,42603.548044310744,10.5,10500042603.548044,47.655,-122.3035,60.0,1.95
2026-02-06T21:56:27+00:00,SAT-57608,197.84610385603895,43.17689660908635,786.6706158385231,-1.1569249135229411,40520.40425910542,10.5,10500040520.404259,47.655,-122.3035,60.0,1.9666666666666666
2026-02-06T21:56:28+00:00,SAT-57608,197.1451389961584,43.27015838898909,785.5167924810377,-1.0971839976556141,38428.02468160806,10.5,10500038428.024681,47.655,-122.3035,60.0,1.9833333333333334
2026-02-06T21:56:29+00:00,SAT-57608,196.4400422407951,43.35897080627286,784.4225498822683,-1.0371915711249984,36326.83613679328,10.5,10500036326.836136,47.655,-122.3035,60.0,2.0
2026-02-06T21:56:30+00:00,SAT-57608,195.73099357984367,43.44325755943201,783.3881388786132,-0.9769600991762233,34217.275210273445,10.5,10500034217.27521,47.655,-122.3035,60.0,2.0166666666666666
2026-02-06T21:56:31+00:00,SAT-57608,195.01817987650006,43.52294544632812,782.4137978746422,-0.9165023019783429,32099.78741617509,10.5,10500032099.787416,47.655,-122.3035,60.0,2.033333333333333
2026-02-06T21:56:32+00:00,SAT-57608,194.30179466105778,43.597964545277385,781.4997525888583,-0.855831164185603,29974.827532014937,10.5,10500029974.827532,47.655,-122.3035,60.0,2.05
2026-02-06T21:56:33+00:00,SAT-57608,193.58203788239845,43.66824839274599,780.6462157899192,-0.7949599118830666,27842.858791238166,10.5,10500027842.858791,47.655,-122.3035,60.0,2.066666666666667
2026-02-06T21:56:34+00:00,SAT-57608,192.859115638337,43.73373415418619,779.8533870558554,-0.7339019908423037,25704.352121640728,10.5,10500025704.352121,47.655,-122.3035,60.0,2.0833333333333335
2026-02-06T21:56:35+00:00,SAT-57608,192.1332398876205,43.79436278728869,779.1214525549723,-0.6726710694637306,23559.78624842247,10.5,10500023559.78625,47.655,-122.3035,60.0,2.1
2026-02-06T21:56:36+00:00,SAT-57608,191.40462812144875,43.85007919888087,778.450584823817,-0.611281010280854,21409.646696145264,10.5,10500021409.646696,47.655,-122.3035,60.0,2.1166666666666667
2026-02-06T21:56:37+00:00,SAT-57608,190.67350302286596,43.900832392109685,777.840942573568,-0.5497458649914068,19254.425614702322,10.5,10500019254.425615,47.655,-122.3035,60.0,2.1333333333333333
2026-02-06T21:56:38+00:00,SAT-57608,189.94009209241332,43.946575605099426,777.2926705013757,-0.4880798527207876,17094.621018011967,10.5,10500017094.621017,47.655,-122.3035,60.0,2.15
2026-02-06T21:56:39+00:00,SAT-57608,189.20462725796287,43.98726643897003,776.8058991233851,-0.42629734664609886,14930.73631553479,10.5,10500014930.736315,47.655,-122.3035,60.0,2.1666666666666665
2026-02-06T21:56:40+00:00,SAT-57608,188.46734446086145,44.02286697524538,776.3807446210964,-0.3644128579733744,12763.27975108844,10.5,10500012763.27975,47.655,-122.3035,60.0,2.183333333333333
2026-02-06T21:56:41+00:00,SAT-57608,187.72848322227628,44.05334388179409,776.0173087037061,-0.3024410173232683,10592.763750895685,10.5,10500010592.76375,47.655,-122.3035,60.0,2.2
2026-02-06T21:56:42+00:00,SAT-57608,186.9882861958013,44.07866850651119,775.7156784890136,-0.24039656143729599,8419.704457980753,10.5,10500008419.704458,47.655,-122.3035,60.0,2.216666666666667
2026-02-06T21:56:43+00:00,SAT-57608,186.24699869725418,44.098816958679166,775.4759263975826,-0.17829431151611058,6244.620973484133,10.5,10500006244.620974,47.655,-122.3035,60.0,2.2333333333333334
2026-02-06T21:56:44+00:00,SAT-57608,185.50486823057796,44.11377017684593,775.298110068511,-0.11614915881642736,4068.034852205946,10.5,10500004068.034853,47.655,-122.3035,60.0,2.25
2026-02-06T21:56:45+00:00,SAT-57608,184.76214399688305,44.12351398345865,775.1822722895608,-0.05397604651761544,1890.469467497285,10.5,10500001890.469467,47.655,-122.3035,60.0,2.2666666666666666
2026-02-06T21:56:46+00:00,SAT-57608,184.01907639172705,44.128039125620575,775.1284409453752,0.008210050134956926,-287.5506842038292,10.5,10499999712.449316,47.655,-122.3035,60.0,2.283333333333333
2026-02-06T21:56:47+00:00,SAT-57608,183.2759165088412,44.12734130160983,775.1366289854988,0.07039413901336894,-2465.5005151609716,10.5,10499997534.499485,47.655,-122.3035,60.0,2.3
2026-02-06T21:56:48+00:00,SAT-57608,182.532915628349,44.12142117338702,775.2068344075399,0.13256123158827696,-4642.8550636751115,10.5,10499995357.144936,47.655,-122.3035,60.0,2.316666666666667
2026-02-06T21:56:49+00:00,SAT-57608,181.79032470327198,44.110284364589276,775.3390402607596,0.19469635766855828,-6819.090010329285,10.5,10499993180.90999,47.655,-122.3035,60.0,2.3333333333333335
2026-02-06T21:56:50+00:00,SAT-57608,181.0483938665004,44.09394144449117,775.5332146643616,0.25678458832430967,-8993.682480848973,10.5,10499991006.317518,47.655,-122.3035,60.0,2.35
2026-02-06T21:56:51+00:00,SAT-57608,180.30737191001108,44.07240789734833,775.789310848641,0.3188110477625458,-11166.111462039285,10.5,10499988833.888538,47.655,-122.3035,60.0,2.3666666666666667
2026-02-06T21:56:52+00:00,SAT-57608,179.56750580357897,44.04570407821837,776.1072672079803,0.3807609360241671,-13335.858596728789,10.5,10499986664.141403,47.655,-122.3035,60.0,2.3833333333333333
2026-02-06T21:56:53+00:00,SAT-57608,178.82904019948782,44.013855154601565,776.4870073764799,0.4426195438380799,-15502.408704023632,10.5,10499984497.591295,47.655,-122.3035,60.0,2.4
2026-02-06T21:56:54+00:00,SAT-57608,178.0922169595665,43.97689103489089,776.9284403184025,0.504372269429676,-17665.250368011584,10.5,10499982334.749632,47.655,-122.3035,60.0,2.4166666666666665
2026-02-06T21:56:55+00:00,SAT-57608,177.35727469499344,43.93484628386305,777.4314604353814,0.566004636802006,-19823.876578046078,10.5,10499980176.123423,47.655,-122.3035,60.0,2.433333333333333
2026-02-06T21:56:56+00:00,SAT-57608,176.62444831914408,43.887760025555956,777.9959476918605,0.6275023129386371,-21977.78533126304,10.5,10499978022.214668,47.655,-122.3035,60.0,2.45
2026-02-06T21:56:57+00:00,SAT-57608,175.89396861860465,43.8356758341585,778.6217677576935,0.6888511221654362,-24126.48013559127,10.5,10499975873.519865,47.655,-122.3035,60.0,2.466666666666667
2026-02-06T21:56:58+00:00,SAT-57608,175.16606184632198,43.77864161373495,779.3087721650619,0.7500370611941283,-26269.47053664154,10.5,10499973730.529463,47.655,-122.3035,60.0,2.4833333333333334
2026-02-06T21:56:59+00:00,SAT-57608,174.44094933631135,43.71670946736901,780.0567984804003,0.811046316003451,-28406.272708955992,10.5,10499971593.727291,47.655,-122.3035,60.0,2.5
2026-02-06T21:57:00+00:00,SAT-57608,173.71884713913948,43.64993555626478,780.8656704931549,0.8718652814818506,-30536.410143978443,10.5,10499969463.589855,47.655,-122.3035,60.0,2.5166666666666666
2026-02-06T21:57:01+00:00,SAT-57608,172.99996567799352,43.57837994930916,781.7351984241345,0.9324805621851084,-32659.413676589684,10.5,10499967340.586323,47.655,-122.3035,60.0,2.533333333333333
2026-02-06T21:57:02+00:00,SAT-57608,172.28450944188154,43.502106465399855,782.6651791346147,0.992878998088219,-34774.82238704717,10.5,10499965225.177612,47.655,-122.3035,60.0,2.55
2026-02-06T21:57:03+00:00,SAT-57608,171.57267669355767,43.42118250728013,783.6553963611265,1.053047680332071,-36882.18415250041,10.5,10499963117.815847,47.655,-122.3035,60.0,2.566666666666667
2026-02-06T21:57:04+00:00,SAT-57608,170.86465920385487,43.33567888850556,784.7056209659481,1.1129739414031161,-38981.055303041416,10.5,10499961018.944696,47.655,-122.3035,60.0,2.5833333333333335
2026-02-06T21:57:05+00:00,SAT-57608,170.16064202865354,43.24566965643643,785.8156111778045,1.1726454035303766,-41071.00231677261,10.5,10499958928.997683,47.655,-122.3035,60.0,2.6
2026-02-06T21:57:06+00:00,SAT-57608,169.46080328817015,43.1512319073449,786.9851128808333,1.2320499461428611,-43151.60068002792,10.5,10499956848.39932,47.655,-122.3035,60.0,2.6166666666666667
2026-02-06T21:57:07+00:00,SAT-57608,168.76531400269198,43.05244560102242,788.2138598710934,1.2911757619765214,-45222.4368524757,10.5,10499954777.563147,47.655,-122.3035,60.0,2.6333333333333333
2026-02-06T21:57:08+00:00,SAT-57608,168.07433792725152,42.949393368527204,789.5015741690345,1.3500113254505284,-47283.107159522166,10.5,10499952716.892841,47.655,-122.3035,60.0,2.65
2026-02-06T21:57:09+00:00,SAT-57608,167.38803143838706,42.84216032093882,790.847966300423,1.4085454280962908,-49333.219033185465,10.5,10499950666.780968,47.655,-122.3035,60.0,2.6666666666666665
2026-02-06T21:57:10+00:00,SAT-57608,166.70654343203535,42.73083385450691,792.2527356126058,1.4667671804232563,-51372.39107744396,10.5,10499948627.608923,47.655,-122.3035,60.0,2.683333333333333
2026-02-06T21:57:11+00:00,SAT-57608,166.03001525184774,42.615503455648394,793.715570592632,1.5246660154687,-53400.2531925648,10.5,10499946599.746807,47.655,-122.3035,60.0,2.7
2026-02-06T21:57:12+00:00,SAT-57608,165.35858064491546,42.496260506363846,795.2361491889175,1.5822316954714106,-55416.4468088447,10.5,10499944583.55319,47.655,-122.3035,60.0,2.716666666666667
2026-02-06T21:57:13+00:00,SAT-57608,164.69236574178714,42.373198090524696,796.8141391395613,1.6394543237789008,-57420.625303650755,10.5,10499942579.374697,47.655,-122.3035,60.0,2.7333333333333334
2026-02-06T21:57:14+00:00,SAT-57608,164.03148905763211,42.24641080126423,798.4491983125428,1.6963243456838089,-59412.45403071478,10.5,10499940587.545969,47.655,-122.3035,60.0,2.75
2026-02-06T21:57:15+00:00,SAT-57608,163.37606151797792,42.11599455096917,800.1409750467485,1.7528325525573765,-61391.6104649052,10.5,10499938608.389536,47.655,-122.3035,60.0,2.7666666666666666
2026-02-06T21:57:16+00:00,SAT-57608,162.72618650595595,41.98204638417152,801.8891084971234,1.8089700931273547,-63357.784597227,10.5,10499936642.215403,47.655,-122.3035,60.0,2.783333333333333
2026-02-06T21:57:17+00:00,SAT-57608,162.0819599269907,41.844664293332805,803.6932289910691,1.8647284617421924,-65310.67852378401,10.5,10499934689.321476,47.655,-122.3035,60.0,2.8
2026-02-06T21:57:18+00:00,SAT-57608,161.44347029792073,41.703947039754475,805.5529583731377,1.9200995155474667,-67250.00704737009,10.5,10499932749.992952,47.655,-122.3035,60.0,2.816666666666667
2026-02-06T21:57:19+00:00,SAT-57608,160.81079884820258,41.55999397785084,807.4679103668577,1.9750754656997809,-69175.4973697427,10.5,10499930824.50263,47.655,-122.3035,60.0,2.8333333333333335
2026-02-06T21:57:20+00:00,SAT-57608,160.18401964107778,41.41290488514421,809.4376909277946,2.029648900149873,-71086.88988958378,10.5,10499928913.110111,47.655,-122.3035,60.0,2.85
2026-02-06T21:57:21+00:00,SAT-57608,159.56319970275842,41.26277979597108,811.4618986193346,2.0838127289328883,-72983.93628633354,10.5,10499927016.063713,47.655,-122.3035,60.0,2.8666666666666667
2026-02-06T21:57:22+00:00,SAT-57608,158.9483991823667,41.10971884494235,813.5401249339075,2.1375602690995215,-74866.40249483853,10.5,10499925133.597506,47.655,-122.3035,60.0,2.8833333333333333
2026-02-06T21:57:23+00:00,SAT-57608,158.33967149750768,40.95382211006897,815.671954698909,2.1908851656859416,-76734.06593738387,10.5,10499923265.934063,47.655,-122.3035,60.0,2.9
2026-02-06T21:57:24+00:00,SAT-57608,157.73706351492726,40.79518946789954,817.8569664038079,2.2437814254708885,-78586.71670600977,10.5,10499921413.283295,47.655,-122.3035,60.0,2.9166666666666665
2026-02-06T21:57:25+00:00,SAT-57608,157.14061572956487,40.633920452470356,820.0947325609188,2.2962434252181114,-80424.15785119642,10.5,10499919575.84215,47.655,-122.3035,60.0,2.933333333333333
2026-02-06T21:57:26+00:00,SAT-57608,156.55036244937472,40.47011412014699,822.3848200743955,2.3482658705157737,-82246.20394024598,10.5,10499917753.79606,47.655,-122.3035,60.0,2.95
2026-02-06T21:57:27+00:00,SAT-57608,155.96633199754325,40.303868923951,824.7267905681731,2.399843843124242,-84052.68271560235,10.5,10499915947.317284,47.655,-122.3035,60.0,2.966666666666667
2026-02-06T21:57:28+00:00,SAT-57608,155.38854690711673,40.13528259110113,827.1202007611325,2.4509727572413604,-85843.4335630761,10.5,10499914156.566437,47.655,-122.3035,60.0,2.9833333333333334
