DopplerPredictor/satellites_20260211_210122/SAT-63867.csv

timestamp,satellite,azimuth_deg,elevation_deg,distance_km,relative_velocity_kms,doppler_shift_hz,tx_freq_ghz,rx_freq_hz,ue_lat,ue_lon,ue_alt_m,time_minutes
2026-02-06T21:55:36+00:00,SAT-63867,275.6632374502429,40.143444685820754,847.9795741508983,-2.454168183403167,85955.35090390184,10.5,10500085955.350904,47.655,-122.3035,60.0,1.1166666666666667
2026-02-06T21:55:37+00:00,SAT-63867,276.2417702124759,40.31327324338054,845.5319852537195,-2.402178078178761,84134.43750101609,10.5,10500084134.437502,47.655,-122.3035,60.0,1.1333333333333333
2026-02-06T21:55:38+00:00,SAT-63867,276.8265065880273,40.480815149793656,843.1362470834679,-2.349741567190032,82297.88907996923,10.5,10500082297.88908,47.655,-122.3035,60.0,1.15
2026-02-06T21:55:39+00:00,SAT-63867,277.41742694402035,40.645974265007396,840.7928048491555,-2.2968635049732984,80445.87566715782,10.5,10500080445.875668,47.655,-122.3035,60.0,1.1666666666666667
2026-02-06T21:55:40+00:00,SAT-63867,278.01450605718674,40.80865369319044,838.5020989182717,-2.243549056272441,78578.5781537594,10.5,10500078578.578154,47.655,-122.3035,60.0,1.1833333333333333
2026-02-06T21:55:41+00:00,SAT-63867,278.61771290636653,40.96875589519855,836.2645645074094,-2.189803742898294,76696.1899369466,10.5,10500076696.189938,47.655,-122.3035,60.0,1.2
2026-02-06T21:55:42+00:00,SAT-63867,279.2270104798549,41.126182810705174,834.0806313261529,-2.135633452487044,74798.91722664337,10.5,10500074798.917227,47.655,-122.3035,60.0,1.2166666666666666
2026-02-06T21:55:43+00:00,SAT-63867,279.8423555906927,41.28083598737875,831.9507232122345,-2.081044412097204,72886.97812077928,10.5,10500072886.97812,47.655,-122.3035,60.0,1.2333333333333334
2026-02-06T21:55:44+00:00,SAT-63867,280.4636986927983,41.43261671448029,829.875257793022,-2.0260432017668766,70960.6030801222,10.5,10500070960.60308,47.655,-122.3035,60.0,1.25
2026-02-06T21:55:45+00:00,SAT-63867,281.0909837082059,41.58142616362403,827.8546461334852,-1.9706367651150978,69020.03529958225,10.5,10500069020.0353,47.655,-122.3035,60.0,1.2666666666666666
2026-02-06T21:55:46+00:00,SAT-63867,281.7241478668643,41.72716553637888,825.8892923735892,-1.9148323899549002,67065.53002919925,10.5,10500067065.53003,47.655,-122.3035,60.0,1.2833333333333334
2026-02-06T21:55:47+00:00,SAT-63867,282.3631215523621,41.8697362163269,823.979593385025,-1.8586377366878077,65097.35556863802,10.5,10500065097.355568,47.655,-122.3035,60.0,1.3
2026-02-06T21:55:48+00:00,SAT-63867,283.00782816815587,42.00903992888345,822.1259383996174,-1.802060812042467,63115.792347404225,10.5,10500063115.792347,47.655,-122.3035,60.0,1.3166666666666667
2026-02-06T21:55:49+00:00,SAT-63867,283.65818401075967,42.14497890456297,820.3287086639274,-1.745109964831394,61121.132776227605,10.5,10500061121.132776,47.655,-122.3035,60.0,1.3333333333333333
2026-02-06T21:55:50+00:00,SAT-63867,284.3140981563254,42.277456046987226,818.5882770980868,-1.687793907224166,59113.68199213918,10.5,10500059113.681992,47.655,-122.3035,60.0,1.35
2026-02-06T21:55:51+00:00,SAT-63867,284.97547237131715,42.40637510721058,816.9050079334122,-1.6301217038213283,57093.757475793296,10.5,10500057093.757475,47.655,-122.3035,60.0,1.3666666666666667
2026-02-06T21:55:52+00:00,SAT-63867,285.642201038908,42.53164086157267,815.2792563609221,-1.572102755311702,55061.68847907731,10.5,10500055061.688478,47.655,-122.3035,60.0,1.3833333333333333
2026-02-06T21:55:53+00:00,SAT-63867,286.31417109996244,42.653159292181805,813.7113681961474,-1.51374680254843,53017.81616787209,10.5,10500053017.816168,47.655,-122.3035,60.0,1.4
2026-02-06T21:55:54+00:00,SAT-63867,286.99126201645583,42.770837771089894,812.2016795398794,-1.4550639262389655,50962.49361119397,10.5,10500050962.49361,47.655,-122.3035,60.0,1.4166666666666667
2026-02-06T21:55:55+00:00,SAT-63867,287.6733457591139,42.88458524732043,810.7505164392278,-1.3960645325914203,48896.085278469254,10.5,10500048896.085278,47.655,-122.3035,60.0,1.4333333333333333
2026-02-06T21:55:56+00:00,SAT-63867,288.3602868131018,42.9943124350699,809.3581945629915,-1.3367593517949872,46818.96698631213,10.5,10500046818.966986,47.655,-122.3035,60.0,1.45
2026-02-06T21:55:57+00:00,SAT-63867,289.05194220997214,43.09993200348102,808.0250188785459,-1.2771594395830979,44731.52595327307,10.5,10500044731.525953,47.655,-122.3035,60.0,1.4666666666666666
2026-02-06T21:55:58+00:00,SAT-63867,289.74816158764384,43.20135876757781,806.7512833271721,-1.2172761429913523,42634.15960053671,10.5,10500042634.159601,47.655,-122.3035,60.0,1.4833333333333334
2026-02-06T21:55:59+00:00,SAT-63867,290.4487872638399,43.298509876861225,805.537270533536,-1.1571211230699894,40527.27634740861,10.5,10500040527.276348,47.655,-122.3035,60.0,1.5
2026-02-06T21:56:00+00:00,SAT-63867,291.15365434942896,43.39130500534499,804.3832514925145,-1.0967063273893225,38411.29464833931,10.5,10500038411.29465,47.655,-122.3035,60.0,1.5166666666666666
2026-02-06T21:56:01+00:00,SAT-63867,291.8625908799693,43.47966653832469,803.2894852834434,-1.036043977237684,36286.64254454221,10.5,10500036286.642544,47.655,-122.3035,60.0,1.5333333333333334
2026-02-06T21:56:02+00:00,SAT-63867,292.5754179720777,43.56351975627491,802.2562187971346,-0.9751465727139151,34153.75784235409,10.5,10500034153.757843,47.655,-122.3035,60.0,1.55
2026-02-06T21:56:03+00:00,SAT-63867,293.2919500145522,43.6427930165375,801.2836864578119,-0.9140268755017648,32013.087509921712,10.5,10500032013.08751,47.655,-122.3035,60.0,1.5666666666666667
2026-02-06T21:56:04+00:00,SAT-63867,294.011994885279,43.71741793023131,800.3721099622278,-0.852697877046692,29865.086562618817,10.5,10500029865.086563,47.655,-122.3035,60.0,1.5833333333333333
2026-02-06T21:56:05+00:00,SAT-63867,294.7353541803799,43.78732953238759,799.521698050517,-0.791172820325587,27710.218825513828,10.5,10500027710.218826,47.655,-122.3035,60.0,1.6
2026-02-06T21:56:06+00:00,SAT-63867,295.46182349278655,43.85246644887396,798.7326462553407,-0.7294651649764152,25548.95571206251,10.5,10500025548.955711,47.655,-122.3035,60.0,1.6166666666666667
2026-02-06T21:56:07+00:00,SAT-63867,296.1911927022922,43.91277105473374,798.0051366858055,-0.6675885710523377,23381.77565510853,10.5,10500023381.775656,47.655,-122.3035,60.0,1.6333333333333333
2026-02-06T21:56:08+00:00,SAT-63867,296.92324628926593,43.968189624660134,797.3393378275849,-0.6055568976119081,21209.164057506194,10.5,10500021209.164057,47.655,-122.3035,60.0,1.65
2026-02-06T21:56:09+00:00,SAT-63867,297.6577636801378,44.0186724760886,796.7354043444487,-0.5433841857798551,19031.6126988374,10.5,10500019031.6127,47.655,-122.3035,60.0,1.6666666666666667
2026-02-06T21:56:10+00:00,SAT-63867,298.39451961778366,44.06417410291861,796.193476896684,-0.48108462666952057,16849.618611919737,10.5,10500016849.618612,47.655,-122.3035,60.0,1.6833333333333333
2026-02-06T21:56:11+00:00,SAT-63867,299.1332845356171,44.10465329790134,795.7136819915087,-0.4186725731350605,14663.684494418254,10.5,10500014663.684494,47.655,-122.3035,60.0,1.7
2026-02-06T21:56:12+00:00,SAT-63867,299.8738249793812,44.140073266699936,795.2961318217654,-0.35616250229074553,12474.317396112841,10.5,10500012474.317396,47.655,-122.3035,60.0,1.7166666666666666
2026-02-06T21:56:13+00:00,SAT-63867,300.6159040263316,44.17040172892512,794.9409241419929,-0.293569004441426,10282.028331196287,10.5,10500010282.028332,47.655,-122.3035,60.0,1.7333333333333334
2026-02-06T21:56:14+00:00,SAT-63867,301.3592817254074,44.19561100779025,794.64814215554,-0.23090677246455033,8087.331906387646,10.5,10500008087.331907,47.655,-122.3035,60.0,1.75
2026-02-06T21:56:15+00:00,SAT-63867,302.1037155604071,44.215678107947376,794.4178544122673,-0.16819057844501573,5890.745502585875,10.5,10500005890.745502,47.655,-122.3035,60.0,1.7666666666666666
2026-02-06T21:56:16+00:00,SAT-63867,302.84896091759856,44.23058478000391,794.2501147295527,-0.1054352569952678,3692.7886906691697,10.5,10500003692.78869,47.655,-122.3035,60.0,1.7833333333333334
2026-02-06T21:56:17+00:00,SAT-63867,303.59477156423867,44.240317571916684,794.1449621299313,-0.04265569211654943,1493.9827713203147,10.5,10500001493.98277,47.655,-122.3035,60.0,1.8
2026-02-06T21:56:18+00:00,SAT-63867,304.3409001410053,44.24486786728854,794.1024207918388,0.02013320558205064,-705.1500228585862,10.5,10499999294.849977,47.655,-122.3035,60.0,1.8166666666666667
2026-02-06T21:56:19+00:00,SAT-63867,305.08709865479193,44.24423190952665,794.122500023075,0.08291651344129883,-2904.0870372183867,10.5,10499997095.912962,47.655,-122.3035,60.0,1.8333333333333333
2026-02-06T21:56:20+00:00,SAT-63867,305.83311897171467,44.23841081241823,794.2051942487865,0.145679314868835,-5102.305829597513,10.5,10499994897.69417,47.655,-122.3035,60.0,1.85
2026-02-06T21:56:21+00:00,SAT-63867,306.5787133226593,44.22741055678716,794.3504830175157,0.2084067169369173,-7299.284786669423,10.5,10499992700.715214,47.655,-122.3035,60.0,1.8666666666666667
2026-02-06T21:56:22+00:00,SAT-63867,307.32363479519233,44.21124197325894,794.5583310248045,0.27108386931386264,-9494.503787001731,10.5,10499990505.496214,47.655,-122.3035,60.0,1.8833333333333333
2026-02-06T21:56:23+00:00,SAT-63867,308.0676378253627,44.189920711141625,794.8286881556743,0.33369597923111866,-11687.44472526639,10.5,10499988312.555275,47.655,-122.3035,60.0,1.9
2026-02-06T21:56:24+00:00,SAT-63867,308.8104786823669,44.16346719392546,795.1614895420352,0.39622833116305817,-13877.592201509322,10.5,10499986122.407799,47.655,-122.3035,60.0,1.9166666666666667
2026-02-06T21:56:25+00:00,SAT-63867,309.55191594777665,44.1319065612588,795.5566556397221,0.4586663025831893,-16064.434072999553,10.5,10499983935.565928,47.655,-122.3035,60.0,1.9333333333333333
2026-02-06T21:56:26+00:00,SAT-63867,310.2917109783577,44.09526859803914,796.014092321244,0.520995380444452,-18247.462031438918,10.5,10499981752.537968,47.655,-122.3035,60.0,1.95
2026-02-06T21:56:27+00:00,SAT-63867,311.0296283552481,44.053587650957425,796.5336909849708,0.5832011797263179,-20426.172252559933,10.5,10499979573.827747,47.655,-122.3035,60.0,1.9666666666666666
2026-02-06T21:56:28+00:00,SAT-63867,311.76543632388854,44.006902532793475,797.1153286828159,0.6452694559096789,-22600.065833049168,10.5,10499977399.934168,47.655,-122.3035,60.0,1.9833333333333334
2026-02-06T21:56:29+00:00,SAT-63867,312.4989072068417,43.95525641545279,797.7588682603615,0.7071861269990267,-24768.649561857157,10.5,10499975231.35044,47.655,-122.3035,60.0,2.0
2026-02-06T21:56:30+00:00,SAT-63867,313.22981780790303,43.89869671156915,798.4641585189459,0.7689372788193735,-26931.436105718913,10.5,10499973068.563894,47.655,-122.3035,60.0,2.0166666666666666
2026-02-06T21:56:31+00:00,SAT-63867,313.95794978226974,43.837274946629755,799.231034383034,0.8305091935756611,-29087.945009425293,10.5,10499970912.05499,47.655,-122.3035,60.0,2.033333333333333
2026-02-06T21:56:32+00:00,SAT-63867,314.6830900003619,43.77104662042938,800.0593170960717,0.8918883498171868,-31237.702694576998,10.5,10499968762.297306,47.655,-122.3035,60.0,2.05
2026-02-06T21:56:33+00:00,SAT-63867,315.40503087204365,43.700071060849126,800.9488144163038,0.9530614514367489,-33380.24347525735,10.5,10499966619.756525,47.655,-122.3035,60.0,2.066666666666667
2026-02-06T21:56:34+00:00,SAT-63867,316.1235706608362,43.62441126837385,801.8993208415117,1.0140154185331114,-35515.10923799714,10.5,10499964484.890762,47.655,-122.3035,60.0,2.0833333333333335
2026-02-06T21:56:35+00:00,SAT-63867,316.8385137531434,43.544133755146795,802.9106178246417,1.0747374328308559,-37641.85103256996,10.5,10499962358.148968,47.655,-122.3035,60.0,2.1
2026-02-06T21:56:36+00:00,SAT-63867,317.5496709293945,43.45930837501072,803.982474034729,1.1352149197497556,-39760.02844398585,10.5,10499960239.971556,47.655,-122.3035,60.0,2.1166666666666667
2026-02-06T21:56:37+00:00,SAT-63867,318.256859582261,43.37000815034446,805.1146455999386,1.1954355700941965,-41869.21035214656,10.5,10499958130.789648,47.655,-122.3035,60.0,2.1333333333333333
2026-02-06T21:56:38+00:00,SAT-63867,318.95990391779435,43.27630909334433,806.3068763722392,1.2553873615506188,-43968.975684776895,10.5,10499956031.024315,47.655,-122.3035,60.0,2.15
2026-02-06T21:56:39+00:00,SAT-63867,319.6586351376267,43.17829002257601,807.5588982135173,1.3150585515732036,-46058.91316825135,10.5,10499953941.086832,47.655,-122.3035,60.0,2.1666666666666665
2026-02-06T21:56:40+00:00,SAT-63867,320.35289158006674,43.07603237781918,808.8704312745917,1.3744376991735403,-48138.62209076045,10.5,10499951861.377909,47.655,-122.3035,60.0,2.183333333333333
2026-02-06T21:56:41+00:00,SAT-63867,321.0425188452153,42.9696200317085,810.2411842959659,1.4335136651255673,-50207.71230948864,10.5,10499949792.287691,47.655,-122.3035,60.0,2.2
2026-02-06T21:56:42+00:00,SAT-63867,321.7273698870722,42.85913910060994,811.6708549087803,1.4922756299265656,-52265.80487968426,10.5,10499947734.19512,47.655,-122.3035,60.0,2.216666666666667
2026-02-06T21:56:43+00:00,SAT-63867,322.4073050868088,42.744677754087675,813.1591299536769,1.5507130905464592,-54312.53194080627,10.5,10499945687.46806,47.655,-122.3035,60.0,2.2333333333333334
2026-02-06T21:56:44+00:00,SAT-63867,323.08219229451373,42.62632602528716,814.7056857964261,1.608815878910878,-56347.53736387931,10.5,10499943652.462637,47.655,-122.3035,60.0,2.25
2026-02-06T21:56:45+00:00,SAT-63867,323.75190685345297,42.50417562124756,816.310188661982,1.6665741512929602,-58370.47637994976,10.5,10499941629.52362,47.655,-122.3035,60.0,2.2666666666666666
2026-02-06T21:56:46+00:00,SAT-63867,324.416331593102,42.37831973598839,817.9722949579626,1.7239784024967484,-60381.01607684827,10.5,10499939618.983923,47.655,-122.3035,60.0,2.283333333333333
2026-02-06T21:56:47+00:00,SAT-63867,325.07535680480805,42.24885286506591,819.6916516122712,1.78101949153868,-62378.83629866413,10.5,10499937621.163702,47.655,-122.3035,60.0,2.3
2026-02-06T21:56:48+00:00,SAT-63867,325.7288802057413,42.11587062132608,821.4678964363337,1.8376885999315087,-64363.62818467181,10.5,10499935636.371815,47.655,-122.3035,60.0,2.316666666666667
2026-02-06T21:56:49+00:00,SAT-63867,326.37680686226776,41.97946955741522,823.3006584467297,1.8939772624227076,-66335.09524591986,10.5,10499933664.904755,47.655,-122.3035,60.0,2.3333333333333335
2026-02-06T21:56:50+00:00,SAT-63867,327.019049109078,41.83974699005212,825.1895582174809,1.9498773864327326,-68292.95404604105,10.5,10499931707.045954,47.655,-122.3035,60.0,2.35
2026-02-06T21:56:51+00:00,SAT-63867,327.65552645561854,41.696800827398654,827.1342082517236,2.005381210144679,-70236.93273337492,10.5,10499929763.067266,47.655,-122.3035,60.0,2.3666666666666667
2026-02-06T21:56:52+00:00,SAT-63867,328.28616546068855,41.55072940441756,829.1342133115867,2.060481353777937,-72166.77283678809,10.5,10499927833.227163,47.655,-122.3035,60.0,2.3833333333333333
2026-02-06T21:56:53+00:00,SAT-63867,328.910899610585,41.40163131968538,831.1891707992014,2.1151707532749153,-74082.22694310278,10.5,10499925917.773056,47.655,-122.3035,60.0,2.4
2026-02-06T21:56:54+00:00,SAT-63867,329.5296691612274,41.24960528255598,833.2986710715802,2.1694427405993846,-75983.06150948447,10.5,10499924016.93849,47.655,-122.3035,60.0,2.4166666666666665
2026-02-06T21:56:55+00:00,SAT-63867,330.14242099536307,41.09474996024807,835.4622978355751,2.2232909920921986,-77869.05505464078,10.5,10499922130.944946,47.655,-122.3035,60.0,2.433333333333333
2026-02-06T21:56:56+00:00,SAT-63867,330.7491084518273,40.93716383467334,837.6796284913318,2.2767095093344074,-79739.99748856683,10.5,10499920260.002512,47.655,-122.3035,60.0,2.45
2026-02-06T21:56:57+00:00,SAT-63867,331.34969114085584,40.77694506670306,839.9502344566574,2.3296926927853785,-81595.69269166361,10.5,10499918404.307308,47.655,-122.3035,60.0,2.466666666666667
2026-02-06T21:56:58+00:00,SAT-63867,331.9441347739842,40.61419136148569,842.2736815648308,2.3822352532249953,-83435.9554130693,10.5,10499916564.044586,47.655,-122.3035,60.0,2.4833333333333334
2026-02-06T21:56:59+00:00,SAT-63867,332.53241096120837,40.44899984636787,844.6495303740904,2.434332266978087,-85260.61320485227,10.5,10499914739.386795,47.655,-122.3035,60.0,2.5
2026-02-06T21:57:00+00:00,SAT-63867,333.1144970198028,40.281466951310584,847.0773365321986,2.4859791398299356,-87069.50515817954,10.5,10499912930.494843,47.655,-122.3035,60.0,2.5166666666666666
2026-02-06T21:57:01+00:00,SAT-63867,333.6903757691053,40.1116882982371,849.5566511050197,2.537171635678055,-88862.48290682341,10.5,10499911137.517094,47.655,-122.3035,60.0,2.533333333333333
