DopplerPredictor/satellites_20260211_210122/SAT-53029.csv

timestamp,satellite,azimuth_deg,elevation_deg,distance_km,relative_velocity_kms,doppler_shift_hz,tx_freq_ghz,rx_freq_hz,ue_lat,ue_lon,ue_alt_m,time_minutes
2026-02-06T21:58:42+00:00,SAT-53029,275.1406801667446,40.24646141072822,802.7592899165286,-4.492998997672347,157363.83026540195,10.5,10500157363.830265,47.655,-122.3035,60.0,4.216666666666667
2026-02-06T21:58:43+00:00,SAT-53029,274.8084903512898,40.571616642677654,798.2783360291353,-4.456423637050389,156082.80642279898,10.5,10500156082.806423,47.655,-122.3035,60.0,4.233333333333333
2026-02-06T21:58:44+00:00,SAT-53029,274.469207052387,40.89904225476076,793.8338594488694,-4.419225388433384,154779.9664077958,10.5,10500154779.966408,47.655,-122.3035,60.0,4.25
2026-02-06T21:58:45+00:00,SAT-53029,274.1226272679055,41.228709079839206,789.4264813938491,-4.38139551719962,153455.00429699273,10.5,10500153455.004297,47.655,-122.3035,60.0,4.266666666666667
2026-02-06T21:58:46+00:00,SAT-53029,273.76854139560635,41.560584529043155,785.0568317933987,-4.342925416091584,152107.61862782293,10.5,10500152107.618628,47.655,-122.3035,60.0,4.283333333333333
2026-02-06T21:58:47+00:00,SAT-53029,273.406733035862,41.894632411385466,780.7255491610238,-4.303806483436077,150737.50813330602,10.5,10500150737.508133,47.655,-122.3035,60.0,4.3
2026-02-06T21:58:48+00:00,SAT-53029,273.0369788046236,42.23081273569988,776.4332805888445,-4.26403023177607,149344.3755467949,10.5,10500149344.375547,47.655,-122.3035,60.0,4.316666666666666
2026-02-06T21:58:49+00:00,SAT-53029,272.6590481402021,42.56908151198765,772.1806816336837,-4.223588281461162,147927.9273774866,10.5,10500147927.927378,47.655,-122.3035,60.0,4.333333333333333
2026-02-06T21:58:50+00:00,SAT-53029,272.2727031138157,42.90939054346201,767.9684162095497,-4.182472341360128,146487.8732348942,10.5,10500146487.873236,47.655,-122.3035,60.0,4.35
2026-02-06T21:58:51+00:00,SAT-53029,271.87769824645983,43.2516872078849,763.7971564993558,-4.14067427770183,145023.92823994663,10.5,10500145023.92824,47.655,-122.3035,60.0,4.366666666666666
2026-02-06T21:58:52+00:00,SAT-53029,271.4737803261945,43.59591423513432,759.6675827979794,-4.0981860977843585,143535.81245441394,10.5,10500143535.812454,47.655,-122.3035,60.0,4.383333333333334
2026-02-06T21:58:53+00:00,SAT-53029,271.06068823475533,43.94200947412553,755.5803833715732,-4.054999946757751,142023.25076822442,10.5,10500142023.250769,47.655,-122.3035,60.0,4.4
2026-02-06T21:58:54+00:00,SAT-53029,270.6381527847759,44.28990564984009,751.5362543200829,-4.011108215065202,140485.9766625104,10.5,10500140485.976662,47.655,-122.3035,60.0,4.416666666666667
2026-02-06T21:58:55+00:00,SAT-53029,270.2058965588144,44.63953011994166,747.5358993326093,-3.9665034338131986,138923.72854502758,10.5,10500138923.728544,47.655,-122.3035,60.0,4.433333333333334
2026-02-06T21:58:56+00:00,SAT-53029,269.76363377348696,44.99080461292643,743.5800295471247,-3.921178406625572,137336.254368242,10.5,10500137336.254368,47.655,-122.3035,60.0,4.45
2026-02-06T21:58:57+00:00,SAT-53029,269.3110701479365,45.34364496810654,739.6693632786846,-3.8751261386150957,135723.3091416146,10.5,10500135723.309141,47.655,-122.3035,60.0,4.466666666666667
2026-02-06T21:58:58+00:00,SAT-53029,268.84790280073685,45.69796085996467,735.8046258184797,-3.828339944458064,134084.65871683028,10.5,10500134084.658716,47.655,-122.3035,60.0,4.483333333333333
2026-02-06T21:58:59+00:00,SAT-53029,268.3738201591907,46.05365552292628,731.9865491251018,-3.780813408183561,132420.07837944807,10.5,10500132420.078379,47.655,-122.3035,60.0,4.5
2026-02-06T21:59:00+00:00,SAT-53029,267.88850190148327,46.41062546359441,728.2158715559133,-3.732540408001908,130729.35371849826,10.5,10500130729.353718,47.655,-122.3035,60.0,4.516666666666667
2026-02-06T21:59:01+00:00,SAT-53029,267.3916189288871,46.76876016647323,724.4933375736547,-3.683515184302175,129012.283008043,10.5,10500129012.283009,47.655,-122.3035,60.0,4.533333333333333
2026-02-06T21:59:02+00:00,SAT-53029,266.8828333674091,47.12794179788919,720.8196973852364,-3.633732326324889,127268.67674039798,10.5,10500127268.67674,47.655,-122.3035,60.0,4.55
2026-02-06T21:59:03+00:00,SAT-53029,266.3617986138016,47.48804490107518,717.1957065938234,-3.583186823116389,125498.35941076971,10.5,10500125498.359411,47.655,-122.3035,60.0,4.566666666666666
2026-02-06T21:59:04+00:00,SAT-53029,265.82815942384497,47.84893608923724,713.6221258001001,-3.5318740193299805,123701.16796922489,10.5,10500123701.167969,47.655,-122.3035,60.0,4.583333333333333
2026-02-06T21:59:05+00:00,SAT-53029,265.28155206254064,48.21047372796468,710.0997202476173,-3.479789763313549,121876.95700734494,10.5,10500121876.957006,47.655,-122.3035,60.0,4.6
2026-02-06T21:59:06+00:00,SAT-53029,264.7216044959156,48.5725076273621,706.629259320448,-3.4269303273250245,120025.59596383428,10.5,10500120025.595964,47.655,-122.3035,60.0,4.616666666666666
2026-02-06T21:59:07+00:00,SAT-53029,264.14793666439067,48.93487872226425,703.211516120414,-3.3732924698539803,118146.97130728618,10.5,10500118146.971308,47.655,-122.3035,60.0,4.633333333333334
2026-02-06T21:59:08+00:00,SAT-53029,263.56016082587433,49.297418756105685,699.8472669821576,-3.318873471492414,116240.98779252928,10.5,10500116240.987793,47.655,-122.3035,60.0,4.65
2026-02-06T21:59:09+00:00,SAT-53029,262.9578819814948,49.659949967586186,696.5372909524376,-3.2636711609993094,114307.5693735189,10.5,10500114307.569374,47.655,-122.3035,60.0,4.666666666666667
2026-02-06T21:59:10+00:00,SAT-53029,262.3406983941768,50.022284781055355,693.2823692434345,-3.2076839221156095,112346.65944202607,10.5,10500112346.659443,47.655,-122.3035,60.0,4.683333333333334
2026-02-06T21:59:11+00:00,SAT-53029,261.70820221496706,50.38422550057723,690.0832846792536,-3.1509107302071153,110358.22211102693,10.5,10500110358.22211,47.655,-122.3035,60.0,4.7
2026-02-06T21:59:12+00:00,SAT-53029,261.059980222522,50.74556401333064,686.9408211058883,-3.093351209573887,108342.2442219204,10.5,10500108342.244223,47.655,-122.3035,60.0,4.716666666666667
2026-02-06T21:59:13+00:00,SAT-53029,260.39561468350735,51.10608150768539,683.8557627440247,-3.0350056024055143,106298.73425721038,10.5,10500106298.734257,47.655,-122.3035,60.0,4.733333333333333
2026-02-06T21:59:14+00:00,SAT-53029,259.7146843629501,51.46554819894712,680.8288935728086,-2.9758748544734495,104227.7253418137,10.5,10500104227.725342,47.655,-122.3035,60.0,4.75
2026-02-06T21:59:15+00:00,SAT-53029,259.0167656749164,51.823723079680335,677.8609966281491,-2.9159605818799617,102129.27407846798,10.5,10500102129.274078,47.655,-122.3035,60.0,4.766666666666667
2026-02-06T21:59:16+00:00,SAT-53029,258.3014340110988,52.18035368467091,674.9528533341868,-2.855265163623642,100003.46378976697,10.5,10500100003.463789,47.655,-122.3035,60.0,4.783333333333333
2026-02-06T21:59:17+00:00,SAT-53029,257.56826523385195,52.53517588982583,672.1052427424402,-2.793791710268282,97850.40342081242,10.5,10500097850.403421,47.655,-122.3035,60.0,4.8
2026-02-06T21:59:18+00:00,SAT-53029,256.81683737449833,52.887913734963334,669.3189408022037,-2.731544120160627,95670.22950819726,10.5,10500095670.229507,47.655,-122.3035,60.0,4.816666666666666
2026-02-06T21:59:19+00:00,SAT-53029,256.0467325311269,53.238279286308554,666.5947195748762,-2.668527078823809,93463.10615876132,10.5,10500093463.10616,47.655,-122.3035,60.0,4.833333333333333
2026-02-06T21:59:20+00:00,SAT-53029,255.25753899279792,53.585972537423885,663.933346448894,-2.604746104064778,91229.22662944434,10.5,10500091229.22663,47.655,-122.3035,60.0,4.85
2026-02-06T21:59:21+00:00,SAT-53029,254.44885359038588,53.930681360572464,661.3355833096792,-2.5402075687176446,88968.81412385388,10.5,10500088968.814123,47.655,-122.3035,60.0,4.866666666666666
2026-02-06T21:59:22+00:00,SAT-53029,253.62028429116944,54.27208151252622,658.8021856869046,-2.474918698920941,86682.12173192788,10.5,10500086682.121733,47.655,-122.3035,60.0,4.883333333333334
2026-02-06T21:59:23+00:00,SAT-53029,252.77145305343527,54.609836698681974,656.3339019034768,-2.408887594361534,84369.43313896212,10.5,10500084369.43314,47.655,-122.3035,60.0,4.9
2026-02-06T21:59:24+00:00,SAT-53029,251.90199894420797,54.94359870586018,653.9314722043291,-2.3421232707573636,82031.06411353522,10.5,10500082031.064114,47.655,-122.3035,60.0,4.916666666666667
2026-02-06T21:59:25+00:00,SAT-53029,251.0115815151891,55.27300761500844,651.5956278428476,-2.274635656631504,79667.3623945229,10.5,10500079667.362394,47.655,-122.3035,60.0,4.933333333333334
2026-02-06T21:59:26+00:00,SAT-53029,250.09988445351772,55.59769209596672,649.3270901705118,-2.2064355982347883,77278.70786350896,10.5,10500077278.707863,47.655,-122.3035,60.0,4.95
2026-02-06T21:59:27+00:00,SAT-53029,249.1666195016254,55.917269793849435,647.1265697216278,-2.1375348799264375,74865.51325860103,10.5,10500074865.513258,47.655,-122.3035,60.0,4.966666666666667
2026-02-06T21:59:28+00:00,SAT-53029,248.21153063343147,56.23134781794758,644.9947652777347,-2.06794624884063,72428.22503835842,10.5,10500072428.225039,47.655,-122.3035,60.0,4.983333333333333
2026-02-06T21:59:29+00:00,SAT-53029,247.23439846761346,56.53952334271052,642.9323629074105,-1.9976833884511982,69967.32245591575,10.5,10500069967.322456,47.655,-122.3035,60.0,5.0
2026-02-06T21:59:30+00:00,SAT-53029,246.23504491956908,56.841384321836074,640.9400350324433,-1.9267609391176852,67483.31827859291,10.5,10500067483.31828,47.655,-122.3035,60.0,5.016666666666667
2026-02-06T21:59:31+00:00,SAT-53029,245.21333804321125,57.13651033045959,639.0184394735103,-1.8551945132424899,64976.75931876226,10.5,10500064976.75932,47.655,-122.3035,60.0,5.033333333333333
2026-02-06T21:59:32+00:00,SAT-53029,244.16919702518527,57.42447354247205,637.1682184807411,-1.783000668358975,62448.2254912805,10.5,10500062448.22549,47.655,-122.3035,60.0,5.05
2026-02-06T21:59:33+00:00,SAT-53029,243.1025973047927,57.70483984324098,635.3899977911198,-1.7101969115973275,59898.32996990184,10.5,10500059898.32997,47.655,-122.3035,60.0,5.066666666666666
2026-02-06T21:59:34+00:00,SAT-53029,242.0135757479826,57.97717008800489,633.6843856814354,-1.6368017000578405,57327.71920035201,10.5,10500057327.7192,47.655,-122.3035,60.0,5.083333333333333
2026-02-06T21:59:35+00:00,SAT-53029,240.90223580906365,58.24102150949883,632.0519720208567,-1.562834422902142,54737.07227308731,10.5,10500054737.072273,47.655,-122.3035,60.0,5.1
2026-02-06T21:59:36+00:00,SAT-53029,239.76875261063728,58.49594927419375,630.4933273413711,-1.4883153829382305,52127.100278324615,10.5,10500052127.100279,47.655,-122.3035,60.0,5.116666666666666
2026-02-06T21:59:37+00:00,SAT-53029,238.61337785666848,58.741508187053654,629.009001926587,-1.4132657994011995,49498.54640343419,10.5,10500049498.546404,47.655,-122.3035,60.0,5.133333333333334
2026-02-06T21:59:38+00:00,SAT-53029,237.4364444635755,58.97725454586288,627.5995248977633,-1.3377077614668849,46852.18430479092,10.5,10500046852.184305,47.655,-122.3035,60.0,5.15
2026-02-06T21:59:39+00:00,SAT-53029,236.23837083836625,59.20274813169295,626.2654033462013,-1.2616642230837771,44188.81792676606,10.5,10500044188.817926,47.655,-122.3035,60.0,5.166666666666667
2026-02-06T21:59:40+00:00,SAT-53029,235.0196646602664,59.4175543337468,625.0071214707898,-1.1851589781919711,41509.280633789975,10.5,10500041509.280634,47.655,-122.3035,60.0,5.183333333333334
2026-02-06T21:59:41+00:00,SAT-53029,233.7809260612239,59.62124639345376,623.8251397402664,-1.1082166078404851,38814.433358177055,10.5,10500038814.433357,47.655,-122.3035,60.0,5.2
2026-02-06T21:59:42+00:00,SAT-53029,232.52285011167015,59.813407747346275,622.7198941082178,-1.0308624860500855,36105.164805466506,10.5,10500036105.164806,47.655,-122.3035,60.0,5.216666666666667
2026-02-06T21:59:43+00:00,SAT-53029,231.24622843809456,59.99363445946789,621.6917952222335,-0.9531227101358462,33382.38901402378,10.5,10500033382.389013,47.655,-122.3035,60.0,5.233333333333333
2026-02-06T21:59:44+00:00,SAT-53029,229.95194993045183,60.16153770731064,620.7412277025527,-0.8750240762065106,30647.044496924475,10.5,10500030647.044497,47.655,-122.3035,60.0,5.25
2026-02-06T21:59:45+00:00,SAT-53029,228.64100039555052,60.31674630239094,619.8685494451412,-0.7965940392978262,27900.092845655163,10.5,10500027900.092846,47.655,-122.3035,60.0,5.266666666666667
2026-02-06T21:59:46+00:00,SAT-53029,227.3144610779574,60.45890921298399,619.0740909645328,-0.7178606631498864,25142.51697110341,10.5,10500025142.516972,47.655,-122.3035,60.0,5.283333333333333
2026-02-06T21:59:47+00:00,SAT-53029,225.97350599462874,60.58769805444524,618.358154786756,-0.6388525800839412,22375.31969827401,10.5,10500022375.319698,47.655,-122.3035,60.0,5.3
2026-02-06T21:59:48+00:00,SAT-53029,224.61939801849817,60.702809513991454,617.7210148822776,-0.5595989395321875,19599.52196358445,10.5,10500019599.521963,47.655,-122.3035,60.0,5.316666666666666
2026-02-06T21:59:49+00:00,SAT-53029,223.25348370668058,60.80396767150945,617.1629161502776,-0.4801293477811996,16816.160704425045,10.5,10500016816.160704,47.655,-122.3035,60.0,5.333333333333333
2026-02-06T21:59:50+00:00,SAT-53029,221.8771869019937,60.89092617779026,616.68407396302,-0.40047383315734997,14026.28763980505,10.5,10500014026.28764,47.655,-122.3035,60.0,5.35
2026-02-06T21:59:51+00:00,SAT-53029,220.49200109277055,60.963470258197454,616.2846737449439,-0.3206627728124166,11230.966706074956,10.5,10500011230.966705,47.655,-122.3035,60.0,5.366666666666666
2026-02-06T21:59:52+00:00,SAT-53029,219.09948068822865,61.02141849966344,615.9648706247739,-0.2407268456799649,8431.272409259982,10.5,10500008431.27241,47.655,-122.3035,60.0,5.383333333333334
2026-02-06T21:59:53+00:00,SAT-53029,217.70123125437584,61.064624393149366,615.7247891345467,-0.16069697212577552,5628.287711362782,10.5,10500005628.287712,47.655,-122.3035,60.0,5.4
2026-02-06T21:59:54+00:00,SAT-53029,216.2988988808854,61.09297760012549,615.5645229688271,-0.08060425347312189,2823.1019122828625,10.5,10500002823.101912,47.655,-122.3035,60.0,5.416666666666667
2026-02-06T21:59:55+00:00,SAT-53029,214.8941588453033,61.10640491861932,615.4841348042341,-0.00047991457139574134,16.808638326903086,10.5,10500000016.808638,47.655,-122.3035,60.0,5.433333333333334
2026-02-06T21:59:56+00:00,SAT-53029,213.48870374725448,61.10487093034613,615.4836561762475,0.0796447594937714,-2789.4963744705,10.5,10499997210.503626,47.655,-122.3035,60.0,5.45
2026-02-06T21:59:57+00:00,SAT-53029,212.08423134457365,61.08837831500357,615.5630874191322,0.15973848260353718,-5594.717353887337,10.5,10499994405.282646,47.655,-122.3035,60.0,5.466666666666667
2026-02-06T21:59:58+00:00,SAT-53029,210.68243228899436,61.05696782612025,615.7223976649075,0.23977002894263832,-8397.760639788019,10.5,10499991602.23936,47.655,-122.3035,60.0,5.483333333333333
2026-02-06T21:59:59+00:00,SAT-53029,209.28497799739966,61.01071792861882,615.9615249034908,0.31970829379975413,-11197.536813609295,10.5,10499988802.463186,47.655,-122.3035,60.0,5.5
2026-02-06T22:00:00+00:00,SAT-53029,207.89350885484072,60.949744105468625,616.2803761034747,0.3995223532924773,-13992.962790181371,10.5,10499986007.03721,47.655,-122.3035,60.0,5.516666666666667
2026-02-06T22:00:01+00:00,SAT-53029,206.50962297908717,60.87419784750063,616.678827392472,0.47918152323542657,-16782.96387953822,10.5,10499983217.036121,47.655,-122.3035,60.0,5.533333333333333
2026-02-06T22:00:02+00:00,SAT-53029,205.13486571637455,60.784265346367576,617.1567242961705,0.5586554199225675,-19566.475915771567,10.5,10499980433.524084,47.655,-122.3035,60.0,5.55
2026-02-06T22:00:03+00:00,SAT-53029,203.7707200312717,60.68016591550709,617.7138820380069,0.6379140111762384,-22342.447044983706,10.5,10499977657.552956,47.655,-122.3035,60.0,5.566666666666666
2026-02-06T22:00:04+00:00,SAT-53029,202.4185979476122,60.56215017050084,618.3500858897513,0.7169276766513623,-25109.83983739612,10.5,10499974890.160162,47.655,-122.3035,60.0,5.583333333333333
2026-02-06T22:00:05+00:00,SAT-53029,201.07983311274947,60.43049800015379,619.0650915822373,0.7956672642853244,-27867.633264462933,10.5,10499972132.366735,47.655,-122.3035,60.0,5.6
2026-02-06T22:00:06+00:00,SAT-53029,199.75567457057792,60.2855163644515,619.8586257723896,0.8741041251858606,-30614.823920792347,10.5,10499969385.176079,47.655,-122.3035,60.0,5.616666666666666
2026-02-06T22:00:07+00:00,SAT-53029,198.4472818155606,60.12753696003729,620.7303865450419,0.9522101948366987,-33350.42886831174,10.5,10499966649.57113,47.655,-122.3035,60.0,5.633333333333334
2026-02-06T22:00:08+00:00,SAT-53029,197.15572104561465,59.95691378172448,621.6800439957512,1.029957996882272,-36073.4857688243,10.5,10499963926.51423,47.655,-122.3035,60.0,5.65
2026-02-06T22:00:09+00:00,SAT-53029,195.8819627237893,59.774020630311654,622.7072408173782,1.1073207252325288,-38783.05575966674,10.5,10499961216.94424,47.655,-122.3035,60.0,5.666666666666667
2026-02-06T22:00:10+00:00,SAT-53029,194.62688026296223,59.57924858715197,623.8115929685566,1.184272268524691,-41478.22431046365,10.5,10499958521.77569,47.655,-122.3035,60.0,5.683333333333334
2026-02-06T22:00:11+00:00,SAT-53029,193.39124985585028,59.37300349821725,624.992690366559,1.2607872442505963,-44158.102418411276,10.5,10499955841.897581,47.655,-122.3035,60.0,5.7
2026-02-06T22:00:12+00:00,SAT-53029,192.17575133530232,59.15570349523044,626.2500976141964,1.3368410525617953,-46821.828492759654,10.5,10499953178.171507,47.655,-122.3035,60.0,5.716666666666667
2026-02-06T22:00:13+00:00,SAT-53029,190.98096993898977,58.927776576557434,627.5833547803802,1.4124098832096754,-49468.56859788511,10.5,10499950531.431402,47.655,-122.3035,60.0,5.733333333333333
2026-02-06T22:00:14+00:00,SAT-53029,189.8073989160114,58.6896582784614,628.9919781876054,1.4874707715879956,-52097.51841613692,10.5,10499947902.481585,47.655,-122.3035,60.0,5.75
2026-02-06T22:00:15+00:00,SAT-53029,188.65544280319764,58.44178944703391,630.475461255326,1.562001603987247,-54707.90343186717,10.5,10499945292.09657,47.655,-122.3035,60.0,5.766666666666667
2026-02-06T22:00:16+00:00,SAT-53029,187.525421303588,58.18461413454069,632.033275348569,1.6359811509961237,-57298.98010129161,10.5,10499942701.0199,47.655,-122.3035,60.0,5.783333333333333
2026-02-06T22:00:17+00:00,SAT-53029,186.4175736187761,57.91857762680667,633.6648706598647,1.7093890957572737,-59870.03684212555,10.5,10499940129.963158,47.655,-122.3035,60.0,5.8
2026-02-06T22:00:18+00:00,SAT-53029,185.33206313278336,57.64412461066378,635.3696771193519,1.7822060247977412,-62420.393712427154,10.5,10499937579.606287,47.655,-122.3035,60.0,5.816666666666666
2026-02-06T22:00:19+00:00,SAT-53029,184.268982365292,57.36169749239322,637.1471052957415,1.8544134668211287,-64949.40376926311,10.5,10499935050.596231,47.655,-122.3035,60.0,5.833333333333333
2026-02-06T22:00:20+00:00,SAT-53029,183.22835806358398,57.07173486142632,638.9965473359673,1.9259938963188814,-67456.45319519097,10.5,10499932543.546804,47.655,-122.3035,60.0,5.85
2026-02-06T22:00:21+00:00,SAT-53029,182.21015637259285,56.77467010468613,640.9173779084374,1.996930734616327,-69940.961334896,10.5,10499930059.038666,47.655,-122.3035,60.0,5.866666666666666
2026-02-06T22:00:22+00:00,SAT-53029,181.21428800546468,56.47093016932016,642.9089551473305,2.0672083621507595,-72402.38112522154,10.5,10499927597.618876,47.655,-122.3035,60.0,5.883333333333334
2026-02-06T22:00:23+00:00,SAT-53029,180.2406133420367,56.16093446778075,644.9706216091371,2.136812111915276,-74840.1988655445,10.5,10499925159.801134,47.655,-122.3035,60.0,5.9
2026-02-06T22:00:24+00:00,SAT-53029,179.28894740983998,55.84509392240499,647.1017052226604,2.2057282748264684,-77253.93440577453,10.5,10499922746.065594,47.655,-122.3035,60.0,5.916666666666667
2026-02-06T22:00:25+00:00,SAT-53029,178.35906469586536,55.52381014078704,649.3015202443726,2.273944109900379,-79643.14150275917,10.5,10499920356.858498,47.655,-122.3035,60.0,5.933333333333334
2026-02-06T22:00:26+00:00,SAT-53029,177.45070375058634,55.197474713704764,651.5693682239186,2.341447791355972,-82007.40596762345,10.5,10499917992.594032,47.655,-122.3035,60.0,5.95
2026-02-06T22:00:27+00:00,SAT-53029,176.56357158473637,54.866468636405095,653.9045389168658,2.4082284634958784,-84346.34758792605,10.5,10499915653.652412,47.655,-122.3035,60.0,5.966666666666667
2026-02-06T22:00:28+00:00,SAT-53029,175.6973477900944,54.53116182908481,656.3063112521867,2.474276181186494,-86659.61804302024,10.5,10499913340.381956,47.655,-122.3035,60.0,5.983333333333333
2026-02-06T22:00:29+00:00,SAT-53029,174.85168842188375,54.191912764359344,658.7739542403813,2.5395819198861713,-88946.90125528375,10.5,10499911053.098745,47.655,-122.3035,60.0,6.0
2026-02-06T22:00:30+00:00,SAT-53029,174.02622960363797,53.84906818297823,661.3067278916025,2.60413754836754,-91207.912434739,10.5,10499908792.087564,47.655,-122.3035,60.0,6.016666666666667
2026-02-06T22:00:31+00:00,SAT-53029,173.2205908685345,53.502962894504904,663.903884106574,2.6679358202532324,-93442.39778259846,10.5,10499906557.602217,47.655,-122.3035,60.0,6.033333333333333
2026-02-06T22:00:32+00:00,SAT-53029,172.43437823023297,53.15391965203758,666.5646675590684,2.730970372121878,-95650.13442492846,10.5,10499904349.865576,47.655,-122.3035,60.0,6.05
2026-02-06T22:00:33+00:00,SAT-53029,171.66718698856042,52.802249092323876,669.2883165764964,2.793235647248327,-97830.92774170934,10.5,10499902169.072258,47.655,-122.3035,60.0,6.066666666666666
2026-02-06T22:00:34+00:00,SAT-53029,170.9186042989272,52.44824974329653,672.0740639444408,2.8547269510774917,-99984.613309764,10.5,10499900015.38669,47.655,-122.3035,60.0,6.083333333333333
2026-02-06T22:00:35+00:00,SAT-53029,170.18821147608904,52.09220807483314,674.9211377665149,2.9154403726271414,-102111.05414995125,10.5,10499897888.94585,47.655,-122.3035,60.0,6.1
2026-02-06T22:00:36+00:00,SAT-53029,169.47558608419828,51.73439860352463,677.8287622458338,2.9753727736229267,-104210.1403466285,10.5,10499895789.859653,47.655,-122.3035,60.0,6.116666666666666
2026-02-06T22:00:37+00:00,SAT-53029,168.78030380433466,51.37508403637892,680.7961584556523,3.034521786555074,-106281.78897958895,10.5,10499893718.21102,47.655,-122.3035,60.0,6.133333333333334
2026-02-06T22:00:38+00:00,SAT-53029,168.10194009231716,51.014515446946554,683.8225451080616,3.0928857553719373,-108325.9420468988,10.5,10499891674.057953,47.655,-122.3035,60.0,6.15
2026-02-06T22:00:39+00:00,SAT-53029,167.44007165399648,50.65293248561013,686.9071392635414,3.1504637338178565,-110342.56640668222,10.5,10499889657.433594,47.655,-122.3035,60.0,6.166666666666667
2026-02-06T22:00:40+00:00,SAT-53029,166.79427773810005,50.29056361229199,690.0491570388531,3.207255460606631,-112331.65290759124,10.5,10499887668.347092,47.655,-122.3035,60.0,6.183333333333334
2026-02-06T22:00:41+00:00,SAT-53029,166.1641412654579,49.92762635020646,693.2478142901709,3.263261305397754,-114293.21449666496,10.5,10499885706.785503,47.655,-122.3035,60.0,6.2
2026-02-06T22:00:42+00:00,SAT-53029,165.5492498147165,49.56432756005161,696.502327242339,3.3184822827241764,-116227.28670713874,10.5,10499883772.713293,47.655,-122.3035,60.0,6.216666666666667
2026-02-06T22:00:43+00:00,SAT-53029,164.949196461871,49.20086372342572,699.8119131320138,3.3729199807157526,-118133.92516203792,10.5,10499881866.074839,47.655,-122.3035,60.0,6.233333333333333
2026-02-06T22:00:44+00:00,SAT-53029,164.36358050468291,48.837421242031354,703.1757907797241,3.4265765816661355,-120013.20629451732,10.5,10499879986.793705,47.655,-122.3035,60.0,6.25
2026-02-06T22:00:45+00:00,SAT-53029,163.79200806434554,48.47417673968583,706.5931811824425,3.4794547749711704,-121865.22429859557,10.5,10499878134.775702,47.655,-122.3035,60.0,6.266666666666667
2026-02-06T22:00:46+00:00,SAT-53029,163.23409259637657,48.111297376459056,710.0633080193268,3.5315578024017484,-123690.09271480191,10.5,10499876309.907286,47.655,-122.3035,60.0,6.283333333333333
2026-02-06T22:00:47+00:00,SAT-53029,162.68945529653814,47.748941158605724,713.5853982026151,3.5828893762903333,-125487.94156472242,10.5,10499874512.058435,47.655,-122.3035,60.0,6.3
2026-02-06T22:00:48+00:00,SAT-53029,162.15772543462273,47.38725725601031,717.1586823469263,3.633453652107169,-127258.91639050264,10.5,10499872741.083609,47.655,-122.3035,60.0,6.316666666666666
2026-02-06T22:00:49+00:00,SAT-53029,161.63854061408733,47.026386319537266,720.782395211209,3.683255256736611,-129003.1792452044,10.5,10499870996.820755,47.655,-122.3035,60.0,6.333333333333333
2026-02-06T22:00:50+00:00,SAT-53029,161.13154695804073,46.666460791474066,724.4557761688915,3.7322992054941113,-130720.90578638963,10.5,10499869279.094213,47.655,-122.3035,60.0,6.35
2026-02-06T22:00:51+00:00,SAT-53029,160.6363992466738,46.3076052191039,728.1780695952729,3.780590891806823,-132412.28491469135,10.5,10499867587.715086,47.655,-122.3035,60.0,6.366666666666666
2026-02-06T22:00:52+00:00,SAT-53029,160.15276100062553,45.94993656292822,731.9485252446203,3.8281360937006332,-134077.51900101718,10.5,10499865922.480999,47.655,-122.3035,60.0,6.383333333333334
2026-02-06T22:00:53+00:00,SAT-53029,159.68030451588524,45.59356449731038,735.7663986337363,3.8749408864037793,-135716.82082555818,10.5,10499864283.179174,47.655,-122.3035,60.0,6.4
2026-02-06T22:00:54+00:00,SAT-53029,159.2187108677503,45.23859171168158,739.6309513383658,3.9210117024165156,-137330.41568168273,10.5,10499862669.584318,47.655,-122.3035,60.0,6.416666666666667
2026-02-06T22:00:55+00:00,SAT-53029,158.76766986993948,44.88511419790012,743.5414513495076,3.9663552274536236,-138918.537731403,10.5,10499861081.462269,47.655,-122.3035,60.0,6.433333333333334
2026-02-06T22:00:56+00:00,SAT-53029,158.32688001487068,44.53322153857256,747.4971733259538,4.010978427149965,-140481.43094071644,10.5,10499859518.56906,47.655,-122.3035,60.0,6.45
2026-02-06T22:00:57+00:00,SAT-53029,157.89604838232432,44.18299718385874,751.4973988734553,4.054888526358909,-142019.34835454915,10.5,10499857980.651646,47.655,-122.3035,60.0,6.466666666666667
2026-02-06T22:00:58+00:00,SAT-53029,157.47489052684446,43.834518720986665,755.5414168032497,4.098092933280207,-143532.54943939307,10.5,10499856467.450562,47.655,-122.3035,60.0,6.483333333333333
2026-02-06T22:00:59+00:00,SAT-53029,157.06313035316032,43.48785814093313,759.6285233149126,4.140599326360615,-145021.30312693343,10.5,10499854978.696873,47.655,-122.3035,60.0,6.5
2026-02-06T22:01:00+00:00,SAT-53029,156.66049996457713,43.14308208817045,763.7580222658818,4.182415492752429,-146485.8821561832,10.5,10499853514.117844,47.655,-122.3035,60.0,6.516666666666667
2026-02-06T22:01:01+00:00,SAT-53029,156.26673951429945,42.80025211460139,767.9292252798716,4.223549452780317,-147926.56743283826,10.5,10499852073.432568,47.655,-122.3035,60.0,6.533333333333333
2026-02-06T22:01:02+00:00,SAT-53029,155.88159703138945,42.459424913491766,772.1414519794188,4.264009333221933,-149343.64359102823,10.5,10499850656.35641,47.655,-122.3035,60.0,6.55
2026-02-06T22:01:03+00:00,SAT-53029,155.50482825002422,42.120652554487776,776.3940300920517,4.303803406708539,-150737.40037329312,10.5,10499849262.599627,47.655,-122.3035,60.0,6.566666666666666
2026-02-06T22:01:04+00:00,SAT-53029,155.13619642663443,41.78398270595547,780.6862955957517,4.342940068596435,-152108.13182052286,10.5,10499847891.86818,47.655,-122.3035,60.0,6.583333333333333
2026-02-06T22:01:05+00:00,SAT-53029,154.77547215326257,41.44945885000226,785.0175928413502,4.38142780691071,-153456.13521926047,10.5,10499846543.86478,47.655,-122.3035,60.0,6.6
2026-02-06T22:01:06+00:00,SAT-53029,154.42243316911828,41.11712049077289,789.3872746449474,4.419275186967795,-154781.71056311845,10.5,10499845218.289436,47.655,-122.3035,60.0,6.616666666666666
2026-02-06T22:01:07+00:00,SAT-53029,154.07686417002273,40.78700335496936,793.7947023649988,4.456490859901972,-156085.1608514138,10.5,10499843914.83915,47.655,-122.3035,60.0,6.633333333333334
2026-02-06T22:01:08+00:00,SAT-53029,153.73855661504828,40.45913958302085,798.2392459879015,4.493083507474634,-157366.79015615417,10.5,10499842633.209845,47.655,-122.3035,60.0,6.65
2026-02-06T22:01:09+00:00,SAT-53029,153.4073085366833,40.13355791584995,802.720284158538,4.529061913184001,-158626.90611260146,10.5,10499841373.093887,47.655,-122.3035,60.0,6.666666666666667
