DopplerPredictor/satellites_20260211_210122/SAT-65220.csv

timestamp,satellite,azimuth_deg,elevation_deg,distance_km,relative_velocity_kms,doppler_shift_hz,tx_freq_ghz,rx_freq_hz,ue_lat,ue_lon,ue_alt_m,time_minutes
2026-02-06T21:58:58+00:00,SAT-65220,218.15460442558336,40.05896926166955,690.9930159235337,-4.929568148461508,172654.32861171523,10.5,10500172654.328611,47.655,-122.3035,60.0,4.483333333333333
2026-02-06T21:58:59+00:00,SAT-65220,217.8869047964719,40.4643041097193,686.0766632669978,-4.891205300744845,171310.69940999273,10.5,10500171310.69941,47.655,-122.3035,60.0,4.5
2026-02-06T21:59:00+00:00,SAT-65220,217.61196108782852,40.87434290480372,681.1985706126779,-4.852006926289267,169937.80652759882,10.5,10500169937.806528,47.655,-122.3035,60.0,4.516666666666667
2026-02-06T21:59:01+00:00,SAT-65220,217.32949138267523,41.289110981609184,676.3595712473813,-4.811955725454072,168535.04405793877,10.5,10500168535.044058,47.655,-122.3035,60.0,4.533333333333333
2026-02-06T21:59:02+00:00,SAT-65220,217.03919974714134,41.708630115501464,671.5605157111771,-4.771034372123873,167101.80516716224,10.5,10500167101.805166,47.655,-122.3035,60.0,4.55
2026-02-06T21:59:03+00:00,SAT-65220,216.74077540242538,42.132918192914325,666.8022718238022,-4.729225380766044,165637.47743795297,10.5,10500165637.477438,47.655,-122.3035,60.0,4.566666666666666
2026-02-06T21:59:04+00:00,SAT-65220,216.4338918535554,42.56198884495582,662.0857248436489,-4.686511211374171,164141.44654509216,10.5,10500164141.446545,47.655,-122.3035,60.0,4.583333333333333
2026-02-06T21:59:05+00:00,SAT-65220,216.1182059568234,42.99585106286916,657.4117775220939,-4.642874274510223,162613.09643205683,10.5,10500162613.096432,47.655,-122.3035,60.0,4.6
2026-02-06T21:59:06+00:00,SAT-65220,215.7933569288482,43.43450878507278,652.781350152797,-4.598296975759942,161051.8108680352,10.5,10500161051.810867,47.655,-122.3035,60.0,4.616666666666666
2026-02-06T21:59:07+00:00,SAT-65220,215.458965290757,43.87796045745341,648.1953805766641,-4.552761701699355,159456.97295641512,10.5,10500159456.972956,47.655,-122.3035,60.0,4.633333333333334
2026-02-06T21:59:08+00:00,SAT-65220,215.1146317489495,44.326198559342984,643.6548242008059,-4.50625088276691,157827.9673368319,10.5,10500157827.967337,47.655,-122.3035,60.0,4.65
2026-02-06T21:59:09+00:00,SAT-65220,214.75993600236305,44.77920910022772,639.160653954793,-4.458747060009112,156164.1825228828,10.5,10500156164.182524,47.655,-122.3035,60.0,4.666666666666667
2026-02-06T21:59:10+00:00,SAT-65220,214.3944354723795,45.2369710857731,634.7138601803449,-4.410232845614345,154465.00951985465,10.5,10500154465.00952,47.655,-122.3035,60.0,4.683333333333334
2026-02-06T21:59:11+00:00,SAT-65220,214.01766395996398,45.699455940028415,630.3154505603775,-4.360691051815691,152729.8463394458,10.5,10500152729.84634,47.655,-122.3035,60.0,4.7
2026-02-06T21:59:12+00:00,SAT-65220,213.62913021271945,46.16662689832481,625.9664499194964,-4.310104650539305,150958.09658648152,10.5,10500150958.096586,47.655,-122.3035,60.0,4.716666666666667
2026-02-06T21:59:13+00:00,SAT-65220,213.22831641237866,46.63843835089836,621.6679000647307,-4.258456884900331,149149.1733639726,10.5,10500149149.173365,47.655,-122.3035,60.0,4.733333333333333
2026-02-06T21:59:14+00:00,SAT-65220,212.81467656632324,47.11483515024282,617.4208595150718,-4.205731296130165,147302.50021622202,10.5,10500147302.500216,47.655,-122.3035,60.0,4.75
2026-02-06T21:59:15+00:00,SAT-65220,212.38763480712697,47.59575187056078,613.2264032041554,-4.151911737185821,145417.51160548246,10.5,10500145417.511606,47.655,-122.3035,60.0,4.766666666666667
2026-02-06T21:59:16+00:00,SAT-65220,211.94658359996524,48.081112014285395,609.0856221693733,-4.09698250910529,143493.65768769788,10.5,10500143493.657688,47.655,-122.3035,60.0,4.783333333333333
2026-02-06T21:59:17+00:00,SAT-65220,211.49088184237263,48.570827176544825,604.9996231049914,-4.040928337577978,141530.40349190097,10.5,10500141530.403492,47.655,-122.3035,60.0,4.8
2026-02-06T21:59:18+00:00,SAT-65220,211.0198528729446,49.06479614593631,600.9695279386384,-3.983734506399532,139527.23359436577,10.5,10500139527.233595,47.655,-122.3035,60.0,4.816666666666666
2026-02-06T21:59:19+00:00,SAT-65220,210.53278237109254,49.562903956372615,596.9964732746952,-3.9253868239511838,137483.65094457255,10.5,10500137483.650944,47.655,-122.3035,60.0,4.833333333333333
2026-02-06T21:59:20+00:00,SAT-65220,210.0289161698488,50.06502086616327,593.0816098711157,-3.865871819097386,135399.18372637164,10.5,10500135399.183727,47.655,-122.3035,60.0,4.85
2026-02-06T21:59:21+00:00,SAT-65220,209.50745795650005,50.5710012889185,589.2261019208752,-3.8051766859231333,133273.38342245054,10.5,10500133273.383423,47.655,-122.3035,60.0,4.866666666666666
2026-02-06T21:59:22+00:00,SAT-65220,208.96756689879118,51.08068264109472,585.4311263885326,-3.7432894555759018,131105.83083296567,10.5,10500131105.830833,47.655,-122.3035,60.0,4.883333333333334
2026-02-06T21:59:23+00:00,SAT-65220,208.40835517613016,51.593884131073736,581.697872175413,-3.6801989795341625,128896.1354895349,10.5,10500128896.13549,47.655,-122.3035,60.0,4.9
2026-02-06T21:59:24+00:00,SAT-65220,207.82888545451002,52.110405461272585,578.0275393014756,-3.615895090722452,126643.94129816882,10.5,10500126643.941298,47.655,-122.3035,60.0,4.916666666666667
2026-02-06T21:59:25+00:00,SAT-65220,207.22816829684973,52.630025463181624,574.4213379264979,-3.550368650648753,124348.92819022121,10.5,10500124348.92819,47.655,-122.3035,60.0,4.933333333333334
2026-02-06T21:59:26+00:00,SAT-65220,206.6051595474125,53.15250064659699,570.8804873242507,-3.483611567889659,122010.81276981765,10.5,10500122010.812769,47.655,-122.3035,60.0,4.95
2026-02-06T21:59:27+00:00,SAT-65220,205.9587577291421,53.67756365447751,567.4062148382361,-3.415617009636785,119629.35572310576,10.5,10500119629.355722,47.655,-122.3035,60.0,4.966666666666667
2026-02-06T21:59:28+00:00,SAT-65220,205.2878014552117,54.20492164890644,563.999754626447,-3.3463793573916947,117204.36026650408,10.5,10500117204.360266,47.655,-122.3035,60.0,4.983333333333333
2026-02-06T21:59:29+00:00,SAT-65220,204.59106695222323,54.73425458804421,560.6623464503123,-3.2758943938771874,114735.67869312598,10.5,10500114735.678694,47.655,-122.3035,60.0,5.0
2026-02-06T21:59:30+00:00,SAT-65220,203.86726571033077,55.26521342698192,557.3952342772316,-3.2041593106452213,112223.21263924132,10.5,10500112223.212639,47.655,-122.3035,60.0,5.016666666666667
2026-02-06T21:59:31+00:00,SAT-65220,203.11504237314995,55.797418214567024,554.1996648755241,-3.1311728183941465,109666.91694805256,10.5,10500109666.916948,47.655,-122.3035,60.0,5.033333333333333
2026-02-06T21:59:32+00:00,SAT-65220,202.33297293941675,56.33045610272111,551.0768862993543,-3.0569352757059804,107066.80417861878,10.5,10500107066.804178,47.655,-122.3035,60.0,5.05
2026-02-06T21:59:33+00:00,SAT-65220,201.5195633822612,56.86387927506893,548.0281462452654,-2.981448708640694,104422.94529213035,10.5,10500104422.945292,47.655,-122.3035,60.0,5.066666666666666
2026-02-06T21:59:34+00:00,SAT-65220,200.67324885104415,57.397202781912,545.0546903891728,-2.904716916671002,101735.47336219352,10.5,10500101735.473362,47.655,-122.3035,60.0,5.083333333333333
2026-02-06T21:59:35+00:00,SAT-65220,199.7923935988702,57.92990230426072,542.1577606177045,-2.8267455808018616,99004.58736163251,10.5,10500099004.587362,47.655,-122.3035,60.0,5.1
2026-02-06T21:59:36+00:00,SAT-65220,198.8752918285578,58.46141186074243,539.3385931517139,-2.747542290523718,96230.55310650624,10.5,10500096230.553106,47.655,-122.3035,60.0,5.116666666666666
2026-02-06T21:59:37+00:00,SAT-65220,197.9201697123394,58.991121460231504,536.5984166429101,-2.667116663251646,93413.70743937223,10.5,10500093413.70744,47.655,-122.3035,60.0,5.133333333333334
2026-02-06T21:59:38+00:00,SAT-65220,196.92518882668992,59.518374740995775,533.9384501513706,-2.5854803817403615,90554.45953971863,10.5,10500090554.45954,47.655,-122.3035,60.0,5.15
2026-02-06T21:59:39+00:00,SAT-65220,195.88845134083815,60.04246661265546,531.3599010857375,-2.5026472895524803,87653.29426766648,10.5,10500087653.294268,47.655,-122.3035,60.0,5.166666666666667
2026-02-06T21:59:40+00:00,SAT-65220,194.80800729572888,60.56264095278179,528.8639630482029,-2.4186334122195827,84710.77290511964,10.5,10500084710.772905,47.655,-122.3035,60.0,5.183333333333334
2026-02-06T21:59:41+00:00,SAT-65220,193.68186440502436,61.07808839490854,526.45181365839,-2.3334570518379816,81727.53646890879,10.5,10500081727.536469,47.655,-122.3035,60.0,5.2
2026-02-06T21:59:42+00:00,SAT-65220,192.5080007951792,61.58794428732726,524.1246122828911,-2.247138786945165,78704.30570646389,10.5,10500078704.305706,47.655,-122.3035,60.0,5.216666666666667
2026-02-06T21:59:43+00:00,SAT-65220,191.28438121384568,62.09128688220493,521.8834977649285,-2.1597015683587992,75641.88445250144,10.5,10500075641.884453,47.655,-122.3035,60.0,5.233333333333333
2026-02-06T21:59:44+00:00,SAT-65220,190.00897717414136,62.587135871915855,519.7295860584358,-2.0711706860172945,72541.15846764094,10.5,10500072541.158468,47.655,-122.3035,60.0,5.25
2026-02-06T21:59:45+00:00,SAT-65220,188.67979163165214,63.074451359333736,517.663967895206,-1.9815738421414695,69403.09800083573,10.5,10500069403.098001,47.655,-122.3035,60.0,5.266666666666667
2026-02-06T21:59:46+00:00,SAT-65220,187.29488865244068,63.55213342103772,515.6877063790783,-1.8909411223413712,66228.75677741165,10.5,10500066228.756777,47.655,-122.3035,60.0,5.283333333333333
2026-02-06T21:59:47+00:00,SAT-65220,185.85242860184675,64.01902239675955,513.8018346089361,-1.7993050105439579,63019.27252189766,10.5,10500063019.272522,47.655,-122.3035,60.0,5.3
2026-02-06T21:59:48+00:00,SAT-65220,184.35070920709356,64.4739000923437,512.0073532868213,-1.7067003984858193,59775.867290501024,10.5,10500059775.86729,47.655,-122.3035,60.0,5.316666666666666
2026-02-06T21:59:49+00:00,SAT-65220,182.78821271018379,64.91549209221519,510.3052283165792,-1.613164508541656,56499.84476823426,10.5,10500056499.844769,47.655,-122.3035,60.0,5.333333333333333
2026-02-06T21:59:50+00:00,SAT-65220,181.16365918524826,65.34247137109104,508.69638847946817,-1.5187369282813188,53192.59147924878,10.5,10500053192.591478,47.655,-122.3035,60.0,5.35
2026-02-06T21:59:51+00:00,SAT-65220,179.47606559771177,65.75346345387243,507.1817230753061,-1.4234594959558238,49855.572776070796,10.5,10500049855.572777,47.655,-122.3035,60.0,5.366666666666666
2026-02-06T21:59:52+00:00,SAT-65220,177.72481002068776,66.1470533040439,505.76207967782136,-1.3273762941868503,46490.33261858085,10.5,10500046490.332619,47.655,-122.3035,60.0,5.383333333333334
2026-02-06T21:59:53+00:00,SAT-65220,175.90969966859575,66.52179417235565,504.4382618963013,-1.2305335363987475,43098.489596382205,10.5,10500043098.489597,47.655,-122.3035,60.0,5.4
2026-02-06T21:59:54+00:00,SAT-65220,174.03104104672096,66.87621854699279,503.2110272505001,-1.132979514165057,39681.73508465346,10.5,10500039681.735085,47.655,-122.3035,60.0,5.416666666666667
2026-02-06T21:59:55+00:00,SAT-65220,172.0897096708786,67.20885133649958,502.0810850980613,-1.0347644844780648,36241.829295851334,10.5,10500036241.829296,47.655,-122.3035,60.0,5.433333333333334
2026-02-06T21:59:56+00:00,SAT-65220,170.0872162940946,67.51822530319006,501.04909467436863,-0.9359405526327306,32780.597177810494,10.5,10500032780.597178,47.655,-122.3035,60.0,5.45
2026-02-06T21:59:57+00:00,SAT-65220,168.0257659056038,67.802898673272,500.11566324919767,-0.8365615713192732,29299.92487953906,10.5,10500029299.92488,47.655,-122.3035,60.0,5.466666666666667
2026-02-06T21:59:58+00:00,SAT-65220,165.90830521918406,68.06147472539796,499.28134438400565,-0.7366829869887779,25801.754370292292,10.5,10500025801.75437,47.655,-122.3035,60.0,5.483333333333333
2026-02-06T21:59:59+00:00,SAT-65220,163.73855427089168,68.29262298758984,498.5466363424427,-0.636361720529612,22288.07926035593,10.5,10500022288.07926,47.655,-122.3035,60.0,5.5
2026-02-06T22:00:00+00:00,SAT-65220,161.52101762525635,68.49510153710055,497.91198061986813,-0.5356559884492823,18760.938538078444,10.5,10500018760.938538,47.655,-122.3035,60.0,5.516666666666667
2026-02-06T22:00:01+00:00,SAT-65220,159.26097145655118,68.66777971018725,497.3777606512032,-0.43462516266041257,15222.411658982868,10.5,10500015222.41166,47.655,-122.3035,60.0,5.533333333333333
2026-02-06T22:00:02+00:00,SAT-65220,156.96442345962205,68.80966042058066,496.94430065862554,-0.3333295904331555,11674.612239738644,10.5,10500011674.61224,47.655,-122.3035,60.0,5.55
2026-02-06T22:00:03+00:00,SAT-65220,154.6380442395165,68.91990116114681,496.61186467882493,-0.23183041755897968,8119.681864609438,10.5,10500008119.681864,47.655,-122.3035,60.0,5.566666666666666
2026-02-06T22:00:04+00:00,SAT-65220,152.28907055304512,68.99783273425166,496.3806557666229,-0.13018941426678568,4559.783988299165,10.5,10500004559.783989,47.655,-122.3035,60.0,5.583333333333333
2026-02-06T22:00:05+00:00,SAT-65220,149.92518276271676,69.04297478539432,496.25081537220944,-0.028468780909016764,997.0971302576131,10.5,10500000997.09713,47.655,-122.3035,60.0,5.6
2026-02-06T22:00:06+00:00,SAT-65220,147.55436117959945,69.05504731439189,496.22242291217356,0.07326903725922683,-2566.1916125384373,10.5,10499997433.808388,47.655,-122.3035,60.0,5.616666666666666
2026-02-06T22:00:07+00:00,SAT-65220,145.18472747715057,69.03397753142124,496.2954955252548,0.17496154166519123,-6127.893275702446,10.5,10499993872.106724,47.655,-122.3035,60.0,5.633333333333334
2026-02-06T22:00:08+00:00,SAT-65220,142.82437906751912,68.97990166540998,496.4699880191716,0.2765463728900621,-9685.823768607455,10.5,10499990314.176231,47.655,-122.3035,60.0,5.65
2026-02-06T22:00:09+00:00,SAT-65220,140.48122462864748,68.89316162007196,496.74579300939934,0.37796149870932605,-13237.810460354956,10.5,10499986762.189539,47.655,-122.3035,60.0,5.666666666666667
2026-02-06T22:00:10+00:00,SAT-65220,138.1628291641937,68.77429667054324,497.12274124548935,0.479145407368939,-16781.69894912386,10.5,10499983218.30105,47.655,-122.3035,60.0,5.683333333333334
2026-02-06T22:00:11+00:00,SAT-65220,135.87627588187982,68.62403066732958,497.6006021301431,0.5800372874982374,-20315.359363481693,10.5,10499979684.640636,47.655,-122.3035,60.0,5.7
2026-02-06T22:00:12+00:00,SAT-65220,133.62805082499992,68.44325544933024,498.1790844177188,0.6805772022232346,-23836.692460568716,10.5,10499976163.307539,47.655,-122.3035,60.0,5.716666666666667
2026-02-06T22:00:13+00:00,SAT-65220,131.42395416380648,68.23301132695764,498.85783708638246,0.7807062824699175,-27343.63639639705,10.5,10499972656.363604,47.655,-122.3035,60.0,5.733333333333333
2026-02-06T22:00:14+00:00,SAT-65220,129.2690399120631,67.99446557279957,499.6364504030465,0.8803668633587413,-30834.171502962836,10.5,10499969165.828497,47.655,-122.3035,60.0,5.75
2026-02-06T22:00:15+00:00,SAT-65220,127.16758404232272,67.72888988759264,500.51445712433525,0.9795026740043214,-34306.32693583431,10.5,10499965693.673063,47.655,-122.3035,60.0,5.766666666666667
2026-02-06T22:00:16+00:00,SAT-65220,125.12307889457489,67.43763771407295,501.49133388684197,1.0780589552657618,-37758.18479826634,10.5,10499962241.8152,47.655,-122.3035,60.0,5.783333333333333
2026-02-06T22:00:17+00:00,SAT-65220,123.13825081577508,67.1221221964648,502.5665027148207,1.1759826223907017,-41187.885837682974,10.5,10499958812.114162,47.655,-122.3035,60.0,5.8
2026-02-06T22:00:18+00:00,SAT-65220,121.21509682102759,66.7837954011524,503.7393326900865,1.2732223882348503,-44593.63376134675,10.5,10499955406.36624,47.655,-122.3035,60.0,5.816666666666666
2026-02-06T22:00:19+00:00,SAT-65220,119.35493590179944,66.42412927842359,505.00914174480295,1.3697288467166284,-47973.69815929324,10.5,10499952026.30184,47.655,-122.3035,60.0,5.833333333333333
2026-02-06T22:00:20+00:00,SAT-65220,117.5584705752096,66.044598684382,506.3751985375043,1.4654546406621465,-51326.4203829722,10.5,10499948673.579617,47.655,-122.3035,60.0,5.85
2026-02-06T22:00:21+00:00,SAT-65220,115.8258544445294,65.64666660133125,507.8367244965076,1.5603544895319594,-54650.21451635576,10.5,10499945349.785484,47.655,-122.3035,60.0,5.866666666666666
2026-02-06T22:00:22+00:00,SAT-65220,114.1567623802319,65.23177163399639,509.39289589098206,1.6543853107785487,-57943.57162639082,10.5,10499942056.428373,47.655,-122.3035,60.0,5.883333333333334
2026-02-06T22:00:23+00:00,SAT-65220,112.55046024909788,64.8013176942046,511.04284602304745,1.7475062597727649,-61205.06116139196,10.5,10499938794.938839,47.655,-122.3035,60.0,5.9
2026-02-06T22:00:24+00:00,SAT-65220,111.00587201461818,64.35666576272934,512.7856674596936,1.8396788131046058,-64433.33386858705,10.5,10499935566.666132,47.655,-122.3035,60.0,5.916666666666667
2026-02-06T22:00:25+00:00,SAT-65220,109.52164252351463,63.8991275345707,514.6204143477761,1.9308667715113876,-67627.12189667417,10.5,10499932372.878103,47.655,-122.3035,60.0,5.933333333333334
2026-02-06T22:00:26+00:00,SAT-65220,108.0961949788973,63.42996075845407,516.5461047319326,2.021036330901079,-70785.2412833592,10.5,10499929214.758717,47.655,-122.3035,60.0,5.95
2026-02-06T22:00:27+00:00,SAT-65220,106.7277824437573,62.95036603242687,518.5617229433335,2.1101560782641124,-73906.5918121702,10.5,10499926093.408188,47.655,-122.3035,60.0,5.966666666666667
2026-02-06T22:00:28+00:00,SAT-65220,105.41453322232232,62.46148485567497,520.6662219843535,2.198196979285978,-76990.156578598,10.5,10499923009.843422,47.655,-122.3035,60.0,5.983333333333333
2026-02-06T22:00:29+00:00,SAT-65220,104.1544901850279,61.964398729702104,522.8585259008889,2.2851324378811624,-80035.0040752266,10.5,10499919964.995924,47.655,-122.3035,60.0,6.0
2026-02-06T22:00:30+00:00,SAT-65220,102.9456442759467,61.46012910125891,525.1375322140524,2.370938192935028,-83040.284575197,10.5,10499916959.715425,47.655,-122.3035,60.0,6.016666666666667
2026-02-06T22:00:31+00:00,SAT-65220,101.78596270365695,60.94963801281676,527.5021142488816,2.4555923697822837,-86005.2319352009,10.5,10499913994.768064,47.655,-122.3035,60.0,6.033333333333333
2026-02-06T22:00:32+00:00,SAT-65220,100.67341221880064,60.43382927500006,529.9511235143923,2.5390754116513743,-88929.16119437346,10.5,10499911070.838806,47.655,-122.3035,60.0,6.05
2026-02-06T22:00:33+00:00,SAT-65220,99.60597806756667,59.9135500589685,532.4833920152574,2.621370040593376,-91811.46720585763,10.5,10499908188.532795,47.655,-122.3035,60.0,6.066666666666666
2026-02-06T22:00:34+00:00,SAT-65220,98.58167913130292,59.38959279244738,535.097734524521,2.7024612113581865,-94651.62302135353,10.5,10499905348.376978,47.655,-122.3035,60.0,6.083333333333333
2026-02-06T22:00:35+00:00,SAT-65220,97.59857976428282,58.86269726994173,537.7929508103113,2.7823360630101037,-97449.17819649115,10.5,10499902550.821804,47.655,-122.3035,60.0,6.1
2026-02-06T22:00:36+00:00,SAT-65220,96.65479880806839,58.333552903069624,540.5678278142989,2.8609838411095296,-100203.75606530457,10.5,10499899796.243935,47.655,-122.3035,60.0,6.116666666666666
2026-02-06T22:00:37+00:00,SAT-65220,95.74851622754832,57.80280105632587,543.4211417525461,2.938395850919018,-102915.05210130966,10.5,10499897084.947899,47.655,-122.3035,60.0,6.133333333333334
2026-02-06T22:00:38+00:00,SAT-65220,94.87797774763614,57.27103741414838,546.3516601696875,3.0145653551984952,-105582.83033786059,10.5,10499894417.169662,47.655,-122.3035,60.0,6.15
2026-02-06T22:00:39+00:00,SAT-65220,94.04149785264646,56.738814351901354,549.3581438911785,3.0894875415712693,-108206.92222516927,10.5,10499891793.077774,47.655,-122.3035,60.0,6.166666666666667
2026-02-06T22:00:40+00:00,SAT-65220,93.23746142676575,56.20664326898972,552.4393489430001,3.1631594059316748,-110787.22254674794,10.5,10499889212.777452,47.655,-122.3035,60.0,6.183333333333334
2026-02-06T22:00:41+00:00,SAT-65220,92.46432431888609,55.674996877473134,555.5940283550806,3.2355796775604198,-113323.68679663185,10.5,10499886676.313204,47.655,-122.3035,60.0,6.2
2026-02-06T22:00:42+00:00,SAT-65220,91.72061303783573,55.14431142227004,558.8209338900353,3.3067487581033954,-115816.32904215906,10.5,10499884183.670958,47.655,-122.3035,60.0,6.216666666666667
2026-02-06T22:00:43+00:00,SAT-65220,91.00492376330476,54.61498881966045,562.1188177110497,3.3766686185038863,-118265.2183141005,10.5,10499881734.781687,47.655,-122.3035,60.0,6.233333333333333
2026-02-06T22:00:44+00:00,SAT-65220,90.31592083712809,54.08739871364243,565.4864339469675,3.445342709695709,-120670.47547875586,10.5,10499879329.52452,47.655,-122.3035,60.0,6.25
2026-02-06T22:00:45+00:00,SAT-65220,89.65233486136407,53.56188044300619,568.9225401683159,3.512775905265993,-123032.27122976162,10.5,10499876967.72877,47.655,-122.3035,60.0,6.266666666666667
2026-02-06T22:00:46+00:00,SAT-65220,89.01296050385614,53.03874491208185,572.425898806143,3.5789743485479795,-125350.82073263425,10.5,10499874649.179268,47.655,-122.3035,60.0,6.283333333333333
2026-02-06T22:00:47+00:00,SAT-65220,88.3966541163267,52.51827637916525,575.9952784183608,3.643945481485751,-127626.38463573484,10.5,10499872373.615364,47.655,-122.3035,60.0,6.3
2026-02-06T22:00:48+00:00,SAT-65220,87.8023312039125,52.00073413639881,579.6294549848751,3.7076978541684507,-129859.26239935207,10.5,10499870140.7376,47.655,-122.3035,60.0,6.316666666666666
2026-02-06T22:00:49+00:00,SAT-65220,87.22896384190042,51.4863541158031,583.3272130127589,3.7702410837208356,-132049.79085587527,10.5,10499867950.209145,47.655,-122.3035,60.0,6.333333333333333
2026-02-06T22:00:50+00:00,SAT-65220,86.67557805835735,50.97535040163539,587.0873466004275,3.831585796318186,-134198.3421789115,10.5,10499865801.657822,47.655,-122.3035,60.0,6.35
2026-02-06T22:00:51+00:00,SAT-65220,86.14125122303089,50.46791665544405,590.9086604439846,3.891743496572057,-136305.31930862184,10.5,10499863694.68069,47.655,-122.3035,60.0,6.366666666666666
2026-02-06T22:00:52+00:00,SAT-65220,85.62510948071332,49.9642274671275,594.789970713303,3.9507265673490926,-138371.15594537562,10.5,10499861628.844055,47.655,-122.3035,60.0,6.383333333333334
2026-02-06T22:00:53+00:00,SAT-65220,85.12632523194257,49.4644396183456,598.7301059279254,4.008548109622592,-140396.31094067486,10.5,10499859603.68906,47.655,-122.3035,60.0,6.4
2026-02-06T22:00:54+00:00,SAT-65220,84.64411469865917,48.96869328327256,602.7279076732455,4.065221929560548,-142381.26784492275,10.5,10499857618.732155,47.655,-122.3035,60.0,6.416666666666667
2026-02-06T22:00:55+00:00,SAT-65220,84.17773556665261,48.4771131512599,606.7822313038134,4.120762461391999,-144326.5322058769,10.5,10499855673.467794,47.655,-122.3035,60.0,6.433333333333334
2026-02-06T22:00:56+00:00,SAT-65220,83.72648472173972,47.98980948395717,610.8919465697119,4.175184688395108,-146232.62880131768,10.5,10499853767.371199,47.655,-122.3035,60.0,6.45
2026-02-06T22:00:57+00:00,SAT-65220,83.28969608452017,47.506879110727,615.0559381641328,4.228504068997562,-148100.099050772,10.5,10499851899.90095,47.655,-122.3035,60.0,6.466666666666667
2026-02-06T22:00:58+00:00,SAT-65220,82.86673854561805,47.02840636525442,619.273106197255,4.280736541648882,-149929.50118616145,10.5,10499850070.498814,47.655,-122.3035,60.0,6.483333333333333
2026-02-06T22:00:59+00:00,SAT-65220,82.45701399513099,46.55446395814103,623.5423666749772,4.331898371808532,-151721.40489267942,10.5,10499848278.595108,47.655,-122.3035,60.0,6.5
2026-02-06T22:01:00+00:00,SAT-65220,82.05995546127929,46.08511380694217,627.8626518250529,4.38200618441138,-153476.3924458683,10.5,10499846523.607553,47.655,-122.3035,60.0,6.516666666666667
2026-02-06T22:01:01+00:00,SAT-65220,81.67502533900254,45.62040780590344,632.2329104556006,4.431076851315313,-155195.05476955924,10.5,10499844804.94523,47.655,-122.3035,60.0,6.533333333333333
2026-02-06T22:01:02+00:00,SAT-65220,81.30171371994254,45.16038855485953,636.6521082013662,4.479127476050841,-156877.99090173852,10.5,10499843122.009098,47.655,-122.3035,60.0,6.55
2026-02-06T22:01:03+00:00,SAT-65220,80.93953681214917,44.705090039547905,641.1192277547733,4.526175369101273,-158525.80712875497,10.5,10499841474.192871,47.655,-122.3035,60.0,6.566666666666666
2026-02-06T22:01:04+00:00,SAT-65220,80.5880354478019,44.25453826763901,645.6332690723222,4.572237917137278,-160139.11240536082,10.5,10499839860.887594,47.655,-122.3035,60.0,6.583333333333333
2026-02-06T22:01:05+00:00,SAT-65220,80.24677368309128,43.808751873719395,650.1932494505725,4.6173326898977765,-161718.52209813317,10.5,10499838281.477901,47.655,-122.3035,60.0,6.6
2026-02-06T22:01:06+00:00,SAT-65220,79.91533746901916,43.36774267207139,654.7982037087206,4.661477240960302,-163264.65100760866,10.5,10499836735.348993,47.655,-122.3035,60.0,6.616666666666666
2026-02-06T22:01:07+00:00,SAT-65220,79.59333341173702,42.931516190087464,659.4471841724817,4.7046891861009925,-164778.11611278233,10.5,10499835221.883886,47.655,-122.3035,60.0,6.633333333333334
2026-02-06T22:01:08+00:00,SAT-65220,79.28038759855907,42.50007215720622,664.1392607361219,4.746986136509684,-166259.53423201753,10.5,10499833740.465769,47.655,-122.3035,60.0,6.65
2026-02-06T22:01:09+00:00,SAT-65220,78.97614449643396,42.073404965963874,668.8735208578835,4.788385669536524,-167709.52099846854,10.5,10499832290.479002,47.655,-122.3035,60.0,6.666666666666667
2026-02-06T22:01:10+00:00,SAT-65220,78.68026591643489,41.651504103488556,673.6490695262372,4.828905293921609,-169128.68964227542,10.5,10499830871.310358,47.655,-122.3035,60.0,6.683333333333334
2026-02-06T22:01:11+00:00,SAT-65220,78.39243004102082,41.234354555838586,678.4650291914547,4.868562431848481,-170517.65036200162,10.5,10499829482.349638,47.655,-122.3035,60.0,6.7
2026-02-06T22:01:12+00:00,SAT-65220,78.11233050944524,40.82193718551528,683.320539679285,4.9073744183057935,-171877.0103022766,10.5,10499828122.989698,47.655,-122.3035,60.0,6.716666666666667
2026-02-06T22:01:13+00:00,SAT-65220,77.83967555735204,40.4142290825371,688.2147581039931,4.945358408470487,-173207.3703099633,10.5,10499826792.62969,47.655,-122.3035,60.0,6.733333333333333
2026-02-06T22:01:14+00:00,SAT-65220,77.57418721201292,40.011203898371804,693.1468586890298,4.9825314764067405,-174509.32839101233,10.5,10499825490.67161,47.655,-122.3035,60.0,6.75
