DopplerPredictor/satellites_20260211_210122/SAT-53473.csv

timestamp,satellite,azimuth_deg,elevation_deg,distance_km,relative_velocity_kms,doppler_shift_hz,tx_freq_ghz,rx_freq_hz,ue_lat,ue_lon,ue_alt_m,time_minutes
2026-02-06T21:54:29+00:00,SAT-53473,135.04369787570462,41.169200575656774,804.130215740029,3.092517543467819,-108313.04570848176,10.5,10499891686.954292,47.655,-122.3035,60.0,0.0
2026-02-06T21:54:30+00:00,SAT-53473,135.63122065514028,40.939829849224,807.21444267073,3.1468931395326045,-110217.50909121385,10.5,10499889782.49091,47.655,-122.3035,60.0,0.016666666666666666
2026-02-06T21:54:31+00:00,SAT-53473,136.21022538390696,40.70890819801782,810.352899424027,3.2006365751183097,-112099.83153993238,10.5,10499887900.16846,47.655,-122.3035,60.0,0.03333333333333333
2026-02-06T21:54:32+00:00,SAT-53473,136.78078424096825,40.47655891187191,813.5449555341752,3.253746969283142,-113959.9822003294,10.5,10499886040.0178,47.655,-122.3035,60.0,0.05
2026-02-06T21:54:33+00:00,SAT-53473,137.34297389129964,40.24290201980084,816.7899796568506,3.306223903948494,-115797.94642952355,10.5,10499884202.05357,47.655,-122.3035,60.0,0.06666666666666667
2026-02-06T21:54:34+00:00,SAT-53473,137.896875096846,40.00805425178082,820.0873400307717,3.3580673394245624,-117613.7228374101,10.5,10499882386.277163,47.655,-122.3035,60.0,0.08333333333333333
