DopplerPredictor/satellites_20260211_210122/SAT-48295.csv

timestamp,satellite,azimuth_deg,elevation_deg,distance_km,relative_velocity_kms,doppler_shift_hz,tx_freq_ghz,rx_freq_hz,ue_lat,ue_lon,ue_alt_m,time_minutes
2026-02-06T21:57:39+00:00,SAT-48295,297.9279654818243,40.3592323761824,811.4715991941814,-5.114288032477439,179124.00031428778,10.5,10500179124.000315,47.655,-122.3035,60.0,3.1666666666666665
2026-02-06T21:57:40+00:00,SAT-48295,297.9280127755105,40.72798448492163,806.3710218621474,-5.085919653090374,178130.41967002695,10.5,10500178130.41967,47.655,-122.3035,60.0,3.183333333333333
2026-02-06T21:57:41+00:00,SAT-48295,297.92798372755936,41.1010357411295,801.2987368577899,-5.057003258652512,177117.6452205858,10.5,10500177117.64522,47.655,-122.3035,60.0,3.2
2026-02-06T21:57:42+00:00,SAT-48295,297.92787557817843,41.47844369940028,796.2552907270074,-5.02752804015587,176085.29838878283,10.5,10500176085.29839,47.655,-122.3035,60.0,3.216666666666667
2026-02-06T21:57:43+00:00,SAT-48295,297.9276854311631,41.86026610833194,791.2412407957282,-4.997483045171453,175032.99557422576,10.5,10500175032.995575,47.655,-122.3035,60.0,3.2333333333333334
2026-02-06T21:57:44+00:00,SAT-48295,297.927410245296,42.24656086569166,786.2571553129482,-4.966857258186214,173960.35096705216,10.5,10500173960.350967,47.655,-122.3035,60.0,3.25
2026-02-06T21:57:45+00:00,SAT-48295,297.9270468254187,42.63738597639056,781.3036135136449,-4.935639485785157,172866.97252652084,10.5,10500172866.972527,47.655,-122.3035,60.0,3.2666666666666666
2026-02-06T21:57:46+00:00,SAT-48295,297.92659181235075,43.03279949805761,776.3812057962026,-4.903818409154128,171752.4638198815,10.5,10500171752.46382,47.655,-122.3035,60.0,3.283333333333333
2026-02-06T21:57:47+00:00,SAT-48295,297.92604167227904,43.43285948662192,771.4905338474767,-4.871382627758628,170616.42555219182,10.5,10500170616.425552,47.655,-122.3035,60.0,3.3
2026-02-06T21:57:48+00:00,SAT-48295,297.92539268533847,43.83762394141603,766.6322107242923,-4.8383205819676105,169458.45285627534,10.5,10500169458.452856,47.655,-122.3035,60.0,3.316666666666667
2026-02-06T21:57:49+00:00,SAT-48295,297.92464093304443,44.24715073966776,761.8068610121168,-4.804620667654883,168278.13930654747,10.5,10500168278.139307,47.655,-122.3035,60.0,3.3333333333333335
2026-02-06T21:57:50+00:00,SAT-48295,297.92378228503543,44.66149757596819,757.0151208694341,-4.770271168331818,167075.07454201562,10.5,10500167075.074541,47.655,-122.3035,60.0,3.35
2026-02-06T21:57:51+00:00,SAT-48295,297.92281238447305,45.0807218915028,752.2576381398071,-4.735260246289077,165848.84395602543,10.5,10500165848.843956,47.655,-122.3035,60.0,3.3666666666666667
2026-02-06T21:57:52+00:00,SAT-48295,297.9217266322233,45.504880797323295,747.5350724727723,-4.699576071303277,164599.03320411217,10.5,10500164599.033205,47.655,-122.3035,60.0,3.3833333333333333
2026-02-06T21:57:53+00:00,SAT-48295,297.92052016992733,45.934031003862245,742.8480953163748,-4.663206694582851,163325.22378905187,10.5,10500163325.22379,47.655,-122.3035,60.0,3.4
2026-02-06T21:57:54+00:00,SAT-48295,297.91918786140104,46.36822873400098,738.1973900354175,-4.626140145251925,162026.99644013462,10.5,10500162026.99644,47.655,-122.3035,60.0,3.4166666666666665
2026-02-06T21:57:55+00:00,SAT-48295,297.9177242724547,46.80752963908994,733.5836519334877,-4.58836441757062,160703.93066556568,10.5,10500160703.930666,47.655,-122.3035,60.0,3.433333333333333
2026-02-06T21:57:56+00:00,SAT-48295,297.91612364902363,47.251988708084106,729.0075882877264,-4.549867492266694,159355.6054995896,10.5,10500159355.6055,47.655,-122.3035,60.0,3.45
2026-02-06T21:57:57+00:00,SAT-48295,297.9143798932464,47.701660172652566,724.4699183623246,-4.510637326399469,157981.5991474823,10.5,10500157981.599148,47.655,-122.3035,60.0,3.466666666666667
2026-02-06T21:57:58+00:00,SAT-48295,297.9124865373955,48.15659740493144,719.9713734321294,-4.47066195791526,156581.49264752422,10.5,10500156581.492647,47.655,-122.3035,60.0,3.4833333333333334
2026-02-06T21:57:59+00:00,SAT-48295,297.9104367154955,48.61685281927521,715.512696701972,-4.4299293476353565,155154.86433675143,10.5,10500155154.864336,47.655,-122.3035,60.0,3.5
2026-02-06T21:58:00+00:00,SAT-48295,297.9082231319415,49.08247775121468,711.0946433835873,-4.388427625402374,153701.29847204138,10.5,10500153701.298471,47.655,-122.3035,60.0,3.5166666666666666
2026-02-06T21:58:01+00:00,SAT-48295,297.90583802767753,49.55352235459275,706.7179805270456,-4.34614494462698,152220.38013572473,10.5,10500152220.380136,47.655,-122.3035,60.0,3.533333333333333
2026-02-06T21:58:02+00:00,SAT-48295,297.90327314264647,50.03003547682506,702.383486997247,-4.30306951050502,150711.69622386803,10.5,10500150711.696224,47.655,-122.3035,60.0,3.55
2026-02-06T21:58:03+00:00,SAT-48295,297.90051967455383,50.512064529158955,698.0919534222761,-4.259189741188497,149174.84109116322,10.5,10500149174.841091,47.655,-122.3035,60.0,3.566666666666667
2026-02-06T21:58:04+00:00,SAT-48295,297.8975682339342,50.99965536717558,693.8441819810156,-4.214494131460313,147609.4117762405,10.5,10500147609.411776,47.655,-122.3035,60.0,3.5833333333333335
2026-02-06T21:58:05+00:00,SAT-48295,297.894408794157,51.492852148613856,689.6409863267214,-4.168971357011565,146015.01165390038,10.5,10500146015.011654,47.655,-122.3035,60.0,3.6
2026-02-06T21:58:06+00:00,SAT-48295,297.89103063641727,51.99169719464522,685.4831914066,-4.122610312964607,144391.251784354,10.5,10500144391.251785,47.655,-122.3035,60.0,3.6166666666666667
2026-02-06T21:58:07+00:00,SAT-48295,297.88742228911303,52.49623084774299,681.3716332429642,-4.07540009121521,142737.75011965013,10.5,10500142737.75012,47.655,-122.3035,60.0,3.6333333333333333
2026-02-06T21:58:08+00:00,SAT-48295,297.8835714604273,53.00649131855659,677.3071587369882,-4.027330064791961,141054.1344582978,10.5,10500141054.134459,47.655,-122.3035,60.0,3.65
2026-02-06T21:58:09+00:00,SAT-48295,297.8794649638081,53.52251453456632,673.2906253883285,-3.9783898899220613,139340.04251761944,10.5,10500139340.042517,47.655,-122.3035,60.0,3.6666666666666665
2026-02-06T21:58:10+00:00,SAT-48295,297.87508863501336,54.04433398067161,669.3229010126835,-3.928569498999577,137595.12168746942,10.5,10500137595.121687,47.655,-122.3035,60.0,3.683333333333333
2026-02-06T21:58:11+00:00,SAT-48295,297.8704272396245,54.571980529857385,665.4048634663679,-3.877859271035508,135819.0350001161,10.5,10500135819.035,47.655,-122.3035,60.0,3.7
2026-02-06T21:58:12+00:00,SAT-48295,297.8654643703882,55.10548228774826,661.5374002008937,-3.8262498832872076,134011.4559336769,10.5,10500134011.455935,47.655,-122.3035,60.0,3.716666666666667
2026-02-06T21:58:13+00:00,SAT-48295,297.86018233178817,55.644864408781174,657.7214079655213,-3.77373248745729,132172.07458334908,10.5,10500132172.074583,47.655,-122.3035,60.0,3.7333333333333334
2026-02-06T21:58:14+00:00,SAT-48295,297.85456201123094,56.190148927214516,653.9577923340875,-3.7202986873812605,130300.5968799363,10.5,10500130300.59688,47.655,-122.3035,60.0,3.75
2026-02-06T21:58:15+00:00,SAT-48295,297.8485827343002,56.74135457671556,650.2474672540858,-3.6659406039710096,128396.74686444447,10.5,10500128396.746864,47.655,-122.3035,60.0,3.7666666666666666
2026-02-06T21:58:16+00:00,SAT-48295,297.8422221018897,57.298496610636455,646.5913545309744,-3.6106508842178027,126460.2670034045,10.5,10500126460.267004,47.655,-122.3035,60.0,3.783333333333333
2026-02-06T21:58:17+00:00,SAT-48295,297.83545580649104,57.861586615080014,642.9903833035072,-3.5544227779535373,124490.92087737624,10.5,10500124490.920877,47.655,-122.3035,60.0,3.8
2026-02-06T21:58:18+00:00,SAT-48295,297.82825742462273,58.43063232514362,639.4454894425112,-3.497250142055501,122488.49332821694,10.5,10500122488.493328,47.655,-122.3035,60.0,3.816666666666667
2026-02-06T21:58:19+00:00,SAT-48295,297.8205981812365,59.0056374336383,635.9576149454658,-3.4391275468097775,120452.79418437759,10.5,10500120452.794184,47.655,-122.3035,60.0,3.8333333333333335
2026-02-06T21:58:20+00:00,SAT-48295,297.8124466825533,59.58660140900902,632.5277072250096,-3.380050250573576,118383.6573734705,10.5,10500118383.657373,47.655,-122.3035,60.0,3.85
2026-02-06T21:58:21+00:00,SAT-48295,297.80376861093896,60.17351930179476,629.1567184227108,-3.3200142456358317,116280.94252850162,10.5,10500116280.942528,47.655,-122.3035,60.0,3.8666666666666667
2026-02-06T21:58:22+00:00,SAT-48295,297.79452637634154,60.766381550803445,625.8456046771054,-3.259016401002571,114144.53998881785,10.5,10500114144.53999,47.655,-122.3035,60.0,3.8833333333333333
2026-02-06T21:58:23+00:00,SAT-48295,297.78467871706636,61.36517380760315,622.5953252493298,-3.197054380151832,111974.36791953664,10.5,10500111974.36792,47.655,-122.3035,60.0,3.9
2026-02-06T21:58:24+00:00,SAT-48295,297.77418023995784,61.969876740490015,619.4068417307776,-3.13412677864954,109770.37713143595,10.5,10500109770.37713,47.655,-122.3035,60.0,3.9166666666666665
2026-02-06T21:58:25+00:00,SAT-48295,297.76298089021304,62.5804658573618,616.281117113512,-3.0702331059078496,107532.55044205423,10.5,10500107532.550442,47.655,-122.3035,60.0,3.933333333333333
2026-02-06T21:58:26+00:00,SAT-48295,297.75102533710754,63.19691132020974,613.219114878869,-3.0053738899519806,105260.90634506822,10.5,10500105260.906345,47.655,-122.3035,60.0,3.95
2026-02-06T21:58:27+00:00,SAT-48295,297.7382522601913,63.819177775383366,610.2217979815744,-2.939550663793703,102955.49853303474,10.5,10500102955.498533,47.655,-122.3035,60.0,3.966666666666667
2026-02-06T21:58:28+00:00,SAT-48295,297.72459351614435,64.44722417758905,607.2901278474523,-2.8727660841688807,100616.42005608176,10.5,10500100616.420055,47.655,-122.3035,60.0,3.9833333333333334
2026-02-06T21:58:29+00:00,SAT-48295,297.70997316303385,65.08100363572476,604.4250632527131,-2.80502385259036,98243.8005568465,10.5,10500098243.800556,47.655,-122.3035,60.0,4.0
2026-02-06T21:58:30+00:00,SAT-48295,297.69430631124146,65.7204632396792,601.6275592819783,-2.736328920389742,95837.81345190576,10.5,10500095837.813452,47.655,-122.3035,60.0,4.016666666666667
2026-02-06T21:58:31+00:00,SAT-48295,297.67749776648077,66.36554393106773,598.8985660818106,-2.6666873834965794,93398.67224649823,10.5,10500093398.672247,47.655,-122.3035,60.0,4.033333333333333
2026-02-06T21:58:32+00:00,SAT-48295,297.65944041683395,67.016180351238,596.2390277191863,-2.5961065757735717,90926.63380351785,10.5,10500090926.633804,47.655,-122.3035,60.0,4.05
2026-02-06T21:58:33+00:00,SAT-48295,297.6400133076632,67.67230071083972,593.6498809468799,-2.524595152681989,88422.00127383086,10.5,10500088422.001274,47.655,-122.3035,60.0,4.066666666666666
2026-02-06T21:58:34+00:00,SAT-48295,297.6190793310878,68.33382668297098,591.1320538854081,-2.452163040508487,85885.1223179841,10.5,10500085885.122318,47.655,-122.3035,60.0,4.083333333333333
2026-02-06T21:58:35+00:00,SAT-48295,297.59648243625696,69.00067328760058,588.6864647556126,-2.378821513471954,83316.39180681296,10.5,10500083316.391808,47.655,-122.3035,60.0,4.1
2026-02-06T21:58:36+00:00,SAT-48295,297.57204424105964,69.6727487999087,586.3140205343408,-2.3045832262592345,80716.25296097997,10.5,10500080716.25296,47.655,-122.3035,60.0,4.116666666666666
2026-02-06T21:58:37+00:00,SAT-48295,297.54555988975284,70.34995467407569,584.0156155776787,-2.2294622090640104,78085.19717721554,10.5,10500078085.197178,47.655,-122.3035,60.0,4.133333333333334
2026-02-06T21:58:38+00:00,SAT-48295,297.5167929527273,71.03218547297953,581.7921302491314,-2.1534739188624967,75423.76582420968,10.5,10500075423.765823,47.655,-122.3035,60.0,4.15
2026-02-06T21:58:39+00:00,SAT-48295,297.48546910046525,71.71932882121014,579.644429496666,-2.076635236696495,72732.55014745299,10.5,10500072732.550148,47.655,-122.3035,60.0,4.166666666666667
2026-02-06T21:58:40+00:00,SAT-48295,297.4512681927817,72.41126536727624,577.5733614324635,-1.9989644721997266,70012.1914277681,10.5,10500070012.191427,47.655,-122.3035,60.0,4.183333333333334
2026-02-06T21:58:41+00:00,SAT-48295,297.4138143006554,73.10786875707053,575.5797559081566,-1.9204814047684629,67263.38242327917,10.5,10500067263.382423,47.655,-122.3035,60.0,4.2
2026-02-06T21:58:42+00:00,SAT-48295,297.372663001742,73.80900563216927,573.6644230490077,-1.8412072513904487,64486.866242644806,10.5,10500064486.866243,47.655,-122.3035,60.0,4.216666666666667
2026-02-06T21:58:43+00:00,SAT-48295,297.3272850385083,74.51453562861613,571.8281518201717,-1.7611646772569802,61683.43671673786,10.5,10500061683.436716,47.655,-122.3035,60.0,4.233333333333333
2026-02-06T21:58:44+00:00,SAT-48295,297.2770450638157,75.22431138914276,570.0717085823737,-1.680377786870199,58853.93808718527,10.5,10500058853.938087,47.655,-122.3035,60.0,4.25
2026-02-06T21:58:45+00:00,SAT-48295,297.221173660755,75.93817858019436,568.395835656458,-1.5988721181890364,55999.26480133427,10.5,10500055999.264801,47.655,-122.3035,60.0,4.266666666666667
2026-02-06T21:58:46+00:00,SAT-48295,297.1587300145655,76.65597591130255,566.8012498937735,-1.5166746094466563,53120.36035005888,10.5,10500053120.36035,47.655,-122.3035,60.0,4.283333333333333
2026-02-06T21:58:47+00:00,SAT-48295,297.0885513807336,77.37753513806737,565.2886412796536,-1.4338135892668509,50218.21692159425,10.5,10500050218.21692,47.655,-122.3035,60.0,4.3
2026-02-06T21:58:48+00:00,SAT-48295,297.00918355887956,78.10268104662899,563.8586715467532,-1.3503187224421356,47293.873502456234,10.5,10500047293.873503,47.655,-122.3035,60.0,4.316666666666666
2026-02-06T21:58:49+00:00,SAT-48295,296.91878348794654,78.83123137867928,562.511972842462,-1.2662210107233343,44348.41590509595,10.5,10500044348.415905,47.655,-122.3035,60.0,4.333333333333333
2026-02-06T21:58:50+00:00,SAT-48295,296.81497999172007,79.56299669161017,561.2491463955299,-1.1815527092429012,41382.973840691026,10.5,10500041382.97384,47.655,-122.3035,60.0,4.35
2026-02-06T21:58:51+00:00,SAT-48295,296.6946700847425,80.29778005544958,560.070761266046,-1.0963472974190205,38398.71990008406,10.5,10500038398.7199,47.655,-122.3035,60.0,4.366666666666666
2026-02-06T21:58:52+00:00,SAT-48295,296.55371315656026,81.03537651899714,558.9773531244356,-1.0106394416322648,35396.86824656136,10.5,10500035396.868246,47.655,-122.3035,60.0,4.383333333333334
2026-02-06T21:58:53+00:00,SAT-48295,296.3864578825678,81.77557218112281,557.969423067678,-0.9244648938767271,32378.671066186846,10.5,10500032378.671066,47.655,-122.3035,60.0,4.4
2026-02-06T21:58:54+00:00,SAT-48295,296.18498447480533,82.518142524172,557.0474365366057,-0.8378604641998979,29345.417602529975,10.5,10500029345.417603,47.655,-122.3035,60.0,4.416666666666667
2026-02-06T21:58:55+00:00,SAT-48295,295.93784030630246,83.2628494901108,556.2118222606856,-0.7508639299355028,26298.430977615786,10.5,10500026298.430977,47.655,-122.3035,60.0,4.433333333333334
2026-02-06T21:58:56+00:00,SAT-48295,295.627824532501,84.00943611502886,555.462971293327,-0.6635139622855045,23239.065620516034,10.5,10500023239.06562,47.655,-122.3035,60.0,4.45
2026-02-06T21:58:57+00:00,SAT-48295,295.22786858721713,84.75761627729742,554.8012361204093,-0.5758500539007542,20168.704730917274,10.5,10500020168.704731,47.655,-122.3035,60.0,4.466666666666667
2026-02-06T21:58:58+00:00,SAT-48295,294.69278713965866,85.50705382251043,554.2269298410358,-0.48791242440592286,17088.756970204337,10.5,10500017088.75697,47.655,-122.3035,60.0,4.483333333333333
2026-02-06T21:58:59+00:00,SAT-48295,293.9411133212604,86.25731608541757,553.7403254425077,-0.3997419322469404,14000.653373984725,10.5,10500014000.653374,47.655,-122.3035,60.0,4.5
2026-02-06T21:59:00+00:00,SAT-48295,292.8096856332936,87.00775687369762,553.3416551632168,-0.3113799917234187,10905.844446213176,10.5,10500010905.844446,47.655,-122.3035,60.0,4.516666666666667
2026-02-06T21:59:01+00:00,SAT-48295,290.91777663675043,87.75716424033342,553.0311099382807,-0.22286846753724346,7805.79646583723,10.5,10500007805.796465,47.655,-122.3035,60.0,4.533333333333333
2026-02-06T21:59:02+00:00,SAT-48295,287.13027429401114,88.50235563163827,552.808838950349,-0.13424958013200436,4701.988171383703,10.5,10500004701.98817,47.655,-122.3035,60.0,4.55
2026-02-06T21:59:03+00:00,SAT-48295,276.04504815977526,89.22870671420398,552.674949274815,-0.04556580911567505,1595.907378412395,10.5,10500001595.90738,47.655,-122.3035,60.0,4.566666666666666
2026-02-06T21:59:04+00:00,SAT-48295,200.20550463109456,89.7028837899911,552.6295056213454,0.043140213066585824,-1510.9527445121755,10.5,10499998489.047255,47.655,-122.3035,60.0,4.583333333333333
2026-02-06T21:59:05+00:00,SAT-48295,138.67855158272894,89.14923948316829,552.6725301814541,0.13182579998289476,-4617.097137982019,10.5,10499995382.902863,47.655,-122.3035,60.0,4.6
2026-02-06T21:59:06+00:00,SAT-48295,129.17675922261438,88.41862826820619,552.8040025746592,0.2204483145989321,-7721.032472700788,10.5,10499992278.967527,47.655,-122.3035,60.0,4.616666666666666
2026-02-06T21:59:07+00:00,SAT-48295,125.72068115915533,87.67255437565777,553.0238598977485,0.30896526994369977,-10821.270675224416,10.5,10499989178.729324,47.655,-122.3035,60.0,4.633333333333334
2026-02-06T21:59:08+00:00,SAT-48295,123.94796498080898,86.92281046635304,553.3319968744407,0.3973344352242208,-13916.332644546776,10.5,10499986083.667355,47.655,-122.3035,60.0,4.65
2026-02-06T21:59:09+00:00,SAT-48295,122.87227947646629,86.17218929425316,553.7282661108763,0.4855139287002874,-17004.751504966203,10.5,10499982995.248495,47.655,-122.3035,60.0,4.666666666666667
2026-02-06T21:59:10+00:00,SAT-48295,122.15103470462941,85.4218039207689,554.2124784437345,0.5734623185566841,-20085.076139057448,10.5,10499979914.92386,47.655,-122.3035,60.0,4.683333333333334
2026-02-06T21:59:11+00:00,SAT-48295,121.63434796976159,84.6722663079826,554.784403388953,0.6611387249022584,-23155.87476011059,10.5,10499976844.12524,47.655,-122.3035,60.0,4.7
2026-02-06T21:59:12+00:00,SAT-48295,121.2463459893289,83.92399479485907,555.4437696921709,0.7485028988442808,-26215.737681649578,10.5,10499973784.262318,47.655,-122.3035,60.0,4.716666666666667
2026-02-06T21:59:13+00:00,SAT-48295,120.94452906990435,83.1773187342729,556.1902659580369,0.8355153229284246,-29263.280835265236,10.5,10499970736.719164,47.655,-122.3035,60.0,4.733333333333333
2026-02-06T21:59:14+00:00,SAT-48295,120.70324773193437,82.4325207196735,557.0235413796855,0.9221372920673648,-32297.148605077084,10.5,10499967702.851395,47.655,-122.3035,60.0,4.75
2026-02-06T21:59:15+00:00,SAT-48295,120.50610803108306,81.6898557779543,557.9432065489277,1.008330989302179,-35316.01648121808,10.5,10499964683.983519,47.655,-122.3035,60.0,4.766666666666667
2026-02-06T21:59:16+00:00,SAT-48295,120.34214355892031,80.94956087059113,558.9488343419973,1.0940595789742131,-38318.594323107485,10.5,10499961681.405678,47.655,-122.3035,60.0,4.783333333333333
2026-02-06T21:59:17+00:00,SAT-48295,120.20374163646264,80.21185988180319,560.0399608982206,1.1792872543116695,-41303.62802613444,10.5,10499958696.371973,47.655,-122.3035,60.0,4.8
2026-02-06T21:59:18+00:00,SAT-48295,120.08545263788378,79.47696637128884,561.2160866461451,1.2639793118548959,-44269.90212834643,10.5,10499955730.097872,47.655,-122.3035,60.0,4.816666666666666
2026-02-06T21:59:19+00:00,SAT-48295,119.98327284668436,78.74508512089332,562.476677403894,1.3481022332297736,-47216.24267449925,10.5,10499952783.757326,47.655,-122.3035,60.0,4.833333333333333
2026-02-06T21:59:20+00:00,SAT-48295,119.8941948302997,78.01641300349237,563.8211655610745,1.4316237084561358,-50141.51803241637,10.5,10499949858.481968,47.655,-122.3035,60.0,4.85
2026-02-06T21:59:21+00:00,SAT-48295,119.81591574836679,77.29113948754527,565.2489512839325,1.514512685325512,-53044.640622406434,10.5,10499946955.359377,47.655,-122.3035,60.0,4.866666666666666
2026-02-06T21:59:22+00:00,SAT-48295,119.74664245747014,76.56944691259427,566.7594037697512,1.5967394530070915,-55924.56984549778,10.5,10499944075.430155,47.655,-122.3035,60.0,4.883333333333334
2026-02-06T21:59:23+00:00,SAT-48295,119.68495790506668,75.85151061103453,568.3518625846349,1.6782756332768025,-58780.31177624364,10.5,10499941219.688223,47.655,-122.3035,60.0,4.9
2026-02-06T21:59:24+00:00,SAT-48295,119.62972745384505,75.13749897422566,570.025638992541,1.759094230742258,-61610.920921812205,10.5,10499938389.079079,47.655,-122.3035,60.0,4.916666666666667
2026-02-06T21:59:25+00:00,SAT-48295,119.58003187282799,74.42757346346944,571.7800173344056,1.8391696582308106,-64415.50111118377,10.5,10499935584.498888,47.655,-122.3035,60.0,4.933333333333334
2026-02-06T21:59:26+00:00,SAT-48295,119.53511854060723,73.72188859795901,573.6142564325881,1.9184777437661402,-67193.2057395002,10.5,10499932806.79426,47.655,-122.3035,60.0,4.95
2026-02-06T21:59:27+00:00,SAT-48295,119.49436533866727,73.0205919381654,575.5275910022731,1.9969957903618973,-69943.2398622914,10.5,10499930056.760138,47.655,-122.3035,60.0,4.966666666666667
2026-02-06T21:59:28+00:00,SAT-48295,119.4572535408938,72.32382405235568,577.5192331225065,2.0747025039125595,-72664.85766990801,10.5,10499927335.14233,47.655,-122.3035,60.0,4.983333333333333
2026-02-06T21:59:29+00:00,SAT-48295,119.42334719524983,71.63171851849967,579.5883736353151,2.1515780561999787,-75357.36469427719,10.5,10499924642.635305,47.655,-122.3035,60.0,5.0
2026-02-06T21:59:30+00:00,SAT-48295,119.39227724693932,70.9444019130157,581.7341836076641,2.2276040936822774,-78020.11811672698,10.5,10499921979.881884,47.655,-122.3035,60.0,5.016666666666667
2026-02-06T21:59:31+00:00,SAT-48295,119.36372918079874,70.26199380989564,583.9558158021803,2.3027636654675483,-80652.5242453206,10.5,10499919347.475754,47.655,-122.3035,60.0,5.033333333333333
2026-02-06T21:59:32+00:00,SAT-48295,119.33743330705778,69.58460681411809,586.2524060760422,2.377041261598684,-83254.03985575307,10.5,10499916745.960144,47.655,-122.3035,60.0,5.05
2026-02-06T21:59:33+00:00,SAT-48295,119.31315705037818,68.91234659279766,588.6230748180502,2.450422809939892,-85824.1720823039,10.5,10499914175.827917,47.655,-122.3035,60.0,5.066666666666666
2026-02-06T21:59:34+00:00,SAT-48295,119.29069877750007,68.24531191848351,591.066928382595,2.5228955863494917,-88362.47527170833,10.5,10499911637.524729,47.655,-122.3035,60.0,5.083333333333333
2026-02-06T21:59:35+00:00,SAT-48295,119.26988281828886,67.58359474642458,593.5830604340372,2.5944482856840563,-90868.5534700229,10.5,10499909131.44653,47.655,-122.3035,60.0,5.1
2026-02-06T21:59:36+00:00,SAT-48295,119.25055541644208,66.92728027984138,596.1705533619012,2.665070897051555,-93342.05605346257,10.5,10499906657.943947,47.655,-122.3035,60.0,5.116666666666666
2026-02-06T21:59:37+00:00,SAT-48295,119.2325814168095,66.27644707494755,598.8284795716573,2.7347547482986165,-95782.6792865332,10.5,10499904217.320713,47.655,-122.3035,60.0,5.133333333333334
2026-02-06T21:59:38+00:00,SAT-48295,119.21584153470236,65.63116713900564,601.5559028198721,2.803492451084561,-98190.16439829148,10.5,10499901809.835602,47.655,-122.3035,60.0,5.15
2026-02-06T21:59:39+00:00,SAT-48295,119.20023009267331,64.99150604671267,604.3518794945771,2.8712778318493934,-100564.29516455224,10.5,10499899435.704836,47.655,-122.3035,60.0,5.166666666666667
2026-02-06T21:59:40+00:00,SAT-48295,119.18565313483325,64.357523075191,607.2154598267956,2.938105937634065,-102904.89811173863,10.5,10499897095.101889,47.655,-122.3035,60.0,5.183333333333334
2026-02-06T21:59:41+00:00,SAT-48295,119.17202684506866,63.729271338797034,610.1456891078697,3.0039729842797933,-105211.84070260309,10.5,10499894788.159298,47.655,-122.3035,60.0,5.2
2026-02-06T21:59:42+00:00,SAT-48295,119.15927621521888,63.10679793632147,613.1416088551267,3.068876292097477,-107485.02908309824,10.5,10499892514.970917,47.655,-122.3035,60.0,5.216666666666667
2026-02-06T21:59:43+00:00,SAT-48295,119.1473339179102,62.49014411111627,616.2022579133901,3.132814281149763,-109724.40791713481,10.5,10499890275.592083,47.655,-122.3035,60.0,5.233333333333333
2026-02-06T21:59:44+00:00,SAT-48295,119.13613934778792,61.87934541049983,619.3266735517805,3.1957863945952427,-111929.95770177129,10.5,10499888070.042297,47.655,-122.3035,60.0,5.25
2026-02-06T21:59:45+00:00,SAT-48295,119.12563780307221,61.274431858277694,622.5138924840703,3.257793048144855,-114101.69299696319,10.5,10499885898.307003,47.655,-122.3035,60.0,5.266666666666667
2026-02-06T21:59:46+00:00,SAT-48295,119.115779784243,60.67542813319822,625.7629518386286,3.31883565968271,-116239.66346300965,10.5,10499883760.336536,47.655,-122.3035,60.0,5.283333333333333
2026-02-06T21:59:47+00:00,SAT-48295,119.10652038912873,60.08235373808724,629.0728901579071,3.378916476022866,-118343.94779284306,10.5,10499881656.052208,47.655,-122.3035,60.0,5.3
2026-02-06T21:59:48+00:00,SAT-48295,119.097818792282,59.49522319605786,632.4427482251482,3.438038652713427,-120414.65650710594,10.5,10499879585.343493,47.655,-122.3035,60.0,5.316666666666666
2026-02-06T21:59:49+00:00,SAT-48295,119.08963779183354,58.914046226368264,635.8715699706829,3.4962061372680946,-122451.9278644261,10.5,10499877548.072136,47.655,-122.3035,60.0,5.333333333333333
2026-02-06T21:59:50+00:00,SAT-48295,119.08194341642222,58.33882793521556,639.3584032617734,3.5534236123878578,-124455.9258728,10.5,10499875544.074127,47.655,-122.3035,60.0,5.35
2026-02-06T21:59:51+00:00,SAT-48295,119.07470458239273,57.76956900893151,642.9023006358292,3.6096965224955286,-126426.84121894439,10.5,10499873573.158781,47.655,-122.3035,60.0,5.366666666666666
2026-02-06T21:59:52+00:00,SAT-48295,119.06789279272104,57.2062658958382,646.5023200600858,3.665030973977026,-128364.8877743241,10.5,10499871635.112226,47.655,-122.3035,60.0,5.383333333333334
2026-02-06T21:59:53+00:00,SAT-48295,119.06148187375872,56.648910997187784,650.1575255917959,3.7194336761691873,-130270.3005282957,10.5,10499869729.699472,47.655,-122.3035,60.0,5.4
2026-02-06T21:59:54+00:00,SAT-48295,119.0554477433077,56.09749285910309,653.8669879795611,3.772911973906287,-132143.33672802406,10.5,10499867856.663273,47.655,-122.3035,60.0,5.416666666666667
2026-02-06T21:59:55+00:00,SAT-48295,119.049768205472,55.551996351660875,657.6297852971273,3.8254737142161495,-133984.27120961653,10.5,10499866015.72879,47.655,-122.3035,60.0,5.433333333333334
2026-02-06T21:59:56+00:00,SAT-48295,119.044422769835,55.0124028597239,661.4450034442307,3.8771272720823267,-135793.39730042318,10.5,10499864206.6027,47.655,-122.3035,60.0,5.45
2026-02-06T21:59:57+00:00,SAT-48295,119.03939249063289,54.478690461303664,665.3117366731403,3.9278814899163805,-137571.02469910032,10.5,10499862428.975302,47.655,-122.3035,60.0,5.466666666666667
2026-02-06T21:59:58+00:00,SAT-48295,119.0346598237963,53.950834106241494,669.2290880548298,3.977745648524314,-139317.47845873193,10.5,10499860682.521542,47.655,-122.3035,60.0,5.483333333333333
2026-02-06T21:59:59+00:00,SAT-48295,119.03020849969704,53.428805790382285,673.1961699161993,4.026729372406928,-141033.09567004765,10.5,10499858966.90433,47.655,-122.3035,60.0,5.5
2026-02-06T22:00:00+00:00,SAT-48295,119.0260234097801,52.9125747335833,677.2121041828475,4.0748427140846655,-142718.22841483552,10.5,10499857281.771585,47.655,-122.3035,60.0,5.516666666666667
2026-02-06T22:00:01+00:00,SAT-48295,119.022090504319,52.4021075380641,681.276022805944,4.122095989228317,-144373.2379915219,10.5,10499855626.762009,47.655,-122.3035,60.0,5.533333333333333
2026-02-06T22:00:02+00:00,SAT-48295,119.01839670161537,51.89736835961561,685.3870680246746,4.168499811150507,-145998.4961232091,10.5,10499854001.503878,47.655,-122.3035,60.0,5.55
2026-02-06T22:00:03+00:00,SAT-48295,119.01492980606956,51.39831906540787,689.5443926630841,4.214065098195456,-147594.3852164963,10.5,10499852405.614784,47.655,-122.3035,60.0,5.566666666666666
2026-02-06T22:00:04+00:00,SAT-48295,119.01167843397715,50.90491938285939,693.7471604342927,4.258802911830458,-149161.2926907581,10.5,10499850838.70731,47.655,-122.3035,60.0,5.583333333333333
2026-02-06T22:00:05+00:00,SAT-48295,119.00863194767676,50.41712705941952,697.994546083231,4.302724614056405,-150699.616491327,10.5,10499849300.383509,47.655,-122.3035,60.0,5.6
2026-02-06T22:00:06+00:00,SAT-48295,119.0057803947972,49.93489799558204,702.2857356863734,4.34584163515098,-152209.75695487738,10.5,10499847790.243046,47.655,-122.3035,60.0,5.616666666666666
2026-02-06T22:00:07+00:00,SAT-48295,119.00311445449864,49.45818639668592,706.6199267198265,4.388165616043743,-153692.12179600363,10.5,10499846307.878204,47.655,-122.3035,60.0,5.633333333333334
2026-02-06T22:00:08+00:00,SAT-48295,119.00062538784752,48.98694490035654,710.9963282694206,4.429708303987646,-155147.12245319487,10.5,10499844852.877546,47.655,-122.3035,60.0,5.65
2026-02-06T22:00:09+00:00,SAT-48295,118.99830499312513,48.52112470812719,715.414161136745,4.470481542875661,-156575.17374968264,10.5,10499843424.82625,47.655,-122.3035,60.0,5.666666666666667
2026-02-06T22:00:10+00:00,SAT-48295,118.99614556522452,48.06067571041833,719.8726579355305,4.510497224930174,-157976.69220139895,10.5,10499842023.307798,47.655,-122.3035,60.0,5.683333333333334
2026-02-06T22:00:11+00:00,SAT-48295,118.99413985871035,47.60554660909938,724.3710631398496,4.549767350469628,-159352.09811025698,10.5,10499840647.90189,47.655,-122.3035,60.0,5.7
2026-02-06T22:00:12+00:00,SAT-48295,118.99228105382137,47.15568502684459,728.9086331919204,4.588303888911052,-160701.81069587162,10.5,10499839298.189304,47.655,-122.3035,60.0,5.716666666666667
2026-02-06T22:00:13+00:00,SAT-48295,118.99056272593167,46.71103762363363,733.484636471291,4.626118904388902,-162026.25249526283,10.5,10499837973.747505,47.655,-122.3035,60.0,5.733333333333333
2026-02-06T22:00:14+00:00,SAT-48295,118.98897881704352,46.27155019404606,738.0983533893018,4.663224378593718,-163325.84315791572,10.5,10499836674.156841,47.655,-122.3035,60.0,5.75
2026-02-06T22:00:15+00:00,SAT-48295,118.98752361027135,45.83716777537759,742.7490763068614,4.699632330988069,-164601.00365625185,10.5,10499835398.996344,47.655,-122.3035,60.0,5.766666666666667
2026-02-06T22:00:16+00:00,SAT-48295,118.98619170606256,45.40783473778577,747.4361095721192,4.73535474803722,-165852.1538069874,10.5,10499834147.846193,47.655,-122.3035,60.0,5.783333333333333
2026-02-06T22:00:17+00:00,SAT-48295,118.98497800032935,44.983494875335886,752.1587694875561,4.7704035290112925,-167079.71037289593,10.5,10499832920.289627,47.655,-122.3035,60.0,5.8
2026-02-06T22:00:18+00:00,SAT-48295,118.98387766483138,44.56409149599523,756.9163842230219,4.804790577654396,-168284.09027344896,10.5,10499831715.909727,47.655,-122.3035,60.0,5.816666666666666
2026-02-06T22:00:19+00:00,SAT-48295,118.98288612845957,44.1495674978417,761.7082938201985,4.838527666642031,-169465.70583754088,10.5,10499830534.294163,47.655,-122.3035,60.0,5.833333333333333
2026-02-06T22:00:20+00:00,SAT-48295,118.98199906058986,43.73986545194531,766.5338500618833,4.87162653349004,-170624.9681626261,10.5,10499829375.031837,47.655,-122.3035,60.0,5.85
2026-02-06T22:00:21+00:00,SAT-48295,118.9812123553218,43.334927671676255,771.3924164369215,4.9040988048650505,-171762.2844637507,10.5,10499828237.715536,47.655,-122.3035,60.0,5.866666666666666
2026-02-06T22:00:22+00:00,SAT-48295,118.98052211716475,42.93469628368068,776.2833680296565,4.935956012194072,-172878.0586202664,10.5,10499827121.94138,47.655,-122.3035,60.0,5.883333333333334
2026-02-06T22:00:23+00:00,SAT-48295,118.97992464770621,42.53911329276251,781.2060914249437,4.967209575582383,-173972.69061256712,10.5,10499826027.309387,47.655,-122.3035,60.0,5.9
2026-02-06T22:00:24+00:00,SAT-48295,118.97941643326779,42.14812064360438,786.1599845971289,4.997870824270649,-175046.57723858353,10.5,10499824953.422762,47.655,-122.3035,60.0,5.916666666666667
2026-02-06T22:00:25+00:00,SAT-48295,118.97899413354246,41.76166027663836,791.1444568194256,5.02795090678726,-176100.10896693816,10.5,10499823899.891033,47.655,-122.3035,60.0,5.933333333333334
2026-02-06T22:00:26+00:00,SAT-48295,118.97865457110282,41.379674186829035,796.1589284836891,5.057460910787314,-177133.6741342132,10.5,10499822866.325867,47.655,-122.3035,60.0,5.95
2026-02-06T22:00:27+00:00,SAT-48295,118.97839472148604,41.002104469255755,801.2028310397045,5.086411748577125,-178147.6549355348,10.5,10499821852.345064,47.655,-122.3035,60.0,5.966666666666667
2026-02-06T22:00:28+00:00,SAT-48295,118.97821170411413,40.62889336988834,806.2756068203083,5.114814227295061,-179142.4298826028,10.5,10499820857.570118,47.655,-122.3035,60.0,5.983333333333333
2026-02-06T22:00:29+00:00,SAT-48295,118.97810277385305,40.25998332752586,811.3767089365042,5.142678951166649,-180118.37038025088,10.5,10499819881.62962,47.655,-122.3035,60.0,6.0
