DopplerPredictor/satellites_20260211_210122/SAT-63874.csv

timestamp,satellite,azimuth_deg,elevation_deg,distance_km,relative_velocity_kms,doppler_shift_hz,tx_freq_ghz,rx_freq_hz,ue_lat,ue_lon,ue_alt_m,time_minutes
2026-02-06T21:59:40+00:00,SAT-63874,291.0832090638052,40.07785807195168,847.6729357112995,-1.2274523494460445,42990.57339589066,10.5,10500042990.573397,47.655,-122.3035,60.0,5.183333333333334
2026-02-06T21:59:41+00:00,SAT-63874,291.7199828563281,40.162919414219,846.4487739922141,-1.1703216237894336,40989.61372066623,10.5,10500040989.61372,47.655,-122.3035,60.0,5.2
2026-02-06T21:59:42+00:00,SAT-63874,292.3601090183062,40.244372952878024,845.2815898391937,-1.1129533914125231,38980.335555444464,10.5,10500038980.335556,47.655,-122.3035,60.0,5.216666666666667
2026-02-06T21:59:43+00:00,SAT-63874,293.0034570195442,40.32216022772532,844.1716201222358,-1.055358113836158,36963.10530693758,10.5,10500036963.105307,47.655,-122.3035,60.0,5.233333333333333
2026-02-06T21:59:44+00:00,SAT-63874,293.6498918063812,40.39622485946773,843.1190912778635,-0.997546478381321,34938.29729033367,10.5,10500034938.29729,47.655,-122.3035,60.0,5.25
2026-02-06T21:59:45+00:00,SAT-63874,294.29927392505704,40.46651266640537,842.1242190839293,-0.9395293877644761,32906.29336488178,10.5,10500032906.293365,47.655,-122.3035,60.0,5.266666666666667
2026-02-06T21:59:46+00:00,SAT-63874,294.9514596601665,40.53297177824541,841.1872084447984,-0.8813179449042104,30867.482401756115,10.5,10500030867.4824,47.655,-122.3035,60.0,5.283333333333333
2026-02-06T21:59:47+00:00,SAT-63874,295.6063011827238,40.595552746272546,840.3082531916825,-0.8229234565049475,28822.260409572908,10.5,10500028822.26041,47.655,-122.3035,60.0,5.3
2026-02-06T21:59:48+00:00,SAT-63874,296.26364672122185,40.65420865078357,839.487535879401,-0.764357410847742,26771.029756530068,10.5,10500026771.029757,47.655,-122.3035,60.0,5.316666666666666
2026-02-06T21:59:49+00:00,SAT-63874,296.9233407384868,40.708895203536926,838.7252276052906,-0.705631476349097,24714.199119930887,10.5,10500024714.19912,47.655,-122.3035,60.0,5.333333333333333
2026-02-06T21:59:50+00:00,SAT-63874,297.58522412870866,40.759570846287346,838.0214878295525,-0.6467574781917468,22652.1826676952,10.5,10500022652.182667,47.655,-122.3035,60.0,5.35
2026-02-06T21:59:51+00:00,SAT-63874,298.2491344191585,40.80619684342509,837.3764642189071,-0.5877474023651323,20585.400199873908,10.5,10500020585.4002,47.655,-122.3035,60.0,5.366666666666666
2026-02-06T21:59:52+00:00,SAT-63874,298.9149059935258,40.8487373702988,836.7902924862187,-0.5286133722595937,18514.276328878605,10.5,10500018514.276329,47.655,-122.3035,60.0,5.383333333333334
2026-02-06T21:59:53+00:00,SAT-63874,299.5823703208242,40.88715959488607,836.2630962534613,-0.4693676470353656,16439.240422356917,10.5,10500016439.240423,47.655,-122.3035,60.0,5.4
2026-02-06T21:59:54+00:00,SAT-63874,300.2513562023944,40.92143375401691,835.7949869163149,-0.4100225959504906,14360.725704047403,10.5,10500014360.725704,47.655,-122.3035,60.0,5.416666666666667
2026-02-06T21:59:55+00:00,SAT-63874,300.92169001841324,40.95153322209067,835.3860635343611,-0.3505906967516695,12279.169197420337,10.5,10500012279.169197,47.655,-122.3035,60.0,5.433333333333334
2026-02-06T21:59:56+00:00,SAT-63874,301.5931959924299,40.977434573711186,835.0364127228859,-0.29108452140649843,10195.011225960305,10.5,10500010195.011227,47.655,-122.3035,60.0,5.45
2026-02-06T21:59:57+00:00,SAT-63874,302.26569646556374,40.99911763905793,834.7461085589115,-0.23151671574126306,8108.694699995629,10.5,10500008108.6947,47.655,-122.3035,60.0,5.466666666666667
2026-02-06T21:59:58+00:00,SAT-63874,302.9390121668704,41.016565551285595,834.5152125075358,-0.17189999979351622,6020.66512904711,10.5,10500006020.665129,47.655,-122.3035,60.0,5.483333333333333
2026-02-06T21:59:59+00:00,SAT-63874,303.61296251182137,41.02976478725907,834.3437733479196,-0.11224713495312853,3931.3694709686447,10.5,10500003931.36947,47.655,-122.3035,60.0,5.5
2026-02-06T22:00:00+00:00,SAT-63874,304.2873658735545,41.03870519899769,834.2318271320454,-0.05257093197081563,1841.2564124397154,10.5,10500001841.256413,47.655,-122.3035,60.0,5.516666666666667
2026-02-06T22:00:01+00:00,SAT-63874,304.962039896123,41.04338003868951,834.179397135488,0.007115779477619076,-249.22469702356656,10.5,10499999750.775303,47.655,-122.3035,60.0,5.533333333333333
2026-02-06T22:00:02+00:00,SAT-63874,305.6368017798051,41.04378597432631,834.1864938385429,0.06680015722865017,-2339.624070532244,10.5,10499997660.375929,47.655,-122.3035,60.0,5.55
2026-02-06T22:00:03+00:00,SAT-63874,306.31146858132513,41.03992309765991,834.2531149137686,0.12646935897174966,-4429.491916048706,10.5,10499995570.508083,47.655,-122.3035,60.0,5.566666666666666
2026-02-06T22:00:04+00:00,SAT-63874,306.9858575194076,41.03179492400378,834.3792452258418,0.18611056053983527,-6518.37907699556,10.5,10499993481.620922,47.655,-122.3035,60.0,5.583333333333333
2026-02-06T22:00:05+00:00,SAT-63874,307.6597862697562,41.019408383447775,834.5648568496518,0.2457109669235363,-8605.837418021809,10.5,10499991394.162582,47.655,-122.3035,60.0,5.6
2026-02-06T22:00:06+00:00,SAT-63874,308.33307326168534,41.00277380404847,834.8099090993812,0.30525782580419697,-10691.420298985866,10.5,10499989308.5797,47.655,-122.3035,60.0,5.616666666666666
2026-02-06T22:00:07+00:00,SAT-63874,309.0055379734188,40.98190488690783,835.1143485710801,0.3647384429439136,-12774.683113979781,10.5,10499987225.316887,47.655,-122.3035,60.0,5.633333333333334
2026-02-06T22:00:08+00:00,SAT-63874,309.6770012247815,40.956818673109,835.4781092005923,0.42414019172227985,-14855.183625346366,10.5,10499985144.816374,47.655,-122.3035,60.0,5.65
2026-02-06T22:00:09+00:00,SAT-63874,310.3472854530703,40.92753550307211,835.9011123309916,0.4834505325754109,-16932.482644516076,10.5,10499983067.517355,47.655,-122.3035,60.0,5.666666666666667
2026-02-06T22:00:10+00:00,SAT-63874,311.0162150029824,40.89407896784302,836.3832667994058,0.5426570183978111,-19006.14422120325,10.5,10499980993.85578,47.655,-122.3035,60.0,5.683333333333334
2026-02-06T22:00:11+00:00,SAT-63874,311.6836163860922,40.85647585348927,836.9244690292238,0.6017473145340889,-21075.736343600525,10.5,10499978924.263657,47.655,-122.3035,60.0,5.7
2026-02-06T22:00:12+00:00,SAT-63874,312.3493185499934,40.81475607786209,837.5246031422488,0.6607092052676519,-23140.831165640415,10.5,10499976859.168835,47.655,-122.3035,60.0,5.716666666666667
2026-02-06T22:00:13+00:00,SAT-63874,313.01315312596864,40.76895262093234,838.183541077315,0.7195306110111137,-25201.005609076044,10.5,10499974798.99439,47.655,-122.3035,60.0,5.733333333333333
2026-02-06T22:00:14+00:00,SAT-63874,313.6749546735575,40.7191014482705,838.9011427260531,0.7781995946716197,-27255.841586421786,10.5,10499972744.158413,47.655,-122.3035,60.0,5.75
2026-02-06T22:00:15+00:00,SAT-63874,314.3345609083955,40.66524142875624,839.677256075003,0.836704379768373,-29304.926635505675,10.5,10499970695.073364,47.655,-122.3035,60.0,5.766666666666667
2026-02-06T22:00:16+00:00,SAT-63874,314.99181292355416,40.60741424605632,840.5117173657944,0.8950333585093911,-31347.854202351573,10.5,10499968652.145798,47.655,-122.3035,60.0,5.783333333333333
2026-02-06T22:00:17+00:00,SAT-63874,315.646555396854,40.545664304945,841.404351263384,0.9531750962666338,-33384.223797917075,10.5,10499966615.776201,47.655,-122.3035,60.0,5.8
2026-02-06T22:00:18+00:00,SAT-63874,316.2986367769071,40.48003863309922,842.3549710287558,1.011118355460682,-35413.641834636015,10.5,10499964586.358166,47.655,-122.3035,60.0,5.816666666666666
2026-02-06T22:00:19+00:00,SAT-63874,316.9479094703782,40.410586777443875,843.3633787154399,1.0688520906888137,-37435.72145578307,10.5,10499962564.278543,47.655,-122.3035,60.0,5.833333333333333
2026-02-06T22:00:20+00:00,SAT-63874,317.5942300011626,40.337360697431066,844.4293653611751,1.126365473467305,-39450.08340205377,10.5,10499960549.916597,47.655,-122.3035,60.0,5.85
2026-02-06T22:00:21+00:00,SAT-63874,318.23745916753484,40.26041465364792,845.5527112042463,1.1836478848647831,-41456.35575355341,10.5,10499958543.644247,47.655,-122.3035,60.0,5.866666666666666
2026-02-06T22:00:22+00:00,SAT-63874,318.87746217259513,40.17980509438107,846.7331858924753,1.2406889410224815,-43454.17482362433,10.5,10499956545.825176,47.655,-122.3035,60.0,5.883333333333334
2026-02-06T22:00:23+00:00,SAT-63874,319.5141087522994,40.09559053830547,847.9705487176617,1.2974784787298204,-45443.18465364166,10.5,10499954556.815346,47.655,-122.3035,60.0,5.9
2026-02-06T22:00:24+00:00,SAT-63874,320.1472732745664,40.00783145645874,849.264548835642,1.3540065937803882,-47423.03835640213,10.5,10499952576.961643,47.655,-122.3035,60.0,5.916666666666667
