DopplerPredictor/satellites_20260211_205738/SAT-60330.csv

timestamp,satellite,azimuth_deg,elevation_deg,distance_km,relative_velocity_kms,doppler_shift_hz,tx_freq_ghz,rx_freq_hz,ue_lat,ue_lon,ue_alt_m,time_minutes
2026-02-06T21:38:49+00:00,SAT-60330,96.17323895604085,41.26254376988293,698.7187000130363,4.868481493472567,-170514.8155577081,10.5,10499829485.184443,47.655,-122.3035,60.0,0.0
2026-02-06T21:38:50+00:00,SAT-60330,96.43265528020258,40.85835385506443,703.5741297794752,4.905486424955396,-171810.88478894174,10.5,10499828189.115211,47.655,-122.3035,60.0,0.016666666666666666
2026-02-06T21:38:51+00:00,SAT-60330,96.68549502421845,40.45873095672652,708.4664652722826,4.941724795146649,-173080.10580119333,10.5,10499826919.8942,47.655,-122.3035,60.0,0.03333333333333333
2026-02-06T21:38:52+00:00,SAT-60330,96.9319994469402,40.06364435091449,713.3949419852114,4.977212035187318,-174323.01905829407,10.5,10499825676.980942,47.655,-122.3035,60.0,0.05
