DopplerPredictor/satellites_20260211_205738/SAT-52125.csv

timestamp,satellite,azimuth_deg,elevation_deg,distance_km,relative_velocity_kms,doppler_shift_hz,tx_freq_ghz,rx_freq_hz,ue_lat,ue_lon,ue_alt_m,time_minutes
2026-02-06T21:43:05+00:00,SAT-52125,270.95008591745494,40.13039455832732,804.1475158470835,-4.2662692655358505,149422.79598016583,10.5,10500149422.79598,47.655,-122.3035,60.0,4.266666666666667
2026-02-06T21:43:06+00:00,SAT-52125,270.5680928922674,40.43737944493228,799.8926838607035,-4.2272478612909135,148056.10134313183,10.5,10500148056.101343,47.655,-122.3035,60.0,4.283333333333333
2026-02-06T21:43:07+00:00,SAT-52125,270.17842019347864,40.74593216105674,795.6767686675684,-4.187598044069184,146667.3970254663,10.5,10500146667.397026,47.655,-122.3035,60.0,4.3
2026-02-06T21:43:08+00:00,SAT-52125,269.78087295760747,41.05600073151026,791.5003969959668,-4.147312491027821,145256.42655023737,10.5,10500145256.42655,47.655,-122.3035,60.0,4.316666666666666
2026-02-06T21:43:09+00:00,SAT-52125,269.37525147183294,41.36752927610408,787.3642028773983,-4.106383950221274,143822.93592363613,10.5,10500143822.935925,47.655,-122.3035,60.0,4.333333333333333
2026-02-06T21:43:10+00:00,SAT-52125,268.9613511462666,41.68045783455602,783.2688275758665,-4.064805364753404,142366.67798330917,10.5,10500142366.677984,47.655,-122.3035,60.0,4.35
2026-02-06T21:43:11+00:00,SAT-52125,268.5389624877801,41.994722195294635,779.2149193933527,-4.0225697971877965,140887.40975088795,10.5,10500140887.40975,47.655,-122.3035,60.0,4.366666666666666
2026-02-06T21:43:12+00:00,SAT-52125,268.10787109611954,42.31025371337609,775.2031335506767,-3.9796705015437,139384.89495359102,10.5,10500139384.894953,47.655,-122.3035,60.0,4.383333333333334
2026-02-06T21:43:13+00:00,SAT-52125,267.66785766985583,42.62697912881807,771.234131996553,-3.936100919609905,137858.90389512066,10.5,10500137858.903894,47.655,-122.3035,60.0,4.4
2026-02-06T21:43:14+00:00,SAT-52125,267.21869803159586,42.94482037986537,767.3085832203267,-3.8918547007270723,136309.21414852358,10.5,10500136309.21415,47.655,-122.3035,60.0,4.416666666666667
2026-02-06T21:43:15+00:00,SAT-52125,266.7601631721799,43.26369441325793,763.4271620449762,-3.8469257208015097,134735.6112221337,10.5,10500134735.611221,47.655,-122.3035,60.0,4.433333333333334
2026-02-06T21:43:16+00:00,SAT-52125,266.29201931647924,43.58351299178597,759.5905494011564,-3.801308099955003,133137.8891777442,10.5,10500133137.889177,47.655,-122.3035,60.0,4.45
2026-02-06T21:43:17+00:00,SAT-52125,265.8140280132877,43.90418249945657,755.7994320836367,-3.754996224896398,131515.85141415457,10.5,10500131515.851414,47.655,-122.3035,60.0,4.466666666666667
2026-02-06T21:43:18+00:00,SAT-52125,265.32594625157714,44.225603745124104,752.0545024854298,-3.7079847494871254,129869.31068697806,10.5,10500129869.310686,47.655,-122.3035,60.0,4.483333333333333
2026-02-06T21:43:19+00:00,SAT-52125,264.82752660886257,44.547671763287774,748.3564583313541,-3.6602686661910506,128198.09161111728,10.5,10500128198.091612,47.655,-122.3035,60.0,4.5
2026-02-06T21:43:20+00:00,SAT-52125,264.3185174257187,44.87027561880248,744.70600234034,-3.6118432426703766,126502.02844008489,10.5,10500126502.02844,47.655,-122.3035,60.0,4.516666666666667
2026-02-06T21:43:21+00:00,SAT-52125,263.79866302720745,45.19329820456295,741.1038419509691,-3.562704142189893,124780.96928306941,10.5,10500124780.969282,47.655,-122.3035,60.0,4.533333333333333
2026-02-06T21:43:22+00:00,SAT-52125,263.26770397082316,45.516616049019085,737.550688926931,-3.5128473505093094,123034.77354439566,10.5,10500123034.773544,47.655,-122.3035,60.0,4.55
2026-02-06T21:43:23+00:00,SAT-52125,262.7253773506722,45.84009911744406,734.0472590353955,-3.462269259140963,121263.3148395618,10.5,10500121263.31484,47.655,-122.3035,60.0,4.566666666666666
2026-02-06T21:43:24+00:00,SAT-52125,262.1714171405096,46.16361062183649,730.5942716423453,-3.4109666854934853,119466.48170075577,10.5,10500119466.4817,47.655,-122.3035,60.0,4.583333333333333
2026-02-06T21:43:25+00:00,SAT-52125,261.6055545883967,46.487006835195345,727.192449287822,-3.3589368539618394,117644.17691454837,10.5,10500117644.176914,47.655,-122.3035,60.0,4.6
2026-02-06T21:43:26+00:00,SAT-52125,261.02751867347104,46.81013690768831,723.8425172800324,-3.3061774506666506,115796.3194390962,10.5,10500115796.319439,47.655,-122.3035,60.0,4.616666666666666
2026-02-06T21:43:27+00:00,SAT-52125,260.43703661871467,47.132842693008655,720.5452032348585,-3.2526866361154894,113922.84484759333,10.5,10500113922.844847,47.655,-122.3035,60.0,4.633333333333334
2026-02-06T21:43:28+00:00,SAT-52125,259.83383447048897,47.45495858264557,717.3012366027436,-3.1984631031526263,112023.70735791685,10.5,10500112023.707357,47.655,-122.3035,60.0,4.65
2026-02-06T21:43:29+00:00,SAT-52125,259.21763774198917,47.776311354334034,714.1113481377827,-3.143506015338914,110098.87767442968,10.5,10500110098.877674,47.655,-122.3035,60.0,4.666666666666667
2026-02-06T21:43:30+00:00,SAT-52125,258.5881721467279,48.09672002468773,710.9762694282671,-3.087815117176773,108148.34684852585,10.5,10500108148.34685,47.655,-122.3035,60.0,4.683333333333334
2026-02-06T21:43:31+00:00,SAT-52125,257.94516439694064,48.415995725177254,707.8967323173008,-3.0313907077246967,106172.1253544988,10.5,10500106172.125355,47.655,-122.3035,60.0,4.7
2026-02-06T21:43:32+00:00,SAT-52125,257.288343095861,48.733941590201844,704.8734683497314,-2.974233697878316,104170.2450957666,10.5,10500104170.245096,47.655,-122.3035,60.0,4.716666666666667
2026-02-06T21:43:33+00:00,SAT-52125,256.6174397130178,49.05035266819303,701.907208161953,-2.916345580182909,102142.7583475784,10.5,10500102142.758348,47.655,-122.3035,60.0,4.733333333333333
2026-02-06T21:43:34+00:00,SAT-52125,255.9321896653408,49.36501584926857,698.9986809018151,-2.857728500034231,100089.74025076852,10.5,10500100089.740252,47.655,-122.3035,60.0,4.75
2026-02-06T21:43:35+00:00,SAT-52125,255.23233348712768,49.67770982291837,696.1486135775225,-2.798385258725923,98011.2889184897,10.5,10500098011.288918,47.655,-122.3035,60.0,4.766666666666667
2026-02-06T21:43:36+00:00,SAT-52125,254.51761810695493,49.98820506164572,693.3577304034983,-2.738319340459234,95907.52638220791,10.5,10500095907.526382,47.655,-122.3035,60.0,4.783333333333333
2026-02-06T21:43:37+00:00,SAT-52125,253.78779822951043,50.29626383631329,690.6267521193026,-2.6775348941862354,93778.5979557747,10.5,10500093778.597956,47.655,-122.3035,60.0,4.8
2026-02-06T21:43:38+00:00,SAT-52125,253.04263783689854,50.601640261439705,687.9563953266679,-2.6160368223939074,91624.67534502162,10.5,10500091624.675344,47.655,-122.3035,60.0,4.816666666666666
2026-02-06T21:43:39+00:00,SAT-52125,252.28191178371966,50.90408038602317,685.3473717379819,-2.553830741105466,89445.95524683745,10.5,10500089445.955246,47.655,-122.3035,60.0,4.833333333333333
2026-02-06T21:43:40+00:00,SAT-52125,251.50540751913536,51.20332231910474,682.8003874646644,-2.4909230113780443,87242.6604523502,10.5,10500087242.660452,47.655,-122.3035,60.0,4.85
2026-02-06T21:43:41+00:00,SAT-52125,250.71292691772197,51.49909640176148,680.3161422741326,-2.4273207780080743,85015.04120255348,10.5,10500085015.041203,47.655,-122.3035,60.0,4.866666666666666
2026-02-06T21:43:42+00:00,SAT-52125,249.9042882137412,51.79112543039424,677.89532880816,-2.3630319408017515,82763.37418207631,10.5,10500082763.374182,47.655,-122.3035,60.0,4.883333333333334
2026-02-06T21:43:43+00:00,SAT-52125,249.0793280550366,52.07912492715213,675.5386318298931,-2.298065210468919,80487.96447682366,10.5,10500080487.964478,47.655,-122.3035,60.0,4.9
2026-02-06T21:43:44+00:00,SAT-52125,248.23790364541517,52.36280347139419,673.2467274151205,-2.2324301086878626,78189.1455762458,10.5,10500078189.145576,47.655,-122.3035,60.0,4.916666666666667
2026-02-06T21:43:45+00:00,SAT-52125,247.3798949830887,52.641863089402996,671.0202821434785,-2.1661369384569147,75867.27833492597,10.5,10500075867.278336,47.655,-122.3035,60.0,4.933333333333334
2026-02-06T21:43:46+00:00,SAT-52125,246.50520719739498,52.91599970208155,668.8599523192269,-2.0991968575045132,73522.7535437112,10.5,10500073522.753544,47.655,-122.3035,60.0,4.95
2026-02-06T21:43:47+00:00,SAT-52125,245.61377293337466,53.184903646908616,666.7663831188082,-2.031621845180209,71155.99077009533,10.5,10500071155.99077,47.655,-122.3035,60.0,4.966666666666667
2026-02-06T21:43:48+00:00,SAT-52125,244.70555480455857,53.44826026409377,664.7402077714307,-1.9634246820880086,68767.43764489262,10.5,10500068767.437645,47.655,-122.3035,60.0,4.983333333333333
2026-02-06T21:43:49+00:00,SAT-52125,243.78054789464053,53.70575055091211,662.782046759963,-1.8946190313286138,66357.57270768448,10.5,10500066357.572708,47.655,-122.3035,60.0,5.0
2026-02-06T21:43:50+00:00,SAT-52125,242.83878224024258,53.957051899766334,660.8925069407998,-1.8252193498802463,63926.90230300118,10.5,10500063926.902304,47.655,-122.3035,60.0,5.016666666666667
2026-02-06T21:43:51+00:00,SAT-52125,241.88032534178907,54.20183889953234,659.0721807521164,-1.755240942985916,61475.96248519407,10.5,10500061475.962484,47.655,-122.3035,60.0,5.033333333333333
2026-02-06T21:43:52+00:00,SAT-52125,240.9052846115755,54.43978421969262,657.3216453678754,-1.6846999416021833,59005.31822859575,10.5,10500059005.318228,47.655,-122.3035,60.0,5.05
2026-02-06T21:43:53+00:00,SAT-52125,239.91380975990856,54.67055956736255,655.641461874328,-1.6136132797757583,56515.56263515295,10.5,10500056515.562635,47.655,-122.3035,60.0,5.066666666666666
2026-02-06T21:43:54+00:00,SAT-52125,238.9060950862758,54.893836716175876,654.0321744690766,-1.5419987278984775,54007.318099156495,10.5,10500054007.3181,47.655,-122.3035,60.0,5.083333333333333
2026-02-06T21:43:55+00:00,SAT-52125,237.8823816056638,55.10928861287251,652.4943096269719,-1.4698748361406675,51481.23432603834,10.5,10500051481.234325,47.655,-122.3035,60.0,5.1
2026-02-06T21:43:56+00:00,SAT-52125,236.8429590183008,55.3165905462229,651.0283753224242,-1.3972609240184082,48937.98796697309,10.5,10500048937.987967,47.655,-122.3035,60.0,5.116666666666666
2026-02-06T21:43:57+00:00,SAT-52125,235.78816745871714,55.51542138022847,649.6348602621209,-1.324177098002839,46378.283235630326,10.5,10500046378.283236,47.655,-122.3035,60.0,5.133333333333334
2026-02-06T21:43:58+00:00,SAT-52125,234.71839895731588,55.7054648501118,648.3142331001814,-1.2506442000333051,43802.85010488724,10.5,10500043802.850105,47.655,-122.3035,60.0,5.15
2026-02-06T21:43:59+00:00,SAT-52125,233.63409861587226,55.88641090441725,647.0669417046593,-1.1766837891135749,41212.44366225029,10.5,10500041212.443663,47.655,-122.3035,60.0,5.166666666666667
2026-02-06T21:44:00+00:00,SAT-52125,232.53576543317598,56.05795708949972,645.893412442402,-1.1023181223952654,38607.843447316765,10.5,10500038607.843447,47.655,-122.3035,60.0,5.183333333333334
2026-02-06T21:44:01+00:00,SAT-52125,231.42395273964306,56.219809966654076,644.794049482773,-1.027570128099257,35989.85250336818,10.5,10500035989.852503,47.655,-122.3035,60.0,5.2
2026-02-06T21:44:02+00:00,SAT-52125,230.2992682038369,56.37168654971255,643.7692341283825,-0.9524633740413911,33359.29627500705,10.5,10500033359.296274,47.655,-122.3035,60.0,5.216666666666667
2026-02-06T21:44:03+00:00,SAT-52125,229.16237338276198,56.51331575017719,642.819324177207,-0.8770220252861989,30717.021125011383,10.5,10500030717.021126,47.655,-122.3035,60.0,5.233333333333333
2026-02-06T21:44:04+00:00,SAT-52125,228.01398279636877,56.64443981485573,641.9446533269416,-0.8012708267800167,28063.893726072907,10.5,10500028063.893726,47.655,-122.3035,60.0,5.25
2026-02-06T21:44:05+00:00,SAT-52125,226.8548624762381,56.76481574536341,641.1455305966725,-0.7252350519221948,25400.799259543233,10.5,10500025400.79926,47.655,-122.3035,60.0,5.266666666666667
2026-02-06T21:44:06+00:00,SAT-52125,225.6858280085057,56.87421667935584,640.4222397998423,-0.6489404729595174,22728.64037852124,10.5,10500022728.640379,47.655,-122.3035,60.0,5.283333333333333
2026-02-06T21:44:07+00:00,SAT-52125,224.5077420384979,56.97243322114687,639.775039046737,-0.5724133086388028,20048.335374425697,10.5,10500020048.335375,47.655,-122.3035,60.0,5.3
2026-02-06T21:44:08+00:00,SAT-52125,223.32151126921562,57.059274702521726,639.2041602991854,-0.4956801946452859,17360.817141622363,10.5,10500017360.817142,47.655,-122.3035,60.0,5.316666666666666
2026-02-06T21:44:09+00:00,SAT-52125,222.12808293147813,57.134570361518776,638.709808954738,-0.4187681292003589,14667.031272026758,10.5,10500014667.031273,47.655,-122.3035,60.0,5.333333333333333
2026-02-06T21:44:10+00:00,SAT-52125,220.9284407853119,57.19817042020979,638.2921634851023,-0.34170443039296466,11967.934560669064,10.5,10500011967.93456,47.655,-122.3035,60.0,5.35
2026-02-06T21:44:11+00:00,SAT-52125,219.7236006663486,57.249947048826805,637.9513751171318,-0.26451668857465105,9264.493338367558,10.5,10500009264.493338,47.655,-122.3035,60.0,5.366666666666666
2026-02-06T21:44:12+00:00,SAT-52125,218.5146056286089,57.28979520219382,637.6875675612959,-0.18723271731788774,6557.681754081423,10.5,10500006557.681753,47.655,-122.3035,60.0,5.383333333333334
2026-02-06T21:44:13+00:00,SAT-52125,217.30252073684,57.31763331643472,637.5008367890551,-0.10988050437184241,3848.4800571745714,10.5,10500003848.480057,47.655,-122.3035,60.0,5.4
2026-02-06T21:44:14+00:00,SAT-52125,216.08842756934067,57.333403855903335,637.3912508591519,-0.03248816000425501,1137.8727881295717,10.5,10500001137.872787,47.655,-122.3035,60.0,5.416666666666667
2026-02-06T21:44:15+00:00,SAT-52125,214.87341850706565,57.3370737019116,637.3588497954211,0.04491613129722763,-1573.1529130759188,10.5,10499998426.847088,47.655,-122.3035,60.0,5.433333333333334
2026-02-06T21:44:16+00:00,SAT-52125,213.65859086726607,57.328634378010136,637.4036455127689,0.12230416448048108,-4283.609186209252,10.5,10499995716.390814,47.655,-122.3035,60.0,5.45
2026-02-06T21:44:17+00:00,SAT-52125,212.4450409802851,57.30810210764703,637.5256217966622,0.19964776375921628,-6992.509196051126,10.5,10499993007.490805,47.655,-122.3035,60.0,5.466666666666667
2026-02-06T21:44:18+00:00,SAT-52125,211.23385827855915,57.2755177039155,637.7247343323183,0.2769188338856202,-9698.86892818035,10.5,10499990301.131071,47.655,-122.3035,60.0,5.483333333333333
2026-02-06T21:44:19+00:00,SAT-52125,210.02611947310558,57.230946292853616,638.0009107850251,0.35408941036729724,-12401.70894778354,10.5,10499987598.291052,47.655,-122.3035,60.0,5.5
2026-02-06T21:44:20+00:00,SAT-52125,208.82288290733044,57.1744768745857,638.3540509305473,0.4311317131298131,-15100.056279144412,10.5,10499984899.943722,47.655,-122.3035,60.0,5.516666666666667
2026-02-06T21:44:21+00:00,SAT-52125,207.62518313704234,57.10622172826493,638.7840268390505,0.5080181895772663,-17792.945913807132,10.5,10499982207.054087,47.655,-122.3035,60.0,5.533333333333333
2026-02-06T21:44:22+00:00,SAT-52125,206.43402585059795,57.02631567120731,639.290683101968,0.584721566478351,-20479.422627845717,10.5,10499979520.577372,47.655,-122.3035,60.0,5.55
2026-02-06T21:44:23+00:00,SAT-52125,205.25038313430366,56.9349151814124,639.8738371106183,0.6612149026132228,-23158.542825779958,10.5,10499976841.457174,47.655,-122.3035,60.0,5.566666666666666
2026-02-06T21:44:24+00:00,SAT-52125,204.0751891535351,56.83219739571877,640.5332793873251,0.7374716222862734,-25829.375714334583,10.5,10499974170.624285,47.655,-122.3035,60.0,5.583333333333333
2026-02-06T21:44:25+00:00,SAT-52125,202.9093363240601,56.71835900024742,641.268773949963,0.8134655728262417,-28491.005316336334,10.5,10499971508.994684,47.655,-122.3035,60.0,5.6
2026-02-06T21:44:26+00:00,SAT-52125,201.75367194583973,56.59361502409126,642.0800587338468,0.8891710572987961,-31142.531616447,10.5,10499968857.468384,47.655,-122.3035,60.0,5.616666666666666
2026-02-06T21:44:27+00:00,SAT-52125,200.60899537223315,56.458197555494415,642.9668460462465,0.9645628800234595,-33783.07215535864,10.5,10499966216.927845,47.655,-122.3035,60.0,5.633333333333334
2026-02-06T21:44:28+00:00,SAT-52125,199.4760556936642,56.31235439426681,643.9288230662984,1.0396163904160756,-36411.76356534224,10.5,10499963588.236435,47.655,-122.3035,60.0,5.65
2026-02-06T21:44:29+00:00,SAT-52125,198.35554994224898,56.15634765644585,644.9656523886387,1.1143075053784333,-39027.76235442704,10.5,10499960972.237646,47.655,-122.3035,60.0,5.666666666666667
2026-02-06T21:44:30+00:00,SAT-52125,197.24812183272502,55.990452349894625,646.0769725893698,1.1886127574452254,-41630.246592710704,10.5,10499958369.753407,47.655,-122.3035,60.0,5.683333333333334
2026-02-06T21:44:31+00:00,SAT-52125,196.15436098546598,55.814954931798816,647.2623988400405,1.262509324624938,-44218.41695751349,10.5,10499955781.583042,47.655,-122.3035,60.0,5.7
2026-02-06T21:44:32+00:00,SAT-52125,195.07480263218264,55.63015186490727,648.5215235513926,1.3359750522665121,-46791.497499241224,10.5,10499953208.5025,47.655,-122.3035,60.0,5.716666666666667
2026-02-06T21:44:33+00:00,SAT-52125,194.00992777678593,55.43634818673769,649.8539170389087,1.4089884882926966,-49348.73687540637,10.5,10499950651.263124,47.655,-122.3035,60.0,5.733333333333333
2026-02-06T21:44:34+00:00,SAT-52125,192.96016376050352,55.23385610161746,651.2591282235044,1.4815289106456935,-51889.40931189063,10.5,10499948110.590689,47.655,-122.3035,60.0,5.75
2026-02-06T21:44:35+00:00,SAT-52125,191.9258852013557,55.02299360739154,652.7366853595919,1.5535763315069073,-54412.81475073842,10.5,10499945587.18525,47.655,-122.3035,60.0,5.766666666666667
2026-02-06T21:44:36+00:00,SAT-52125,190.90741528091817,54.8040831693362,654.2860967673474,1.625111546725892,-56918.28058136762,10.5,10499943081.71942,47.655,-122.3035,60.0,5.783333333333333
2026-02-06T21:44:37+00:00,SAT-52125,189.90502730071643,54.57745044271905,655.906851614282,1.6961161212735756,-59405.16113108003,10.5,10499940594.83887,47.655,-122.3035,60.0,5.8
2026-02-06T21:44:38+00:00,SAT-52125,188.9189465111368,54.343423059608526,657.5984206822984,1.7665724303384356,-61872.839104423285,10.5,10499938127.160896,47.655,-122.3035,60.0,5.816666666666666
2026-02-06T21:44:39+00:00,SAT-52125,187.94935212954024,54.10232947721801,659.3602571757382,1.8364636499471767,-64320.72525468721,10.5,10499935679.274746,47.655,-122.3035,60.0,5.833333333333333
2026-02-06T21:44:40+00:00,SAT-52125,186.99637953899264,53.85449789871916,661.1917975200718,1.9057737814067972,-66748.25923996851,10.5,10499933251.74076,47.655,-122.3035,60.0,5.85
2026-02-06T21:44:41+00:00,SAT-52125,186.06012260603842,53.6002552644878,663.0924621849673,1.9744876513906056,-69154.90962618332,10.5,10499930845.090374,47.655,-122.3035,60.0,5.866666666666666
2026-02-06T21:44:42+00:00,SAT-52125,185.1406360945575,53.33992631868682,665.0616565074438,2.0425909178903643,-71540.17409553654,10.5,10499928459.825905,47.655,-122.3035,60.0,5.883333333333334
2026-02-06T21:44:43+00:00,SAT-52125,184.23793813766997,53.073832750902895,667.098771520961,2.110070072308502,-73903.57951979991,10.5,10499926096.42048,47.655,-122.3035,60.0,5.9
2026-02-06T21:44:44+00:00,SAT-52125,183.35201273769897,52.80229241298978,669.2031847865952,2.17691243579906,-76244.68183215646,10.5,10499923755.318169,47.655,-122.3035,60.0,5.916666666666667
2026-02-06T21:44:45+00:00,SAT-52125,182.48281226894406,52.525618610702445,671.374261220568,2.2431061788801454,-78563.06671411169,10.5,10499921436.933287,47.655,-122.3035,60.0,5.933333333333334
2026-02-06T21:44:46+00:00,SAT-52125,181.63025994856787,52.24411946536529,673.6113539413311,2.308640260444509,-80858.34745938588,10.5,10499919141.65254,47.655,-122.3035,60.0,5.95
2026-02-06T21:44:47+00:00,SAT-52125,180.79425228755014,51.95809735336421,675.9138050558297,2.373504504008652,-83130.16764448039,10.5,10499916869.832355,47.655,-122.3035,60.0,5.966666666666667
2026-02-06T21:44:48+00:00,SAT-52125,179.9746614467216,51.66784840330996,678.2809465218066,2.4376895176962834,-85378.19832615995,10.5,10499914621.801674,47.655,-122.3035,60.0,5.983333333333333
2026-02-06T21:44:49+00:00,SAT-52125,179.1713375465915,51.37366206734268,680.7121009303071,2.5011867129384004,-87602.13869640844,10.5,10499912397.861303,47.655,-122.3035,60.0,6.0
2026-02-06T21:44:50+00:00,SAT-52125,178.3841108777808,51.07582075060675,683.2065823068319,2.5639883147685447,-89801.71644301245,10.5,10499910198.283558,47.655,-122.3035,60.0,6.016666666666667
2026-02-06T21:44:51+00:00,SAT-52125,177.6127940080919,50.77459949655196,685.7636969227589,2.626087288116585,-91976.68516805764,10.5,10499908023.314833,47.655,-122.3035,60.0,6.033333333333333
2026-02-06T21:44:52+00:00,SAT-52125,176.85718380645238,50.47026573417046,688.3827440332561,2.687477394445103,-94126.82637157464,10.5,10499905873.173628,47.655,-122.3035,60.0,6.05
2026-02-06T21:44:53+00:00,SAT-52125,176.11706333506498,50.1630790678727,691.0630166716786,2.7481531346388377,-96251.94745128577,10.5,10499903748.05255,47.655,-122.3035,60.0,6.066666666666666
2026-02-06T21:44:54+00:00,SAT-52125,175.3922036446619,49.853291119672484,693.8038023870087,2.8081097189128617,-98351.88064866212,10.5,10499901648.11935,47.655,-122.3035,60.0,6.083333333333333
2026-02-06T21:44:55+00:00,SAT-52125,174.6823654599438,49.54114541644518,696.6043839512844,2.8673431014528425,-100426.48426217194,10.5,10499899573.515738,47.655,-122.3035,60.0,6.1
2026-02-06T21:44:56+00:00,SAT-52125,173.98730073833437,49.22687731135231,699.4640401015753,2.92584990656334,-102475.64006068182,10.5,10499897524.35994,47.655,-122.3035,60.0,6.116666666666666
2026-02-06T21:44:57+00:00,SAT-52125,173.3067541328803,48.91071394804414,702.3820462083065,2.9836274332796484,-104499.25344498262,10.5,10499895500.746555,47.655,-122.3035,60.0,6.133333333333334
2026-02-06T21:44:58+00:00,SAT-52125,172.64046433943676,48.59287425526556,705.3576749481781,3.040673642943727,-106497.25301264628,10.5,10499893502.746988,47.655,-122.3035,60.0,6.15
2026-02-06T21:44:59+00:00,SAT-52125,171.98816533644873,48.27356897060976,708.390196964698,3.096987133845687,-108469.58966986324,10.5,10499891530.41033,47.655,-122.3035,60.0,6.166666666666667
2026-02-06T21:45:00+00:00,SAT-52125,171.3495875242578,47.953000691671484,711.478881503422,3.1525670775532553,-110416.23440143107,10.5,10499889583.765598,47.655,-122.3035,60.0,6.183333333333334
2026-02-06T21:45:01+00:00,SAT-52125,170.72445877543353,47.63136395547718,714.6229969836947,3.2074132848894994,-112337.18058157334,10.5,10499887662.819418,47.655,-122.3035,60.0,6.2
2026-02-06T21:45:02+00:00,SAT-52125,170.11250537269177,47.30884533002825,717.8218116361905,3.2615260953589478,-114232.44010117475,10.5,10499885767.559898,47.655,-122.3035,60.0,6.216666666666667
2026-02-06T21:45:03+00:00,SAT-52125,169.5134528776895,46.98562353362679,721.0745940301782,3.3149063957491913,-116102.04401928786,10.5,10499883897.95598,47.655,-122.3035,60.0,6.233333333333333
2026-02-06T21:45:04+00:00,SAT-52125,168.92702690680667,46.66186956616412,724.3806136193375,3.367555608820201,-117946.0421669851,10.5,10499882053.957832,47.655,-122.3035,60.0,6.25
2026-02-06T21:45:05+00:00,SAT-52125,168.3529538270145,46.337746853383564,727.7391412762931,3.4194756320820145,-119764.50100309447,10.5,10499880235.498997,47.655,-122.3035,60.0,6.266666666666667
2026-02-06T21:45:06+00:00,SAT-52125,167.790961385088,46.01341140690634,731.1494497660932,3.4706688564650774,-121557.50426811376,10.5,10499878442.495731,47.655,-122.3035,60.0,6.283333333333333
2026-02-06T21:45:07+00:00,SAT-52125,167.24077926090402,45.68901199031658,734.6108142383063,3.5211381191114555,-123325.15133075924,10.5,10499876674.84867,47.655,-122.3035,60.0,6.3
2026-02-06T21:45:08+00:00,SAT-52125,166.70213956124755,45.36469029603172,738.1225126720377,3.570886661682518,-125067.55572772426,10.5,10499874932.444273,47.655,-122.3035,60.0,6.316666666666666
2026-02-06T21:45:09+00:00,SAT-52125,166.17477725782075,45.04058113064314,741.6838262793625,3.6199181800825255,-126784.84690520972,10.5,10499873215.153095,47.655,-122.3035,60.0,6.333333333333333
2026-02-06T21:45:10+00:00,SAT-52125,165.6584305587701,44.71681259902853,745.2940399583529,3.6682367158327502,-128477.16641438617,10.5,10499871522.833586,47.655,-122.3035,60.0,6.35
2026-02-06T21:45:11+00:00,SAT-52125,165.15284124448883,44.393506300470335,748.9524426377669,3.715846678678492,-130144.6687031872,10.5,10499869855.331297,47.655,-122.3035,60.0,6.366666666666666
2026-02-06T21:45:12+00:00,SAT-52125,164.65775494973727,44.07077752353221,752.6583276442868,3.7627528384564157,-131787.52083146924,10.5,10499868212.479168,47.655,-122.3035,60.0,6.383333333333334
2026-02-06T21:45:13+00:00,SAT-52125,164.1729214021344,43.74873544167386,756.4109930616434,3.808960263636557,-133405.9003184925,10.5,10499866594.099682,47.655,-122.3035,60.0,6.4
2026-02-06T21:45:14+00:00,SAT-52125,163.6980946280433,43.42748331328852,760.2097420284498,3.854474331726712,-134999.99550732685,10.5,10499865000.004492,47.655,-122.3035,60.0,6.416666666666667
2026-02-06T21:45:15+00:00,SAT-52125,163.23303311908404,43.10711867905047,764.0538830464108,3.8993007102567763,-136570.0048988429,10.5,10499863429.995102,47.655,-122.3035,60.0,6.433333333333334
2026-02-06T21:45:16+00:00,SAT-52125,162.77749996697335,42.78773355854857,767.9427302695664,3.9434453078003195,-138116.13543628022,10.5,10499861883.864563,47.655,-122.3035,60.0,6.45
2026-02-06T21:45:17+00:00,SAT-52125,162.33126297344708,42.46941464797097,771.8756037446922,3.9869142837890816,-139638.60284899283,10.5,10499860361.397152,47.655,-122.3035,60.0,6.466666666666667
2026-02-06T21:45:18+00:00,SAT-52125,161.89409473072067,42.152243513429376,775.8518296614806,4.029714038444884,-141137.6312998217,10.5,10499858862.3687,47.655,-122.3035,60.0,6.483333333333333
2026-02-06T21:45:19+00:00,SAT-52125,161.4657726776928,41.83629678123851,779.870740592689,4.071851119023366,-142613.45010135428,10.5,10499857386.549898,47.655,-122.3035,60.0,6.5
2026-02-06T21:45:20+00:00,SAT-52125,161.04607914425011,41.52164633124137,783.9316756407776,4.11333235350438,-144066.29839832726,10.5,10499855933.701601,47.655,-122.3035,60.0,6.516666666666667
2026-02-06T21:45:21+00:00,SAT-52125,160.63480135966333,41.20835947505571,788.0339807178821,4.15416466972623,-145496.4188329428,10.5,10499854503.581167,47.655,-122.3035,60.0,6.533333333333333
2026-02-06T21:45:22+00:00,SAT-52125,160.23173146318734,40.89649914357718,792.1770086454036,4.194355150397157,-146904.0594716033,10.5,10499853095.940529,47.655,-122.3035,60.0,6.55
2026-02-06T21:45:23+00:00,SAT-52125,159.83666649134742,40.586124064927155,796.3601193084636,4.23391105265252,-148289.4744898868,10.5,10499851710.52551,47.655,-122.3035,60.0,6.566666666666666
2026-02-06T21:45:24+00:00,SAT-52125,159.4494083493089,40.277288935777065,800.5826798298635,4.272839774826384,-149652.92300874705,10.5,10499850347.076992,47.655,-122.3035,60.0,6.583333333333333
