DopplerPredictor/satellites_20260211_205738/SAT-48299.csv

timestamp,satellite,azimuth_deg,elevation_deg,distance_km,relative_velocity_kms,doppler_shift_hz,tx_freq_ghz,rx_freq_hz,ue_lat,ue_lon,ue_alt_m,time_minutes
2026-02-06T21:44:51+00:00,SAT-48299,306.30443317453694,40.22385618348215,814.464732856832,-5.02860107214074,176122.88050781377,10.5,10500176122.880508,47.655,-122.3035,60.0,6.033333333333333
2026-02-06T21:44:52+00:00,SAT-48299,306.43391079087644,40.583727760250845,809.4496127702189,-4.999397354595425,175100.04278777406,10.5,10500175100.042788,47.655,-122.3035,60.0,6.05
2026-02-06T21:44:53+00:00,SAT-48299,306.5663479619788,40.94755106572666,804.4636181100142,-4.96964143215473,174057.8645164738,10.5,10500174057.864517,47.655,-122.3035,60.0,6.066666666666666
2026-02-06T21:44:54+00:00,SAT-48299,306.7018489783213,41.31536920620374,799.5072996007285,-4.939322883928461,172995.98071025804,10.5,10500172995.980711,47.655,-122.3035,60.0,6.083333333333333
2026-02-06T21:44:55+00:00,SAT-48299,306.84052301964687,41.68722481921948,794.5812183598254,-4.9084312091130515,171914.02358656746,10.5,10500171914.023586,47.655,-122.3035,60.0,6.1
2026-02-06T21:44:56+00:00,SAT-48299,306.98248444164375,42.06315999695454,789.6859459774201,-4.876955731659326,170811.61922500035,10.5,10500170811.619225,47.655,-122.3035,60.0,6.116666666666666
2026-02-06T21:44:57+00:00,SAT-48299,307.12785307950014,42.44321619662785,784.8220646910576,-4.844885725574839,169688.39195593042,10.5,10500169688.391956,47.655,-122.3035,60.0,6.133333333333334
2026-02-06T21:44:58+00:00,SAT-48299,307.2767545765701,42.827434154211474,779.990167435519,-4.812210387198594,168543.96338945004,10.5,10500168543.96339,47.655,-122.3035,60.0,6.15
2026-02-06T21:44:59+00:00,SAT-48299,307.4293207354581,43.21585378977503,775.1908579202834,-4.778918743703305,167377.94921073265,10.5,10500167377.949211,47.655,-122.3035,60.0,6.166666666666667
2026-02-06T21:45:00+00:00,SAT-48299,307.5856898908768,43.60851409844841,770.424750798241,-4.744999844676844,166189.96589002537,10.5,10500166189.96589,47.655,-122.3035,60.0,6.183333333333334
2026-02-06T21:45:01+00:00,SAT-48299,307.74600731605585,44.00545304944659,765.6924716433377,-4.710442605377231,164979.6251927756,10.5,10500164979.625193,47.655,-122.3035,60.0,6.2
2026-02-06T21:45:02+00:00,SAT-48299,307.9104256531216,44.40670746467103,760.9946570845444,-4.675235911637068,163746.53785382822,10.5,10500163746.537853,47.655,-122.3035,60.0,6.216666666666667
2026-02-06T21:45:03+00:00,SAT-48299,308.0791053788631,44.81231289756277,756.3319548352041,-4.639368579064168,162490.31214845894,10.5,10500162490.31215,47.655,-122.3035,60.0,6.233333333333333
2026-02-06T21:45:04+00:00,SAT-48299,308.25221530359244,45.22230349972257,751.7050237630675,-4.602829423342958,161210.5563546267,10.5,10500161210.556355,47.655,-122.3035,60.0,6.25
2026-02-06T21:45:05+00:00,SAT-48299,308.4299331100706,45.63671188426922,747.114533890218,-4.565607210381421,159906.87700690894,10.5,10500159906.877007,47.655,-122.3035,60.0,6.266666666666667
2026-02-06T21:45:06+00:00,SAT-48299,308.61244593138093,46.05556897491514,742.5611664427137,-4.527690712499876,158578.88086447024,10.5,10500158578.880865,47.655,-122.3035,60.0,6.283333333333333
2026-02-06T21:45:07+00:00,SAT-48299,308.7999509752549,46.478903849405825,738.0456138441928,-4.489068677923059,157226.1738425458,10.5,10500157226.173843,47.655,-122.3035,60.0,6.3
2026-02-06T21:45:08+00:00,SAT-48299,308.99265619547714,46.9067435688289,733.5685797399036,-4.44972992974028,155848.3644784451,10.5,10500155848.36448,47.655,-122.3035,60.0,6.316666666666666
2026-02-06T21:45:09+00:00,SAT-48299,309.19078102014777,47.33911300420967,729.1307789220423,-4.409663272717883,154445.0606677296,10.5,10500154445.060667,47.655,-122.3035,60.0,6.333333333333333
2026-02-06T21:45:10+00:00,SAT-48299,309.39455713333143,47.776034641489204,724.7329373480248,-4.368857608940449,153015.8737144572,10.5,10500153015.873714,47.655,-122.3035,60.0,6.35
2026-02-06T21:45:11+00:00,SAT-48299,309.60422932451337,48.2175283839102,720.3757920434318,-4.327301896750075,151560.41689306207,10.5,10500151560.416893,47.655,-122.3035,60.0,6.366666666666666
2026-02-06T21:45:12+00:00,SAT-48299,309.8200564047833,48.66361133593139,716.0600910458992,-4.284985189807381,150078.306816436,10.5,10500150078.306816,47.655,-122.3035,60.0,6.383333333333334
2026-02-06T21:45:13+00:00,SAT-48299,310.0423121997504,49.11429757539288,711.7865933100578,-4.241896676187075,148569.164805221,10.5,10500148569.164804,47.655,-122.3035,60.0,6.4
2026-02-06T21:45:14+00:00,SAT-48299,310.2712866265748,49.56959791314944,707.5560685734778,-4.198025641968463,147032.61561259444,10.5,10500147032.615612,47.655,-122.3035,60.0,6.416666666666667
2026-02-06T21:45:15+00:00,SAT-48299,310.50728685863334,50.029519630963605,703.3692972589276,-4.153361586594975,145468.29146464798,10.5,10500145468.291464,47.655,-122.3035,60.0,6.433333333333334
2026-02-06T21:45:16+00:00,SAT-48299,310.75063859527194,50.49406621264166,699.2270702615826,-4.107894159879688,143875.82985405432,10.5,10500143875.829855,47.655,-122.3035,60.0,6.45
2026-02-06T21:45:17+00:00,SAT-48299,311.0016874359499,50.96323704794849,695.1301887990561,-4.061613227617652,142254.87583808845,10.5,10500142254.875837,47.655,-122.3035,60.0,6.466666666666667
2026-02-06T21:45:18+00:00,SAT-48299,311.2608003766823,51.43702712154929,691.079464195999,-4.014508907309409,140605.08328981645,10.5,10500140605.08329,47.655,-122.3035,60.0,6.483333333333333
2026-02-06T21:45:19+00:00,SAT-48299,311.5283674393798,51.915426682378786,687.0757176330679,-3.9665716003084426,138926.11602403503,10.5,10500138926.116024,47.655,-122.3035,60.0,6.5
2026-02-06T21:45:20+00:00,SAT-48299,311.8048034466989,52.3984208913709,683.119779863833,-3.9177919517973385,137217.64639546754,10.5,10500137217.646395,47.655,-122.3035,60.0,6.516666666666667
2026-02-06T21:45:21+00:00,SAT-48299,312.09054995174404,52.885989436568586,679.212490971603,-3.8681609998760944,135479.3605204671,10.5,10500135479.360521,47.655,-122.3035,60.0,6.533333333333333
2026-02-06T21:45:22+00:00,SAT-48299,312.3860773522544,53.37810613639291,675.3546999775614,-3.817670089838525,133710.95527461372,10.5,10500133710.955275,47.655,-122.3035,60.0,6.55
2026-02-06T21:45:23+00:00,SAT-48299,312.69188719006416,53.87473850002521,671.5472645343955,-3.766310993201914,131912.14246163622,10.5,10500131912.142462,47.655,-122.3035,60.0,6.566666666666666
2026-02-06T21:45:24+00:00,SAT-48299,313.00851467066934,54.37584726738481,667.7910505012151,-3.7140759067181333,130082.64877877748,10.5,10500130082.648779,47.655,-122.3035,60.0,6.583333333333333
2026-02-06T21:45:25+00:00,SAT-48299,313.33653141633715,54.88138591086876,664.0869315194606,-3.6609574765557693,128222.21666375469,10.5,10500128222.216663,47.655,-122.3035,60.0,6.6
2026-02-06T21:45:26+00:00,SAT-48299,313.67654847801856,55.39130009826374,660.4357885646872,-3.6069488460999612,126330.60596891197,10.5,10500126330.605968,47.655,-122.3035,60.0,6.616666666666666
2026-02-06T21:45:27+00:00,SAT-48299,314.0292196355016,55.905527116123736,656.8385094506847,-3.5520437259387148,124407.59641243712,10.5,10500124407.596413,47.655,-122.3035,60.0,6.633333333333334
2026-02-06T21:45:28+00:00,SAT-48299,314.3952450181723,56.42399525281283,653.2959882637931,-3.4962363585924496,122452.98634304109,10.5,10500122452.986343,47.655,-122.3035,60.0,6.65
2026-02-06T21:45:29+00:00,SAT-48299,314.77537506862546,56.94662312121765,649.8091248323975,-3.4395216302148564,120466.59665219461,10.5,10500120466.596653,47.655,-122.3035,60.0,6.666666666666667
2026-02-06T21:45:30+00:00,SAT-48299,315.17041490035734,57.473318936579574,646.3788240850193,-3.38189507696204,118448.27099720242,10.5,10500118448.270998,47.655,-122.3035,60.0,6.683333333333334
2026-02-06T21:45:31+00:00,SAT-48299,315.5812290794991,58.00397972831002,643.005995402057,-3.3233529127993804,116397.87677511718,10.5,10500116397.876776,47.655,-122.3035,60.0,6.7
2026-02-06T21:45:32+00:00,SAT-48299,316.00874687583814,58.53849048137045,639.6915519397942,-3.2638920999631496,114315.30759060346,10.5,10500114315.30759,47.655,-122.3035,60.0,6.716666666666667
2026-02-06T21:45:33+00:00,SAT-48299,316.45396803742113,59.07672320593568,636.4364098841338,-3.2035103578557633,112200.48356748692,10.5,10500112200.483568,47.655,-122.3035,60.0,6.733333333333333
2026-02-06T21:45:34+00:00,SAT-48299,316.9179691333744,59.61853591651873,633.241487695463,-3.142206250893976,110053.3544255698,10.5,10500110053.354425,47.655,-122.3035,60.0,6.75
2026-02-06T21:45:35+00:00,SAT-48299,317.40191053351197,60.16377152311584,630.1077052659033,-3.0799791582194933,107873.89841976839,10.5,10500107873.89842,47.655,-122.3035,60.0,6.766666666666667
2026-02-06T21:45:36+00:00,SAT-48299,317.9070440689361,60.71225660268999,627.0359831067697,-3.0168293953703413,105662.1266015591,10.5,10500105662.126602,47.655,-122.3035,60.0,6.783333333333333
2026-02-06T21:45:37+00:00,SAT-48299,318.43472146301053,61.26380006341754,624.027241414686,-2.952758184803233,103418.08178654696,10.5,10500103418.081787,47.655,-122.3035,60.0,6.8
2026-02-06T21:45:38+00:00,SAT-48299,318.98640357856755,61.81819166032706,621.0823991670956,-2.8877677376520197,101141.8414179926,10.5,10500101141.841417,47.655,-122.3035,60.0,6.816666666666666
2026-02-06T21:45:39+00:00,SAT-48299,319.56367057176897,62.3752003642916,618.2023731362361,-2.8218612744389246,98833.51829220704,10.5,10500098833.518291,47.655,-122.3035,60.0,6.833333333333333
2026-02-06T21:45:40+00:00,SAT-48299,320.1682330163031,62.93457255384135,615.3880768824572,-2.7550430813339593,96493.26252899456,10.5,10500096493.26253,47.655,-122.3035,60.0,6.85
2026-02-06T21:45:41+00:00,SAT-48299,320.8019440772907,63.49603001409634,612.6404196914282,-2.6873184973341906,94121.26112261637,10.5,10500094121.261122,47.655,-122.3035,60.0,6.866666666666666
2026-02-06T21:45:42+00:00,SAT-48299,321.4668127871012,64.059267703565,609.9603055241355,-2.61869403043884,91717.74201073404,10.5,10500091717.74201,47.655,-122.3035,60.0,6.883333333333334
2026-02-06T21:45:43+00:00,SAT-48299,322.16501851159126,64.6239512864789,607.3486318510124,-2.549177311555279,89282.9724600024,10.5,10500089282.97246,47.655,-122.3035,60.0,6.9
2026-02-06T21:45:44+00:00,SAT-48299,322.89892661048134,65.18971436564703,604.8062885320428,-2.478777162367837,86817.26144312238,10.5,10500086817.261442,47.655,-122.3035,60.0,6.916666666666667
2026-02-06T21:45:45+00:00,SAT-48299,323.6711053331047,65.75615540321627,602.3341566291763,-2.4075036300739874,84320.96085544911,10.5,10500084320.960855,47.655,-122.3035,60.0,6.933333333333334
2026-02-06T21:45:46+00:00,SAT-48299,324.48434392002133,66.32283428379239,599.933107184099,-2.3353679910463288,81794.46564324995,10.5,10500081794.465643,47.655,-122.3035,60.0,6.95
2026-02-06T21:45:47+00:00,SAT-48299,325.34167181743794,66.88926846971086,597.603999992356,-2.2623827985439973,79238.2154747601,10.5,10500079238.215475,47.655,-122.3035,60.0,6.966666666666667
2026-02-06T21:45:48+00:00,SAT-48299,326.24637885557524,67.45492871247964,595.3476823298856,-2.188561861296543,76652.69399009932,10.5,10500076652.69399,47.655,-122.3035,60.0,6.983333333333333
2026-02-06T21:45:49+00:00,SAT-48299,327.202036086471,68.0192342551631,593.1649877009177,-2.113920316176943,74038.43134658813,10.5,10500074038.431347,47.655,-122.3035,60.0,7.0
2026-02-06T21:45:50+00:00,SAT-48299,328.2125168836539,68.58154749947622,591.0567345133877,-2.0384745996654416,71396.00321929091,10.5,10500071396.00322,47.655,-122.3035,60.0,7.016666666666667
2026-02-06T21:45:51+00:00,SAT-48299,329.28201761700154,69.14116806471301,589.0237247828142,-1.9622424699131484,68726.03157377648,10.5,10500068726.031574,47.655,-122.3035,60.0,7.033333333333333
2026-02-06T21:45:52+00:00,SAT-48299,330.41507699181307,69.6973262079133,587.0667428141735,-1.8852430002241207,66029.18443783288,10.5,10500066029.184439,47.655,-122.3035,60.0,7.05
2026-02-06T21:45:53+00:00,SAT-48299,331.61659273576225,70.24917556527566,585.1865538902695,-1.8074966039444118,63306.17677318728,10.5,10500063306.176773,47.655,-122.3035,60.0,7.066666666666666
2026-02-06T21:45:54+00:00,SAT-48299,332.8918338679787,70.79578520979565,583.3839029352855,-1.7290250052974947,60557.76945403909,10.5,10500060557.769455,47.655,-122.3035,60.0,7.083333333333333
2026-02-06T21:45:55+00:00,SAT-48299,334.2464461180819,71.33613102500622,581.6595132074218,-1.649851249915596,57784.769635911776,10.5,10500057784.769636,47.655,-122.3035,60.0,7.1
2026-02-06T21:45:56+00:00,SAT-48299,335.6864473510434,71.86908646591262,580.0140849810278,-1.5699996613017757,54988.02923077086,10.5,10500054988.02923,47.655,-122.3035,60.0,7.116666666666666
2026-02-06T21:45:57+00:00,SAT-48299,337.2182088518191,72.39341281465218,578.448294272158,-1.489495862899246,52168.44567998467,10.5,10500052168.44568,47.655,-122.3035,60.0,7.133333333333334
2026-02-06T21:45:58+00:00,SAT-48299,338.84841732240807,72.90774916725596,576.9627915421166,-1.4083667259017743,49326.96012642396,10.5,10500049326.960127,47.655,-122.3035,60.0,7.15
2026-02-06T21:45:59+00:00,SAT-48299,340.58401109480235,73.41060246798023,575.5582004530526,-1.3266403371249182,46464.5562891767,10.5,10500046464.55629,47.655,-122.3035,60.0,7.166666666666667
2026-02-06T21:46:00+00:00,SAT-48299,342.43208285325363,73.90033810180995,574.2351166555951,-1.2443459874986595,43582.26006051134,10.5,10500043582.260061,47.655,-122.3035,60.0,7.183333333333334
2026-02-06T21:46:01+00:00,SAT-48299,344.3997400201389,74.37517176944745,572.9941065879692,-1.1615141075513196,40681.13724625072,10.5,10500040681.137247,47.655,-122.3035,60.0,7.2
2026-02-06T21:46:02+00:00,SAT-48299,346.4939130844508,74.83316360162227,571.8357063394511,-1.0781762464888192,37762.29283303918,10.5,10500037762.292833,47.655,-122.3035,60.0,7.216666666666667
2026-02-06T21:46:03+00:00,SAT-48299,348.7211023407695,75.2722158065604,570.7604205346906,-0.9943649960197762,34826.868320375324,10.5,10500034826.86832,47.655,-122.3035,60.0,7.233333333333333
2026-02-06T21:46:04+00:00,SAT-48299,351.0870548225468,75.69007543215524,569.768721294003,-0.9101139592942595,31876.040632715732,10.5,10500031876.040632,47.655,-122.3035,60.0,7.25
2026-02-06T21:46:05+00:00,SAT-48299,353.5963670708163,76.08434417232063,568.8610472246378,-0.8254576797509857,28911.019627402868,10.5,10500028911.019627,47.655,-122.3035,60.0,7.266666666666667
2026-02-06T21:46:06+00:00,SAT-48299,356.25201593080544,76.4524973392928,568.0378024830133,-0.7404315761990425,25933.045820952393,10.5,10500025933.04582,47.655,-122.3035,60.0,7.283333333333333
2026-02-06T21:46:07+00:00,SAT-48299,359.054830093782,76.7919141856602,567.2993559016902,-0.6550718747285738,22943.38800427736,10.5,10500022943.388004,47.655,-122.3035,60.0,7.3
2026-02-06T21:46:08+00:00,SAT-48299,2.0029294476480195,77.09992149150446,566.6460401842579,-0.5694155474567022,19943.341097311302,10.5,10500019943.341097,47.655,-122.3035,60.0,7.316666666666666
2026-02-06T21:46:09+00:00,SAT-48299,5.091176755921537,77.37385162547335,566.0781511613046,-0.4835002166455803,16934.222790816813,10.5,10500016934.222792,47.655,-122.3035,60.0,7.333333333333333
2026-02-06T21:46:10+00:00,SAT-48299,8.310703942463471,77.61111500202284,565.5959471420168,-0.3973640937454321,13917.371411415015,10.5,10500013917.371412,47.655,-122.3035,60.0,7.35
2026-02-06T21:46:11+00:00,SAT-48299,11.64858968847562,77.80928504783643,565.1996483265705,-0.3110458823992857,10894.142524400995,10.5,10500010894.142525,47.655,-122.3035,60.0,7.366666666666666
2026-02-06T21:46:12+00:00,SAT-48299,15.087769076057784,77.96619148030031,564.8894363152576,-0.22458470335312086,7865.90630377956,10.5,10500007865.906303,47.655,-122.3035,60.0,7.383333333333334
2026-02-06T21:46:13+00:00,SAT-48299,18.607245043975816,78.08001536594537,564.6654536925014,-0.13802000175118376,4834.044285355003,10.5,10500004834.044285,47.655,-122.3035,60.0,7.4
2026-02-06T21:46:14+00:00,SAT-48299,22.18264075892742,78.14937750174698,564.527803703328,-0.0513914583278858,1799.9462562957501,10.5,10500001799.946257,47.655,-122.3035,60.0,7.416666666666667
2026-02-06T21:46:15+00:00,SAT-48299,25.787084376291677,78.17341084671519,564.4765500184079,0.03526109884373336,-1234.992835807765,10.5,10499998765.007164,47.655,-122.3035,60.0,7.433333333333334
2026-02-06T21:46:16+00:00,SAT-48299,29.392361320316652,78.15180847694896,564.5117165871116,0.12189778776070269,-4269.376154510792,10.5,10499995730.623846,47.655,-122.3035,60.0,7.45
2026-02-06T21:46:17+00:00,SAT-48299,32.97021799716506,78.0848409870996,564.6332875837252,0.20847876256946918,-7301.808129474112,10.5,10499992698.19187,47.655,-122.3035,60.0,7.466666666666667
2026-02-06T21:46:18+00:00,SAT-48299,36.49366993162592,77.97334105567299,564.8412074435024,0.29496430463799095,-10330.897646193971,10.5,10499989669.102354,47.655,-122.3035,60.0,7.483333333333333
2026-02-06T21:46:19+00:00,SAT-48299,39.9381665508802,77.81865720511267,565.1353809895447,0.38131491757593566,-13355.261374011367,10.5,10499986644.738626,47.655,-122.3035,60.0,7.5
2026-02-06T21:46:20+00:00,SAT-48299,43.282494028373804,77.62258263366468,565.5156736544479,0.4674914070445599,-16373.52656139161,10.5,10499983626.473438,47.655,-122.3035,60.0,7.516666666666667
2026-02-06T21:46:21+00:00,SAT-48299,46.50934785008032,77.38726755344183,565.9819117815441,0.5534549817923874,-19384.334574621178,10.5,10499980615.665426,47.655,-122.3035,60.0,7.533333333333333
2026-02-06T21:46:22+00:00,SAT-48299,49.6055636044528,77.115124300086,566.533883026907,0.6391673232451702,-22386.343335142497,10.5,10499977613.656666,47.655,-122.3035,60.0,7.55
2026-02-06T21:46:23+00:00,SAT-48299,52.562042582701466,76.80873376290532,567.171336830764,0.7245906876553304,-25378.23089725949,10.5,10499974621.769102,47.655,-122.3035,60.0,7.566666666666666
2026-02-06T21:46:24+00:00,SAT-48299,55.373440789806374,76.47075979372916,567.8939849907789,0.8096879690330351,-28358.697652250037,10.5,10499971641.302347,47.655,-122.3035,60.0,7.583333333333333
2026-02-06T21:46:25+00:00,SAT-48299,58.03770189029204,76.10387593653444,568.7015022981042,0.8944227871713852,-31326.469411380407,10.5,10499968673.530588,47.655,-122.3035,60.0,7.6
2026-02-06T21:46:26+00:00,SAT-48299,60.55551135650629,75.71070649501823,569.5935272612131,0.9787595535354568,-34280.2997136182,10.5,10499965719.700287,47.655,-122.3035,60.0,7.616666666666666
2026-02-06T21:46:27+00:00,SAT-48299,62.92973513503266,75.29378210495075,570.5696628954545,1.0626635498409545,-37218.9725777892,10.5,10499962781.027422,47.655,-122.3035,60.0,7.633333333333334
2026-02-06T21:46:28+00:00,SAT-48299,65.16488841783554,74.85550866040256,571.6294775909658,1.1461009806501288,-40141.30434470887,10.5,10499959858.695656,47.655,-122.3035,60.0,7.65
2026-02-06T21:46:29+00:00,SAT-48299,67.26666247726203,74.39814771795056,572.7725060330489,1.2290390480060103,-43046.14629118891,10.5,10499956953.853708,47.655,-122.3035,60.0,7.666666666666667
2026-02-06T21:46:30+00:00,SAT-48299,69.24152306709792,73.9238061944957,573.9982501969745,1.3114459905012317,-45932.3859983927,10.5,10499954067.614002,47.655,-122.3035,60.0,7.683333333333334
2026-02-06T21:46:31+00:00,SAT-48299,71.0963830892289,73.43443322769566,575.3061803817548,1.3932911555613,-48798.94988350124,10.5,10499951201.050116,47.655,-122.3035,60.0,7.7
2026-02-06T21:46:32+00:00,SAT-48299,72.83834543918653,72.9318222582127,576.6957363160021,1.4745450248118774,-51644.80408818261,10.5,10499948355.195911,47.655,-122.3035,60.0,7.716666666666667
2026-02-06T21:46:33+00:00,SAT-48299,74.4745079838968,72.41761673028746,578.1663282890897,1.55517925622278,-54468.9559546531,10.5,10499945531.044044,47.655,-122.3035,60.0,7.733333333333333
2026-02-06T21:46:34+00:00,SAT-48299,76.01182114690509,71.8933181071556,579.7173383243412,1.6351667480909384,-57270.45626663114,10.5,10499942729.543734,47.655,-122.3035,60.0,7.75
2026-02-06T21:46:35+00:00,SAT-48299,77.45698843596244,71.36029520214842,581.3481214160335,1.7144816221570858,-60048.398658012266,10.5,10499939951.601341,47.655,-122.3035,60.0,7.766666666666667
2026-02-06T21:46:36+00:00,SAT-48299,78.8164008970368,70.81979412250291,583.0580067495601,1.7930992978486586,-62801.9222131696,10.5,10499937198.077787,47.655,-122.3035,60.0,7.783333333333333
2026-02-06T21:46:37+00:00,SAT-48299,80.09609779364648,70.27294827892688,584.8462989956389,1.8709964685703309,-65530.21063654801,10.5,10499934469.789364,47.655,-122.3035,60.0,7.8
2026-02-06T21:46:38+00:00,SAT-48299,81.30174691457636,69.72078814443844,586.7122795808743,1.9481511464630543,-68232.49382031508,10.5,10499931767.50618,47.655,-122.3035,60.0,7.816666666666666
2026-02-06T21:46:39+00:00,SAT-48299,82.43863929486795,69.16425051851829,588.6552080029586,2.0245426633354984,-70908.04787698406,10.5,10499929091.952124,47.655,-122.3035,60.0,7.833333333333333
2026-02-06T21:46:40+00:00,SAT-48299,83.51169414933148,68.60418718170527,590.6743231468007,2.100151681220791,-73556.19550915556,10.5,10499926443.804491,47.655,-122.3035,60.0,7.85
2026-02-06T21:46:41+00:00,SAT-48299,84.52547080739951,68.04137287471505,592.7688446111852,2.1749601613677463,-76176.3049234592,10.5,10499923823.695076,47.655,-122.3035,60.0,7.866666666666666
2026-02-06T21:46:42+00:00,SAT-48299,85.48418518912109,67.47651259568912,594.9379740045047,2.2489514253345937,-78767.79197031446,10.5,10499921232.208029,47.655,-122.3035,60.0,7.883333333333334
2026-02-06T21:46:43+00:00,SAT-48299,86.39172904608395,66.91024820370657,597.1808963014232,2.3221100745313117,-81330.11732596278,10.5,10499918669.882673,47.655,-122.3035,60.0,7.9
2026-02-06T21:46:44+00:00,SAT-48299,87.2516905758563,66.34316439775651,599.496781119296,2.394422024378857,-83862.78768886841,10.5,10499916137.21231,47.655,-122.3035,60.0,7.916666666666667
2026-02-06T21:46:45+00:00,SAT-48299,88.06737551251582,65.7757940830165,601.8847840286576,2.465874492252413,-86365.35535743977,10.5,10499913634.644642,47.655,-122.3035,60.0,7.933333333333334
2026-02-06T21:46:46+00:00,SAT-48299,88.84182800755809,65.20862318517257,604.344047851687,2.5364559212274584,-88837.4155592944,10.5,10499911162.58444,47.655,-122.3035,60.0,7.95
2026-02-06T21:46:47+00:00,SAT-48299,89.57785083911666,64.64209497644495,606.8737038846205,2.6061560584484025,-91278.60919605997,10.5,10499908721.390804,47.655,-122.3035,60.0,7.966666666666667
2026-02-06T21:46:48+00:00,SAT-48299,90.27802470846481,64.07661392631377,609.4728731983257,2.674965803788993,-93688.61754282167,10.5,10499906311.382458,47.655,-122.3035,60.0,7.983333333333333
2026-02-06T21:46:49+00:00,SAT-48299,90.94472638831265,63.51254917547877,612.1406677879401,2.7428773098484966,-96067.1657504113,10.5,10499903932.83425,47.655,-122.3035,60.0,8.0
2026-02-06T21:46:50+00:00,SAT-48299,91.58014570569354,62.95023762004167,614.8761918222381,2.809883842369013,-98414.0179566313,10.5,10499901585.982044,47.655,-122.3035,60.0,8.016666666666667
2026-02-06T21:46:51+00:00,SAT-48299,92.18630126988889,62.38998669783989,617.6785427537897,2.875979839132807,-100728.97934908848,10.5,10499899271.02065,47.655,-122.3035,60.0,8.033333333333333
2026-02-06T21:46:52+00:00,SAT-48299,92.7650550073098,61.83207687050754,620.5468124878588,2.9411607859128526,-103011.89182045718,10.5,10499896988.10818,47.655,-122.3035,60.0,8.05
2026-02-06T21:46:53+00:00,SAT-48299,93.31812550327062,61.276763870988596,623.480088427585,3.005423269236847,-105262.6358164984,10.5,10499894737.364183,47.655,-122.3035,60.0,8.066666666666666
2026-02-06T21:46:54+00:00,SAT-48299,93.84710024444523,60.724280709942285,626.4774545717853,3.068764878426321,-107481.126905055,10.5,10499892518.873095,47.655,-122.3035,60.0,8.083333333333334
2026-02-06T21:46:55+00:00,SAT-48299,94.35344679928072,60.174839496310845,629.5379925150623,3.1311841794811346,-109667.31486137623,10.5,10499890332.685139,47.655,-122.3035,60.0,8.1
2026-02-06T21:46:56+00:00,SAT-48299,94.83852302416125,59.62863308014338,632.6607824218614,3.192680701589543,-111821.1831956433,10.5,10499888178.816805,47.655,-122.3035,60.0,8.116666666666667
2026-02-06T21:46:57+00:00,SAT-48299,95.30358636893955,59.08583653594676,635.84490398708,3.2532548532380132,-113942.74621478016,10.5,10499886057.253786,47.655,-122.3035,60.0,8.133333333333333
2026-02-06T21:46:58+00:00,SAT-48299,95.74980234453417,58.546608516386435,639.0894373130056,3.3129079428391015,-116032.0497449291,10.5,10499883967.950254,47.655,-122.3035,60.0,8.15
2026-02-06T21:46:59+00:00,SAT-48299,96.17825223715201,58.01109247377452,642.3934638068313,3.3716420473696025,-118089.16653060308,10.5,10499881910.83347,47.655,-122.3035,60.0,8.166666666666666
2026-02-06T21:47:00+00:00,SAT-48299,96.58994011543821,57.47941778828922,645.7560669471584,3.4294600897143557,-120114.19894359296,10.5,10499879885.801056,47.655,-122.3035,60.0,8.183333333333334
2026-02-06T21:47:01+00:00,SAT-48299,96.98579921865027,56.95170078063057,649.1763331276377,3.486365681082415,-122107.27346371522,10.5,10499877892.726536,47.655,-122.3035,60.0,8.2
2026-02-06T21:47:02+00:00,SAT-48299,97.36669775529462,56.42804565755156,652.6533523434478,3.5423631575688876,-124068.54195936216,10.5,10499875931.45804,47.655,-122.3035,60.0,8.216666666666667
2026-02-06T21:47:03+00:00,SAT-48299,97.73344418790916,55.90854536829458,656.1862189142373,3.5974575187613507,-125998.17953723899,10.5,10499874001.820463,47.655,-122.3035,60.0,8.233333333333333
2026-02-06T21:47:04+00:00,SAT-48299,98.08679204141632,55.393282395830084,659.7740321458399,3.651654373330095,-127896.38263670396,10.5,10499872103.617363,47.655,-122.3035,60.0,8.25
2026-02-06T21:47:05+00:00,SAT-48299,98.42744428052411,54.882329488480174,663.4158969377232,3.704959931127472,-129763.368753054,10.5,10499870236.631247,47.655,-122.3035,60.0,8.266666666666667
2026-02-06T21:47:06+00:00,SAT-48299,98.75605730094998,54.37575033158929,667.1109243825599,3.7573809208302373,-131599.37355301145,10.5,10499868400.626448,47.655,-122.3035,60.0,8.283333333333333
2026-02-06T21:47:07+00:00,SAT-48299,99.07324456447711,53.87360017528197,670.8582322836602,3.808924580236631,-133404.65053488646,10.5,10499866595.349464,47.655,-122.3035,60.0,8.3
2026-02-06T21:47:08+00:00,SAT-48299,99.37957991760737,53.37592641286895,674.6569456627286,3.8595986570167504,-135179.4710548585,10.5,10499864820.528946,47.655,-122.3035,60.0,8.316666666666666
2026-02-06T21:47:09+00:00,SAT-48299,99.67560062379314,52.882769113510825,678.5061972683704,3.9094112809956623,-136924.1198537905,10.5,10499863075.880146,47.655,-122.3035,60.0,8.333333333333334
2026-02-06T21:47:10+00:00,SAT-48299,99.9618101270312,52.39416152956431,682.4051279572207,3.958371008865428,-138638.89662323325,10.5,10499861361.103376,47.655,-122.3035,60.0,8.35
2026-02-06T21:47:11+00:00,SAT-48299,100.2386805842693,51.910130559397594,686.3528871196665,4.006486770976276,-140324.11414182707,10.5,10499859675.885859,47.655,-122.3035,60.0,8.366666666666667
2026-02-06T21:47:12+00:00,SAT-48299,100.50665518121775,51.43069718181552,690.348633052505,4.053767808531185,-141980.09607559053,10.5,10499858019.903925,47.655,-122.3035,60.0,8.383333333333333
2026-02-06T21:47:13+00:00,SAT-48299,100.76615025119335,50.95587686555726,694.3915332689614,4.100223694747005,-143607.1777190724,10.5,10499856392.82228,47.655,-122.3035,60.0,8.4
2026-02-06T21:47:14+00:00,SAT-48299,101.01755722019881,50.48567994623979,698.4807648298137,4.14586424819474,-145205.70296016178,10.5,10499854794.297039,47.655,-122.3035,60.0,8.416666666666666
2026-02-06T21:47:15+00:00,SAT-48299,101.26124438798011,50.02011198582058,702.6155145880883,4.190699554240945,-146776.0250310564,10.5,10499853223.97497,47.655,-122.3035,60.0,8.433333333333334
2026-02-06T21:47:16+00:00,SAT-48299,101.49755856586872,49.559174103841215,706.7949794551408,4.234739924091067,-148318.5050737874,10.5,10499851681.494926,47.655,-122.3035,60.0,8.45
2026-02-06T21:47:17+00:00,SAT-48299,101.72682658088787,49.102863289709994,711.0183666258897,4.277995812801143,-149833.50926864208,10.5,10499850166.490732,47.655,-122.3035,60.0,8.466666666666667
2026-02-06T21:47:18+00:00,SAT-48299,101.94935665637895,48.65117270169747,715.28489372228,4.320477900902337,-151321.41169300044,10.5,10499848678.588306,47.655,-122.3035,60.0,8.483333333333333
2026-02-06T21:47:19+00:00,SAT-48299,102.16543968783228,48.20409193653293,719.5937890181559,4.362196986650355,-152782.59054745376,10.5,10499847217.409452,47.655,-122.3035,60.0,8.5
2026-02-06T21:47:20+00:00,SAT-48299,102.37535041415359,47.76160729152864,723.9442915566682,4.403163962146471,-154217.42731946227,10.5,10499845782.572681,47.655,-122.3035,60.0,8.516666666666667
2026-02-06T21:47:21+00:00,SAT-48299,102.57934849766991,47.3237020109745,728.3356512438687,4.443389886727141,-155626.30935376958,10.5,10499844373.690647,47.655,-122.3035,60.0,8.533333333333333
2026-02-06T21:47:22+00:00,SAT-48299,102.77767952465503,46.89035650854884,732.7671290154975,4.482885815154717,-157009.6238349149,10.5,10499842990.376165,47.655,-122.3035,60.0,8.55
2026-02-06T21:47:23+00:00,SAT-48299,102.9705759230684,46.461548591255195,737.2379968324201,4.521662926383305,-158367.76229715795,10.5,10499841632.237703,47.655,-122.3035,60.0,8.566666666666666
2026-02-06T21:47:24+00:00,SAT-48299,103.15825781682979,46.03725365593077,741.7475378044871,4.5597324270479715,-159701.11724426268,10.5,10499840298.882755,47.655,-122.3035,60.0,8.583333333333334
2026-02-06T21:47:25+00:00,SAT-48299,103.34093381278831,45.61744488163633,746.2950462181412,4.597105524438996,-161010.0812029416,10.5,10499838989.918797,47.655,-122.3035,60.0,8.6
2026-02-06T21:47:26+00:00,SAT-48299,103.51880172914163,45.202093411529646,750.87982753707,4.6337934385761725,-162295.04714574845,10.5,10499837704.952854,47.655,-122.3035,60.0,8.616666666666667
2026-02-06T21:47:27+00:00,SAT-48299,103.69204927129124,44.79116852143358,755.5011984149007,4.669807431705111,-163556.40952416378,10.5,10499836443.590475,47.655,-122.3035,60.0,8.633333333333333
2026-02-06T21:47:28+00:00,SAT-48299,103.86085465998853,44.38463777464674,760.158486737315,4.7051586871107185,-164794.56002413022,10.5,10499835205.439976,47.655,-122.3035,60.0,8.65
2026-02-06T21:47:29+00:00,SAT-48299,104.02538721064558,43.982467176882054,764.8510315432974,4.739858366020904,-166009.8895590612,10.5,10499833990.110441,47.655,-122.3035,60.0,8.666666666666666
2026-02-06T21:47:30+00:00,SAT-48299,104.18580787380368,43.584621315951196,769.5781830031394,4.77391763098508,-167202.7890886546,10.5,10499832797.21091,47.655,-122.3035,60.0,8.683333333333334
2026-02-06T21:47:31+00:00,SAT-48299,104.34226973829652,43.19106349028676,774.3393024197567,4.807347535111214,-168373.64573950603,10.5,10499831626.354261,47.655,-122.3035,60.0,8.7
2026-02-06T21:47:32+00:00,SAT-48299,104.49491849639631,42.80175583793921,779.1337621195402,4.840159098940677,-169522.84549759125,10.5,10499830477.154503,47.655,-122.3035,60.0,8.716666666666667
2026-02-06T21:47:33+00:00,SAT-48299,104.64389287922509,42.416659450748945,783.9609454198784,4.872363225090833,-170650.77021868827,10.5,10499829349.229782,47.655,-122.3035,60.0,8.733333333333333
2026-02-06T21:47:34+00:00,SAT-48299,104.7893250603276,42.03573448760607,788.8202465115489,4.9039708075578545,-171757.8014566246,10.5,10499828242.198544,47.655,-122.3035,60.0,8.75
2026-02-06T21:47:35+00:00,SAT-48299,104.93134103492686,41.65894027168852,793.7110704501197,4.934992556192107,-172844.31431566275,10.5,10499827155.685684,47.655,-122.3035,60.0,8.766666666666667
2026-02-06T21:47:36+00:00,SAT-48299,105.07006096930374,41.28623539451779,798.6328329722975,4.965439164696924,-173910.6833345277,10.5,10499826089.316666,47.655,-122.3035,60.0,8.783333333333333
2026-02-06T21:47:37+00:00,SAT-48299,105.20559953152117,40.91757780040859,803.5849604798248,4.995321144682782,-174957.27667428248,10.5,10499825042.723326,47.655,-122.3035,60.0,8.8
2026-02-06T21:47:38+00:00,SAT-48299,105.33806619627292,40.552924877422626,808.5668898578728,5.024648971803866,-175984.46123664855,10.5,10499824015.538763,47.655,-122.3035,60.0,8.816666666666666
2026-02-06T21:47:39+00:00,SAT-48299,105.46756553359488,40.19223353157712,813.5780684391847,5.053432949708648,-176992.59789897982,10.5,10499823007.402102,47.655,-122.3035,60.0,8.833333333333334
