DopplerPredictor/satellites_20260211_205738/SAT-58082.csv

timestamp,satellite,azimuth_deg,elevation_deg,distance_km,relative_velocity_kms,doppler_shift_hz,tx_freq_ghz,rx_freq_hz,ue_lat,ue_lon,ue_alt_m,time_minutes
2026-02-06T21:43:09+00:00,SAT-58082,212.4112728274155,40.07171915110328,828.0570409988894,-2.5372938533129825,88866.76348537867,10.5,10500088866.763485,47.655,-122.3035,60.0,4.333333333333333
2026-02-06T21:43:10+00:00,SAT-58082,211.84429813714243,40.24948741878476,825.5265492802504,-2.486584643196981,87090.71244737018,10.5,10500087090.712448,47.655,-122.3035,60.0,4.35
2026-02-06T21:43:11+00:00,SAT-58082,211.2708527174258,40.425133169986786,823.0466308273333,-2.435413002582474,85298.46513722495,10.5,10500085298.465137,47.655,-122.3035,60.0,4.366666666666666
2026-02-06T21:43:12+00:00,SAT-58082,210.69094306043073,40.598557643362206,820.6177468309235,-2.3837830221973344,83490.16482953688,10.5,10500083490.16483,47.655,-122.3035,60.0,4.383333333333334
2026-02-06T21:43:13+00:00,SAT-58082,210.10458112592102,40.769660989858316,818.240354402047,-2.331699139879472,81665.96695616157,10.5,10500081665.966957,47.655,-122.3035,60.0,4.4
2026-02-06T21:43:14+00:00,SAT-58082,209.51178457050844,40.93834237956784,815.914906225787,-2.2791661546607456,79826.03959949462,10.5,10500079826.0396,47.655,-122.3035,60.0,4.416666666666667
2026-02-06T21:43:15+00:00,SAT-58082,208.91257697167043,41.1045001166563,813.6418502010615,-2.2261892129224217,77970.56300757715,10.5,10500077970.563007,47.655,-122.3035,60.0,4.433333333333334
2026-02-06T21:43:16+00:00,SAT-58082,208.3069880523858,41.26803176040254,811.4216290942051,-2.1727738204923286,76099.73001778933,10.5,10500076099.730019,47.655,-122.3035,60.0,4.45
2026-02-06T21:43:17+00:00,SAT-58082,207.69505389877057,41.4288342542179,809.2546801804828,-2.1189258642420388,74213.7468132751,10.5,10500074213.746813,47.655,-122.3035,60.0,4.466666666666667
2026-02-06T21:43:18+00:00,SAT-58082,207.07681716594146,41.58680406338073,807.141434864071,-2.0646515767155327,72312.83168408826,10.5,10500072312.831684,47.655,-122.3035,60.0,4.483333333333333
2026-02-06T21:43:19+00:00,SAT-58082,206.45232728676493,41.74183731720085,805.0823183333108,-2.0099575770797724,70397.21646145485,10.5,10500070397.216461,47.655,-122.3035,60.0,4.5
2026-02-06T21:43:20+00:00,SAT-58082,205.82164066039476,41.89382996116451,803.077749175121,-1.954850832857782,68467.1451775038,10.5,10500068467.145178,47.655,-122.3035,60.0,4.516666666666667
2026-02-06T21:43:21+00:00,SAT-58082,205.18482084218135,42.04267791301538,801.1281390275767,-1.8993387062051084,66522.87568606425,10.5,10500066522.875687,47.655,-122.3035,60.0,4.533333333333333
2026-02-06T21:43:22+00:00,SAT-58082,204.54193870745837,42.18827722893832,799.2338921863342,-1.8434289125098593,64564.678212663785,10.5,10500064564.678213,47.655,-122.3035,60.0,4.55
2026-02-06T21:43:23+00:00,SAT-58082,203.89307261485263,42.33052427299341,797.3954052523454,-1.7871295383445487,62592.83598327801,10.5,10500062592.835983,47.655,-122.3035,60.0,4.566666666666666
2026-02-06T21:43:24+00:00,SAT-58082,203.23830854904952,42.46931589398567,795.6130667616696,-1.7304490469490257,60607.64541636591,10.5,10500060607.645416,47.655,-122.3035,60.0,4.583333333333333
2026-02-06T21:43:25+00:00,SAT-58082,202.57774024433283,42.604549608536864,793.8872568098134,-1.6733962580739703,58609.41541690381,10.5,10500058609.415417,47.655,-122.3035,60.0,4.6
2026-02-06T21:43:26+00:00,SAT-58082,201.91146929669634,42.736123787965006,792.2183466961786,-1.6159803724600614,56598.46823374939,10.5,10500056598.468233,47.655,-122.3035,60.0,4.616666666666666
2026-02-06T21:43:27+00:00,SAT-58082,201.23960524587372,42.863937852020705,790.606698544092,-1.558210913358526,54575.137411443895,10.5,10500054575.137411,47.655,-122.3035,60.0,4.633333333333334
2026-02-06T21:43:28+00:00,SAT-58082,200.56226565885459,42.987892462461936,789.0526649791589,-1.5000978092407289,52539.77068705195,10.5,10500052539.770687,47.655,-122.3035,60.0,4.65
2026-02-06T21:43:29+00:00,SAT-58082,199.87957615503143,43.10788972708256,787.5565887251315,-1.4416512933172803,50492.726470895555,10.5,10500050492.72647,47.655,-122.3035,60.0,4.666666666666667
2026-02-06T21:43:30+00:00,SAT-58082,199.1916704479937,43.223833399100705,786.1188022999836,-1.3828819854758962,48434.37671636459,10.5,10500048434.376717,47.655,-122.3035,60.0,4.683333333333334
2026-02-06T21:43:31+00:00,SAT-58082,198.49869032353004,43.335629085764566,784.739627630273,-1.323800795004449,46365.103512866604,10.5,10500046365.103514,47.655,-122.3035,60.0,4.7
2026-02-06T21:43:32+00:00,SAT-58082,197.8007856342335,43.44318445116042,783.4193757625155,-1.2644190151184467,44285.30239657893,10.5,10500044285.302397,47.655,-122.3035,60.0,4.716666666666667
2026-02-06T21:43:33+00:00,SAT-58082,197.09811421681275,43.54640942793165,782.1583464802866,-1.204748218072732,42195.37867681676,10.5,10500042195.378677,47.655,-122.3035,60.0,4.733333333333333
2026-02-06T21:43:34+00:00,SAT-58082,196.39084183026384,43.645216421027946,780.9568280259314,-1.1448003149717065,40095.749530840156,10.5,10500040095.74953,47.655,-122.3035,60.0,4.75
2026-02-06T21:43:35+00:00,SAT-58082,195.6791420295095,43.73952051603067,779.8150967626216,-1.0845875072763982,37986.84230542644,10.5,10500037986.842306,47.655,-122.3035,60.0,4.766666666666667
2026-02-06T21:43:36+00:00,SAT-58082,194.96319603079363,43.82923968241361,778.7334168847793,-1.0241223055720003,35869.09517418882,10.5,10500035869.095175,47.655,-122.3035,60.0,4.783333333333333
2026-02-06T21:43:37+00:00,SAT-58082,194.2431925292491,43.914294976392405,777.7120401097797,-0.9634174849271193,33742.95557406835,10.5,10500033742.955574,47.655,-122.3035,60.0,4.8
2026-02-06T21:43:38+00:00,SAT-58082,193.51932750804556,43.9946107372467,776.751205414178,-0.9024861010494435,31608.880771173892,10.5,10500031608.880772,47.655,-122.3035,60.0,4.816666666666666
2026-02-06T21:43:39+00:00,SAT-58082,192.79180399936612,44.07011478125532,775.8511387538222,-0.841341470587274,29467.337170858304,10.5,10500029467.337172,47.655,-122.3035,60.0,4.833333333333333
2026-02-06T21:43:40+00:00,SAT-58082,192.0608318187909,44.1407385893907,775.0120528036125,-0.7799971464479574,27318.799453265605,10.5,10500027318.799454,47.655,-122.3035,60.0,4.85
2026-02-06T21:43:41+00:00,SAT-58082,191.3266272798545,44.206417487435495,774.2341467218746,-0.7184669232086482,25163.750762838758,10.5,10500025163.750763,47.655,-122.3035,60.0,4.866666666666666
2026-02-06T21:43:42+00:00,SAT-58082,190.58941286307015,44.267090820165215,773.5176059093387,-0.6567648001665719,23002.68141418356,10.5,10500023002.681414,47.655,-122.3035,60.0,4.883333333333334
2026-02-06T21:43:43+00:00,SAT-58082,189.84941687742983,44.322702115161995,772.8626018049678,-0.5949049876241781,20836.089112201316,10.5,10500020836.089111,47.655,-122.3035,60.0,4.9
2026-02-06T21:43:44+00:00,SAT-58082,189.1068730747091,44.37319923905144,772.2692916755186,-0.5329018803950093,18664.478024152286,10.5,10500018664.478024,47.655,-122.3035,60.0,4.916666666666667
2026-02-06T21:43:45+00:00,SAT-58082,188.36202024732842,44.41853454258524,771.7378184315245,-0.47077003867532463,16488.358109699042,10.5,10500016488.35811,47.655,-122.3035,60.0,4.933333333333334
2026-02-06T21:43:46+00:00,SAT-58082,187.61510180768755,44.45866499440609,771.2683104623566,-0.4085241829575837,14308.244942755127,10.5,10500014308.244944,47.655,-122.3035,60.0,4.95
2026-02-06T21:43:47+00:00,SAT-58082,186.8663653291133,44.493552303960264,770.8608814763571,-0.3461791649078003,12124.65869148684,10.5,10500012124.658691,47.655,-122.3035,60.0,4.966666666666667
2026-02-06T21:43:48+00:00,SAT-58082,186.11606208337548,44.52316303083981,770.5156303700177,-0.2837499591652909,9938.123831105699,10.5,10500009938.12383,47.655,-122.3035,60.0,4.983333333333333
2026-02-06T21:43:49+00:00,SAT-58082,185.36444654506633,44.54746868171849,770.2326411053357,-0.22125163865627942,7749.168279246484,10.5,10500007749.16828,47.655,-122.3035,60.0,5.0
2026-02-06T21:43:50+00:00,SAT-58082,184.611775893616,44.56644579292694,770.0119826117897,-0.15869936292009026,5558.322987101123,10.5,10500005558.322987,47.655,-122.3035,60.0,5.016666666666667
2026-02-06T21:43:51+00:00,SAT-58082,183.85830948693567,44.58007599930657,769.8537086999611,-0.09610835486673265,3366.121125370982,10.5,10500003366.121126,47.655,-122.3035,60.0,5.033333333333333
2026-02-06T21:43:52+00:00,SAT-58082,183.10430833781115,44.58834608796007,769.757857998331,-0.033493885971697064,1173.097565726017,10.5,10500001173.097567,47.655,-122.3035,60.0,5.05
2026-02-06T21:43:53+00:00,SAT-58082,182.3500345677239,44.59124803729944,769.7244539048455,0.02912874492583024,-1020.2118617714443,10.5,10499998979.788137,47.655,-122.3035,60.0,5.066666666666666
2026-02-06T21:43:54+00:00,SAT-58082,181.59575086960416,44.58877904062343,769.7535045596261,0.09174422857501872,-3213.2709623992496,10.5,10499996786.729038,47.655,-122.3035,60.0,5.083333333333333
2026-02-06T21:43:55+00:00,SAT-58082,180.84171995422903,44.58094151445155,769.8450028345848,0.15433726425715838,-5405.5438402661985,10.5,10499994594.45616,47.655,-122.3035,60.0,5.1
2026-02-06T21:43:56+00:00,SAT-58082,180.08820400793135,44.56774309138247,769.998926341935,0.21689257932874265,-7596.495582793474,10.5,10499992403.504417,47.655,-122.3035,60.0,5.116666666666666
2026-02-06T21:43:57+00:00,SAT-58082,179.33546414164127,44.549196597486386,770.2152374621895,0.2793949454133504,-9785.592827822837,10.5,10499990214.407171,47.655,-122.3035,60.0,5.133333333333334
2026-02-06T21:43:58+00:00,SAT-58082,178.58375985887608,44.525320014633834,770.4938833883109,0.3418291999001042,-11972.304516583581,10.5,10499988027.695484,47.655,-122.3035,60.0,5.15
2026-02-06T21:43:59+00:00,SAT-58082,177.83334851803022,44.496136427538964,770.8347961912983,0.4041802617442232,-14156.102447094729,10.5,10499985843.897552,47.655,-122.3035,60.0,5.166666666666667
2026-02-06T21:44:00+00:00,SAT-58082,177.08448481586504,44.46167395630031,771.2378929015377,0.46643315057354523,-16336.461943356242,10.5,10499983663.538057,47.655,-122.3035,60.0,5.183333333333334
2026-02-06T21:44:01+00:00,SAT-58082,176.3374202801188,44.42196567456089,771.7030756092028,0.528573003931788,-18512.86245928099,10.5,10499981487.13754,47.655,-122.3035,60.0,5.2
2026-02-06T21:44:02+00:00,SAT-58082,175.59240277966143,44.37704951389788,772.2302315818538,0.5905850943796362,-20684.78817764715,10.5,10499979315.211823,47.655,-122.3035,60.0,5.216666666666667
2026-02-06T21:44:03+00:00,SAT-58082,174.84967605291376,44.32696815501103,772.8192333990961,0.6524548501702659,-22851.728734242515,10.5,10499977148.271265,47.655,-122.3035,60.0,5.233333333333333
2026-02-06T21:44:04+00:00,SAT-58082,174.10947925259737,44.27176890600944,773.4699391078517,0.7141678595924627,-25013.179369978872,10.5,10499974986.82063,47.655,-122.3035,60.0,5.25
2026-02-06T21:44:05+00:00,SAT-58082,173.37204652720473,44.21150356985231,774.1821923819682,0.7757099105036397,-27168.642315505538,10.5,10499972831.357685,47.655,-122.3035,60.0,5.266666666666667
2026-02-06T21:44:06+00:00,SAT-58082,172.63760660004607,44.146228298696876,774.9558227212494,0.8370669750112056,-29317.62625468603,10.5,10499970682.373745,47.655,-122.3035,60.0,5.283333333333333
2026-02-06T21:44:07+00:00,SAT-58082,171.9063824076352,44.076003440556335,775.790645635216,0.8982252583598747,-31459.648036838484,10.5,10499968540.351963,47.655,-122.3035,60.0,5.3
2026-02-06T21:44:08+00:00,SAT-58082,171.1785907310606,44.00089337367645,776.6864628756133,0.9591711764035559,-33594.231887705915,10.5,10499966405.768112,47.655,-122.3035,60.0,5.316666666666666
2026-02-06T21:44:09+00:00,SAT-58082,170.45444188947604,43.9209663354755,777.6430626464586,1.0198914081307542,-35720.91124911795,10.5,10499964279.08875,47.655,-122.3035,60.0,5.333333333333333
2026-02-06T21:44:10+00:00,SAT-58082,169.73413942926203,43.83629424062461,778.6602198664693,1.0803728764151133,-37839.22810479338,10.5,10499962160.771894,47.655,-122.3035,60.0,5.35
2026-02-06T21:44:11+00:00,SAT-58082,169.01787986975216,43.74695249516998,779.7376964122941,1.1406027836717312,-39948.73422917523,10.5,10499960051.26577,47.655,-122.3035,60.0,5.366666666666666
2026-02-06T21:44:12+00:00,SAT-58082,168.3058524610647,43.65301980300198,780.875241397306,1.200568604699776,-42048.990936748814,10.5,10499957951.009064,47.655,-122.3035,60.0,5.383333333333334
2026-02-06T21:44:13+00:00,SAT-58082,167.59823898549809,43.55457796912804,782.072591443255,1.2602581116471303,-44139.56995640921,10.5,10499955860.430044,47.655,-122.3035,60.0,5.4
2026-02-06T21:44:14+00:00,SAT-58082,166.89521357954362,43.45171169798268,783.3294709768206,1.3196593857003334,-46220.05384089249,10.5,10499953779.94616,47.655,-122.3035,60.0,5.416666666666667
2026-02-06T21:44:15+00:00,SAT-58082,166.1969425861959,43.3445083887616,784.6455925378206,1.378760812858354,-48290.03581875538,10.5,10499951709.964182,47.655,-122.3035,60.0,5.433333333333334
2026-02-06T21:44:16+00:00,SAT-58082,165.50358444448838,43.23305792992862,786.0206570832089,1.437551098992414,-50349.120321833936,10.5,10499949650.879679,47.655,-122.3035,60.0,5.45
2026-02-06T21:44:17+00:00,SAT-58082,164.81528960377332,43.117452492146455,787.454354306087,1.4960192963688315,-52396.92391418576,10.5,10499947603.076086,47.655,-122.3035,60.0,5.466666666666667
2026-02-06T21:44:18+00:00,SAT-58082,164.13220045770865,42.99778631954056,788.9463629811729,1.554154776576537,-54433.07434389707,10.5,10499945566.925655,47.655,-122.3035,60.0,5.483333333333333
2026-02-06T21:44:19+00:00,SAT-58082,163.45445132238962,42.874155524368696,790.496351283267,1.611947259609695,-56457.21156167911,10.5,10499943542.788439,47.655,-122.3035,60.0,5.5
2026-02-06T21:44:20+00:00,SAT-58082,162.7821684291732,42.74665788129922,792.1039771347222,1.669386828326812,-58468.988227287315,10.5,10499941531.011772,47.655,-122.3035,60.0,5.516666666666667
2026-02-06T21:44:21+00:00,SAT-58082,162.11546993971032,42.615392623194666,793.7688885673379,1.7264638981452072,-60468.06864809346,10.5,10499939531.931353,47.655,-122.3035,60.0,5.533333333333333
2026-02-06T21:44:22+00:00,SAT-58082,161.45446599949142,42.48046024256935,795.490724054024,1.7831692733532905,-62454.130751379846,10.5,10499937545.86925,47.655,-122.3035,60.0,5.55
2026-02-06T21:44:23+00:00,SAT-58082,160.7992587926799,42.3419622924824,797.2691128966329,1.839494093161,-64426.86419479739,10.5,10499935573.135805,47.655,-122.3035,60.0,5.566666666666666
2026-02-06T21:44:24+00:00,SAT-58082,160.1499426408225,42.2000011960751,799.1036755599804,1.895429869313147,-66385.97168374411,10.5,10499933614.028316,47.655,-122.3035,60.0,5.583333333333333
2026-02-06T21:44:25+00:00,SAT-58082,159.50660410693948,42.05468005804958,800.994024043383,1.9509685066176847,-68331.16969035188,10.5,10499931668.830309,47.655,-122.3035,60.0,5.6
2026-02-06T21:44:26+00:00,SAT-58082,158.8693221124127,41.90610247994642,802.9397622726681,2.0061022417067464,-70262.18630863902,10.5,10499929737.813692,47.655,-122.3035,60.0,5.616666666666666
2026-02-06T21:44:27+00:00,SAT-58082,158.23816809181596,41.754372385847276,804.940486431107,2.0608237078246345,-72178.76352365963,10.5,10499927821.236477,47.655,-122.3035,60.0,5.633333333333334
2026-02-06T21:44:28+00:00,SAT-58082,157.6132061408028,41.59959384917708,806.9957853549647,2.115125896818821,-74080.65588026773,10.5,10499925919.34412,47.655,-122.3035,60.0,5.65
2026-02-06T21:44:29+00:00,SAT-58082,156.99449319045104,41.44187092877577,809.1052408911415,2.1690021790404406,-75967.6311801167,10.5,10499924032.36882,47.655,-122.3035,60.0,5.666666666666667
2026-02-06T21:44:30+00:00,SAT-58082,156.3820791871468,41.28130751005519,811.2684282746623,2.22244628248771,-77839.46975117348,10.5,10499922160.530249,47.655,-122.3035,60.0,5.683333333333334
2026-02-06T21:44:31+00:00,SAT-58082,155.77600728890405,41.11800715451065,813.4849164853641,2.2754523109773257,-79695.96508415806,10.5,10499920304.034916,47.655,-122.3035,60.0,5.7
2026-02-06T21:44:32+00:00,SAT-58082,155.17631406500988,40.95207295481028,815.7542686227082,2.3280147185314646,-81536.9229354675,10.5,10499918463.077065,47.655,-122.3035,60.0,5.716666666666667
2026-02-06T21:44:33+00:00,SAT-58082,154.58302970984548,40.78360739880516,818.0760422550453,2.3801283549755072,-83362.16292420146,10.5,10499916637.837076,47.655,-122.3035,60.0,5.733333333333333
2026-02-06T21:44:34+00:00,SAT-58082,153.9961782505583,40.61271223733866,820.449789814359,2.4317883662169373,-85171.51503950724,10.5,10499914828.48496,47.655,-122.3035,60.0,5.75
2026-02-06T21:44:35+00:00,SAT-58082,153.4157777844384,40.43948836637662,822.875058891553,2.4829903265029314,-86964.82427280002,10.5,10499913035.175728,47.655,-122.3035,60.0,5.766666666666667
2026-02-06T21:44:36+00:00,SAT-58082,152.8418406860956,40.26403570674264,825.3513926636431,2.533730096275479,-88741.94563924796,10.5,10499911258.054361,47.655,-122.3035,60.0,5.783333333333333
2026-02-06T21:44:37+00:00,SAT-58082,152.27437385151734,40.08645310110182,827.8783301791852,2.584003916413371,-90502.74747852527,10.5,10499909497.252522,47.655,-122.3035,60.0,5.8
