DopplerPredictor/satellites_20260211_205738/SAT-58546.csv

timestamp,satellite,azimuth_deg,elevation_deg,distance_km,relative_velocity_kms,doppler_shift_hz,tx_freq_ghz,rx_freq_hz,ue_lat,ue_lon,ue_alt_m,time_minutes
2026-02-06T21:39:23+00:00,SAT-58546,264.41601500170907,40.216050599118276,713.9247911987426,-3.9487825472410596,138303.0681379954,10.5,10500138303.068138,47.655,-122.3035,60.0,0.5666666666666667
2026-02-06T21:39:24+00:00,SAT-58546,263.9103402290819,40.531127892436956,709.9865947925786,-3.8997019579233587,136584.05828940254,10.5,10500136584.058289,47.655,-122.3035,60.0,0.5833333333333334
2026-02-06T21:39:25+00:00,SAT-58546,263.3941592973364,40.84695623877053,706.0973473974453,-3.8498013052668534,134836.32635382027,10.5,10500134836.326353,47.655,-122.3035,60.0,0.6
2026-02-06T21:39:26+00:00,SAT-58546,262.8672301607446,41.16341883503781,702.2578668782055,-3.7990731805450237,133059.612846307,10.5,10500133059.612846,47.655,-122.3035,60.0,0.6166666666666667
2026-02-06T21:39:27+00:00,SAT-58546,262.3293079602238,41.48039201259756,698.4689784885854,-3.747510589667148,131253.67280422064,10.5,10500131253.672804,47.655,-122.3035,60.0,0.6333333333333333
2026-02-06T21:39:28+00:00,SAT-58546,261.78014536376287,41.79774501874105,694.7315144576527,-3.6951069474722664,129418.27558736916,10.5,10500129418.275587,47.655,-122.3035,60.0,0.65
2026-02-06T21:39:29+00:00,SAT-58546,261.21949295849237,42.11533979922622,691.046313581982,-3.641856131901852,127553.20677536672,10.5,10500127553.206776,47.655,-122.3035,60.0,0.6666666666666666
2026-02-06T21:39:30+00:00,SAT-58546,260.64709969097424,42.43303078822146,687.4142207637934,-3.5877524891621766,125658.26834844142,10.5,10500125658.268349,47.655,-122.3035,60.0,0.6833333333333333
2026-02-06T21:39:31+00:00,SAT-58546,260.06271336620694,42.7506647030176,683.8360865439449,-3.5327909304527645,123733.28207527497,10.5,10500123733.282076,47.655,-122.3035,60.0,0.7
2026-02-06T21:39:32+00:00,SAT-58546,259.46608119583055,43.06808035329518,680.3127665384516,-3.4769668672916167,121778.08724781855,10.5,10500121778.087248,47.655,-122.3035,60.0,0.7166666666666667
2026-02-06T21:39:33+00:00,SAT-58546,258.85695042433747,43.38510845258205,676.8451209395095,-3.4202763406323817,119792.54520352212,10.5,10500119792.545204,47.655,-122.3035,60.0,0.7333333333333333
2026-02-06T21:39:34+00:00,SAT-58546,258.23506900771105,43.701571451128444,673.4340138877483,-3.36271598870573,117776.53819900354,10.5,10500117776.538198,47.655,-122.3035,60.0,0.75
2026-02-06T21:39:35+00:00,SAT-58546,257.600186373772,44.01728337807793,670.0803128765534,-3.3042831199342837,115729.97196383766,10.5,10500115729.971964,47.655,-122.3035,60.0,0.7666666666666667
2026-02-06T21:39:36+00:00,SAT-58546,256.95205425174225,44.33204970484698,666.7848880836726,-3.244975729216228,113652.77627087735,10.5,10500113652.776272,47.655,-122.3035,60.0,0.7833333333333333
2026-02-06T21:39:37+00:00,SAT-58546,256.290427584173,44.645667227168275,663.5486116865799,-3.184792547827414,111544.9066840362,10.5,10500111544.906685,47.655,-122.3035,60.0,0.8
2026-02-06T21:39:38+00:00,SAT-58546,255.615065519154,44.95792397179308,660.3723571280717,-3.1237330602680786,109406.345148332,10.5,10500109406.345148,47.655,-122.3035,60.0,0.8166666666666667
2026-02-06T21:39:39+00:00,SAT-58546,254.92573249230009,45.268599127673724,657.256998365063,-3.0617975551281496,107237.1017714047,10.5,10500107237.101772,47.655,-122.3035,60.0,0.8333333333333334
2026-02-06T21:39:40+00:00,SAT-58546,254.22219939541435,45.57746300813111,654.2034090666521,-2.998987138766742,105037.21530263044,10.5,10500105037.215303,47.655,-122.3035,60.0,0.85
2026-02-06T21:39:41+00:00,SAT-58546,253.50424484143034,45.88427704370107,651.2124617985442,-2.935303812566135,102806.75583888244,10.5,10500102806.755838,47.655,-122.3035,60.0,0.8666666666666667
2026-02-06T21:39:42+00:00,SAT-58546,252.7716565138218,46.18879381564461,648.2850271304274,-2.870750443073229,100545.82377875864,10.5,10500100545.823778,47.655,-122.3035,60.0,0.8833333333333333
2026-02-06T21:39:43+00:00,SAT-58546,252.02423262543962,46.490757122913045,645.4219727731286,-2.8053308463950253,98254.55277846838,10.5,10500098254.552778,47.655,-122.3035,60.0,0.9
2026-02-06T21:39:44+00:00,SAT-58546,251.2617834609619,46.78990209801728,642.6241626315971,-2.7390498039237094,95933.11030259123,10.5,10500095933.110302,47.655,-122.3035,60.0,0.9166666666666666
2026-02-06T21:39:45+00:00,SAT-58546,250.4841330171979,47.085955368769305,639.8924558422086,-2.6719130793471497,93581.69821985671,10.5,10500093581.69822,47.655,-122.3035,60.0,0.9333333333333333
2026-02-06T21:39:46+00:00,SAT-58546,249.69112073915363,47.378635269878,637.2277057931033,-2.6039274698524144,91200.55459650807,10.5,10500091200.554596,47.655,-122.3035,60.0,0.95
2026-02-06T21:39:47+00:00,SAT-58546,248.882603339024,47.66765211207292,634.6307590934556,-2.535100806040653,88789.95369332092,10.5,10500088789.953693,47.655,-122.3035,60.0,0.9666666666666667
2026-02-06T21:39:48+00:00,SAT-58546,248.0584567061213,47.95270850716078,632.102454542832,-2.4654420036210434,86350.20777614412,10.5,10500086350.207777,47.655,-122.3035,60.0,0.9833333333333333
2026-02-06T21:39:49+00:00,SAT-58546,247.21857788595642,48.23349975856021,629.6436220489915,-2.3949610621571478,83881.66707199169,10.5,10500083881.667072,47.655,-122.3035,60.0,1.0
2026-02-06T21:39:50+00:00,SAT-58546,246.3628871337787,48.50971431516538,627.2550815469374,-2.3236691090967794,81384.72131115514,10.5,10500081384.721312,47.655,-122.3035,60.0,1.0166666666666666
2026-02-06T21:39:51+00:00,SAT-58546,245.49133001725286,48.78103429711811,624.9376418740558,-2.25157840463097,78859.79989738496,10.5,10500078859.799898,47.655,-122.3035,60.0,1.0333333333333334
2026-02-06T21:39:52+00:00,SAT-58546,244.60387956529087,49.04713609225371,622.6920996404098,-2.1787023489975934,76307.37216369444,10.5,10500076307.372164,47.655,-122.3035,60.0,1.05
2026-02-06T21:39:53+00:00,SAT-58546,243.70053844711936,49.307691026156576,620.5192380917489,-2.1050555087371445,73727.94829194808,10.5,10500073727.948292,47.655,-122.3035,60.0,1.0666666666666667
2026-02-06T21:39:54+00:00,SAT-58546,242.78134115381573,49.562366110357296,618.419825946333,-2.030653625857209,71122.0796338402,10.5,10500071122.079634,47.655,-122.3035,60.0,1.0833333333333333
2026-02-06T21:39:55+00:00,SAT-58546,241.84635616674322,49.810824868364456,616.3946162226167,-1.95551361463983,68490.35859907528,10.5,10500068490.358599,47.655,-122.3035,60.0,1.1
2026-02-06T21:39:56+00:00,SAT-58546,240.89568809153994,50.05272823898531,614.4443450701166,-1.8796535547636406,65833.41841447601,10.5,10500065833.418415,47.655,-122.3035,60.0,1.1166666666666667
2026-02-06T21:39:57+00:00,SAT-58546,239.9294797341676,50.28773555652861,612.5697306071411,-1.8030927311510907,63151.93451960173,10.5,10500063151.934519,47.655,-122.3035,60.0,1.1333333333333333
2026-02-06T21:39:58+00:00,SAT-58546,238.94791406478515,50.51550561298243,610.7714717187754,-1.7258515675559383,60446.622240701436,10.5,10500060446.62224,47.655,-122.3035,60.0,1.15
2026-02-06T21:39:59+00:00,SAT-58546,237.9512160875981,50.73569778710713,609.0502469211044,-1.6479516786980843,57718.238616696246,10.5,10500057718.238617,47.655,-122.3035,60.0,1.1666666666666667
2026-02-06T21:40:00+00:00,SAT-58546,236.939654524645,50.947973252341974,607.4067131734396,-1.5694157958164936,54967.57979172772,10.5,10500054967.579792,47.655,-122.3035,60.0,1.1833333333333333
2026-02-06T21:40:01+00:00,SAT-58546,235.9135433417174,51.15199624339853,605.8415047647923,-1.490267813552467,52195.482657208486,10.5,10500052195.482656,47.655,-122.3035,60.0,1.2
2026-02-06T21:40:02+00:00,SAT-58546,234.8732430138538,51.347435391613885,604.3552321535908,-1.4105327042077582,49402.821848778665,10.5,10500049402.821848,47.655,-122.3035,60.0,1.2166666666666666
2026-02-06T21:40:03+00:00,SAT-58546,233.81916156821313,51.5339651052632,602.9484808929096,-1.330236551566979,46590.51093090967,10.5,10500046590.510931,47.655,-122.3035,60.0,1.2333333333333334
2026-02-06T21:40:04+00:00,SAT-58546,232.75175529514323,51.71126700228482,601.6218105219649,-1.2494064580571576,43759.499145239184,10.5,10500043759.499146,47.655,-122.3035,60.0,1.25
2026-02-06T21:40:05+00:00,SAT-58546,231.67152917369665,51.879031369387135,600.3757535502034,-1.1680705671989804,40910.77219690861,10.5,10500040910.772198,47.655,-122.3035,60.0,1.2666666666666666
2026-02-06T21:40:06+00:00,SAT-58546,230.57903689949572,52.03695865208787,599.2108144190015,-1.0862579951415854,38045.349856621964,10.5,10500038045.349857,47.655,-122.3035,60.0,1.2833333333333334
2026-02-06T21:40:07+00:00,SAT-58546,229.47488054460584,52.184760951733715,598.1274685316413,-1.0039987781672715,35164.28412203869,10.5,10500035164.284122,47.655,-122.3035,60.0,1.3
2026-02-06T21:40:08+00:00,SAT-58546,228.35970981973622,52.32216351851129,597.1261613356464,-0.9213238520875083,32268.65849613481,10.5,10500032268.658497,47.655,-122.3035,60.0,1.3166666666666667
2026-02-06T21:40:09+00:00,SAT-58546,227.23422088297463,52.44890623087065,596.2073074256639,-0.8382649805960162,29359.585477824694,10.5,10500029359.585478,47.655,-122.3035,60.0,1.3333333333333333
2026-02-06T21:40:10+00:00,SAT-58546,226.09915472693396,52.56474503968948,595.3712897178001,-0.754854710821138,26438.205005217136,10.5,10500026438.205006,47.655,-122.3035,60.0,1.35
2026-02-06T21:40:11+00:00,SAT-58546,224.95529510745354,52.66945336566858,594.6184586682889,-0.6711263022797641,23505.681967281256,10.5,10500023505.681967,47.655,-122.3035,60.0,1.3666666666666667
2026-02-06T21:40:12+00:00,SAT-58546,223.803466043542,52.762823430775526,593.9491315630097,-0.5871136815527693,20563.204616388575,10.5,10500020563.204617,47.655,-122.3035,60.0,1.3833333333333333
2026-02-06T21:40:13+00:00,SAT-58546,222.64452885825762,52.84466751183244,593.3635918522154,-0.5028513601062565,17611.981690065375,10.5,10500017611.98169,47.655,-122.3035,60.0,1.4
2026-02-06T21:40:14+00:00,SAT-58546,221.47937882664732,52.914819095997714,592.8620885672121,-0.41837437888188084,14653.240470311459,10.5,10500014653.24047,47.655,-122.3035,60.0,1.4166666666666667
2026-02-06T21:40:15+00:00,SAT-58546,220.30894141192698,52.97313392737303,592.4448357923044,-0.333718228183372,11688.223977687276,10.5,10500011688.223978,47.655,-122.3035,60.0,1.4333333333333333
2026-02-06T21:40:16+00:00,SAT-58546,219.1341681598455,53.01949092780999,592.1120122166376,-0.24891878056306455,8718.188620716328,10.5,10500008718.188622,47.655,-122.3035,60.0,1.45
2026-02-06T21:40:17+00:00,SAT-58546,217.95603226844315,53.0537929815141,591.8637607529745,-0.16401221525063492,5744.401549059871,10.5,10500005744.401548,47.655,-122.3035,60.0,1.4666666666666666
2026-02-06T21:40:18+00:00,SAT-58546,216.7755238870677,53.07596757164987,591.7001882318393,-0.07903493839359918,2768.137860001773,10.5,10500002768.13786,47.655,-122.3035,60.0,1.4833333333333334
2026-02-06T21:40:19+00:00,SAT-58546,215.59364521700132,53.08596725959933,591.6213651752086,0.005976491990229777,-209.32203003389986,10.5,10499999790.67797,47.655,-122.3035,60.0,1.5
2026-02-06T21:40:20+00:00,SAT-58546,214.41140545149,53.083770000843465,591.6273256450486,0.09098544334269967,-3186.695093905086,10.5,10499996813.304907,47.655,-122.3035,60.0,1.5166666666666666
2026-02-06T21:40:21+00:00,SAT-58546,213.22981562314095,53.06937929268984,591.7180671689737,0.17595528949537834,-6162.698528264753,10.5,10499993837.301472,47.655,-122.3035,60.0,1.5333333333333334
2026-02-06T21:40:22+00:00,SAT-58546,212.04988343224898,53.042824151269215,591.8935507466197,0.260849488371147,-9136.052474999366,10.5,10499990863.947525,47.655,-122.3035,60.0,1.55
2026-02-06T21:40:23+00:00,SAT-58546,210.87260812043314,53.004158918584984,592.1537009335095,0.3456316585884202,-12105.482704232714,10.5,10499987894.517296,47.655,-122.3035,60.0,1.5666666666666667
2026-02-06T21:40:24+00:00,SAT-58546,209.6989754549225,52.95346290251225,592.4984060013187,0.43026566133560434,-15069.723481915766,10.5,10499984930.276518,47.655,-122.3035,60.0,1.5833333333333333
2026-02-06T21:40:25+00:00,SAT-58546,208.52995285732007,52.890839854048885,592.9275181797929,0.51471567134005,-18027.520055459587,10.5,10499981972.479944,47.655,-122.3035,60.0,1.6
2026-02-06T21:40:26+00:00,SAT-58546,207.36648479943767,52.81641729069261,593.4408539694487,0.5989462534082354,-20977.63133449632,10.5,10499979022.368666,47.655,-122.3035,60.0,1.6166666666666667
2026-02-06T21:40:27+00:00,SAT-58546,206.2094884549329,52.7303456743954,594.0381945306062,0.6829224371458894,-23918.832507893974,10.5,10499976081.167492,47.655,-122.3035,60.0,1.6333333333333333
2026-02-06T21:40:28+00:00,SAT-58546,205.05984968302155,52.63279745545593,594.7192861469414,0.7666097858413355,-26849.917456342493,10.5,10499973150.082544,47.655,-122.3035,60.0,1.65
2026-02-06T21:40:29+00:00,SAT-58546,203.9184193840535,52.52396599575441,595.4838407577389,0.8499744652557071,-29769.70116167807,10.5,10499970230.298838,47.655,-122.3035,60.0,1.6666666666666667
2026-02-06T21:40:30+00:00,SAT-58546,202.78601025310175,52.40406438513505,596.3315365587499,0.9329833003266764,-32677.02169288762,10.5,10499967322.978308,47.655,-122.3035,60.0,1.6833333333333333
2026-02-06T21:40:31+00:00,SAT-58546,201.66339396876768,52.27332416732301,597.2620186596001,1.0156038549214792,-35570.74299939704,10.5,10499964429.257,47.655,-122.3035,60.0,1.7
2026-02-06T21:40:32+00:00,SAT-58546,200.55129879376474,52.13199398737334,598.2748998207396,1.0978044763032222,-38449.75646846937,10.5,10499961550.243532,47.655,-122.3035,60.0,1.7166666666666666
2026-02-06T21:40:33+00:00,SAT-58546,199.45040764499004,51.98033818115471,599.3697612347389,1.1795543478675754,-41312.98277226688,10.5,10499958687.017227,47.655,-122.3035,60.0,1.7333333333333334
2026-02-06T21:40:34+00:00,SAT-58546,198.36135660777745,51.81863532108806,600.5461533601783,1.2608235490180517,-44159.373964936574,10.5,10499955840.626036,47.655,-122.3035,60.0,1.75
2026-02-06T21:40:35+00:00,SAT-58546,197.2847338775122,51.64717673228546,601.8035968152553,1.3415831050017815,-46987.9152280699,10.5,10499953012.084772,47.655,-122.3035,60.0,1.7666666666666666
2026-02-06T21:40:36+00:00,SAT-58546,196.2210791236938,51.4662649950349,603.1415833210909,1.4218050107311715,-49797.62570503792,10.5,10499950202.374294,47.655,-122.3035,60.0,1.7833333333333334
2026-02-06T21:40:37+00:00,SAT-58546,195.1708832748705,51.27621245084753,604.5595766687973,1.5014622942201505,-52587.56072279704,10.5,10499947412.439278,47.655,-122.3035,60.0,1.8
2026-02-06T21:40:38+00:00,SAT-58546,194.1345886586392,51.077339719418376,606.0570137498087,1.5805290292847078,-55356.812236715545,10.5,10499944643.187763,47.655,-122.3035,60.0,1.8166666666666667
2026-02-06T21:40:39+00:00,SAT-58546,193.11258951076698,50.869974244926176,607.6333055988787,1.6589803832536762,-58104.51050160709,10.5,10499941895.489498,47.655,-122.3035,60.0,1.8333333333333333
2026-02-06T21:40:40+00:00,SAT-58546,192.10523278749463,50.654448877335284,609.2878384846641,1.7367926316489144,-60829.82458589269,10.5,10499939170.175415,47.655,-122.3035,60.0,1.85
2026-02-06T21:40:41+00:00,SAT-58546,191.11281927147155,50.43110050212552,611.0199750149451,1.8139431796802072,-63531.963124443166,10.5,10499936468.036875,47.655,-122.3035,60.0,1.8666666666666667
2026-02-06T21:40:42+00:00,SAT-58546,190.13560492594974,50.20026872521176,612.8290552632845,1.890410582001673,-66210.17501053201,10.5,10499933789.82499,47.655,-122.3035,60.0,1.8833333333333333
2026-02-06T21:40:43+00:00,SAT-58546,189.1738024620527,49.96229461964931,614.7143979153926,1.9661745716261683,-68863.75040854019,10.5,10499931136.249592,47.655,-122.3035,60.0,1.9
2026-02-06T21:40:44+00:00,SAT-58546,188.22758307736706,49.71751953810525,616.6753014443243,2.0412160309673033,-71492.01973972502,10.5,10499928507.98026,47.655,-122.3035,60.0,1.9166666666666667
2026-02-06T21:40:45+00:00,SAT-58546,187.29707836170792,49.466284002141876,618.7110452568004,2.1155170309681717,-74094.35505267381,10.5,10499925905.644947,47.655,-122.3035,60.0,1.9333333333333333
2026-02-06T21:40:46+00:00,SAT-58546,186.3823822975598,49.208926662350656,620.8208908785497,2.189060822590324,-76670.1697252117,10.5,10499923329.830275,47.655,-122.3035,60.0,1.95
2026-02-06T21:40:47+00:00,SAT-58546,185.48355335009475,48.94578333691011,623.0040831311651,2.2618318291298616,-79218.91819527878,10.5,10499920781.081804,47.655,-122.3035,60.0,1.9666666666666666
2026-02-06T21:40:48+00:00,SAT-58546,184.60061661534857,48.67718612892275,625.2598513012938,2.3338156411602724,-81740.09578380674,10.5,10499918259.904217,47.655,-122.3035,60.0,1.9833333333333334
2026-02-06T21:40:49+00:00,SAT-58546,183.73356599723843,48.4034626218165,627.5874103047869,2.4049990028244705,-84233.23821460825,10.5,10499915766.761786,47.655,-122.3035,60.0,2.0
2026-02-06T21:40:50+00:00,SAT-58546,182.8823663929977,48.12493515267771,629.9859618371747,2.475369835006318,-86697.92242594155,10.5,10499913302.077574,47.655,-122.3035,60.0,2.0166666666666666
2026-02-06T21:40:51+00:00,SAT-58546,182.04695585177544,47.84192015745622,632.4546955472543,2.544917140917871,-89133.76326377646,10.5,10499910866.236736,47.655,-122.3035,60.0,2.033333333333333
2026-02-06T21:40:52+00:00,SAT-58546,181.2272477310447,47.554727599214395,634.9927901165158,2.61363108717454,-91540.41632138948,10.5,10499908459.58368,47.655,-122.3035,60.0,2.05
2026-02-06T21:40:53+00:00,SAT-58546,180.4231327697984,47.26366045629311,637.5994144194268,2.681502896324522,-93917.5741752899,10.5,10499906082.425825,47.655,-122.3035,60.0,2.066666666666667
2026-02-06T21:40:54+00:00,SAT-58546,179.63448113301553,46.96901428877776,640.2737285765337,2.748524890284312,-96264.96790651508,10.5,10499903735.032093,47.655,-122.3035,60.0,2.0833333333333335
2026-02-06T21:40:55+00:00,SAT-58546,178.86114436319636,46.67107686255769,643.0148850508835,2.814690404701,-98582.364101236,10.5,10499901417.635899,47.655,-122.3035,60.0,2.1
2026-02-06T21:40:56+00:00,SAT-58546,178.1029572723668,46.37012784162545,645.8220296590367,2.8799938168719676,-100869.56582862289,10.5,10499899130.434172,47.655,-122.3035,60.0,2.1166666666666667
2026-02-06T21:40:57+00:00,SAT-58546,177.35973973165255,46.06643853221619,648.6943026099249,2.9444304815455427,-103126.41039231278,10.5,10499896873.589607,47.655,-122.3035,60.0,2.1333333333333333
2026-02-06T21:40:58+00:00,SAT-58546,176.6312983820606,45.760271684888735,651.630839479681,3.0079967141395847,-105352.76874265341,10.5,10499894647.231256,47.655,-122.3035,60.0,2.15
2026-02-06T21:40:59+00:00,SAT-58546,175.91742824765657,45.45188134537295,654.6307721697333,3.0706897596173452,-107548.54438660403,10.5,10499892451.455614,47.655,-122.3035,60.0,2.1666666666666665
2026-02-06T21:41:00+00:00,SAT-58546,175.21791425396,45.141512751819015,657.6932298338603,3.132507744710998,-109713.67171440143,10.5,10499890286.328285,47.655,-122.3035,60.0,2.183333333333333
2026-02-06T21:41:01+00:00,SAT-58546,174.5325326547258,44.82940227619308,660.8173397575938,3.193449680169874,-111848.11607830266,10.5,10499888151.883923,47.655,-122.3035,60.0,2.2
2026-02-06T21:41:02+00:00,SAT-58546,173.8610523551113,44.51577740102151,664.0022282398675,3.2535153890369317,-113951.87128052361,10.5,10499886048.12872,47.655,-122.3035,60.0,2.216666666666667
2026-02-06T21:41:03+00:00,SAT-58546,173.20323615053772,44.2008567352931,667.2470214031314,3.312705489432559,-116024.95897025491,10.5,10499883975.041029,47.655,-122.3035,60.0,2.2333333333333334
2026-02-06T21:41:04+00:00,SAT-58546,172.55884186990153,43.884850060479444,670.5508459863,3.371021337645011,-118067.42665044835,10.5,10499881932.573349,47.655,-122.3035,60.0,2.25
2026-02-06T21:41:05+00:00,SAT-58546,171.9276234344371,43.56795840722282,673.9128300809397,3.4284650623841717,-120079.34887752848,10.5,10499879920.651123,47.655,-122.3035,60.0,2.2666666666666666
2026-02-06T21:41:06+00:00,SAT-58546,171.30933181731342,43.25037415094216,677.3321039016197,3.4850394362644574,-122060.82276018032,10.5,10499877939.17724,47.655,-122.3035,60.0,2.283333333333333
2026-02-06T21:41:07+00:00,SAT-58546,170.7037159401969,42.93228113879749,680.8078004280912,3.5407478951870566,-124011.96863819734,10.5,10499875988.031363,47.655,-122.3035,60.0,2.3
2026-02-06T21:41:08+00:00,SAT-58546,170.1105234804526,42.61385483115666,684.3390560667945,3.595594495809677,-125932.92859289212,10.5,10499874067.071407,47.655,-122.3035,60.0,2.316666666666667
2026-02-06T21:41:09+00:00,SAT-58546,169.529501605894,42.29526246093024,687.925011269953,3.6495838872927093,-127823.86545752744,10.5,10499872176.134542,47.655,-122.3035,60.0,2.3333333333333335
2026-02-06T21:41:10+00:00,SAT-58546,168.96039763865997,41.97666320707358,691.5648111264863,3.7027212535677454,-129684.9607953157,10.5,10499870315.039206,47.655,-122.3035,60.0,2.35
2026-02-06T21:41:11+00:00,SAT-58546,168.40295965720378,41.65820838261766,695.2576058953489,3.7550122912011785,-131516.4141241084,10.5,10499868483.585876,47.655,-122.3035,60.0,2.3666666666666667
2026-02-06T21:41:12+00:00,SAT-58546,167.85693703406713,41.34004163200646,699.0025515167889,3.8064632044994107,-133318.44274495996,10.5,10499866681.557255,47.655,-122.3035,60.0,2.3833333333333333
2026-02-06T21:41:13+00:00,SAT-58546,167.32208091214798,41.022299134550686,702.7988101187289,3.8570806307680185,-135091.27912438742,10.5,10499864908.720875,47.655,-122.3035,60.0,2.4
2026-02-06T21:41:14+00:00,SAT-58546,166.79814463366608,40.70510981827029,706.6455504486031,3.9068716235213206,-136835.1703062986,10.5,10499863164.829693,47.655,-122.3035,60.0,2.4166666666666665
2026-02-06T21:41:15+00:00,SAT-58546,166.28488411690168,40.38859557755858,710.5419482884499,3.9558436283562917,-138550.37706699435,10.5,10499861449.622932,47.655,-122.3035,60.0,2.433333333333333
2026-02-06T21:41:16+00:00,SAT-58546,165.78205818579985,40.07287149402917,714.487186845945,4.004004469930704,-140237.17345908814,10.5,10499859762.82654,47.655,-122.3035,60.0,2.45
