DopplerPredictor/satellites_20260211_205738/SAT-60017.csv

timestamp,satellite,azimuth_deg,elevation_deg,distance_km,relative_velocity_kms,doppler_shift_hz,tx_freq_ghz,rx_freq_hz,ue_lat,ue_lon,ue_alt_m,time_minutes
2026-02-06T21:40:05+00:00,SAT-60017,310.0102002818325,40.17327698127452,712.9789963785273,-5.034829114149655,176341.01288355753,10.5,10500176341.012884,47.655,-122.3035,60.0,1.2666666666666666
2026-02-06T21:40:06+00:00,SAT-60017,310.2104006487612,40.57621888083544,707.9576649464266,-4.999879375460271,175116.92519740722,10.5,10500175116.925198,47.655,-122.3035,60.0,1.2833333333333334
2026-02-06T21:40:07+00:00,SAT-60017,310.4158409107675,40.98410120189258,702.9711895575884,-4.964174571221033,173866.39192177693,10.5,10500173866.391922,47.655,-122.3035,60.0,1.3
2026-02-06T21:40:08+00:00,SAT-60017,310.6267282705804,41.396974334582374,698.0203232533366,-4.927698588477923,172588.84871285918,10.5,10500172588.848713,47.655,-122.3035,60.0,1.3166666666666667
2026-02-06T21:40:09+00:00,SAT-60017,310.8432806974657,41.81488695611017,693.1058351447521,-4.890435233174318,171283.7283862903,10.5,10500171283.728386,47.655,-122.3035,60.0,1.3333333333333333
2026-02-06T21:40:10+00:00,SAT-60017,311.06572761830705,42.237885823355306,688.2285104935579,-4.852368075137368,169950.45548791744,10.5,10500169950.455488,47.655,-122.3035,60.0,1.35
2026-02-06T21:40:11+00:00,SAT-60017,311.294310652186,42.666015535267924,683.3891509476032,-4.813480570171805,168588.45057004053,10.5,10500168588.45057,47.655,-122.3035,60.0,1.3666666666666667
2026-02-06T21:40:12+00:00,SAT-60017,311.5292844054483,43.09931828698692,678.5885746545795,-4.773756070183315,167197.13054597526,10.5,10500167197.130547,47.655,-122.3035,60.0,1.3833333333333333
2026-02-06T21:40:13+00:00,SAT-60017,311.7709173268037,43.53783360526865,673.8276163656421,-4.733177767573189,165775.9067425188,10.5,10500165775.906742,47.655,-122.3035,60.0,1.4
2026-02-06T21:40:14+00:00,SAT-60017,312.0194926240435,43.981598057538356,669.1071275944852,-4.691728816709838,164324.18915439592,10.5,10500164324.189154,47.655,-122.3035,60.0,1.4166666666666667
2026-02-06T21:40:15+00:00,SAT-60017,312.27530925693935,44.43064494916432,664.4279766552744,-4.64939227209814,162841.3842786881,10.5,10500162841.38428,47.655,-122.3035,60.0,1.4333333333333333
2026-02-06T21:40:16+00:00,SAT-60017,312.53868300267186,44.88500399059503,659.7910487622413,-4.606151181944985,161326.89839189465,10.5,10500161326.898392,47.655,-122.3035,60.0,1.45
2026-02-06T21:40:17+00:00,SAT-60017,312.809947608951,45.34470094711483,655.1972460359664,-4.5619885475013175,159780.13612591894,10.5,10500159780.136126,47.655,-122.3035,60.0,1.4666666666666666
2026-02-06T21:40:18+00:00,SAT-60017,313.08945603407926,45.80975725648477,650.6474875502065,-4.516887439387156,158200.50454226282,10.5,10500158200.504541,47.655,-122.3035,60.0,1.4833333333333334
2026-02-06T21:40:19+00:00,SAT-60017,313.37758179153803,46.28018962796903,646.1427092627139,-4.470830907622083,156587.40998091377,10.5,10500156587.40998,47.655,-122.3035,60.0,1.5
2026-02-06T21:40:20+00:00,SAT-60017,313.67472039413116,46.75600959971435,641.6838640357805,-4.42380215232382,154940.2640389309,10.5,10500154940.264038,47.655,-122.3035,60.0,1.5166666666666666
2026-02-06T21:40:21+00:00,SAT-60017,313.9812909243326,47.23722307883689,637.2719214865424,-4.375784466502111,153258.48156684503,10.5,10500153258.481567,47.655,-122.3035,60.0,1.5333333333333334
2026-02-06T21:40:22+00:00,SAT-60017,314.2977377256854,47.72382983828577,632.9078678943366,-4.326761277393263,151541.48211636886,10.5,10500151541.482117,47.655,-122.3035,60.0,1.55
2026-02-06T21:40:23+00:00,SAT-60017,314.6245322323835,48.2158229774828,628.5927060668349,-4.276716275565369,149788.69446220816,10.5,10500149788.694462,47.655,-122.3035,60.0,1.5666666666666667
2026-02-06T21:40:24+00:00,SAT-60017,314.9621749561925,48.713188354056456,624.3274550774175,-4.225633335329055,147999.55381450953,10.5,10500147999.553814,47.655,-122.3035,60.0,1.5833333333333333
2026-02-06T21:40:25+00:00,SAT-60017,315.31119762754616,49.21590395990545,620.1131500819232,-4.173496655412594,146173.50674589764,10.5,10500146173.506746,47.655,-122.3035,60.0,1.6
2026-02-06T21:40:26+00:00,SAT-60017,315.6721655215927,49.72393926284131,615.9508419951011,-4.120290763472857,144310.01134946832,10.5,10500144310.011349,47.655,-122.3035,60.0,1.6166666666666667
2026-02-06T21:40:27+00:00,SAT-60017,316.0456799740452,50.23725449455362,611.841597162565,-4.066000608964093,142408.5404914455,10.5,10500142408.540491,47.655,-122.3035,60.0,1.6333333333333333
2026-02-06T21:40:28+00:00,SAT-60017,316.4323811103399,50.75579989117575,607.7864969401253,-4.0106115497331265,140468.5813416888,10.5,10500140468.58134,47.655,-122.3035,60.0,1.65
2026-02-06T21:40:29+00:00,SAT-60017,316.8329507956907,51.279514868610256,603.7866372864927,-3.9541094760939663,138489.63971931092,10.5,10500138489.639719,47.655,-122.3035,60.0,1.6666666666666667
2026-02-06T21:40:30+00:00,SAT-60017,317.24811583762346,51.80832714467811,599.8431282322372,-3.8964808499551444,136471.2414630825,10.5,10500136471.241463,47.655,-122.3035,60.0,1.6833333333333333
2026-02-06T21:40:31+00:00,SAT-60017,317.6786514529303,52.342151792155434,595.9570933097261,-3.8377127645221902,134412.93452246554,10.5,10500134412.934523,47.655,-122.3035,60.0,1.7
2026-02-06T21:40:32+00:00,SAT-60017,318.12538502165404,52.880890219055125,592.1296689235213,-3.7777929755206276,132314.29005117464,10.5,10500132314.29005,47.655,-122.3035,60.0,1.7166666666666666
2026-02-06T21:40:33+00:00,SAT-60017,318.5892001458305,53.42442906518204,588.3620036896326,-3.716710063305625,130174.90808494276,10.5,10500130174.908085,47.655,-122.3035,60.0,1.7333333333333334
2026-02-06T21:40:34+00:00,SAT-60017,319.07104105171146,53.97263902621253,584.6552576131007,-3.654453405733986,127994.41659138353,10.5,10500127994.416592,47.655,-122.3035,60.0,1.75
2026-02-06T21:40:35+00:00,SAT-60017,319.57191733487997,54.52537357057564,581.0106012926329,-3.5910133095154584,125772.47607046977,10.5,10500125772.47607,47.655,-122.3035,60.0,1.7666666666666666
2026-02-06T21:40:36+00:00,SAT-60017,320.0929090903317,55.08246756252938,577.4292149942403,-3.526381026358237,123508.7801200172,10.5,10500123508.78012,47.655,-122.3035,60.0,1.7833333333333334
2026-02-06T21:40:37+00:00,SAT-60017,320.63517243299793,55.643735764585806,573.9122877087733,-3.4605489388142,121203.06194477082,10.5,10500121203.061945,47.655,-122.3035,60.0,1.8
2026-02-06T21:40:38+00:00,SAT-60017,321.19994545441347,56.20897123486051,570.4610160241083,-3.3935104992635026,118855.09221938722,10.5,10500118855.09222,47.655,-122.3035,60.0,1.8166666666666667
2026-02-06T21:40:39+00:00,SAT-60017,321.78855459325075,56.777943568819225,567.0766030581889,-3.325260434405185,116464.68625056084,10.5,10500116464.68625,47.655,-122.3035,60.0,1.8333333333333333
2026-02-06T21:40:40+00:00,SAT-60017,322.40242147388335,57.35039701462181,563.7602571881224,-3.2557947175219075,114031.7030056174,10.5,10500114031.703005,47.655,-122.3035,60.0,1.85
2026-02-06T21:40:41+00:00,SAT-60017,323.04307017774795,57.92604841029907,560.5131908069383,-3.1851107382958683,111556.05106018584,10.5,10500111556.05106,47.655,-122.3035,60.0,1.8666666666666667
2026-02-06T21:40:42+00:00,SAT-60017,323.7121349770306,58.504584960496246,557.3366189109865,-3.113207336441834,109037.68977616927,10.5,10500109037.689775,47.655,-122.3035,60.0,1.8833333333333333
2026-02-06T21:40:43+00:00,SAT-60017,324.41136848586945,59.08566181372392,554.2317576537911,-3.0400848913074903,106476.6324399283,10.5,10500106476.63244,47.655,-122.3035,60.0,1.9
2026-02-06T21:40:44+00:00,SAT-60017,325.14265020042734,59.66889943220088,551.1998228105455,-2.9657453831430853,103872.9484082031,10.5,10500103872.948408,47.655,-122.3035,60.0,1.9166666666666667
2026-02-06T21:40:45+00:00,SAT-60017,325.90799535618794,60.25388073092243,548.2420281815017,-2.8901925217657762,101226.76761448299,10.5,10500101226.767614,47.655,-122.3035,60.0,1.9333333333333333
2026-02-06T21:40:46+00:00,SAT-60017,326.7095640225687,60.84014798067358,545.3595838670401,-2.8134317614305204,98538.28108984805,10.5,10500098538.28109,47.655,-122.3035,60.0,1.95
2026-02-06T21:40:47+00:00,SAT-60017,327.54967026444376,61.427199434546466,542.5536945279084,-2.735470411849732,95807.74485134709,10.5,10500095807.744852,47.655,-122.3035,60.0,1.9666666666666666
2026-02-06T21:40:48+00:00,SAT-60017,328.4307911971837,62.01448567894506,539.825557534738,-2.6563177069848907,93035.48231137072,10.5,10500093035.482311,47.655,-122.3035,60.0,1.9833333333333334
2026-02-06T21:40:49+00:00,SAT-60017,329.3555756566534,62.60140568558609,537.1763610489535,-2.5759848349416834,90221.88532470579,10.5,10500090221.885324,47.655,-122.3035,60.0,2.0
2026-02-06T21:40:50+00:00,SAT-60017,330.32685210871773,63.18730254348788,534.6072820738684,-2.4944850683948854,87367.41875656624,10.5,10500087367.418756,47.655,-122.3035,60.0,2.0166666666666666
2026-02-06T21:40:51+00:00,SAT-60017,331.3476353613345,63.77145888664142,532.119484375703,-2.411833731382871,84472.61931959656,10.5,10500084472.61932,47.655,-122.3035,60.0,2.033333333333333
2026-02-06T21:40:52+00:00,SAT-60017,332.42113140320697,64.35309198260238,529.7141164377208,-2.3280483372833713,81538.10040636646,10.5,10500081538.100407,47.655,-122.3035,60.0,2.05
2026-02-06T21:40:53+00:00,SAT-60017,333.55073964921434,64.9313485348999,527.3923092767591,-2.243148565438733,78564.55127068839,10.5,10500078564.551271,47.655,-122.3035,60.0,2.066666666666667
2026-02-06T21:40:54+00:00,SAT-60017,334.7400515326128,65.50529919299069,525.1551742830696,-2.1571563438353953,75552.73992340278,10.5,10500075552.739923,47.655,-122.3035,60.0,2.0833333333333335
2026-02-06T21:40:55+00:00,SAT-60017,335.9928442520988,66.07393284913508,523.0038009777046,-2.0700958374854803,72503.51272545203,10.5,10500072503.512726,47.655,-122.3035,60.0,2.1
2026-02-06T21:40:56+00:00,SAT-60017,337.31306810627643,66.63615078433378,520.9392547814862,-1.9819935039192431,69417.79633146092,10.5,10500069417.796331,47.655,-122.3035,60.0,2.1166666666666667
2026-02-06T21:40:57+00:00,SAT-60017,338.70482561635606,67.19076080648904,518.9625747286358,-1.8928780936245573,66296.59770512923,10.5,10500066296.597706,47.655,-122.3035,60.0,2.1333333333333333
2026-02-06T21:40:58+00:00,SAT-60017,340.1723402367846,67.7364715452948,517.0747711799631,-1.8027806213736632,63141.00311497317,10.5,10500063141.003115,47.655,-122.3035,60.0,2.15
2026-02-06T21:40:59+00:00,SAT-60017,341.719912118475,68.27188713845851,515.2768235646515,-1.711734403791535,59952.17945012852,10.5,10500059952.179451,47.655,-122.3035,60.0,2.1666666666666665
2026-02-06T21:41:00+00:00,SAT-60017,343.3518581704213,68.79550265182473,513.5696780845772,-1.61977500351733,56731.37226464837,10.5,10500056731.372265,47.655,-122.3035,60.0,2.183333333333333
2026-02-06T21:41:01+00:00,SAT-60017,345.07243333704577,69.30570062481813,511.9542454743153,-1.5269402238375247,53479.9055895329,10.5,10500053479.90559,47.655,-122.3035,60.0,2.2
2026-02-06T21:41:02+00:00,SAT-60017,346.8857300982179,69.80074928174689,510.4313987665002,-1.433270031051661,50199.17921364934,10.5,10500050199.179214,47.655,-122.3035,60.0,2.216666666666667
2026-02-06T21:41:03+00:00,SAT-60017,348.79555333893927,70.27880302889496,509.0019711346106,-1.33880653972654,46890.66816727147,10.5,10500046890.668167,47.655,-122.3035,60.0,2.2333333333333334
2026-02-06T21:41:04+00:00,SAT-60017,350.80526857092167,70.73790601652314,507.6667537504616,-1.2435939190212164,43555.91944118478,10.5,10500043555.919441,47.655,-122.3035,60.0,2.25
2026-02-06T21:41:05+00:00,SAT-60017,352.91762259861713,71.17599960282702,506.42649373512126,-1.147678329951781,40196.549789433666,10.5,10500040196.54979,47.655,-122.3035,60.0,2.2666666666666666
2026-02-06T21:41:06+00:00,SAT-60017,355.1345378701031,71.59093466032563,505.28189217239253,-1.0511078189095973,36814.241999879705,10.5,10500036814.242,47.655,-122.3035,60.0,2.283333333333333
2026-02-06T21:41:07+00:00,SAT-60017,357.4568845313177,71.98048964597153,504.2336022284925,-0.9539322407056501,33410.742198889224,10.5,10500033410.742199,47.655,-122.3035,60.0,2.3
2026-02-06T21:41:08+00:00,SAT-60017,359.88423811092724,72.34239529073126,503.2822273484816,-0.8562031232432433,29987.855111598754,10.5,10500029987.855112,47.655,-122.3035,60.0,2.316666666666667
2026-02-06T21:41:09+00:00,SAT-60017,2.4146351134008652,72.67436650799081,502.4283195876557,-0.7579735597066124,26547.440285904155,10.5,10500026547.440287,47.655,-122.3035,60.0,2.3333333333333335
2026-02-06T21:41:10+00:00,SAT-60017,5.04434384187667,72.97414176086825,501.6723780504622,-0.6592980701333557,23091.407244141665,10.5,10500023091.407244,47.655,-122.3035,60.0,2.35
2026-02-06T21:41:11+00:00,SAT-60017,7.767672154839704,73.23952953492604,501.0148474674717,-0.5602324629950642,19621.710635055984,10.5,10500019621.710634,47.655,-122.3035,60.0,2.3666666666666667
2026-02-06T21:41:12+00:00,SAT-60017,10.576837060889197,73.46846083193054,500.45611691039784,-0.46083367971764677,16140.344788244443,10.5,10500016140.344788,47.655,-122.3035,60.0,2.3833333333333333
2026-02-06T21:41:13+00:00,SAT-60017,13.461921533932948,73.65904573614348,499.9965186621805,-0.36115964230764236,12649.33837738588,10.5,10500012649.338377,47.655,-122.3035,60.0,2.4
2026-02-06T21:41:14+00:00,SAT-60017,16.410940861594366,73.80963124275465,499.6363272390339,-0.26126908468437005,9150.748512779082,10.5,10500009150.748512,47.655,-122.3035,60.0,2.4166666666666665
2026-02-06T21:41:15+00:00,SAT-60017,19.410033195521958,73.91885679474727,499.37575858071045,-0.16122138584065415,5646.654897925647,10.5,10500005646.654898,47.655,-122.3035,60.0,2.433333333333333
2026-02-06T21:41:16+00:00,SAT-60017,22.44377734426615,73.98570354805804,499.21496940715645,-0.061076392389379404,2139.1536143597173,10.5,10500002139.153614,47.655,-122.3035,60.0,2.45
2026-02-06T21:41:17+00:00,SAT-60017,25.495626127547705,74.00953339783605,499.15405675214663,0.03910575790127588,-1369.6490588945928,10.5,10499998630.35094,47.655,-122.3035,60.0,2.466666666666667
2026-02-06T21:41:18+00:00,SAT-60017,28.5484285837518,73.99011435707776,499.19305767290757,0.13926481627930734,-4877.642955690124,10.5,10499995122.357044,47.655,-122.3035,60.0,2.4833333333333334
2026-02-06T21:41:19+00:00,SAT-60017,31.585001621495557,73.92762994752977,499.33194913943294,0.23934060330257917,-8382.720337404491,10.5,10499991617.279663,47.655,-122.3035,60.0,2.5
2026-02-06T21:41:20+00:00,SAT-60017,34.588704334721214,73.82267171438286,499.570648103607,0.3392731909002341,-11882.782269500782,10.5,10499988117.21773,47.655,-122.3035,60.0,2.5166666666666666
2026-02-06T21:41:21+00:00,SAT-60017,37.54396781362082,73.67621557515955,499.9090117499022,0.43900307599809935,-15375.744702623717,10.5,10499984624.255297,47.655,-122.3035,60.0,2.533333333333333
2026-02-06T21:41:22+00:00,SAT-60017,40.4367398834834,73.48958419720209,500.346837919236,0.5384713638921937,-18859.54489511552,10.5,10499981140.455105,47.655,-122.3035,60.0,2.55
2026-02-06T21:41:23+00:00,SAT-60017,43.254816552188274,73.26439871215261,500.88386571571056,0.6376199302437148,-22332.14708676562,10.5,10499977667.852913,47.655,-122.3035,60.0,2.566666666666667
2026-02-06T21:41:24+00:00,SAT-60017,45.98804671181784,73.00252370397878,501.51977627491283,0.7363915977262564,-25791.548685743426,10.5,10499974208.451315,47.655,-122.3035,60.0,2.5833333333333335
2026-02-06T21:41:25+00:00,SAT-60017,48.62841169470805,72.70600946718524,502.2541937083876,0.834730279097043,-29235.78527955814,10.5,10499970764.21472,47.655,-122.3035,60.0,2.6
2026-02-06T21:41:26+00:00,SAT-60017,51.169993179666854,72.3770351623541,503.08668619079907,0.9325811534960163,-32662.936809798503,10.5,10499967337.06319,47.655,-122.3035,60.0,2.6166666666666667
2026-02-06T21:41:27+00:00,SAT-60017,53.60885124148155,72.01785575895387,504.0167672229188,1.0298907850976189,-36071.131727820175,10.5,10499963928.868273,47.655,-122.3035,60.0,2.6333333333333333
2026-02-06T21:41:28+00:00,SAT-60017,55.9428376530116,71.63075482947107,505.04389701294656,1.1266072805471754,-39458.55250883377,10.5,10499960541.44749,47.655,-122.3035,60.0,2.65
2026-02-06T21:41:29+00:00,SAT-60017,58.17136966842778,71.21800435571558,506.16748401484637,1.2226803831244246,-42823.43894991001,10.5,10499957176.56105,47.655,-122.3035,60.0,2.6666666666666665
2026-02-06T21:41:30+00:00,SAT-60017,60.2951863439422,70.78183198922956,507.38688656059355,1.318061632163167,-46164.09375353017,10.5,10499953835.906246,47.655,-122.3035,60.0,2.683333333333333
2026-02-06T21:41:31+00:00,SAT-60017,62.31610532245282,70.32439556711427,508.7014146514133,1.4127044234505788,-49478.884643025536,10.5,10499950521.115356,47.655,-122.3035,60.0,2.7
2026-02-06T21:41:32+00:00,SAT-60017,64.23679281755686,69.84776433475486,510.1103318092579,1.5065641192595869,-52766.24821637662,10.5,10499947233.751783,47.655,-122.3035,60.0,2.716666666666667
2026-02-06T21:41:33+00:00,SAT-60017,66.06055523505995,69.35390603026937,511.6128570380195,1.5995981418519685,-56024.6932210872,10.5,10499943975.30678,47.655,-122.3035,60.0,2.7333333333333334
2026-02-06T21:41:34+00:00,SAT-60017,67.791156849806,68.84467890644976,513.2081668779979,1.6917660089363356,-59252.80179607295,10.5,10499940747.198204,47.655,-122.3035,60.0,2.75
2026-02-06T21:41:35+00:00,SAT-60017,69.43266495098243,68.32182777466234,514.8953974957279,1.7830294349752032,-62449.23301986347,10.5,10499937550.76698,47.655,-122.3035,60.0,2.7666666666666666
2026-02-06T21:41:36+00:00,SAT-60017,70.98932189455648,67.78698317789217,516.6736468748459,1.8733523239984424,-65612.72265889906,10.5,10499934387.277342,47.655,-122.3035,60.0,2.783333333333333
2026-02-06T21:41:37+00:00,SAT-60017,72.46544197175555,67.2416629558168,518.5419769997862,1.9627008569733757,-68742.08622760099,10.5,10499931257.913773,47.655,-122.3035,60.0,2.8
2026-02-06T21:41:38+00:00,SAT-60017,73.86533045585455,66.68727551735796,520.4994161266148,2.0510434805761055,-71836.21859509591,10.5,10499928163.781404,47.655,-122.3035,60.0,2.816666666666667
2026-02-06T21:41:39+00:00,SAT-60017,75.1932217145873,66.12512431258475,522.5449610426635,2.1383509309335076,-74894.09481676097,10.5,10499925105.905184,47.655,-122.3035,60.0,2.8333333333333335
2026-02-06T21:41:40+00:00,SAT-60017,76.45323339589751,65.55641306366483,524.6775793498437,2.2245962232204812,-77914.76976987543,10.5,10499922085.23023,47.655,-122.3035,60.0,2.85
2026-02-06T21:41:41+00:00,SAT-60017,77.64933382857743,64.98225143126456,526.8962117375838,2.3097546597779353,-80897.37843794694,10.5,10499919102.621563,47.655,-122.3035,60.0,2.8666666666666667
2026-02-06T21:41:42+00:00,SAT-60017,78.7853201036377,64.40366085962336,529.1997742638652,2.393803817756883,-83841.13547795545,10.5,10499916158.864523,47.655,-122.3035,60.0,2.8833333333333333
2026-02-06T21:41:43+00:00,SAT-60017,79.86480461162188,63.82158042139577,531.5871606239316,2.4767234848538657,-86745.33296953584,10.5,10499913254.66703,47.655,-122.3035,60.0,2.9
2026-02-06T21:41:44+00:00,SAT-60017,80.8912081415109,63.23687254343076,534.0572443549104,2.558495674714963,-89609.34095449164,10.5,10499910390.659046,47.655,-122.3035,60.0,2.9166666666666665
2026-02-06T21:41:45+00:00,SAT-60017,81.86775802338703,62.65032850432845,536.6088810557937,2.6391045389272514,-92432.6043543635,10.5,10499907567.395645,47.655,-122.3035,60.0,2.933333333333333
2026-02-06T21:41:46+00:00,SAT-60017,82.79749000117046,62.062673671654416,539.2409105196485,2.7185363673625482,-95214.64298246875,10.5,10499904785.357018,47.655,-122.3035,60.0,2.95
2026-02-06T21:41:47+00:00,SAT-60017,83.68325285095902,61.474572424620476,541.9521588661682,2.796779472817627,-97955.04750351353,10.5,10499902044.952496,47.655,-122.3035,60.0,2.966666666666667
2026-02-06T21:41:48+00:00,SAT-60017,84.5277148965117,60.88663277282974,544.7414405591749,2.8738241900884285,-100653.47940116792,10.5,10499899346.5206,47.655,-122.3035,60.0,2.9833333333333334
2026-02-06T21:41:49+00:00,SAT-60017,85.33337182725667,60.29941064251063,547.6075604231974,2.949662771972669,-103309.66733563732,10.5,10499896690.332664,47.655,-122.3035,60.0,3.0
2026-02-06T21:41:50+00:00,SAT-60017,86.10255529810536,59.7134138587211,550.5493155563317,3.024289338321761,-105923.40535924518,10.5,10499894076.59464,47.655,-122.3035,60.0,3.0166666666666666
2026-02-06T21:41:51+00:00,SAT-60017,86.83744195555849,59.12910582349253,553.5654971922895,3.0976997872987826,-108494.54980831179,10.5,10499891505.450191,47.655,-122.3035,60.0,3.033333333333333
2026-02-06T21:41:52+00:00,SAT-60017,87.54006260199054,58.54690891297093,556.654892473941,3.1698917466982013,-111023.01759816491,10.5,10499888976.9824,47.655,-122.3035,60.0,3.05
2026-02-06T21:41:53+00:00,SAT-60017,88.21231130248212,57.967207603129,559.8162861783114,3.24086447027355,-113508.78259209669,10.5,10499886491.217407,47.655,-122.3035,60.0,3.066666666666667
2026-02-06T21:41:54+00:00,SAT-60017,88.8559542747393,57.390351352998515,563.0484623381795,3.310618772504945,-115951.87331664603,10.5,10499884048.126684,47.655,-122.3035,60.0,3.0833333333333335
2026-02-06T21:41:55+00:00,SAT-60017,89.47263846878788,56.816657256401484,566.3502057986207,3.3791569476694705,-118352.37012710118,10.5,10499881647.629873,47.655,-122.3035,60.0,3.1
2026-02-06T21:41:56+00:00,SAT-60017,90.06389976536293,56.24641248333898,569.7203036928372,3.446482673385192,-120710.40182920317,10.5,10499879289.598171,47.655,-122.3035,60.0,3.1166666666666667
2026-02-06T21:41:57+00:00,SAT-60017,90.63117074874515,55.679876530807704,573.1575468217898,3.512600975922242,-123026.14446419309,10.5,10499876973.855536,47.655,-122.3035,60.0,3.1333333333333333
2026-02-06T21:41:58+00:00,SAT-60017,91.17578804254545,55.1172832891604,576.6607309992344,3.577518082676335,-125299.81614181073,10.5,10499874700.183859,47.655,-122.3035,60.0,3.15
2026-02-06T21:41:59+00:00,SAT-60017,91.69899918298917,54.55884295795344,580.2286582496284,3.6412413839493727,-127531.67570168964,10.5,10499872468.324299,47.655,-122.3035,60.0,3.1666666666666665
2026-02-06T21:42:00+00:00,SAT-60017,92.20196905071356,54.004743807051405,583.8601379679188,3.703779385351741,-129722.02104628424,10.5,10499870277.978954,47.655,-122.3035,60.0,3.183333333333333
2026-02-06T21:42:01+00:00,SAT-60017,92.68578586888243,53.455153798531214,587.5539880318602,3.7651415420581205,-131871.18333580715,10.5,10499868128.816664,47.655,-122.3035,60.0,3.2
2026-02-06T21:42:02+00:00,SAT-60017,93.15146676830986,52.91022209889257,591.3090357490333,3.825338276293676,-133979.52760066965,10.5,10499866020.472399,47.655,-122.3035,60.0,3.216666666666667
2026-02-06T21:42:03+00:00,SAT-60017,93.59996296320253,52.370080464629424,595.1241188213052,3.884380832129574,-136047.44765580635,10.5,10499863952.552343,47.655,-122.3035,60.0,3.2333333333333334
2026-02-06T21:42:04+00:00,SAT-60017,94.0321645379035,51.83484453548911,598.9980861644681,3.9422812706167716,-138075.36593024,10.5,10499861924.63407,47.655,-122.3035,60.0,3.25
2026-02-06T21:42:05+00:00,SAT-60017,94.44890488406296,51.30461502400869,602.9297987230333,3.99905233793946,-140063.7288492572,10.5,10499859936.27115,47.655,-122.3035,60.0,3.2666666666666666
2026-02-06T21:42:06+00:00,SAT-60017,94.85096479609865,50.77947882750924,606.9181301535239,4.054707431842441,-142013.0056585534,10.5,10499857986.99434,47.655,-122.3035,60.0,3.283333333333333
2026-02-06T21:42:07+00:00,SAT-60017,95.23907625902125,50.259510056073495,610.9619674742912,4.109260537172473,-143923.68616661787,10.5,10499856076.313833,47.655,-122.3035,60.0,3.3
2026-02-06T21:42:08+00:00,SAT-60017,95.61392594599806,49.74477098780175,615.0602116510415,4.162726166873956,-145796.27867815318,10.5,10499854203.721321,47.655,-122.3035,60.0,3.316666666666667
2026-02-06T21:42:09+00:00,SAT-60017,95.97615844763483,49.235312956778074,619.2117781235185,4.215119294150992,-147631.30761810363,10.5,10499852368.692383,47.655,-122.3035,60.0,3.3333333333333335
2026-02-06T21:42:10+00:00,SAT-60017,96.32637925186155,48.731177180390866,623.4155972645282,4.266455265858101,-149429.3104982316,10.5,10499850570.689503,47.655,-122.3035,60.0,3.35
2026-02-06T21:42:11+00:00,SAT-60017,96.66515749237642,48.23239553305888,627.6706147525894,4.3167498634973915,-151190.84005349668,10.5,10499848809.159946,47.655,-122.3035,60.0,3.3666666666666667
2026-02-06T21:42:12+00:00,SAT-60017,96.99302849388633,47.73899125375018,631.9757920054142,4.3660190654945685,-152916.4559159556,10.5,10499847083.544085,47.655,-122.3035,60.0,3.3833333333333333
2026-02-06T21:42:13+00:00,SAT-60017,97.31049610859021,47.25097962657869,636.3301063763048,4.414279210147533,-154606.7303219119,10.5,10499845393.269678,47.655,-122.3035,60.0,3.4
2026-02-06T21:42:14+00:00,SAT-60017,97.61803488827874,46.76836859171533,640.7325515130605,4.461546756853429,-156262.2397490767,10.5,10499843737.76025,47.655,-122.3035,60.0,3.4166666666666665
2026-02-06T21:42:15+00:00,SAT-60017,97.91609207782187,46.29115933626237,645.1821374787522,4.507838401440352,-157883.5689559732,10.5,10499842116.431044,47.655,-122.3035,60.0,3.433333333333333
2026-02-06T21:42:16+00:00,SAT-60017,98.20508946729507,45.81934682844112,649.67789098752,4.55317094374243,-159471.30634385577,10.5,10499840528.693657,47.655,-122.3035,60.0,3.45
2026-02-06T21:42:17+00:00,SAT-60017,98.48542509805996,45.35292032574383,654.2188555082998,4.597561246469594,-161026.04251615543,10.5,10499838973.957483,47.655,-122.3035,60.0,3.466666666666667
2026-02-06T21:42:18+00:00,SAT-60017,98.75747484080802,44.89186384923914,658.8040913275312,4.641026302184979,-162548.37262431163,10.5,10499837451.627377,47.655,-122.3035,60.0,3.4833333333333334
2026-02-06T21:42:19+00:00,SAT-60017,99.02159386071847,44.43615661607023,663.4326756786617,4.683583036389328,-164038.88947095507,10.5,10499835961.110529,47.655,-122.3035,60.0,3.5
2026-02-06T21:42:20+00:00,SAT-60017,99.27811796532266,43.98577345902102,668.1037026752648,4.72524846648196,-165498.18907739362,10.5,10499834501.810923,47.655,-122.3035,60.0,3.5166666666666666
2026-02-06T21:42:21+00:00,SAT-60017,99.52736486226158,43.540685199843445,672.8162834026923,4.766039480619758,-166926.86293831802,10.5,10499833073.137062,47.655,-122.3035,60.0,3.533333333333333
2026-02-06T21:42:22+00:00,SAT-60017,99.76963531540414,43.10085901565324,677.5695457891782,4.80597299845957,-168325.5036516812,10.5,10499831674.496347,47.655,-122.3035,60.0,3.55
2026-02-06T21:42:23+00:00,SAT-60017,100.00521422554472,42.66625876348969,682.3626346372531,4.845065801195798,-169694.6989658955,10.5,10499830305.301035,47.655,-122.3035,60.0,3.566666666666667
2026-02-06T21:42:24+00:00,SAT-60017,100.23437162625164,42.236845296210575,687.194711485655,4.883334575431079,-171035.0333163696,10.5,10499828964.966684,47.655,-122.3035,60.0,3.5833333333333335
2026-02-06T21:42:25+00:00,SAT-60017,100.45736361120879,41.812576751069635,692.0649545149895,4.920795913969359,-172347.08785328505,10.5,10499827652.912148,47.655,-122.3035,60.0,3.6
2026-02-06T21:42:26+00:00,SAT-60017,100.67443319637145,41.39340881693826,696.9725584541834,4.957466215146824,-173631.43691574005,10.5,10499826368.563084,47.655,-122.3035,60.0,3.6166666666666667
2026-02-06T21:42:27+00:00,SAT-60017,100.88581111780574,40.979294990182034,701.9167343865377,4.993361796114228,-174888.65199937552,10.5,10499825111.348001,47.655,-122.3035,60.0,3.6333333333333333
2026-02-06T21:42:28+00:00,SAT-60017,101.09171657875024,40.57018680219371,706.8967096687606,5.028498740126623,-176119.29640781536,10.5,10499823880.703592,47.655,-122.3035,60.0,3.65
2026-02-06T21:42:29+00:00,SAT-60017,101.29235793935125,40.16603404241443,711.9117276976975,5.062892944467219,-177323.92693116315,10.5,10499822676.073069,47.655,-122.3035,60.0,3.6666666666666665
