DopplerPredictor/satellites_20260211_205738/SAT-50805.csv

timestamp,satellite,azimuth_deg,elevation_deg,distance_km,relative_velocity_kms,doppler_shift_hz,tx_freq_ghz,rx_freq_hz,ue_lat,ue_lon,ue_alt_m,time_minutes
2026-02-06T21:39:24+00:00,SAT-50805,173.04047778823127,40.02274726690159,805.2781954328722,-2.636838658812437,92353.24364807933,10.5,10500092353.243649,47.655,-122.3035,60.0,0.5833333333333334
2026-02-06T21:39:25+00:00,SAT-50805,172.4568572627209,40.21255269487636,802.6484257746201,-2.583855858002925,90497.561846705,10.5,10500090497.561846,47.655,-122.3035,60.0,0.6
2026-02-06T21:39:26+00:00,SAT-50805,171.86612338470243,40.40019762303037,800.0714968776002,-2.5303565816814317,88623.79088821184,10.5,10500088623.790888,47.655,-122.3035,60.0,0.6166666666666667
2026-02-06T21:39:27+00:00,SAT-50805,171.26827430761927,40.58557062383365,797.5479238327254,-2.4763450360413297,86732.07809128395,10.5,10500086732.07809,47.655,-122.3035,60.0,0.6333333333333333
2026-02-06T21:39:28+00:00,SAT-50805,170.6633143677456,40.768558786553015,795.07821753599,-2.421825867354924,84822.58618803113,10.5,10500084822.586187,47.655,-122.3035,60.0,0.65
2026-02-06T21:39:29+00:00,SAT-50805,170.0512543703753,40.94904784063217,792.6628842495735,-2.366804105234779,82895.49133676065,10.5,10500082895.491337,47.655,-122.3035,60.0,0.6666666666666666
2026-02-06T21:39:30+00:00,SAT-50805,169.43211189042242,41.12692228403717,790.3024252195257,-2.3112852388326357,80950.98579078555,10.5,10500080950.98579,47.655,-122.3035,60.0,0.6833333333333333
2026-02-06T21:39:31+00:00,SAT-50805,168.80591155160934,41.30206552654939,787.9973362174613,-2.2552751609243087,78989.2759400413,10.5,10500078989.27594,47.655,-122.3035,60.0,0.7
2026-02-06T21:39:32+00:00,SAT-50805,168.1726853175492,41.47436003826136,785.7481071380154,-2.1987802118921698,77010.58385153834,10.5,10500077010.58385,47.655,-122.3035,60.0,0.7166666666666667
2026-02-06T21:39:33+00:00,SAT-50805,167.5324727660174,41.643687510766135,783.5552215524398,-2.141807181505442,75015.14733171553,10.5,10500075015.147331,47.655,-122.3035,60.0,0.7333333333333333
2026-02-06T21:39:34+00:00,SAT-50805,166.88532135480787,41.809929027933194,781.4191562604186,-2.0843632775157714,73003.21882652432,10.5,10500073003.218826,47.655,-122.3035,60.0,0.75
2026-02-06T21:39:35+00:00,SAT-50805,166.23128668937747,41.97296524355856,779.3403808732077,-2.0264561800788043,70975.06732750243,10.5,10500070975.067327,47.655,-122.3035,60.0,0.7666666666666667
2026-02-06T21:39:36+00:00,SAT-50805,165.57043276163233,42.13267657243601,777.3193573424967,-1.968093988876329,68930.97651976773,10.5,10500068930.97652,47.655,-122.3035,60.0,0.7833333333333333
2026-02-06T21:39:37+00:00,SAT-50805,164.9028321933753,42.28894338631443,775.3565395420077,-1.9092852751835196,66871.24660563328,10.5,10500066871.246605,47.655,-122.3035,60.0,0.8
2026-02-06T21:39:38+00:00,SAT-50805,164.22856644618494,42.44164622269132,773.4523727971656,-1.8500390411928054,64796.19287995716,10.5,10500064796.19288,47.655,-122.3035,60.0,0.8166666666666667
2026-02-06T21:39:39+00:00,SAT-50805,163.54772602813546,42.59066599882893,771.6072934553368,-1.7903647354543497,62706.146270933445,10.5,10500062706.14627,47.655,-122.3035,60.0,0.8333333333333334
2026-02-06T21:39:40+00:00,SAT-50805,162.860410674636,42.735884235018034,769.8217284406677,-1.7302722637138346,60601.45371967717,10.5,10500060601.45372,47.655,-122.3035,60.0,0.85
2026-02-06T21:39:41+00:00,SAT-50805,162.16672950215658,42.87718328629221,768.0960947981154,-1.6697719569590346,58482.47706108024,10.5,10500058482.47706,47.655,-122.3035,60.0,0.8666666666666667
2026-02-06T21:39:42+00:00,SAT-50805,161.46680114966995,43.01444657859404,766.4307992693444,-1.608874597051625,56349.59392154576,10.5,10500056349.593922,47.655,-122.3035,60.0,0.8833333333333333
2026-02-06T21:39:43+00:00,SAT-50805,160.76075388126594,43.1475588534349,764.8262378430632,-1.5475913840439512,54203.19657428302,10.5,10500054203.196575,47.655,-122.3035,60.0,0.9
2026-02-06T21:39:44+00:00,SAT-50805,160.04872567350637,43.27640641560135,763.2827953379522,-1.4859339562181326,52043.692641161746,10.5,10500052043.69264,47.655,-122.3035,60.0,0.9166666666666666
2026-02-06T21:39:45+00:00,SAT-50805,159.33086426025153,43.40087738748188,761.8008449656119,-1.4239143688595026,49871.504349268114,10.5,10500049871.504349,47.655,-122.3035,60.0,0.9333333333333333
2026-02-06T21:39:46+00:00,SAT-50805,158.60732715237756,43.52086196577621,760.3807479146752,-1.3615450876450503,47687.06829934003,10.5,10500047687.0683,47.655,-122.3035,60.0,0.95
2026-02-06T21:39:47+00:00,SAT-50805,157.87828162302725,43.6362526808784,759.0228529415166,-1.2988389786234875,45490.83511482673,10.5,10500045490.835115,47.655,-122.3035,60.0,0.9666666666666667
2026-02-06T21:39:48+00:00,SAT-50805,157.14390465908627,43.74694465768365,757.727495970955,-1.2358093088799973,43283.26946517104,10.5,10500043283.269464,47.655,-122.3035,60.0,0.9833333333333333
2026-02-06T21:39:49+00:00,SAT-50805,156.4043828687254,43.85283587769697,756.4949996962905,-1.172469715501417,41064.84897883881,10.5,10500041064.848978,47.655,-122.3035,60.0,1.0
2026-02-06T21:39:50+00:00,SAT-50805,155.65991236479772,43.95382743866349,755.3256732102958,-1.1088342224671726,38836.06483491093,10.5,10500038836.064835,47.655,-122.3035,60.0,1.0166666666666666
2026-02-06T21:39:51+00:00,SAT-50805,154.9106985891534,44.049823814685816,754.2198116193598,-1.0449171944759905,36597.4201458994,10.5,10500036597.420145,47.655,-122.3035,60.0,1.0333333333333334
2026-02-06T21:39:52+00:00,SAT-50805,154.15695612153567,44.140733110230684,753.1776957036838,-0.9807333544919291,34349.43057228363,10.5,10500034349.430573,47.655,-122.3035,60.0,1.05
2026-02-06T21:39:53+00:00,SAT-50805,153.3989084241481,44.22646731233187,752.1995915599739,-0.916297740365028,32092.622803182036,10.5,10500032092.622803,47.655,-122.3035,60.0,1.0666666666666667
2026-02-06T21:39:54+00:00,SAT-50805,152.63678757064625,44.3069425344623,751.2857502874018,-0.8516257151636685,29827.534918235066,10.5,10500029827.534918,47.655,-122.3035,60.0,1.0833333333333333
2026-02-06T21:39:55+00:00,SAT-50805,151.87083391092594,44.38207925552408,750.4364076632561,-0.7867329324911174,27554.715172843782,10.5,10500027554.715174,47.655,-122.3035,60.0,1.1
2026-02-06T21:39:56+00:00,SAT-50805,151.10129571394432,44.45180254878851,749.651783853188,-0.7216353267035647,25274.72165556423,10.5,10500025274.721655,47.655,-122.3035,60.0,1.1166666666666667
2026-02-06T21:39:57+00:00,SAT-50805,150.3284287634402,44.51604230171424,748.9320831312095,-0.6563490912783861,22988.12153047244,10.5,10500022988.12153,47.655,-122.3035,60.0,1.1333333333333333
2026-02-06T21:39:58+00:00,SAT-50805,149.5524959208824,44.574733424411846,748.2774936212687,-0.5908906651196528,20695.49055752548,10.5,10500020695.490557,47.655,-122.3035,60.0,1.15
2026-02-06T21:39:59+00:00,SAT-50805,148.7737666447755,44.62781604626925,747.6881870524794,-0.5252767051761392,18397.41213352826,10.5,10500018397.412134,47.655,-122.3035,60.0,1.1666666666666667
2026-02-06T21:40:00+00:00,SAT-50805,147.99251648619725,44.6752356983884,747.1643185416616,-0.45952407462305406,16094.476878207748,10.5,10500016094.47688,47.655,-122.3035,60.0,1.1833333333333333
2026-02-06T21:40:01+00:00,SAT-50805,147.2090265394531,44.7169434821578,746.7060263876683,-0.3936498149166866,13787.28165544848,10.5,10500013787.281656,47.655,-122.3035,60.0,1.2
2026-02-06T21:40:02+00:00,SAT-50805,146.4235828720113,44.75289622150089,746.3134318935817,-0.32767112551364297,11476.428862974435,10.5,10500011476.428864,47.655,-122.3035,60.0,1.2166666666666666
2026-02-06T21:40:03+00:00,SAT-50805,145.636475931621,44.78305659855009,745.986639209137,-0.2616053470913349,9162.525844659564,10.5,10500009162.525845,47.655,-122.3035,60.0,1.2333333333333334
2026-02-06T21:40:04+00:00,SAT-50805,144.8479999086826,44.807393272267504,745.7257351898799,-0.19546993201342364,6846.183856102704,10.5,10500006846.183857,47.655,-122.3035,60.0,1.25
2026-02-06T21:40:05+00:00,SAT-50805,144.05845210505322,44.82588097806046,745.5307892857792,-0.12928242610556676,4528.017426337158,10.5,10500004528.017426,47.655,-122.3035,60.0,1.2666666666666666
2026-02-06T21:40:06+00:00,SAT-50805,143.2681322599306,44.838500608853025,745.4018534480172,-0.06306044435832073,2208.6435068435494,10.5,10500002208.643507,47.655,-122.3035,60.0,1.2833333333333334
2026-02-06T21:40:07+00:00,SAT-50805,142.47734188478893,44.84523927648805,745.3389620600078,0.0031783532577673336,-111.31937550796225,10.5,10499999888.680624,47.655,-122.3035,60.0,1.3
2026-02-06T21:40:08+00:00,SAT-50805,141.68638356727436,44.84609035312575,745.3421318925392,0.06941628363531835,-2431.2518834974917,10.5,10499997568.748117,47.655,-122.3035,60.0,1.3166666666666667
2026-02-06T21:40:09+00:00,SAT-50805,140.89556028443846,44.84105349255523,745.4113620806975,0.13563566585026537,-4750.534756373979,10.5,10499995249.465244,47.655,-122.3035,60.0,1.3333333333333333
2026-02-06T21:40:10+00:00,SAT-50805,140.1051747051799,44.830134630979444,745.5466341260453,0.20181884129739364,-7068.549515086978,10.5,10499992931.450485,47.655,-122.3035,60.0,1.35
2026-02-06T21:40:11+00:00,SAT-50805,139.31552850285524,44.81334596772233,745.7479119188803,0.26794820281044424,-9384.679482195861,10.5,10499990615.320518,47.655,-122.3035,60.0,1.3666666666666667
2026-02-06T21:40:12+00:00,SAT-50805,138.5269216597629,44.7907059252082,746.0151417895357,0.33400621223736976,-11698.31039742962,10.5,10499988301.689602,47.655,-122.3035,60.0,1.3833333333333333
2026-02-06T21:40:13+00:00,SAT-50805,137.73965179453984,44.762239089456216,746.3482525772109,0.3999754257881766,-14008.831305475516,10.5,10499985991.168695,47.655,-122.3035,60.0,1.4
2026-02-06T21:40:14+00:00,SAT-50805,136.9540134984767,44.72797613081255,746.7471557240793,0.46583851662656406,-16315.635347233861,10.5,10499983684.364653,47.655,-122.3035,60.0,1.4166666666666667
2026-02-06T21:40:15+00:00,SAT-50805,136.1702976877428,44.687953705651644,747.2117453919284,0.5315783022430227,-18618.120718539685,10.5,10499981381.879282,47.655,-122.3035,60.0,1.4333333333333333
2026-02-06T21:40:16+00:00,SAT-50805,135.3887909708159,44.64221433925924,747.7418986061009,0.5971777504660569,-20915.690880701204,10.5,10499979084.30912,47.655,-122.3035,60.0,1.45
2026-02-06T21:40:17+00:00,SAT-50805,134.60977505976612,44.590806292476046,748.3374754054288,0.6626200236065363,-23207.756106621706,10.5,10499976792.243893,47.655,-122.3035,60.0,1.4666666666666666
2026-02-06T21:40:18+00:00,SAT-50805,133.8335261795956,44.53378340962665,748.9983190361934,0.7278884842947255,-25493.733685237064,10.5,10499974506.266315,47.655,-122.3035,60.0,1.4833333333333334
2026-02-06T21:40:19+00:00,SAT-50805,133.0603145278038,44.47120495197256,749.7242561519104,0.7929667157372899,-27773.048631001733,10.5,10499972226.951368,47.655,-122.3035,60.0,1.5
2026-02-06T21:40:20+00:00,SAT-50805,132.2904037622526,44.403135416446226,750.5150970333121,0.857838549429249,-30045.134654478577,10.5,10499969954.865345,47.655,-122.3035,60.0,1.5166666666666666
2026-02-06T21:40:21+00:00,SAT-50805,131.5240505175487,44.329644340080314,751.3706358359723,0.9224880751097458,-32309.43451103207,10.5,10499967690.565489,47.655,-122.3035,60.0,1.5333333333333334
2026-02-06T21:40:22+00:00,SAT-50805,130.7615039642831,44.25080609281022,752.290650847856,0.9868996688195932,-34565.400983522166,10.5,10499965434.599016,47.655,-122.3035,60.0,1.55
2026-02-06T21:40:23+00:00,SAT-50805,130.00300539845534,44.16669965825447,753.2749047748556,1.0510580010280854,-36812.497166939735,10.5,10499963187.502832,47.655,-122.3035,60.0,1.5666666666666667
2026-02-06T21:40:24+00:00,SAT-50805,129.24878787625187,44.07740840540071,754.3231450344289,1.114948059816716,-39050.19728039829,10.5,10499960949.80272,47.655,-122.3035,60.0,1.5833333333333333
2026-02-06T21:40:25+00:00,SAT-50805,128.4990758841865,43.98301985113458,755.4351040723601,1.1785551568925596,-41277.98687774819,10.5,10499958722.013123,47.655,-122.3035,60.0,1.6
2026-02-06T21:40:26+00:00,SAT-50805,127.7540850540899,43.8836254163254,756.6104996855175,1.2418649611636852,-43495.364023529546,10.5,10499956504.635977,47.655,-122.3035,60.0,1.6166666666666667
2026-02-06T21:40:27+00:00,SAT-50805,127.01402190828965,43.77932017435766,757.8490353780978,1.3048634887226511,-45701.838942151895,10.5,10499954298.161058,47.655,-122.3035,60.0,1.6333333333333333
2026-02-06T21:40:28+00:00,SAT-50805,126.2790836579443,43.67020259705207,759.1504007078785,1.367537132913296,-47896.935070960346,10.5,10499952103.06493,47.655,-122.3035,60.0,1.65
2026-02-06T21:40:29+00:00,SAT-50805,125.54945803126968,43.55637429576964,760.5142716624582,1.4298726681812661,-50080.18919509741,10.5,10499949919.810804,47.655,-122.3035,60.0,1.6666666666666667
2026-02-06T21:40:30+00:00,SAT-50805,124.82532314518174,43.437939761115864,761.9403110393388,1.4918572683940656,-52251.152089148585,10.5,10499947748.84791,47.655,-122.3035,60.0,1.6833333333333333
2026-02-06T21:40:31+00:00,SAT-50805,124.10684741124014,43.3150061011469,763.4281688442727,1.5534785032623024,-54409.388391799286,10.5,10499945590.611609,47.655,-122.3035,60.0,1.7
2026-02-06T21:40:32+00:00,SAT-50805,123.39418948461535,43.18768278100714,764.9774826860477,1.6147243606377017,-56554.4773868056,10.5,10499943445.522614,47.655,-122.3035,60.0,1.7166666666666666
2026-02-06T21:40:33+00:00,SAT-50805,122.68749824226592,43.0560813628753,766.5878781935066,1.6755832492602882,-58686.013099212214,10.5,10499941313.9869,47.655,-122.3035,60.0,1.7333333333333334
2026-02-06T21:40:34+00:00,SAT-50805,121.98691279753001,42.92031524882419,768.2589694353059,1.7360439968086019,-60803.60422706271,10.5,10499939196.395773,47.655,-122.3035,60.0,1.75
2026-02-06T21:40:35+00:00,SAT-50805,121.29256254991965,42.780499427872336,769.9903593377333,1.796095878472321,-62906.87514213373,10.5,10499937093.124857,47.655,-122.3035,60.0,1.7666666666666666
2026-02-06T21:40:36+00:00,SAT-50805,120.60456725680909,42.636750225600025,771.7816401310164,1.8557285939982613,-64995.465085988726,10.5,10499935004.534914,47.655,-122.3035,60.0,1.7833333333333334
2026-02-06T21:40:37+00:00,SAT-50805,119.92303714380452,42.48918506127409,773.632393772745,1.9149322970067806,-67069.0291967625,10.5,10499932930.970802,47.655,-122.3035,60.0,1.8
2026-02-06T21:40:38+00:00,SAT-50805,119.24807303250338,42.33792220895963,775.5421924005242,1.9736975690504621,-69127.23760058651,10.5,10499930872.7624,47.655,-122.3035,60.0,1.8166666666666667
2026-02-06T21:40:39+00:00,SAT-50805,118.57976650206005,42.18308056766634,777.5105987587623,2.0320154503791996,-71169.77648911234,10.5,10499928830.22351,47.655,-122.3035,60.0,1.8333333333333333
2026-02-06T21:40:40+00:00,SAT-50805,117.918200063523,42.02477943655837,779.5371666561372,2.089877420525184,-73196.34743951574,10.5,10499926803.652561,47.655,-122.3035,60.0,1.85
2026-02-06T21:40:41+00:00,SAT-50805,117.26344736076935,41.86313829969244,781.6214414037008,2.147275422007671,-75206.66824473799,10.5,10499924793.331755,47.655,-122.3035,60.0,1.8666666666666667
2026-02-06T21:40:42+00:00,SAT-50805,116.61557338260418,41.69827661730098,783.7629602766261,2.204201819968772,-77200.47149976036,10.5,10499922799.5285,47.655,-122.3035,60.0,1.8833333333333333
2026-02-06T21:40:43+00:00,SAT-50805,115.97463470207198,41.53031362891576,785.9612529356955,2.260649436027239,-79177.50578730708,10.5,10499920822.494213,47.655,-122.3035,60.0,1.9
2026-02-06T21:40:44+00:00,SAT-50805,115.34067971941319,41.359368162840724,788.2158418825543,2.3166115462768464,-81137.53560773996,10.5,10499918862.464392,47.655,-122.3035,60.0,1.9166666666666667
2026-02-06T21:40:45+00:00,SAT-50805,114.71374891727358,41.185558454994805,790.5262429129681,2.3720818410588844,-83080.33997012123,10.5,10499916919.66003,47.655,-122.3035,60.0,1.9333333333333333
2026-02-06T21:40:46+00:00,SAT-50805,114.09387513555828,41.00900198009865,792.8919655299584,2.427054455906018,-85005.71347599807,10.5,10499914994.286524,47.655,-122.3035,60.0,1.95
2026-02-06T21:40:47+00:00,SAT-50805,113.48108384514912,40.82981528988582,795.3125133878015,2.4815239787080454,-86913.46657037809,10.5,10499913086.53343,47.655,-122.3035,60.0,1.9666666666666666
2026-02-06T21:40:48+00:00,SAT-50805,112.87539342575224,40.648113860242425,797.7873847431729,2.5354853835145077,-88803.42322321642,10.5,10499911196.576777,47.655,-122.3035,60.0,1.9833333333333334
2026-02-06T21:40:49+00:00,SAT-50805,112.27681546298295,40.46401195259682,800.3160728402712,2.588934084923599,-90675.42283434558,10.5,10499909324.577166,47.655,-122.3035,60.0,2.0
2026-02-06T21:40:50+00:00,SAT-50805,111.68535503406524,40.27762248057196,802.8980663501861,2.641865920249497,-92529.31960889998,10.5,10499907470.680391,47.655,-122.3035,60.0,2.0166666666666666
2026-02-06T21:40:51+00:00,SAT-50805,111.10101099860212,40.08905688717069,805.532849792481,2.6942771145756526,-94364.98133333412,10.5,10499905635.018667,47.655,-122.3035,60.0,2.033333333333333
