DopplerPredictor/satellites_20260211_205738/SAT-64180.csv

timestamp,satellite,azimuth_deg,elevation_deg,distance_km,relative_velocity_kms,doppler_shift_hz,tx_freq_ghz,rx_freq_hz,ue_lat,ue_lon,ue_alt_m,time_minutes
2026-02-06T21:41:41+00:00,SAT-64180,356.0748945995463,40.108934490175805,699.9428310151998,-1.5969692409927203,55932.61799275672,10.5,10500055932.617992,47.655,-122.3035,60.0,2.8666666666666667
2026-02-06T21:41:42+00:00,SAT-64180,356.8244021231645,40.2375447108569,698.3501430283604,-1.5292894092929616,53562.18400122693,10.5,10500053562.184002,47.655,-122.3035,60.0,2.8833333333333333
2026-02-06T21:41:43+00:00,SAT-64180,357.58004888141204,40.36143220989759,696.8249534329317,-1.461162228953646,51176.081968056984,10.5,10500051176.081968,47.655,-122.3035,60.0,2.9
2026-02-06T21:41:44+00:00,SAT-64180,358.3416501431611,40.48047120359229,695.3677083782736,-1.392603942685431,48774.88078168073,10.5,10500048774.880781,47.655,-122.3035,60.0,2.9166666666666665
2026-02-06T21:41:45+00:00,SAT-64180,359.1090099269943,40.5945388735909,693.978837814579,-1.3236313912321027,46359.170276181794,10.5,10500046359.170277,47.655,-122.3035,60.0,2.933333333333333
2026-02-06T21:41:46+00:00,SAT-64180,359.88192110098896,40.70351570707604,692.6587548964458,-1.2542619986583745,43929.56071601018,10.5,10500043929.560717,47.655,-122.3035,60.0,2.95
2026-02-06T21:41:47+00:00,SAT-64180,0.6601655304713626,40.80728583666856,691.4078554011176,-1.1845137469345806,41486.68190583065,10.5,10500041486.681906,47.655,-122.3035,60.0,2.966666666666667
2026-02-06T21:41:48+00:00,SAT-64180,1.443514268307426,40.90573737758068,690.2265171720758,-1.114405168751336,39031.182938861755,10.5,10500039031.18294,47.655,-122.3035,60.0,2.9833333333333334
2026-02-06T21:41:49+00:00,SAT-64180,2.23172780222504,40.99876276186562,689.1150995697936,-1.04395532013869,36563.73123788273,10.5,10500036563.731237,47.655,-122.3035,60.0,3.0
2026-02-06T21:41:50+00:00,SAT-64180,3.024556347502661,41.08625906639253,688.0739429498021,-0.973183747125892,34085.01138751751,10.5,10500034085.011387,47.655,-122.3035,60.0,3.0166666666666666
2026-02-06T21:41:51+00:00,SAT-64180,3.8217401798522164,41.16812833228182,687.1033681740033,-0.9021104971980622,31595.725535495807,10.5,10500031595.725536,47.655,-122.3035,60.0,3.033333333333333
2026-02-06T21:41:52+00:00,SAT-64180,4.62301004693583,41.2442778778084,686.2036761105568,-0.8307560478720036,29096.590891075844,10.5,10500029096.59089,47.655,-122.3035,60.0,3.05
2026-02-06T21:41:53+00:00,SAT-64180,5.428087590624637,41.31462059604394,685.3751472050047,-0.7591413183114356,26588.34013185907,10.5,10500026588.340132,47.655,-122.3035,60.0,3.066666666666667
2026-02-06T21:41:54+00:00,SAT-64180,6.236685850464547,41.37907524246109,684.6180410398064,-0.6872876183596679,24071.719618698724,10.5,10500024071.719618,47.655,-122.3035,60.0,3.0833333333333335
2026-02-06T21:41:55+00:00,SAT-64180,7.048509793489913,41.43756670550848,683.9325959447057,-0.6152166289056724,21547.48870803668,10.5,10500021547.488708,47.655,-122.3035,60.0,3.1
2026-02-06T21:41:56+00:00,SAT-64180,7.86325689792527,41.49002626113075,683.3190286266822,-0.5429503679959894,19016.418564999018,10.5,10500019016.418566,47.655,-122.3035,60.0,3.1166666666666667
2026-02-06T21:41:57+00:00,SAT-64180,8.680617777396083,41.53639180841848,682.7775338336955,-0.47051115550011274,16479.290925828373,10.5,10500016479.290926,47.655,-122.3035,60.0,3.1333333333333333
2026-02-06T21:41:58+00:00,SAT-64180,9.500276837973171,41.57660808475267,682.308284053673,-0.39792158870768246,13936.897243194377,10.5,10500013936.897243,47.655,-122.3035,60.0,3.15
2026-02-06T21:41:59+00:00,SAT-64180,10.321912987398377,41.61062685996168,681.9114292378314,-0.32520449544355956,11390.037044085264,10.5,10500011390.037045,47.655,-122.3035,60.0,3.1666666666666665
2026-02-06T21:42:00+00:00,SAT-64180,11.14520035331551,41.63840710628743,681.5870965707618,-0.2523829118394366,8839.517151275648,10.5,10500008839.51715,47.655,-122.3035,60.0,3.183333333333333
2026-02-06T21:42:01+00:00,SAT-64180,11.969809057483635,41.65991514511585,681.33539026268,-0.17948003489393646,6286.150021780511,10.5,10500006286.150023,47.655,-122.3035,60.0,3.2
2026-02-06T21:42:02+00:00,SAT-64180,12.795405983823501,41.675124767318096,681.1563913889916,-0.10651919530381887,3730.752795289127,10.5,10500003730.752796,47.655,-122.3035,60.0,3.216666666666667
2026-02-06T21:42:03+00:00,SAT-64180,13.62165559591152,41.684017328105945,681.0501577569505,-0.03352381403901515,1174.1457732390954,10.5,10500001174.145773,47.655,-122.3035,60.0,3.2333333333333334
2026-02-06T21:42:04+00:00,SAT-64180,14.44822074927337,41.686581814354454,681.0167238156307,0.03948263216485876,-1382.8487897818197,10.5,10499998617.15121,47.655,-122.3035,60.0,3.25
2026-02-06T21:42:05+00:00,SAT-64180,15.27476352013898,41.68281488468409,681.0561006003073,0.11247664858273174,-3939.40800911904,10.5,10499996060.591991,47.655,-122.3035,60.0,3.2666666666666666
2026-02-06T21:42:06+00:00,SAT-64180,16.100946035303206,41.672720881744794,681.168275714517,0.1854347613993457,-6494.709732468085,10.5,10499993505.290268,47.655,-122.3035,60.0,3.283333333333333
2026-02-06T21:42:07+00:00,SAT-64180,16.926431313056202,41.656311816510375,681.353213350911,0.2583335542311986,-9047.933819027514,10.5,10499990952.066181,47.655,-122.3035,60.0,3.3
2026-02-06T21:42:08+00:00,SAT-64180,17.750884084337788,41.63360732491033,681.6108543485332,0.33114970418384765,-11598.263402378188,10.5,10499988401.736597,47.655,-122.3035,60.0,3.316666666666667
2026-02-06T21:42:09+00:00,SAT-64180,18.573971608033194,41.60463459713903,681.9411162860589,0.40386002310232927,-14144.88633524749,10.5,10499985855.113665,47.655,-122.3035,60.0,3.3333333333333335
2026-02-06T21:42:10+00:00,SAT-64180,19.395364478680452,41.56942827967465,682.3438936161718,0.47644148934887026,-16686.99630249917,10.5,10499983313.003698,47.655,-122.3035,60.0,3.35
2026-02-06T21:42:11+00:00,SAT-64180,20.21473740258163,41.5280303515273,682.8190578316367,0.5488712863762607,-19223.794172136037,10.5,10499980776.205828,47.655,-122.3035,60.0,3.3666666666666667
2026-02-06T21:42:12+00:00,SAT-64180,21.031769955625588,41.4804899749609,683.3664576698384,0.6211268358175341,-21754.489154240528,10.5,10499978245.510845,47.655,-122.3035,60.0,3.3833333333333333
2026-02-06T21:42:13+00:00,SAT-64180,21.846147309144524,41.42686332218896,683.9859193503245,0.6931858367101154,-24278.30017477028,10.5,10499975721.699825,47.655,-122.3035,60.0,3.4
2026-02-06T21:42:14+00:00,SAT-64180,22.657560928459883,41.36721337867685,684.6772468514661,0.765026289735363,-26794.456724529446,10.5,10499973205.543276,47.655,-122.3035,60.0,3.4166666666666665
2026-02-06T21:42:15+00:00,SAT-64180,23.465709224425897,41.301609725648646,685.4402222112924,0.8366265450824517,-29302.200535564316,10.5,10499970697.799465,47.655,-122.3035,60.0,3.433333333333333
2026-02-06T21:42:16+00:00,SAT-64180,24.270298181691597,41.23012830119167,686.274605876062,0.907965307044078,-31800.785742124368,10.5,10499968199.214258,47.655,-122.3035,60.0,3.45
2026-02-06T21:42:17+00:00,SAT-64180,25.07104191862404,41.152851145190134,687.1801370534171,0.9790216915334693,-34289.48089515123,10.5,10499965710.519104,47.655,-122.3035,60.0,3.466666666666667
2026-02-06T21:42:18+00:00,SAT-64180,25.86766322999956,41.06986612517117,688.1565341229004,1.0497752458880567,-36767.56965588706,10.5,10499963232.430344,47.655,-122.3035,60.0,3.4833333333333334
2026-02-06T21:42:19+00:00,SAT-64180,26.659894071656463,40.98126664797858,689.2034950662234,1.1202059588698432,-39234.351146129746,10.5,10499960765.648853,47.655,-122.3035,60.0,3.5
2026-02-06T21:42:20+00:00,SAT-64180,27.44747598635924,40.88715135981571,690.3206979075057,1.190294309456787,-41689.14165711355,10.5,10499958310.858343,47.655,-122.3035,60.0,3.5166666666666666
2026-02-06T21:42:21+00:00,SAT-64180,28.230160497648544,40.78762383311819,691.5078012021794,1.260021279719567,-44131.27510050787,10.5,10499955868.7249,47.655,-122.3035,60.0,3.533333333333333
2026-02-06T21:42:22+00:00,SAT-64180,29.00770944542907,40.68279224509459,692.764444538731,1.3293683685183586,-46560.10348813634,10.5,10499953439.896511,47.655,-122.3035,60.0,3.55
2026-02-06T21:42:23+00:00,SAT-64180,29.77989526720415,40.57276904957924,694.0902490541063,1.3983176362421843,-48974.99849893801,10.5,10499951025.001501,47.655,-122.3035,60.0,3.566666666666667
2026-02-06T21:42:24+00:00,SAT-64180,30.546501243834804,40.45767064137939,695.4848179937335,1.466851690348407,-51375.35097249936,10.5,10499948624.649027,47.655,-122.3035,60.0,3.5833333333333335
2026-02-06T21:42:25+00:00,SAT-64180,31.307321677364172,40.3376170197249,696.9477372571255,1.5349537363672858,-53760.57269544953,10.5,10499946239.427305,47.655,-122.3035,60.0,3.6
2026-02-06T21:42:26+00:00,SAT-64180,32.06216203946287,40.212731447053905,698.4785759943493,1.6026075564800055,-56130.09565117231,10.5,10499943869.904348,47.655,-122.3035,60.0,3.6166666666666667
2026-02-06T21:42:27+00:00,SAT-64180,32.8108390545202,40.08314011067201,700.07688718113,1.6697975603943964,-58483.37380168904,10.5,10499941516.626198,47.655,-122.3035,60.0,3.6333333333333333
