DopplerPredictor/satellites_20260211_205738/SAT-59725.csv

timestamp,satellite,azimuth_deg,elevation_deg,distance_km,relative_velocity_kms,doppler_shift_hz,tx_freq_ghz,rx_freq_hz,ue_lat,ue_lon,ue_alt_m,time_minutes
2026-02-06T21:38:49+00:00,SAT-59725,50.395167215312355,62.403846242425686,536.6216322111119,3.1398821295898345,-109971.9538664754,10.5,10499890028.046133,47.655,-122.3035,60.0,0.0
2026-02-06T21:38:50+00:00,SAT-59725,50.743798642569935,61.717008543566415,539.7530967500162,3.214002261264749,-112567.95440557702,10.5,10499887432.045595,47.655,-122.3035,60.0,0.016666666666666666
2026-02-06T21:38:51+00:00,SAT-59725,51.073585462528804,61.037005982778226,542.9584827147506,3.2868134966565137,-115118.11186021694,10.5,10499884881.88814,47.655,-122.3035,60.0,0.03333333333333333
2026-02-06T21:38:52+00:00,SAT-59725,51.386009831680035,60.36396224663072,546.2364847180029,3.3583177296903104,-117622.49256366635,10.5,10499882377.507437,47.655,-122.3035,60.0,0.05
2026-02-06T21:38:53+00:00,SAT-59725,51.682404404433676,59.69798313545645,549.5857992613077,3.42851853715188,-120081.22179009164,10.5,10499879918.77821,47.655,-122.3035,60.0,0.06666666666666667
2026-02-06T21:38:54+00:00,SAT-59725,51.96397048414059,59.03915799338322,553.0051264133971,3.49742101332939,-122494.47796301331,10.5,10499877505.522038,47.655,-122.3035,60.0,0.08333333333333333
2026-02-06T21:38:55+00:00,SAT-59725,52.23179362075714,58.38756100691871,556.4931713236338,3.5650317187619507,-124862.49086026201,10.5,10499875137.50914,47.655,-122.3035,60.0,0.1
2026-02-06T21:38:56+00:00,SAT-59725,52.486857068277736,57.74325237136163,560.0486456843321,3.6313585682476064,-127185.53769154481,10.5,10499872814.462309,47.655,-122.3035,60.0,0.11666666666666667
2026-02-06T21:38:57+00:00,SAT-59725,52.730053427684055,57.10627935557998,563.6702690813856,3.696410740341273,-129463.93992868015,10.5,10499870536.060072,47.655,-122.3035,60.0,0.13333333333333333
2026-02-06T21:38:58+00:00,SAT-59725,52.96219475275629,56.47667727583568,567.3567702546368,3.760198581375087,-131698.05994398435,10.5,10499868301.940056,47.655,-122.3035,60.0,0.15
2026-02-06T21:38:59+00:00,SAT-59725,53.184021347101314,55.85447039191478,571.1068882625225,3.822733535237932,-133888.29855085377,10.5,10499866111.701448,47.655,-122.3035,60.0,0.16666666666666666
2026-02-06T21:39:00+00:00,SAT-59725,53.39620944549805,55.239672731505,574.9193735766898,3.8840280034897283,-136035.0901043753,10.5,10499863964.909895,47.655,-122.3035,60.0,0.18333333333333332
2026-02-06T21:39:01+00:00,SAT-59725,53.59937793517513,54.632288862627696,578.792989037098,3.944095344691851,-138138.902477875,10.5,10499861861.097523,47.655,-122.3035,60.0,0.2
2026-02-06T21:39:02+00:00,SAT-59725,53.7940942605993,54.0323145986979,582.7265108064557,4.002949694074433,-140200.23074690404,10.5,10499859799.769253,47.655,-122.3035,60.0,0.21666666666666667
2026-02-06T21:39:03+00:00,SAT-59725,53.9808796143565,53.43973767092715,586.7187291448073,4.060605969515501,-142219.59739865357,10.5,10499857780.402601,47.655,-122.3035,60.0,0.23333333333333334
2026-02-06T21:39:04+00:00,SAT-59725,54.16021352126932,52.854538343815925,590.7684491900824,4.117079735344564,-144197.54756177997,10.5,10499855802.452438,47.655,-122.3035,60.0,0.25
2026-02-06T21:39:05+00:00,SAT-59725,54.33253788919342,52.2766900001652,594.8744916028135,4.172387188229603,-146134.6485121078,10.5,10499853865.351488,47.655,-122.3035,60.0,0.26666666666666666
2026-02-06T21:39:06+00:00,SAT-59725,54.498260602445995,51.70615968124172,599.0356931967806,4.226544995857695,-148031.4840225427,10.5,10499851968.515978,47.655,-122.3035,60.0,0.2833333333333333
2026-02-06T21:39:07+00:00,SAT-59725,54.65775870993568,51.14290860624993,603.2509074087677,4.279570336535879,-149888.65575006136,10.5,10499850111.34425,47.655,-122.3035,60.0,0.3
2026-02-06T21:39:08+00:00,SAT-59725,54.81138126824252,50.586892645981315,607.5190048078119,4.33148076561779,-151706.7785574072,10.5,10499848293.221443,47.655,-122.3035,60.0,0.31666666666666665
2026-02-06T21:39:09+00:00,SAT-59725,54.95945187500497,50.03806277737136,611.8388734712412,4.382294177213745,-153486.47917201548,10.5,10499846513.520828,47.655,-122.3035,60.0,0.3333333333333333
2026-02-06T21:39:10+00:00,SAT-59725,55.10227093462366,49.49636550798342,616.2094193225228,4.432028770424368,-155228.39500337216,10.5,10499844771.604996,47.655,-122.3035,60.0,0.35
2026-02-06T21:39:11+00:00,SAT-59725,55.2401176884156,48.961743272424805,620.6295664354334,4.4807029181435265,-156933.1695479378,10.5,10499843066.830452,47.655,-122.3035,60.0,0.36666666666666664
2026-02-06T21:39:12+00:00,SAT-59725,55.37325203382237,48.43413481435979,625.0982572073905,4.528335245039577,-158601.4551203805,10.5,10499841398.54488,47.655,-122.3035,60.0,0.38333333333333336
2026-02-06T21:39:13+00:00,SAT-59725,55.50191616427768,47.91347553052425,629.6144526105483,4.574944468426163,-160233.9072801982,10.5,10499839766.09272,47.655,-122.3035,60.0,0.4
2026-02-06T21:39:14+00:00,SAT-59725,55.626336042352456,47.399697807113036,634.1771322841969,4.62054940493349,-161831.18506537494,10.5,10499838168.814934,47.655,-122.3035,60.0,0.4166666666666667
2026-02-06T21:39:15+00:00,SAT-59725,55.74672273060147,46.89273132987894,638.7852946338115,4.665168892897576,-163393.94827412415,10.5,10499836606.051725,47.655,-122.3035,60.0,0.43333333333333335
2026-02-06T21:39:16+00:00,SAT-59725,55.8632735929677,46.392503379199155,643.4379568527004,4.708821855993047,-164922.85969357836,10.5,10499835077.140306,47.655,-122.3035,60.0,0.45
2026-02-06T21:39:17+00:00,SAT-59725,55.97617338528181,45.89893909610295,648.134155007115,4.751527145838754,-166418.57958717202,10.5,10499833581.420412,47.655,-122.3035,60.0,0.4666666666666667
2026-02-06T21:39:18+00:00,SAT-59725,56.085595240303974,45.41196174456157,652.8729439643865,4.793303528725226,-167881.76522978063,10.5,10499832118.23477,47.655,-122.3035,60.0,0.48333333333333334
2026-02-06T21:39:19+00:00,SAT-59725,56.19170156285581,44.93149295484601,657.653397307827,4.834169769304997,-169313.07383891047,10.5,10499830686.92616,47.655,-122.3035,60.0,0.5
2026-02-06T21:39:20+00:00,SAT-59725,56.29464484649937,44.457452940004565,662.4746073350959,4.874144468004468,-170713.15688017383,10.5,10499829286.84312,47.655,-122.3035,60.0,0.5166666666666667
2026-02-06T21:39:21+00:00,SAT-59725,56.39456841391035,43.98976071153406,667.3356848944138,4.913246124467521,-172082.66228935274,10.5,10499827917.337711,47.655,-122.3035,60.0,0.5333333333333333
2026-02-06T21:39:22+00:00,SAT-59725,56.49160709403263,43.528334272192566,672.2357592840494,4.951493042571014,-173422.23114564025,10.5,10499826577.768854,47.655,-122.3035,60.0,0.55
2026-02-06T21:39:23+00:00,SAT-59725,56.58588783884735,43.07309080255551,677.1739780570792,4.988903388169741,-174732.4996941127,10.5,10499825267.500305,47.655,-122.3035,60.0,0.5666666666666667
2026-02-06T21:39:24+00:00,SAT-59725,56.67753028894601,42.623946827586884,682.1495068837339,5.025495134882588,-176014.09744693167,10.5,10499823985.902554,47.655,-122.3035,60.0,0.5833333333333334
2026-02-06T21:39:25+00:00,SAT-59725,56.76664729052932,42.180818374866256,687.1615293596784,5.061286013400405,-177267.64540789166,10.5,10499822732.354591,47.655,-122.3035,60.0,0.6
2026-02-06T21:39:26+00:00,SAT-59725,56.85334536861907,41.743621124474494,692.2092467637343,5.096293555899339,-178493.75762796227,10.5,10499821506.242373,47.655,-122.3035,60.0,0.6166666666666667
2026-02-06T21:39:27+00:00,SAT-59725,56.93772516250043,41.312270542904564,697.2918778598988,5.130535050682341,-179693.03961664232,10.5,10499820306.960382,47.655,-122.3035,60.0,0.6333333333333333
2026-02-06T21:39:28+00:00,SAT-59725,57.019881825267326,40.88668200980706,702.4086586541239,5.164027583053247,-180866.08977354292,10.5,10499819133.910227,47.655,-122.3035,60.0,0.65
2026-02-06T21:39:29+00:00,SAT-59725,57.09990539212832,40.466770930919246,707.5588421918627,5.196787888185134,-182013.4942352149,10.5,10499817986.505764,47.655,-122.3035,60.0,0.6666666666666666
2026-02-06T21:39:30+00:00,SAT-59725,57.17788111730136,40.052452853237305,712.7416982088765,5.22883251590548,-183135.8326466223,10.5,10499816864.167353,47.655,-122.3035,60.0,0.6833333333333333
