DopplerPredictor/satellites_20260211_205738/SAT-48327.csv

timestamp,satellite,azimuth_deg,elevation_deg,distance_km,relative_velocity_kms,doppler_shift_hz,tx_freq_ghz,rx_freq_hz,ue_lat,ue_lon,ue_alt_m,time_minutes
2026-02-06T21:48:14+00:00,SAT-48327,349.0175805977585,40.012242013189834,815.4203960798868,-1.8269123778668295,63986.199304592614,10.5,10500063986.199305,47.655,-122.3035,60.0,9.416666666666666
2026-02-06T21:48:15+00:00,SAT-48327,349.6440089056368,40.14129027402754,813.5983814019912,-1.7714474900942407,62043.5843185539,10.5,10500062043.584318,47.655,-122.3035,60.0,9.433333333333334
2026-02-06T21:48:16+00:00,SAT-48327,350.2755441565778,40.26715768658467,811.8316829181584,-1.715617612872135,60088.18585808926,10.5,10500060088.185858,47.655,-122.3035,60.0,9.45
2026-02-06T21:48:17+00:00,SAT-48327,350.91209794335424,40.389756855353724,810.120664639351,-1.6594312039829702,58120.300150516756,10.5,10500058120.30015,47.655,-122.3035,60.0,9.466666666666667
2026-02-06T21:48:18+00:00,SAT-48327,351.55357555939014,40.509001254116356,808.4656821414242,-1.602897060777895,56140.235316286366,10.5,10500056140.235317,47.655,-122.3035,60.0,9.483333333333333
2026-02-06T21:48:19+00:00,SAT-48327,352.19987595641487,40.624805381739066,806.8670822264668,-1.5460243189784921,54148.311327011994,10.5,10500054148.311327,47.655,-122.3035,60.0,9.5
2026-02-06T21:48:20+00:00,SAT-48327,352.85089171958583,40.737084920781776,805.325202585336,-1.488822429754797,52144.85920264668,10.5,10500052144.859203,47.655,-122.3035,60.0,9.516666666666667
2026-02-06T21:48:21+00:00,SAT-48327,353.5065090513025,40.84575689689705,803.8403714830577,-1.431301180780843,50130.2217489369,10.5,10500050130.221748,47.655,-122.3035,60.0,9.533333333333333
2026-02-06T21:48:22+00:00,SAT-48327,354.16660778377997,40.950739841766456,802.4129074232229,-1.3734706754120078,48104.75282812513,10.5,10500048104.752829,47.655,-122.3035,60.0,9.55
2026-02-06T21:48:23+00:00,SAT-48327,354.8310614038032,41.05195395604704,801.0431188331528,-1.3153413303624493,46068.81727760382,10.5,10500046068.817278,47.655,-122.3035,60.0,9.566666666666666
2026-02-06T21:48:24+00:00,SAT-48327,355.49973709828294,41.14932127314819,799.73130375138,-1.256923856302799,44022.7902303646,10.5,10500044022.79023,47.655,-122.3035,60.0,9.583333333333334
2026-02-06T21:48:25+00:00,SAT-48327,356.17249581278986,41.24276582203665,798.4777495344804,-1.1982292829509722,41967.05799378452,10.5,10500041967.057993,47.655,-122.3035,60.0,9.6
2026-02-06T21:48:26+00:00,SAT-48327,356.8491923475331,41.332213791804854,797.2827325388813,-1.1392689145100618,39902.016488872614,10.5,10500039902.016489,47.655,-122.3035,60.0,9.616666666666667
2026-02-06T21:48:27+00:00,SAT-48327,357.5296754551141,41.41759369224764,796.1465178471118,-1.0800543390291104,37828.07157812376,10.5,10500037828.071579,47.655,-122.3035,60.0,9.633333333333333
2026-02-06T21:48:28+00:00,SAT-48327,358.2137879682432,41.4988365138366,795.069358984718,-1.0205974216057978,35745.63882744801,10.5,10500035745.638828,47.655,-122.3035,60.0,9.65
2026-02-06T21:48:29+00:00,SAT-48327,358.9013669512247,41.57587588528466,794.051497643957,-0.9609102814668735,33655.14270343042,10.5,10500033655.142704,47.655,-122.3035,60.0,9.666666666666666
2026-02-06T21:48:30+00:00,SAT-48327,359.59224386417446,41.64864822685574,793.0931634303493,-0.9010052944558918,31557.016660462035,10.5,10500031557.01666,47.655,-122.3035,60.0,9.683333333333334
2026-02-06T21:48:31+00:00,SAT-48327,0.2862447573628778,41.717092900692386,792.194573606749,-0.8408950733573582,29451.702451608246,10.5,10500029451.702452,47.655,-122.3035,60.0,9.7
2026-02-06T21:48:32+00:00,SAT-48327,0.9831904809470404,41.78115235585978,791.3559328570396,-0.7805924546520109,27339.64966472277,10.5,10500027339.649664,47.655,-122.3035,60.0,9.716666666666667
2026-02-06T21:48:33+00:00,SAT-48327,1.6828969136189598,41.84077226794545,790.5774330630372,-0.7201104913920908,25221.31547290944,10.5,10500025221.315474,47.655,-122.3035,60.0,9.733333333333333
2026-02-06T21:48:34+00:00,SAT-48327,2.385175215091753,41.89590167307238,789.8592530884968,-0.6594624455704202,23097.16436725507,10.5,10500023097.164368,47.655,-122.3035,60.0,9.75
2026-02-06T21:48:35+00:00,SAT-48327,3.0898321056930356,41.94649309566683,789.2015585707371,-0.5986617525548025,20967.66691117168,10.5,10500020967.666912,47.655,-122.3035,60.0,9.766666666666667
2026-02-06T21:48:36+00:00,SAT-48327,3.796670141199098,41.992502667257284,788.6045017477259,-0.537722029961031,18833.300051166814,10.5,10500018833.30005,47.655,-122.3035,60.0,9.783333333333333
2026-02-06T21:48:37+00:00,SAT-48327,4.505488028462002,42.033890239131324,788.0682212763214,-0.47665705502453165,16694.546324302733,10.5,10500016694.546324,47.655,-122.3035,60.0,9.8
2026-02-06T21:48:38+00:00,SAT-48327,5.216080951663281,42.07061948590492,787.5928420730827,-0.4154807435725144,14551.893121712226,10.5,10500014551.893122,47.655,-122.3035,60.0,9.816666666666666
2026-02-06T21:48:39+00:00,SAT-48327,5.928240904033929,42.10265799961147,787.1784751760472,-0.3542071429293542,12405.832440115017,10.5,10500012405.83244,47.655,-122.3035,60.0,9.833333333333334
2026-02-06T21:48:40+00:00,SAT-48327,6.641757045470545,42.12997737491685,786.8252176135874,-0.2928504130106868,10256.860219653063,10.5,10500010256.86022,47.655,-122.3035,60.0,9.85
2026-02-06T21:48:41+00:00,SAT-48327,7.356416068935341,42.15255328411955,786.5331522921208,-0.23142480923324973,8105.475745320859,10.5,10500008105.475746,47.655,-122.3035,60.0,9.866666666666667
2026-02-06T21:48:42+00:00,SAT-48327,8.072002576351938,42.17036554170393,786.3023479008644,-0.169944666996391,5952.1811034422535,10.5,10500005952.181103,47.655,-122.3035,60.0,9.883333333333333
2026-02-06T21:48:43+00:00,SAT-48327,8.788299463187728,42.183398158222246,786.1328588320678,-0.10842438618428878,3797.480638872617,10.5,10500003797.480639,47.655,-122.3035,60.0,9.9
2026-02-06T21:48:44+00:00,SAT-48327,9.505088317163711,42.19163938324245,786.0247251167003,-0.046878412721004147,1641.8803089787652,10.5,10500001641.880308,47.655,-122.3035,60.0,9.916666666666666
2026-02-06T21:48:45+00:00,SAT-48327,10.222149813575081,42.195081736903575,785.9779723785344,0.014678777001626758,-514.1128617621226,10.5,10499999485.887138,47.655,-122.3035,60.0,9.933333333333334
2026-02-06T21:48:46+00:00,SAT-48327,10.939264124224598,42.193722030134964,785.9926118037607,0.0762326942563846,-2669.991416835571,10.5,10499997330.008583,47.655,-122.3035,60.0,9.95
2026-02-06T21:48:47+00:00,SAT-48327,11.656211324213306,42.187561373241294,786.0686401286839,0.13776885220827934,-4825.247966000976,10.5,10499995174.752033,47.655,-122.3035,60.0,9.966666666666667
2026-02-06T21:48:48+00:00,SAT-48327,12.372771789435282,42.1766051731093,786.2060396416115,0.1992727883474977,-6979.3759709883225,10.5,10499993020.62403,47.655,-122.3035,60.0,9.983333333333333
