DopplerPredictor/satellites_20260211_205738/SAT-60906.csv

timestamp,satellite,azimuth_deg,elevation_deg,distance_km,relative_velocity_kms,doppler_shift_hz,tx_freq_ghz,rx_freq_hz,ue_lat,ue_lon,ue_alt_m,time_minutes
2026-02-06T21:48:41+00:00,SAT-60906,264.23869086006295,40.3127681049735,545.7468224258062,-4.997812104471517,175044.52062283346,10.5,10500175044.520622,47.655,-122.3035,60.0,9.866666666666667
2026-02-06T21:48:42+00:00,SAT-60906,264.59454188515883,40.8228390874808,540.7624087658886,-4.947696257380868,173289.25166789594,10.5,10500173289.251667,47.655,-122.3035,60.0,9.883333333333333
2026-02-06T21:48:43+00:00,SAT-60906,264.96253578620355,41.340609466096964,535.8279765993917,-4.896177569743995,171484.84930302,10.5,10500171484.849302,47.655,-122.3035,60.0,9.9
2026-02-06T21:48:44+00:00,SAT-60906,265.3432801877642,41.866128159188136,530.9449250060396,-4.843218885545406,169630.01216737335,10.5,10500169630.012167,47.655,-122.3035,60.0,9.916666666666666
2026-02-06T21:48:45+00:00,SAT-60906,265.7374215517497,42.39943390387336,526.1146901219622,-4.788782770297953,167723.42914686835,10.5,10500167723.429148,47.655,-122.3035,60.0,9.933333333333334
2026-02-06T21:48:46+00:00,SAT-60906,266.1456480948336,42.940554028165316,521.3387454174195,-4.732831570607085,165763.78146035413,10.5,10500165763.78146,47.655,-122.3035,60.0,9.95
2026-02-06T21:48:47+00:00,SAT-60906,266.56869294181337,43.48950311066613,516.6186019151223,-4.675327494867757,163749.74548596368,10.5,10500163749.745485,47.655,-122.3035,60.0,9.966666666666667
2026-02-06T21:48:48+00:00,SAT-60906,267.0073375334126,44.046281519907716,511.95580832807326,-4.616232729797,161679.99684257733,10.5,10500161679.996843,47.655,-122.3035,60.0,9.983333333333333
