DopplerPredictor/satellites_20260211_205738/SAT-55439.csv

timestamp,satellite,azimuth_deg,elevation_deg,distance_km,relative_velocity_kms,doppler_shift_hz,tx_freq_ghz,rx_freq_hz,ue_lat,ue_lon,ue_alt_m,time_minutes
2026-02-06T21:42:22+00:00,SAT-55439,321.10507239478784,40.00956874888763,849.5224487533173,-5.1057424983724955,178824.69956235925,10.5,10500178824.699562,47.655,-122.3035,60.0,3.55
2026-02-06T21:42:23+00:00,SAT-55439,320.97120273606026,40.35909499458052,844.4303940459907,-5.076700774756573,177807.53555496054,10.5,10500177807.535555,47.655,-122.3035,60.0,3.566666666666667
2026-02-06T21:42:24+00:00,SAT-55439,320.8342187013244,40.71230601475664,839.3673032054267,-5.0471240996344156,176771.63528297088,10.5,10500176771.635283,47.655,-122.3035,60.0,3.5833333333333335
2026-02-06T21:42:25+00:00,SAT-55439,320.6940144781818,41.06923911085901,834.3337097490001,-5.017002682020812,175716.6558246723,10.5,10500175716.655825,47.655,-122.3035,60.0,3.6
2026-02-06T21:42:26+00:00,SAT-55439,320.5504794862703,41.42993104448603,829.3301569588235,-4.986326624365885,174642.25052600156,10.5,10500174642.250526,47.655,-122.3035,60.0,3.6166666666666667
2026-02-06T21:42:27+00:00,SAT-55439,320.40349811091755,41.79441796136915,824.3571979880245,-4.955085901768653,173548.0682725209,10.5,10500173548.068272,47.655,-122.3035,60.0,3.6333333333333333
2026-02-06T21:42:28+00:00,SAT-55439,320.2529494196777,42.162735308431266,819.4153959877564,-4.923270450105253,172433.75657604155,10.5,10500172433.756577,47.655,-122.3035,60.0,3.65
2026-02-06T21:42:29+00:00,SAT-55439,320.0987068579209,42.53491775167053,814.5053241463169,-4.890870094012174,171298.9590522915,10.5,10500171298.959053,47.655,-122.3035,60.0,3.6666666666666665
2026-02-06T21:42:30+00:00,SAT-55439,319.94063792564634,42.910999082848356,809.6275658000866,-4.85787456424958,170143.31602905298,10.5,10500170143.316029,47.655,-122.3035,60.0,3.683333333333333
2026-02-06T21:42:31+00:00,SAT-55439,319.7786038321797,43.2910121209595,804.782714527157,-4.824273539026825,168966.4659935563,10.5,10500168966.465994,47.655,-122.3035,60.0,3.7
2026-02-06T21:42:32+00:00,SAT-55439,319.6124591261427,43.67498861012486,799.9713741997384,-4.7900566547990655,167768.0459706234,10.5,10500167768.04597,47.655,-122.3035,60.0,3.716666666666667
2026-02-06T21:42:33+00:00,SAT-55439,319.4420512993311,44.06295911130134,795.1941590258032,-4.755213454728703,166547.68971756916,10.5,10500166547.689718,47.655,-122.3035,60.0,3.7333333333333334
2026-02-06T21:42:34+00:00,SAT-55439,319.2672203648752,44.45495288225276,790.4516936421272,-4.7197334841684375,165305.031068422,10.5,10500165305.031069,47.655,-122.3035,60.0,3.75
2026-02-06T21:42:35+00:00,SAT-55439,319.08779840267584,44.85099775713842,785.7446131121065,-4.68360618708824,164039.70030635834,10.5,10500164039.700306,47.655,-122.3035,60.0,3.7666666666666666
2026-02-06T21:42:36+00:00,SAT-55439,318.903609076018,45.25112000896069,781.0735630268681,-4.646821088036326,162751.3305367456,10.5,10500162751.330536,47.655,-122.3035,60.0,3.783333333333333
2026-02-06T21:42:37+00:00,SAT-55439,318.7144671076348,45.655344218189214,776.4391994249075,-4.6093676020409475,161439.55102909874,10.5,10500161439.55103,47.655,-122.3035,60.0,3.8
2026-02-06T21:42:38+00:00,SAT-55439,318.52017772445316,46.06369311561702,771.8421889013149,-4.571235212145538,160103.9934351122,10.5,10500160103.993435,47.655,-122.3035,60.0,3.816666666666667
2026-02-06T21:42:39+00:00,SAT-55439,318.32053605554165,46.4761874300666,767.2832085399427,-4.532413399789586,158744.28935030333,10.5,10500158744.28935,47.655,-122.3035,60.0,3.8333333333333335
2026-02-06T21:42:40+00:00,SAT-55439,318.1153264885641,46.892845719245656,762.7629459150049,-4.492891667031695,157360.07109235815,10.5,10500157360.071093,47.655,-122.3035,60.0,3.85
2026-02-06T21:42:41+00:00,SAT-55439,317.9043219774648,47.31368419079041,758.2820990705137,-4.452659592337239,155950.97365505112,10.5,10500155950.973656,47.655,-122.3035,60.0,3.8666666666666667
2026-02-06T21:42:42+00:00,SAT-55439,317.68728329645256,47.73871651606196,753.8413764440762,-4.411706790956548,154516.63332052118,10.5,10500154516.63332,47.655,-122.3035,60.0,3.8833333333333333
2026-02-06T21:42:43+00:00,SAT-55439,317.46395823885797,48.16795362704465,749.4414968302107,-4.370022973654257,153056.6897162226,10.5,10500153056.689716,47.655,-122.3035,60.0,3.9
2026-02-06T21:42:44+00:00,SAT-55439,317.2340807530405,48.601403504613515,745.0831892850857,-4.327597958695812,151570.78623474255,10.5,10500151570.786234,47.655,-122.3035,60.0,3.9166666666666665
2026-02-06T21:42:45+00:00,SAT-55439,316.9973700107845,49.03907095300479,740.7671930193087,-4.2844216815519225,150058.57037369226,10.5,10500150058.570374,47.655,-122.3035,60.0,3.933333333333333
2026-02-06T21:42:46+00:00,SAT-55439,316.7535294034024,49.480957359180856,736.4942572810348,-4.240484193104918,148519.69367288635,10.5,10500148519.693672,47.655,-122.3035,60.0,3.95
2026-02-06T21:42:47+00:00,SAT-55439,316.5022454593406,49.92706043463545,732.2651412408649,-4.195775751626885,146953.81493580568,10.5,10500146953.814936,47.655,-122.3035,60.0,3.966666666666667
2026-02-06T21:42:48+00:00,SAT-55439,316.2431866718909,50.37737394828536,728.080613785011,-4.150286774996199,145360.59855601867,10.5,10500145360.598557,47.655,-122.3035,60.0,3.9833333333333334
2026-02-06T21:42:49+00:00,SAT-55439,315.97600223603996,50.83188743476294,723.941453356119,-4.1040078902826185,143739.71625386082,10.5,10500143739.716253,47.655,-122.3035,60.0,4.0
2026-02-06T21:42:50+00:00,SAT-55439,315.700320681414,51.2905858866175,719.848447744637,-4.0569299491448305,142090.84761572193,10.5,10500142090.847616,47.655,-122.3035,60.0,4.016666666666667
2026-02-06T21:42:51+00:00,SAT-55439,315.4157483942551,51.75344942535587,715.8023938648296,-4.009044111269074,140413.68301641959,10.5,10500140413.683016,47.655,-122.3035,60.0,4.033333333333333
2026-02-06T21:42:52+00:00,SAT-55439,315.1218680134311,52.22045295747242,711.8040974475749,-3.960341754272706,138707.92046364094,10.5,10500138707.920464,47.655,-122.3035,60.0,4.05
2026-02-06T21:42:53+00:00,SAT-55439,314.81823670126613,52.69156579375403,707.854372823018,-3.910814622024835,136973.2707927588,10.5,10500136973.270792,47.655,-122.3035,60.0,4.066666666666666
2026-02-06T21:42:54+00:00,SAT-55439,314.5043842614799,53.166751257062856,703.9540425553025,-3.8604547854870983,135209.4562953099,10.5,10500135209.456295,47.655,-122.3035,60.0,4.083333333333333
2026-02-06T21:42:55+00:00,SAT-55439,314.1798111037865,53.64596625495669,700.1039371163525,-3.8092546784731516,133416.21197144358,10.5,10500133416.211971,47.655,-122.3035,60.0,4.1
2026-02-06T21:42:56+00:00,SAT-55439,313.8439860354533,54.12916082303588,696.3048945239952,-3.7572071571207974,131593.2876128871,10.5,10500131593.287613,47.655,-122.3035,60.0,4.116666666666666
2026-02-06T21:42:57+00:00,SAT-55439,313.4963438634514,54.616277639477836,692.5577599207679,-3.704305515517711,129740.44835022488,10.5,10500129740.44835,47.655,-122.3035,60.0,4.133333333333334
2026-02-06T21:42:58+00:00,SAT-55439,313.1362827921927,55.10725150238033,688.8633851371432,-3.6505434883922083,127857.47474714053,10.5,10500127857.474747,47.655,-122.3035,60.0,4.15
2026-02-06T21:42:59+00:00,SAT-55439,312.7631616013893,55.6020087644481,685.2226282520685,-3.595915344394067,125944.16606750562,10.5,10500125944.166067,47.655,-122.3035,60.0,4.166666666666667
2026-02-06T21:43:00+00:00,SAT-55439,312.3762965756798,56.10046673330255,681.6363530604764,-3.5404158785412316,124000.34001083153,10.5,10500124000.340012,47.655,-122.3035,60.0,4.183333333333334
2026-02-06T21:43:01+00:00,SAT-55439,311.974958173622,56.60253302004204,678.1054285483281,-3.484040432619884,122025.83342676613,10.5,10500122025.833427,47.655,-122.3035,60.0,4.2
2026-02-06T21:43:02+00:00,SAT-55439,311.5583674115898,57.108104834563186,674.6307283473104,-3.4267850061285676,120020.5062008263,10.5,10500120020.5062,47.655,-122.3035,60.0,4.216666666666667
2026-02-06T21:43:03+00:00,SAT-55439,311.1256919284878,57.617068235660604,671.213130078887,-3.368646188843264,117984.2388925417,10.5,10500117984.238892,47.655,-122.3035,60.0,4.233333333333333
2026-02-06T21:43:04+00:00,SAT-55439,310.6760417242802,58.12929730445272,667.8535147656028,-3.3096212726202823,115916.9366512648,10.5,10500115916.936651,47.655,-122.3035,60.0,4.25
2026-02-06T21:43:05+00:00,SAT-55439,310.2084645267932,58.64465326032735,664.5527661308865,-3.2497082689598225,113818.5298313213,10.5,10500113818.52983,47.655,-122.3035,60.0,4.266666666666667
2026-02-06T21:43:06+00:00,SAT-55439,309.72194076852696,59.16298349881004,661.3117698813362,-3.1889059248024676,111688.97454526994,10.5,10500111688.974545,47.655,-122.3035,60.0,4.283333333333333
2026-02-06T21:43:07+00:00,SAT-55439,309.21537814581416,59.684120542502214,658.1314129732491,-3.1272137664477504,109528.25420211664,10.5,10500109528.254202,47.655,-122.3035,60.0,4.3
2026-02-06T21:43:08+00:00,SAT-55439,308.68760572937634,60.20788090022784,655.0125828353538,-3.0646321933021583,107336.38279076607,10.5,10500107336.382792,47.655,-122.3035,60.0,4.316666666666666
2026-02-06T21:43:09+00:00,SAT-55439,308.13736758953024,60.73406383318195,651.9561664980425,-3.0011623827480087,105113.40154812732,10.5,10500105113.401548,47.655,-122.3035,60.0,4.333333333333333
2026-02-06T21:43:10+00:00,SAT-55439,307.56331594128676,61.2624499849709,648.9630498174822,-2.9368064690871276,102859.38522647838,10.5,10500102859.385227,47.655,-122.3035,60.0,4.35
2026-02-06T21:43:11+00:00,SAT-55439,306.96400374420284,61.7927999092711,646.0341165212593,-2.8715674976303025,100574.44048548471,10.5,10500100574.440485,47.655,-122.3035,60.0,4.366666666666666
2026-02-06T21:43:12+00:00,SAT-55439,306.3378767773519,62.32485244376024,643.170247299814,-2.805449454146972,98258.70692365184,10.5,10500098258.706924,47.655,-122.3035,60.0,4.383333333333334
2026-02-06T21:43:13+00:00,SAT-55439,305.68326517190565,62.858322927290914,640.3723188685013,-2.7384573427885246,95912.35980752895,10.5,10500095912.359808,47.655,-122.3035,60.0,4.4
2026-02-06T21:43:14+00:00,SAT-55439,304.9983743978327,63.392901253359135,637.6412029519419,-2.6705971784751728,93535.60980506492,10.5,10500093535.609804,47.655,-122.3035,60.0,4.416666666666667
2026-02-06T21:43:15+00:00,SAT-55439,304.281275744824,63.92824972640681,634.9777652759598,-2.601876034140438,91128.70464031018,10.5,10500091128.70464,47.655,-122.3035,60.0,4.433333333333334
2026-02-06T21:43:16+00:00,SAT-55439,303.52989633600276,64.46400071212582,632.382864512408,-2.5323020540230057,88691.92955895362,10.5,10500088691.92956,47.655,-122.3035,60.0,4.45
2026-02-06T21:43:17+00:00,SAT-55439,302.7420087630467,64.99975405518717,629.8573512107341,-2.461884501795266,86225.60901398759,10.5,10500086225.609015,47.655,-122.3035,60.0,4.466666666666667
2026-02-06T21:43:18+00:00,SAT-55439,301.91522045888587,65.53507425090281,627.402066681548,-2.390633759323128,83730.10662227149,10.5,10500083730.106623,47.655,-122.3035,60.0,4.483333333333333
2026-02-06T21:43:19+00:00,SAT-55439,301.046963003669,66.0694873398787,625.0178418814262,-2.318561372766256,81205.82677915695,10.5,10500081205.826778,47.655,-122.3035,60.0,4.5
2026-02-06T21:43:20+00:00,SAT-55439,300.13448160650046,66.60247751567879,622.705496251739,-2.245680027839071,78653.21379202357,10.5,10500078653.213793,47.655,-122.3035,60.0,4.516666666666667
2026-02-06T21:43:21+00:00,SAT-55439,299.17482513926666,67.13348341173143,620.4658365821506,-2.172003625871434,76072.7545442456,10.5,10500076072.754543,47.655,-122.3035,60.0,4.533333333333333
2026-02-06T21:43:22+00:00,SAT-55439,298.16483716060856,67.6618940761147,618.2996557982635,-2.0975472456015707,73464.9771570187,10.5,10500073464.977158,47.655,-122.3035,60.0,4.55
2026-02-06T21:43:23+00:00,SAT-55439,297.1011485979532,68.18704460009818,616.2077317873659,-2.022327174827871,70830.45209793987,10.5,10500070830.452099,47.655,-122.3035,60.0,4.566666666666666
2026-02-06T21:43:24+00:00,SAT-55439,295.9801728784892,68.70821141763703,614.1908261926126,-1.9463609056445854,68169.79201414116,10.5,10500068169.792015,47.655,-122.3035,60.0,4.583333333333333
2026-02-06T21:43:25+00:00,SAT-55439,294.7981045752266,69.22460728236454,612.2496832119582,-1.869667144323394,65483.65207838429,10.5,10500065483.652079,47.655,-122.3035,60.0,4.6
2026-02-06T21:43:26+00:00,SAT-55439,293.55092289014266,69.73537596028277,610.3850283872348,-1.7922658117917678,62772.73000581477,10.5,10500062772.730005,47.655,-122.3035,60.0,4.616666666666666
2026-02-06T21:43:27+00:00,SAT-55439,292.23440163889165,70.23958669740182,608.5975673927518,-1.7141780142192429,60037.76502376871,10.5,10500060037.765024,47.655,-122.3035,60.0,4.633333333333334
2026-02-06T21:43:28+00:00,SAT-55439,290.84412779571244,70.73622855117246,606.887984853232,-1.6354260654280073,57279.53865668654,10.5,10500057279.538656,47.655,-122.3035,60.0,4.65
2026-02-06T21:43:29+00:00,SAT-55439,289.37553102209665,71.22420474462852,605.2569431393966,-1.5560334441730868,54498.87322988429,10.5,10500054498.87323,47.655,-122.3035,60.0,4.666666666666667
2026-02-06T21:43:30+00:00,SAT-55439,287.8239271124144,71.70232723002681,603.7050812061547,-1.4760248000664136,51696.63207703958,10.5,10500051696.632076,47.655,-122.3035,60.0,4.683333333333334
2026-02-06T21:43:31+00:00,SAT-55439,286.1845786277252,72.16931175649913,602.2330134248857,-1.395425894034811,48873.71745477838,10.5,10500048873.717455,47.655,-122.3035,60.0,4.7
2026-02-06T21:43:32+00:00,SAT-55439,284.4527764138975,72.62377379387331,600.841328475104,-1.3142636106369554,46031.07097406711,10.5,10500046031.070974,47.655,-122.3035,60.0,4.716666666666667
2026-02-06T21:43:33+00:00,SAT-55439,282.6239457298897,73.06422581409231,599.5305882238388,-1.2325658997635804,43169.671558307164,10.5,10500043169.671558,47.655,-122.3035,60.0,4.733333333333333
2026-02-06T21:43:34+00:00,SAT-55439,280.69378069427177,73.48907650688483,598.3013266631585,-1.1503617437292308,40290.534290748976,10.5,10500040290.53429,47.655,-122.3035,60.0,4.75
2026-02-06T21:43:35+00:00,SAT-55439,278.6584100321945,73.89663266023311,597.1540488805141,-1.0676811198493712,37394.70910378405,10.5,10500037394.709105,47.655,-122.3035,60.0,4.766666666666667
2026-02-06T21:43:36+00:00,SAT-55439,276.5145958058018,74.2851045437923,596.0892300664071,-0.9845549579119233,34483.27928941826,10.5,10500034483.27929,47.655,-122.3035,60.0,4.783333333333333
2026-02-06T21:43:37+00:00,SAT-55439,274.2599645704454,74.65261572145711,595.1073145644689,-0.9010150767842158,31557.359278979144,10.5,10500031557.35928,47.655,-122.3035,60.0,4.8
2026-02-06T21:43:38+00:00,SAT-55439,271.8932671039406,74.99721824444288,594.2087149847653,-0.8170941402348404,28618.09309581038,10.5,10500028618.093096,47.655,-122.3035,60.0,4.816666666666666
2026-02-06T21:43:39+00:00,SAT-55439,269.41465825984784,75.316914129538,593.3938113611616,-0.7328255976670939,25666.652279506266,10.5,10500025666.652279,47.655,-122.3035,60.0,4.833333333333333
2026-02-06T21:43:40+00:00,SAT-55439,266.8259829757143,75.60968381984425,592.6629503677917,-0.6482436225801711,22704.233730562348,10.5,10500022704.23373,47.655,-122.3035,60.0,4.85
2026-02-06T21:43:41+00:00,SAT-55439,264.1310482558623,75.87352196329572,592.016444596906,-0.5633830413148474,19732.05721474787,10.5,10500019732.057215,47.655,-122.3035,60.0,4.866666666666666
2026-02-06T21:43:42+00:00,SAT-55439,261.3358550589525,76.10648027999677,591.4545719077781,-0.4782792736727007,16751.363283339695,10.5,10500016751.363283,47.655,-122.3035,60.0,4.883333333333334
2026-02-06T21:43:43+00:00,SAT-55439,258.4487595872771,76.30671654882026,590.9775748348355,-0.3929682527392327,13763.410464988894,10.5,10500013763.410465,47.655,-122.3035,60.0,4.9
2026-02-06T21:43:44+00:00,SAT-55439,255.48053242999333,76.4725478454963,590.5856600757523,-0.30748635866931345,10769.47294660692,10.5,10500010769.472946,47.655,-122.3035,60.0,4.916666666666667
2026-02-06T21:43:45+00:00,SAT-55439,252.44428743720923,76.60250526553445,590.2789980455773,-0.22187033629497363,7770.8376876419725,10.5,10500007770.837688,47.655,-122.3035,60.0,4.933333333333334
2026-02-06T21:43:46+00:00,SAT-55439,249.3552616428591,76.69538657090537,590.0577225130359,-0.13615722074629774,4768.801815008056,10.5,10500004768.801815,47.655,-122.3035,60.0,4.95
2026-02-06T21:43:47+00:00,SAT-55439,246.2304422776934,76.75030274397122,589.9219303110089,-0.050384258532390536,1764.669859006595,10.5,10500001764.669859,47.655,-122.3035,60.0,4.966666666666667
2026-02-06T21:43:48+00:00,SAT-55439,243.08805560251304,76.76671444467009,589.8716811257204,0.03541117585621658,-1240.2491676100608,10.5,10499998759.750832,47.655,-122.3035,60.0,4.983333333333333
2026-02-06T21:43:49+00:00,SAT-55439,239.94695161378255,76.74445496164476,589.906997369101,0.12119165925081336,-4244.6445471738325,10.5,10499995755.355453,47.655,-122.3035,60.0,5.0
2026-02-06T21:43:50+00:00,SAT-55439,236.82593433447082,76.683737396934,590.0278641302376,0.2069198003532783,-7247.206678259471,10.5,10499992752.793322,47.655,-122.3035,60.0,5.016666666666667
2026-02-06T21:43:51+00:00,SAT-55439,233.7430962118135,76.58514535918805,590.2342292071612,0.2925583226404448,-10246.629979346144,10.5,10499989753.37002,47.655,-122.3035,60.0,5.033333333333333
2026-02-06T21:43:52+00:00,SAT-55439,230.71521425170442,76.4496081058838,590.5260032213115,0.378070144361323,-13241.61569065854,10.5,10499986758.38431,47.655,-122.3035,60.0,5.05
2026-02-06T21:43:53+00:00,SAT-55439,227.75725605519762,76.27836257673316,590.9030598117895,0.4634184585824761,-16230.874677694525,10.5,10499983769.125322,47.655,-122.3035,60.0,5.066666666666666
2026-02-06T21:43:54+00:00,SAT-55439,224.88202713402495,76.07290583688793,591.3652359094361,0.548566808435674,-19213.130066716276,10.5,10499980786.869934,47.655,-122.3035,60.0,5.083333333333333
2026-02-06T21:43:55+00:00,SAT-55439,222.09997164924232,75.83494196748073,591.912332085961,0.6334791696136509,-22187.12013410069,10.5,10499977812.879866,47.655,-122.3035,60.0,5.1
2026-02-06T21:43:56+00:00,SAT-55439,219.41912031012234,75.56632738178844,592.5441129853407,0.7181200181019518,-25151.600678595103,10.5,10499974848.39932,47.655,-122.3035,60.0,5.116666666666666
2026-02-06T21:43:57+00:00,SAT-55439,216.84516515714012,75.26901803715081,593.2603078227746,0.8024544054935441,-28105.34765915363,10.5,10499971894.65234,47.655,-122.3035,60.0,5.133333333333334
2026-02-06T21:43:58+00:00,SAT-55439,214.3816323048895,74.94502119335849,594.0606109587459,0.8864480323522475,-31047.15976443476,10.5,10499968952.840235,47.655,-122.3035,60.0,5.15
2026-02-06T21:43:59+00:00,SAT-55439,212.03012095426953,74.59635345577784,594.9446825462529,0.9700673013303388,-33975.86027320459,10.5,10499966024.139727,47.655,-122.3035,60.0,5.166666666666667
2026-02-06T21:44:00+00:00,SAT-55439,209.79057871990628,74.22500597696117,595.9121492310177,1.0532793954847108,-36890.29979729999,10.5,10499963109.700203,47.655,-122.3035,60.0,5.183333333333334
2026-02-06T21:44:01+00:00,SAT-55439,207.66158782253686,73.83291694648231,596.9626049297959,1.1360523252339647,-39789.357926264536,10.5,10499960210.642075,47.655,-122.3035,60.0,5.2
2026-02-06T21:44:02+00:00,SAT-55439,205.64064291605874,73.42195098669414,598.0956116555209,1.2183549856468474,-42671.945233832055,10.5,10499957328.054766,47.655,-122.3035,60.0,5.216666666666667
2026-02-06T21:44:03+00:00,SAT-55439,203.72440731139793,72.99388471344973,599.3107003995843,1.3001572162277015,-45537.00537186585,10.5,10499954462.994629,47.655,-122.3035,60.0,5.233333333333333
2026-02-06T21:44:04+00:00,SAT-55439,201.90893987409572,72.55039754977012,600.6073720737371,1.3814298424786775,-48383.516526043204,10.5,10499951616.483475,47.655,-122.3035,60.0,5.25
2026-02-06T21:44:05+00:00,SAT-55439,200.18988925538844,72.0930668406867,601.9850984934454,1.4621446986899593,-51210.49221406555,10.5,10499948789.507786,47.655,-122.3035,60.0,5.266666666666667
2026-02-06T21:44:06+00:00,SAT-55439,198.5626552774894,71.62336635743256,603.443323383974,1.5422747086506552,-54016.98411249518,10.5,10499945983.015888,47.655,-122.3035,60.0,5.283333333333333
2026-02-06T21:44:07+00:00,SAT-55439,197.02251930576446,71.14266734766679,604.9814634669646,1.6217938819739859,-56802.081928047875,10.5,10499943197.918072,47.655,-122.3035,60.0,5.3
2026-02-06T21:44:08+00:00,SAT-55439,195.56474684978144,70.65224145392085,606.5989095433486,1.7006773569446603,-59564.91489828918,10.5,10499940435.085102,47.655,-122.3035,60.0,5.316666666666666
2026-02-06T21:44:09+00:00,SAT-55439,194.1846660091453,70.15326490273539,608.2950276189927,1.7789014209475298,-62304.65250713233,10.5,10499937695.347492,47.655,-122.3035,60.0,5.333333333333333
2026-02-06T21:44:10+00:00,SAT-55439,192.87772558024503,69.64682350795222,610.069160050719,1.8564435471649938,-65020.505770136595,10.5,10499934979.49423,47.655,-122.3035,60.0,5.35
2026-02-06T21:44:11+00:00,SAT-55439,191.63953641338836,69.1339181248462,611.9206267289233,1.9332823844827403,-67711.72688096367,10.5,10499932288.273119,47.655,-122.3035,60.0,5.366666666666666
2026-02-06T21:44:12+00:00,SAT-55439,190.46589931004613,68.61547029908306,613.8487262501262,2.009397782463411,-70377.61008606097,10.5,10499929622.389914,47.655,-122.3035,60.0,5.383333333333334
2026-02-06T21:44:13+00:00,SAT-55439,189.35282226209608,68.09232790411082,615.8527371144316,2.0847708075964166,-73017.49225379905,10.5,10499926982.507746,47.655,-122.3035,60.0,5.4
2026-02-06T21:44:14+00:00,SAT-55439,188.29652944168288,67.56527063248951,617.9319189391912,2.159383721763402,-75630.75212024085,10.5,10499924369.247879,47.655,-122.3035,60.0,5.416666666666667
2026-02-06T21:44:15+00:00,SAT-55439,187.29346394897198,67.03501525890735,620.0855136511913,2.233220017293332,-78216.81151691944,10.5,10499921783.188482,47.655,-122.3035,60.0,5.433333333333334
2026-02-06T21:44:16+00:00,SAT-55439,186.34028589644095,66.50222060299426,622.312746713803,2.306264368632957,-80775.13367813292,10.5,10499919224.866322,47.655,-122.3035,60.0,5.45
2026-02-06T21:44:17+00:00,SAT-55439,185.43386716513513,65.96749218116355,624.612828305928,2.37850265940316,-83305.22418857242,10.5,10499916694.775812,47.655,-122.3035,60.0,5.466666666666667
2026-02-06T21:44:18+00:00,SAT-55439,184.57128380774367,65.43138651565387,626.9849545279345,2.449921961257144,-85806.63024284622,10.5,10499914193.369757,47.655,-122.3035,60.0,5.483333333333333
2026-02-06T21:44:19+00:00,SAT-55439,183.74980691328176,64.8944151130009,629.428308586503,2.520510515354799,-88278.93999663391,10.5,10499911721.060003,47.655,-122.3035,60.0,5.5
2026-02-06T21:44:20+00:00,SAT-55439,182.96689253422733,64.35704811996764,631.9420619609965,2.590257699131237,-90721.78140277961,10.5,10499909278.218597,47.655,-122.3035,60.0,5.516666666666667
2026-02-06T21:44:21+00:00,SAT-55439,182.22017113542503,63.819717674666876,634.525375536692,2.6591540593862106,-93134.82337022372,10.5,10499906865.17663,47.655,-122.3035,60.0,5.533333333333333
2026-02-06T21:44:22+00:00,SAT-55439,181.50743688176192,63.282820957405285,637.1774007710079,2.7271912124889406,-95517.77226875359,10.5,10499904482.227732,47.655,-122.3035,60.0,5.55
2026-02-06T21:44:23+00:00,SAT-55439,180.82663705294092,62.746722989173335,639.8972807602088,2.794361902450225,-97870.3739629346,10.5,10499902129.626038,47.655,-122.3035,60.0,5.566666666666666
2026-02-06T21:44:24+00:00,SAT-55439,180.17586170951014,62.21175916586638,642.6841513640205,2.8606598812384676,-100192.40962027106,10.5,10499899807.59038,47.655,-122.3035,60.0,5.583333333333333
2026-02-06T21:44:25+00:00,SAT-55439,179.5533337800777,61.67823758448582,645.5371422108883,2.926079973764211,-102483.6979872396,10.5,10499897516.302013,47.655,-122.3035,60.0,5.6
2026-02-06T21:44:26+00:00,SAT-55439,178.95739959554484,61.14644114483085,648.4553777680418,2.99061799047739,-104744.09232807517,10.5,10499895255.907671,47.655,-122.3035,60.0,5.616666666666666
2026-02-06T21:44:27+00:00,SAT-55439,178.38651995642277,60.61662947524911,651.4379783243921,3.0542707012409016,-106973.4795097129,10.5,10499893026.52049,47.655,-122.3035,60.0,5.633333333333334
2026-02-06T21:44:28+00:00,SAT-55439,177.83926173680416,60.08904068762428,654.4840609473722,3.117035803797848,-109171.77889737772,10.5,10499890828.221102,47.655,-122.3035,60.0,5.65
2026-02-06T21:44:29+00:00,SAT-55439,177.3142900311347,59.56389297886173,657.592740408331,3.1789119320506973,-111338.94264455553,10.5,10499888661.057356,47.655,-122.3035,60.0,5.666666666666667
2026-02-06T21:44:30+00:00,SAT-55439,176.81036082950178,59.04138608730588,660.7631301161817,3.2398985352447363,-113474.9514614865,10.5,10499886525.048538,47.655,-122.3035,60.0,5.683333333333334
2026-02-06T21:44:31+00:00,SAT-55439,176.32631422851668,58.521702639162626,663.9943429305595,3.299995920181566,-115579.81609366051,10.5,10499884420.183907,47.655,-122.3035,60.0,5.7
2026-02-06T21:44:32+00:00,SAT-55439,175.8610681251954,58.005009369554976,667.2854920170785,3.3592051875091817,-117653.57509042608,10.5,10499882346.42491,47.655,-122.3035,60.0,5.716666666666667
2026-02-06T21:44:33+00:00,SAT-55439,175.41361238869416,57.49145824732314,670.6356916390503,3.4175281868852987,-119696.29323462045,10.5,10499880303.706766,47.655,-122.3035,60.0,5.733333333333333
2026-02-06T21:44:34+00:00,SAT-55439,174.98300347763976,56.98118750992747,674.0440579044853,3.4749674944361533,-121708.06075308142,10.5,10499878291.939247,47.655,-122.3035,60.0,5.75
2026-02-06T21:44:35+00:00,SAT-55439,174.56835947180102,56.47432261393011,677.5097094906143,3.5315263623193798,-123688.99155012594,10.5,10499876311.00845,47.655,-122.3035,60.0,5.766666666666667
2026-02-06T21:44:36+00:00,SAT-55439,174.1688554933966,55.970977113282174,681.031768318107,3.5872086937663474,-125639.22233342724,10.5,10499874360.777666,47.655,-122.3035,60.0,5.783333333333333
2026-02-06T21:44:37+00:00,SAT-55439,173.78371948715926,55.47125346871667,684.6093602004001,3.642019023279002,-127558.91192042438,10.5,10499872441.08808,47.655,-122.3035,60.0,5.8
2026-02-06T21:44:38+00:00,SAT-55439,173.4122283318136,54.97524379421055,688.2416154732764,3.695962442083296,-129448.23862738605,10.5,10499870551.761374,47.655,-122.3035,60.0,5.816666666666666
2026-02-06T21:44:39+00:00,SAT-55439,173.05370426449926,54.483030553752364,691.9276695500953,3.749044574311981,-131307.39943523132,10.5,10499868692.600565,47.655,-122.3035,60.0,5.833333333333333
2026-02-06T21:44:40+00:00,SAT-55439,172.7075115868813,53.99468720619067,695.6666634532717,3.8012715900675076,-133136.61044704742,10.5,10499866863.389553,47.655,-122.3035,60.0,5.85
2026-02-06T21:44:41+00:00,SAT-55439,172.37305362776837,53.51027879833905,699.4577443587817,3.8526501036012055,-134936.1033218943,10.5,10499865063.896679,47.655,-122.3035,60.0,5.866666666666666
2026-02-06T21:44:42+00:00,SAT-55439,172.04976995305174,53.029862525540565,703.3000660391207,3.903187167508024,-136706.12507147944,10.5,10499863293.87493,47.655,-122.3035,60.0,5.883333333333334
2026-02-06T21:44:43+00:00,SAT-55439,171.73713379311798,52.55348825046064,707.1927893004724,3.9528902841942513,-138446.93846180628,10.5,10499861553.061539,47.655,-122.3035,60.0,5.9
2026-02-06T21:44:44+00:00,SAT-55439,171.43464966867518,52.08119898191615,711.1350824313137,4.001767296602772,-140158.81818591015,10.5,10499859841.181814,47.655,-122.3035,60.0,5.916666666666667
2026-02-06T21:44:45+00:00,SAT-55439,171.14185120977413,51.61303133144302,715.1261215420382,4.049826413368163,-141842.0517448965,10.5,10499858157.948256,47.655,-122.3035,60.0,5.933333333333334
2026-02-06T21:44:46+00:00,SAT-55439,170.85829913983824,51.14901593368279,719.1650909296684,4.097076139357666,-143496.93701519165,10.5,10499856503.062984,47.655,-122.3035,60.0,5.95
2026-02-06T21:44:47+00:00,SAT-55439,170.5835794193744,50.689177844472724,723.2511833732926,4.1435253194750254,-145123.7837827387,10.5,10499854876.216217,47.655,-122.3035,60.0,5.966666666666667
2026-02-06T21:44:48+00:00,SAT-55439,170.31730152715292,50.233536905843955,727.3836004731927,4.189183033539305,-146722.91006120876,10.5,10499853277.08994,47.655,-122.3035,60.0,5.983333333333333
2026-02-06T21:44:49+00:00,SAT-55439,170.05909687909823,49.78210809692871,731.5615528851259,4.234058589277796,-148294.64184658328,10.5,10499851705.358154,47.655,-122.3035,60.0,6.0
2026-02-06T21:44:50+00:00,SAT-55439,169.8086173659539,49.33490186109808,735.7842605476262,4.27816152599029,-149839.31324549214,10.5,10499850160.686754,47.655,-122.3035,60.0,6.016666666666667
2026-02-06T21:44:51+00:00,SAT-55439,169.5655339992745,48.89192441019822,740.0509529129515,4.321501576775386,-151357.26515221922,10.5,10499848642.734848,47.655,-122.3035,60.0,6.033333333333333
2026-02-06T21:44:52+00:00,SAT-55439,169.32953566022178,48.453178011946505,744.360869140367,4.3640886277198065,-152848.84381933976,10.5,10499847151.156181,47.655,-122.3035,60.0,6.05
2026-02-06T21:44:53+00:00,SAT-55439,169.10032794242431,48.018661261953525,748.71325824872,4.4059327321359305,-154314.4013563786,10.5,10499845685.598644,47.655,-122.3035,60.0,6.066666666666666
2026-02-06T21:44:54+00:00,SAT-55439,168.87763207826347,47.58836933605286,753.1073792832198,4.447044031143165,-155754.29294823436,10.5,10499844245.707052,47.655,-122.3035,60.0,6.083333333333333
2026-02-06T21:44:55+00:00,SAT-55439,168.66118394713908,47.16229423345468,757.5425014030077,4.487432811298809,-157168.87887365563,10.5,10499842831.121126,47.655,-122.3035,60.0,6.1
2026-02-06T21:44:56+00:00,SAT-55439,168.45073315151953,46.740424998261375,762.0179040262049,4.527109419357136,-158558.52151974392,10.5,10499841441.47848,47.655,-122.3035,60.0,6.116666666666666
2026-02-06T21:44:57+00:00,SAT-55439,168.2460421632264,46.32274793435431,766.5328768899501,4.566084266147247,-159923.58551777207,10.5,10499840076.414482,47.655,-122.3035,60.0,6.133333333333334
2026-02-06T21:44:58+00:00,SAT-55439,168.0468855296015,45.90924680573415,771.0867201142994,4.604367840847307,-161264.4382431286,10.5,10499838735.561756,47.655,-122.3035,60.0,6.15
2026-02-06T21:44:59+00:00,SAT-55439,167.85304913432788,45.49990302249456,775.6787442803679,4.6419706611307285,-162581.4480692261,10.5,10499837418.551931,47.655,-122.3035,60.0,6.166666666666667
2026-02-06T21:45:00+00:00,SAT-55439,167.66432951206343,45.09469581911025,780.3082704587481,4.678903242067695,-163874.98327830114,10.5,10499836125.016722,47.655,-122.3035,60.0,6.183333333333334
2026-02-06T21:45:01+00:00,SAT-55439,167.48053321146165,44.69360242376323,784.9746302069126,4.715176112897684,-165145.41264885882,10.5,10499834854.58735,47.655,-122.3035,60.0,6.2
2026-02-06T21:45:02+00:00,SAT-55439,167.30147620073333,44.296598215219426,789.6771655833459,4.750799828381064,-166393.1058532539,10.5,10499833606.894146,47.655,-122.3035,60.0,6.216666666666667
2026-02-06T21:45:03+00:00,SAT-55439,167.12698331297975,43.90365686865935,794.4152291729972,4.785784885325143,-167618.43053407967,10.5,10499832381.569466,47.655,-122.3035,60.0,6.233333333333333
2026-02-06T21:45:04+00:00,SAT-55439,166.95688773208926,43.51475049891751,799.1881840294832,4.8201417699837865,-168821.75396430338,10.5,10499831178.246037,47.655,-122.3035,60.0,6.25
2026-02-06T21:45:05+00:00,SAT-55439,166.79103051101285,43.129849790602606,803.9954036645612,4.853880924291434,-170003.44186463841,10.5,10499829996.558136,47.655,-122.3035,60.0,6.266666666666667
2026-02-06T21:45:06+00:00,SAT-55439,166.6292601228285,42.74892412250849,808.8362720039302,4.887012739222563,-171163.85817096476,10.5,10499828836.141829,47.655,-122.3035,60.0,6.283333333333333
2026-02-06T21:45:07+00:00,SAT-55439,166.471432041676,42.371941684493656,813.7101833364064,4.919547542162683,-172303.36459200777,10.5,10499827696.635408,47.655,-122.3035,60.0,6.3
2026-02-06T21:45:08+00:00,SAT-55439,166.31740835090122,41.998869587756765,818.6165422505063,4.951495612634699,-173422.32116014184,10.5,10499826577.67884,47.655,-122.3035,60.0,6.316666666666666
2026-02-06T21:45:09+00:00,SAT-55439,166.16705737622988,41.6296739668156,823.55476358671,4.9828671085849185,-174521.08364961483,10.5,10499825478.916351,47.655,-122.3035,60.0,6.333333333333333
2026-02-06T21:45:10+00:00,SAT-55439,166.0202533444624,41.264320080281955,828.5242723162121,5.013672167027608,-175600.00710154587,10.5,10499824399.992899,47.655,-122.3035,60.0,6.35
2026-02-06T21:45:11+00:00,SAT-55439,165.87687606056767,40.90277239779502,833.5245035200467,5.043920776475217,-176659.44135589222,10.5,10499823340.558643,47.655,-122.3035,60.0,6.366666666666666
2026-02-06T21:45:12+00:00,SAT-55439,165.73681060917744,40.54499469041277,838.5549022409813,5.073622858836085,-177699.73391985364,10.5,10499822300.26608,47.655,-122.3035,60.0,6.383333333333334
2026-02-06T21:45:13+00:00,SAT-55439,165.59994707179803,40.190950109301745,843.6149234170928,5.102788239151233,-178721.2289079265,10.5,10499821278.771091,47.655,-122.3035,60.0,6.4
