DopplerPredictor/satellites_20260211_205738/SAT-65207.csv

timestamp,satellite,azimuth_deg,elevation_deg,distance_km,relative_velocity_kms,doppler_shift_hz,tx_freq_ghz,rx_freq_hz,ue_lat,ue_lon,ue_alt_m,time_minutes
2026-02-06T21:38:49+00:00,SAT-65207,104.44608118360391,41.28141548764839,666.8972519096544,3.3611383756235975,-117721.28351557054,10.5,10499882278.716484,47.655,-122.3035,60.0,0.0
2026-02-06T21:38:50+00:00,SAT-65207,103.80949317656487,40.99155144817464,670.2493795371299,3.4195718271054734,-119767.87015972052,10.5,10499880232.12984,47.655,-122.3035,60.0,0.016666666666666666
2026-02-06T21:38:51+00:00,SAT-65207,103.1848799020473,40.700669618936324,673.6597839640676,3.477118302317254,-121783.39114298587,10.5,10499878216.608856,47.655,-122.3035,60.0,0.03333333333333333
2026-02-06T21:38:52+00:00,SAT-65207,102.57205329595739,40.4089486497929,677.1275805920588,3.5337811009075484,-123767.96203301838,10.5,10499876232.037968,47.655,-122.3035,60.0,0.05
2026-02-06T21:38:53+00:00,SAT-65207,101.97082144557646,40.11655981231749,680.6518881134966,3.589564147589033,-125721.72028985749,10.5,10499874278.27971,47.655,-122.3035,60.0,0.06666666666666667
