DopplerPredictor/satellites_20260211_205738/SAT-58744.csv

timestamp,satellite,azimuth_deg,elevation_deg,distance_km,relative_velocity_kms,doppler_shift_hz,tx_freq_ghz,rx_freq_hz,ue_lat,ue_lon,ue_alt_m,time_minutes
2026-02-06T21:48:45+00:00,SAT-58744,191.8208617715293,40.061480794585016,720.4234914627597,-0.7754756663411815,27160.438094084428,10.5,10500027160.438093,47.655,-122.3035,60.0,9.933333333333334
2026-02-06T21:48:46+00:00,SAT-58744,191.0739399363479,40.122395052512196,719.6500947396647,-0.70765737751236,24785.154748221783,10.5,10500024785.154749,47.655,-122.3035,60.0,9.95
2026-02-06T21:48:47+00:00,SAT-58744,190.3241851227801,40.17813754454296,718.9443344939247,-0.6396384188840559,22402.843097148852,10.5,10500022402.843098,47.655,-122.3035,60.0,9.966666666666667
2026-02-06T21:48:48+00:00,SAT-58744,189.57184065677077,40.22865088212661,718.3064108573715,-0.5714374033369763,20014.1550426804,10.5,10500020014.155043,47.655,-122.3035,60.0,9.983333333333333
