DopplerPredictor/satellites_20260211_205738/SAT-52700.csv

timestamp,satellite,azimuth_deg,elevation_deg,distance_km,relative_velocity_kms,doppler_shift_hz,tx_freq_ghz,rx_freq_hz,ue_lat,ue_lon,ue_alt_m,time_minutes
2026-02-06T21:44:29+00:00,SAT-52700,238.98626500914577,40.13850115138805,803.8935194601902,-5.130295786318658,179684.65956653887,10.5,10500179684.659567,47.655,-122.3035,60.0,5.666666666666667
2026-02-06T21:44:30+00:00,SAT-52700,238.97030055196387,40.51015169233129,798.776977288894,-5.101652056011093,178681.4349683089,10.5,10500178681.434969,47.655,-122.3035,60.0,5.683333333333334
2026-02-06T21:44:31+00:00,SAT-52700,238.95387765937443,40.886188345668245,793.689002058017,-5.072448463653646,177658.6016328779,10.5,10500177658.601633,47.655,-122.3035,60.0,5.7
2026-02-06T21:44:32+00:00,SAT-52700,238.93697939873226,41.266670555393475,788.6301521286964,-5.0426738316978135,176615.76807521636,10.5,10500176615.768076,47.655,-122.3035,60.0,5.716666666666667
2026-02-06T21:44:33+00:00,SAT-52700,238.9195879953167,41.65165796925206,783.6009970096527,-5.012316844611397,175552.53797752198,10.5,10500175552.537977,47.655,-122.3035,60.0,5.733333333333333
2026-02-06T21:44:34+00:00,SAT-52700,238.9016847792254,42.041210392235534,778.6021174948016,-4.981366031144548,174468.50956810178,10.5,10500174468.509567,47.655,-122.3035,60.0,5.75
2026-02-06T21:44:35+00:00,SAT-52700,238.88325012847008,42.43538773492659,773.6341058185583,-4.949809788625724,173363.27647231906,10.5,10500173363.276472,47.655,-122.3035,60.0,5.766666666666667
2026-02-06T21:44:36+00:00,SAT-52700,238.86426340743148,42.83424995968634,768.6975657869021,-4.917636413482066,172236.42878154624,10.5,10500172236.428782,47.655,-122.3035,60.0,5.783333333333333
2026-02-06T21:44:37+00:00,SAT-52700,238.84470290038655,43.23785702516946,763.7931128780109,-4.884834024287302,171087.5503579769,10.5,10500171087.550358,47.655,-122.3035,60.0,5.8
2026-02-06T21:44:38+00:00,SAT-52700,238.82454574032414,43.64626882015517,758.9213744196353,-4.851390666653731,169916.22250838668,10.5,10500169916.222507,47.655,-122.3035,60.0,5.816666666666666
2026-02-06T21:44:39+00:00,SAT-52700,238.80376783134292,44.059545101195084,754.0829896618671,-4.817294275735389,168722.02267083575,10.5,10500168722.02267,47.655,-122.3035,60.0,5.833333333333333
2026-02-06T21:44:40+00:00,SAT-52700,238.78234376498827,44.47774542243876,749.2786098872986,-4.782532672670001,167504.52429005073,10.5,10500167504.52429,47.655,-122.3035,60.0,5.85
2026-02-06T21:44:41+00:00,SAT-52700,238.7602467298785,44.90092905992947,744.5088985247344,-4.747093592913637,166263.29780982411,10.5,10500166263.29781,47.655,-122.3035,60.0,5.866666666666666
2026-02-06T21:44:42+00:00,SAT-52700,238.7374484134996,45.32915493288458,739.7745312346444,-4.710964713080041,164997.91161304142,10.5,10500164997.911613,47.655,-122.3035,60.0,5.883333333333334
2026-02-06T21:44:43+00:00,SAT-52700,238.71391889559172,45.76248152177683,735.0761959678472,-4.674133643255212,163707.93175250504,10.5,10500163707.931753,47.655,-122.3035,60.0,5.9
2026-02-06T21:44:44+00:00,SAT-52700,238.68962653242002,46.20096677991214,730.4145930318589,-4.636587948052823,162392.92268838413,10.5,10500162392.922688,47.655,-122.3035,60.0,5.916666666666667
2026-02-06T21:44:45+00:00,SAT-52700,238.66453783090003,46.644668040793256,725.7904351362457,-4.598315117748478,161052.44627721427,10.5,10500161052.446278,47.655,-122.3035,60.0,5.933333333333334
2026-02-06T21:44:46+00:00,SAT-52700,238.6386173119525,47.09364191618648,721.2044474667606,-4.559302679770677,159686.06567678266,10.5,10500159686.065678,47.655,-122.3035,60.0,5.95
2026-02-06T21:44:47+00:00,SAT-52700,238.6118273605649,47.54794419816504,716.6573676482906,-4.519538135275119,158293.34312469178,10.5,10500158293.343124,47.655,-122.3035,60.0,5.966666666666667
2026-02-06T21:44:48+00:00,SAT-52700,238.5841280629151,48.007629748272905,712.1499457710601,-4.4790090016004935,156873.8414253409,10.5,10500156873.841425,47.655,-122.3035,60.0,5.983333333333333
2026-02-06T21:44:49+00:00,SAT-52700,238.55547702809213,48.47275238351918,707.6829443744894,-4.4377028158402405,155427.12407502436,10.5,10500155427.124075,47.655,-122.3035,60.0,6.0
2026-02-06T21:44:50+00:00,SAT-52700,238.52582919323132,48.94336475514571,703.2571384274956,-4.395607213696165,153952.75802371828,10.5,10500153952.758024,47.655,-122.3035,60.0,6.016666666666667
2026-02-06T21:44:51+00:00,SAT-52700,238.49513660912663,49.419518227922765,698.8733152301456,-4.352709854905685,152450.3110632279,10.5,10500152450.311064,47.655,-122.3035,60.0,6.033333333333333
2026-02-06T21:44:52+00:00,SAT-52700,238.4633482062461,49.90126274351481,694.5322743896869,-4.308998546580931,150919.35614704413,10.5,10500150919.356148,47.655,-122.3035,60.0,6.05
2026-02-06T21:44:53+00:00,SAT-52700,238.43040953616403,50.38864668872459,690.2348276735676,-4.264461184058445,149359.46931865002,10.5,10500149359.469318,47.655,-122.3035,60.0,6.066666666666666
2026-02-06T21:44:54+00:00,SAT-52700,238.3962624881463,50.88171674876259,685.981798921448,-4.2190858598090255,147770.23352600407,10.5,10500147770.233526,47.655,-122.3035,60.0,6.083333333333333
2026-02-06T21:44:55+00:00,SAT-52700,238.36084497541935,51.38051776394505,681.7740238485952,-4.172860798053472,146151.23633150724,10.5,10500146151.236332,47.655,-122.3035,60.0,6.1
2026-02-06T21:44:56+00:00,SAT-52700,238.32409059017158,51.885092569830604,677.6123499144866,-4.125774458528999,144502.07354634147,10.5,10500144502.073545,47.655,-122.3035,60.0,6.116666666666666
2026-02-06T21:44:57+00:00,SAT-52700,238.2859282207323,52.3954818400175,673.497636087924,-4.077815540470107,142822.34936989684,10.5,10500142822.34937,47.655,-122.3035,60.0,6.133333333333334
2026-02-06T21:44:58+00:00,SAT-52700,238.24628162786877,52.91172392008173,669.4307526081795,-4.028973021971238,141111.67776841804,10.5,10500141111.677769,47.655,-122.3035,60.0,6.15
2026-02-06T21:44:59+00:00,SAT-52700,238.20506897429146,53.43385465664273,665.4125807068816,-3.9792361554434046,139369.6823158765,10.5,10500139369.682316,47.655,-122.3035,60.0,6.166666666666667
2026-02-06T21:45:00+00:00,SAT-52700,238.16220230214773,53.96190721567169,661.4440123344365,-3.928594562571248,137595.99951976814,10.5,10500137595.99952,47.655,-122.3035,60.0,6.183333333333334
2026-02-06T21:45:01+00:00,SAT-52700,238.11758694976035,54.495911902763986,657.5259497917415,-3.8770382587969063,135790.27967864193,10.5,10500135790.279678,47.655,-122.3035,60.0,6.2
2026-02-06T21:45:02+00:00,SAT-52700,238.0711209006756,55.035895976701376,653.6593053374851,-3.8245576079607604,133952.18529342717,10.5,10500133952.185293,47.655,-122.3035,60.0,6.216666666666667
2026-02-06T21:45:03+00:00,SAT-52700,238.02269405716262,55.58188344588313,649.8450008406824,-3.7711435135219236,132081.39776478364,10.5,10500132081.397764,47.655,-122.3035,60.0,6.233333333333333
2026-02-06T21:45:04+00:00,SAT-52700,237.97218742251601,56.13389488057671,646.0839672425025,-3.716787304610535,130177.6134021711,10.5,10500130177.613401,47.655,-122.3035,60.0,6.25
2026-02-06T21:45:05+00:00,SAT-52700,237.9194721858519,56.69194719839474,642.3771441317389,-3.6614808953882054,128240.54900532606,10.5,10500128240.549006,47.655,-122.3035,60.0,6.266666666666667
2026-02-06T21:45:06+00:00,SAT-52700,237.86440868863698,57.25605346159775,638.7254791613468,-3.6052167705351637,126269.94135596039,10.5,10500126269.941357,47.655,-122.3035,60.0,6.283333333333333
2026-02-06T21:45:07+00:00,SAT-52700,237.8068452596364,57.82622266155061,635.1299274794536,-3.547988023309816,124265.54855076798,10.5,10500124265.548552,47.655,-122.3035,60.0,6.3
2026-02-06T21:45:08+00:00,SAT-52700,237.746616896336,58.402459497416615,631.591451122412,-3.4897884246525375,122227.15242173184,10.5,10500122227.152422,47.655,-122.3035,60.0,6.316666666666666
2026-02-06T21:45:09+00:00,SAT-52700,237.68354376881527,58.98476415414102,628.1110183389352,-3.4306124831913007,120154.56063777514,10.5,10500120154.560638,47.655,-122.3035,60.0,6.333333333333333
2026-02-06T21:45:10+00:00,SAT-52700,237.6174295167493,59.573132078871794,624.6896028543866,-3.3704554682344323,118047.60751006464,10.5,10500118047.60751,47.655,-122.3035,60.0,6.35
2026-02-06T21:45:11+00:00,SAT-52700,237.54805930767876,60.16755374975675,621.3281831121399,-3.3093134311134285,115906.15473952651,10.5,10500115906.15474,47.655,-122.3035,60.0,6.366666666666666
2026-02-06T21:45:12+00:00,SAT-52700,237.47519761582024,60.76801443600251,618.02774149365,-3.2471833149379665,113730.09526093096,10.5,10500113730.09526,47.655,-122.3035,60.0,6.383333333333334
2026-02-06T21:45:13+00:00,SAT-52700,237.3985856708389,61.374493964923374,614.7892634290681,-3.1840629835930203,111519.3542584941,10.5,10500111519.354258,47.655,-122.3035,60.0,6.4
2026-02-06T21:45:14+00:00,SAT-52700,237.31793852078263,61.9869664823966,611.6137364789334,-3.1199512369015983,109273.88969694088,10.5,10500109273.889696,47.655,-122.3035,60.0,6.416666666666667
2026-02-06T21:45:15+00:00,SAT-52700,237.2329416400643,62.60540020311215,608.5021494007447,-3.054847870028137,106993.69440206345,10.5,10500106993.694403,47.655,-122.3035,60.0,6.433333333333334
2026-02-06T21:45:16+00:00,SAT-52700,237.14324699623796,63.22975715808422,605.455491156287,-2.98875377158588,104678.7994968564,10.5,10500104678.799498,47.655,-122.3035,60.0,6.45
2026-02-06T21:45:17+00:00,SAT-52700,237.048468470604,63.859992947552925,602.4747498211149,-2.92167090843933,102329.27386923444,10.5,10500102329.273869,47.655,-122.3035,60.0,6.466666666666667
2026-02-06T21:45:18+00:00,SAT-52700,236.94817651090628,64.49605647583473,599.5609115091903,-2.8536024033432015,99945.22689127694,10.5,10500099945.22689,47.655,-122.3035,60.0,6.483333333333333
2026-02-06T21:45:19+00:00,SAT-52700,236.84189185651792,65.13788968527754,596.7149592200932,-2.7845525708505625,97526.80967688288,10.5,10500097526.809677,47.655,-122.3035,60.0,6.5
2026-02-06T21:45:20+00:00,SAT-52700,236.72907814641806,65.78542727938007,593.937871650417,-2.7145269744879417,95074.21708428497,10.5,10500095074.217085,47.655,-122.3035,60.0,6.516666666666667
2026-02-06T21:45:21+00:00,SAT-52700,236.60913316858714,66.43859643760493,591.2306219481429,-2.6435324413643557,92587.68822771964,10.5,10500092587.688229,47.655,-122.3035,60.0,6.533333333333333
2026-02-06T21:45:22+00:00,SAT-52700,236.4813784546602,67.09731650885134,588.5941764524465,-2.5715771428162615,90067.50930195431,10.5,10500090067.509302,47.655,-122.3035,60.0,6.55
2026-02-06T21:45:23+00:00,SAT-52700,236.34504683787108,67.76149869512795,586.0294933530726,-2.49867057132078,87514.01277369089,10.5,10500087514.012774,47.655,-122.3035,60.0,6.566666666666666
2026-02-06T21:45:24+00:00,SAT-52700,236.19926750344942,68.43104569418449,583.5375213727368,-2.4248236548807234,84927.58138781329,10.5,10500084927.581388,47.655,-122.3035,60.0,6.583333333333333
2026-02-06T21:45:25+00:00,SAT-52700,236.04304790960035,69.10585132824266,581.1191983354493,-2.3500487198664843,82308.64686595312,10.5,10500082308.646866,47.655,-122.3035,60.0,6.6
2026-02-06T21:45:26+00:00,SAT-52700,235.87525180403676,69.78580010977198,578.775449771894,-2.274359543146934,79657.6917323344,10.5,10500079657.691732,47.655,-122.3035,60.0,6.616666666666666
2026-02-06T21:45:27+00:00,SAT-52700,235.69457230822252,70.47076675269737,576.5071874728206,-2.1977713890230257,76975.2506073444,10.5,10500076975.250607,47.655,-122.3035,60.0,6.633333333333334
2026-02-06T21:45:28+00:00,SAT-52700,235.49949873383366,71.16061560722255,574.3153080055993,-2.120301009355989,74261.9102120237,10.5,10500074261.910212,47.655,-122.3035,60.0,6.65
2026-02-06T21:45:29+00:00,SAT-52700,235.28827536855033,71.85519998180729,572.2006912306476,-2.0419666715415277,71518.31034784083,10.5,10500071518.310349,47.655,-122.3035,60.0,6.666666666666667
2026-02-06T21:45:30+00:00,SAT-52700,235.05884987363774,72.5543613254429,570.1641987899611,-1.9627881489362287,68745.14356138473,10.5,10500068745.143562,47.655,-122.3035,60.0,6.683333333333334
2026-02-06T21:45:31+00:00,SAT-52700,234.80880812014564,73.25792820998684,568.2066726051875,-1.8827867703151604,65943.15687657887,10.5,10500065943.156878,47.655,-122.3035,60.0,6.7
2026-02-06T21:45:32+00:00,SAT-52700,234.53529112353962,73.96571506679913,566.3289333263789,-1.8019853587419885,63113.14965365433,10.5,10500063113.149654,47.655,-122.3035,60.0,6.716666666666667
2026-02-06T21:45:33+00:00,SAT-52700,234.2348881108766,74.67752054594553,564.5317788417099,-1.7204082884803846,60255.97558242789,10.5,10500060255.975582,47.655,-122.3035,60.0,6.733333333333333
2026-02-06T21:45:34+00:00,SAT-52700,233.90349733396877,75.39312540922849,562.8159827304345,-1.6380814048467471,57372.53987520541,10.5,10500057372.539875,47.655,-122.3035,60.0,6.75
2026-02-06T21:45:35+00:00,SAT-52700,233.5361427786868,76.11228971685605,561.1822927957788,-1.5550320904814254,54463.80158788039,10.5,10500054463.801588,47.655,-122.3035,60.0,6.766666666666667
2026-02-06T21:45:36+00:00,SAT-52700,233.12672962258694,76.83474909371931,559.6314295317375,-1.4712891577079639,51530.769849899356,10.5,10500051530.76985,47.655,-122.3035,60.0,6.783333333333333
2026-02-06T21:45:37+00:00,SAT-52700,232.66771339368378,77.5602095993577,558.1640846972235,-1.386882877407354,48574.504875560335,10.5,10500048574.504875,47.655,-122.3035,60.0,6.8
2026-02-06T21:45:38+00:00,SAT-52700,232.1496453382125,78.28834065269932,556.7809198614206,-1.3018449117645496,45596.11560851131,10.5,10500045596.115608,47.655,-122.3035,60.0,6.816666666666666
2026-02-06T21:45:39+00:00,SAT-52700,231.56053696123266,79.01876503760585,555.48256501621,-1.2162082796919256,42596.75851073351,10.5,10500042596.75851,47.655,-122.3035,60.0,6.833333333333333
2026-02-06T21:45:40+00:00,SAT-52700,230.88495486351886,79.75104453966074,554.2696172230792,-1.130007323019513,39577.63637838042,10.5,10500039577.63638,47.655,-122.3035,60.0,6.85
2026-02-06T21:45:41+00:00,SAT-52700,230.10270407110295,80.48465885973721,553.1426392937516,-1.0432776157213581,36539.99516250093,10.5,10500036539.995163,47.655,-122.3035,60.0,6.866666666666666
2026-02-06T21:45:42+00:00,SAT-52700,229.186867535204,81.21897386088477,552.1021585613457,-0.9560559378578257,33485.12305638846,10.5,10500033485.123056,47.655,-122.3035,60.0,6.883333333333334
2026-02-06T21:45:43+00:00,SAT-52700,228.10080970626962,81.95319249675825,551.1486656775214,-0.8683801860071345,30414.347358514642,10.5,10500030414.347359,47.655,-122.3035,60.0,6.9
2026-02-06T21:45:44+00:00,SAT-52700,226.79346122819874,82.68627651000965,550.2826134989566,-0.780289309728678,27329.032247205894,10.5,10500027329.032248,47.655,-122.3035,60.0,6.916666666666667
2026-02-06T21:45:45+00:00,SAT-52700,225.19165319863603,83.41681698114367,549.5044160371874,-0.6918232232753382,24230.575688435267,10.5,10500024230.57569,47.655,-122.3035,60.0,6.933333333333334
2026-02-06T21:45:46+00:00,SAT-52700,223.18719886941997,84.14281130227194,548.8144474965021,-0.6030227342518192,21120.406937135496,10.5,10500021120.406937,47.655,-122.3035,60.0,6.95
2026-02-06T21:45:47+00:00,SAT-52700,220.61426613422802,84.86126040284569,548.2130413829838,-0.5139294389650175,17999.9828719263,10.5,10500017999.982872,47.655,-122.3035,60.0,6.966666666666667
2026-02-06T21:45:48+00:00,SAT-52700,217.2081824385246,85.56740138660979,547.7004897179222,-0.4245856417086862,14870.78516812189,10.5,10500014870.785168,47.655,-122.3035,60.0,6.983333333333333
2026-02-06T21:45:49+00:00,SAT-52700,212.52813588187144,86.25315825374827,547.2770423317261,-0.3350342506131948,11734.31664994903,10.5,10500011734.31665,47.655,-122.3035,60.0,7.0
2026-02-06T21:45:50+00:00,SAT-52700,205.81288041521947,86.90383652637028,546.9429062617041,-0.2453186806736402,8592.097894181254,10.5,10500008592.097895,47.655,-122.3035,60.0,7.016666666666667
2026-02-06T21:45:51+00:00,SAT-52700,195.7480814452319,87.4908913935194,546.6982452465593,-0.15548274520293473,5445.663428366883,10.5,10500005445.66343,47.655,-122.3035,60.0,7.033333333333333
2026-02-06T21:45:52+00:00,SAT-52700,180.37581174442684,87.95768507814275,546.5431793291397,-0.06557055449488024,2296.5581815812143,10.5,10500002296.558182,47.655,-122.3035,60.0,7.05
2026-02-06T21:45:53+00:00,SAT-52700,158.59448993431258,88.20693728746478,546.4777845602526,0.024373594018767562,-853.6663627377158,10.5,10499999146.333637,47.655,-122.3035,60.0,7.066666666666666
2026-02-06T21:45:54+00:00,SAT-52700,134.4346495510967,88.14829826946661,546.5020928120293,0.11430532384047082,-4003.4559519337326,10.5,10499995996.544048,47.655,-122.3035,60.0,7.083333333333333
2026-02-06T21:45:55+00:00,SAT-52700,114.89350460645917,87.8064061043894,546.6160916990708,0.2041802892332649,-7151.2574107160535,10.5,10499992848.74259,47.655,-122.3035,60.0,7.1
2026-02-06T21:45:56+00:00,SAT-52700,101.70482405728075,87.28662699292153,546.8197246091255,0.2939542817537227,-10295.522372394333,10.5,10499989704.477627,47.655,-122.3035,60.0,7.116666666666666
2026-02-06T21:45:57+00:00,SAT-52700,93.06231637707904,86.67177159829063,547.1128908400156,0.383583342854524,-13434.711222696944,10.5,10499986565.288776,47.655,-122.3035,60.0,7.133333333333334
2026-02-06T21:45:58+00:00,SAT-52700,87.20851057251565,86.00610186168633,547.4954458488622,0.4730238681794745,-16567.29675262372,10.5,10499983432.703247,47.655,-122.3035,60.0,7.15
2026-02-06T21:45:59+00:00,SAT-52700,83.06142296233415,85.31187183576124,547.9672016053286,0.5622327099590525,-19691.76774477112,10.5,10499980308.232256,47.655,-122.3035,60.0,7.166666666666667
2026-02-06T21:46:00+00:00,SAT-52700,79.99949418410917,84.60079082328306,548.5279270469803,0.6511672812726472,-22806.63262503687,10.5,10499977193.367374,47.655,-122.3035,60.0,7.183333333333334
2026-02-06T21:46:01+00:00,SAT-52700,77.65868001396068,83.8794636777156,549.1773486386329,0.7397856597487702,-25910.423094639984,10.5,10499974089.576906,47.655,-122.3035,60.0,7.2
2026-02-06T21:46:02+00:00,SAT-52700,75.81698238134598,83.1518827826542,549.9151510351184,0.8280466718607997,-29001.69708251432,10.5,10499970998.302917,47.655,-122.3035,60.0,7.216666666666667
2026-02-06T21:46:03+00:00,SAT-52700,74.33317515073215,82.42061829191036,550.7409778281223,0.915909999760303,-32079.042487063438,10.5,10499967920.957514,47.655,-122.3035,60.0,7.233333333333333
2026-02-06T21:46:04+00:00,SAT-52700,73.11385246590451,81.68742044411366,551.6544323995688,1.0033362456275696,-35141.079429988466,10.5,10499964858.92057,47.655,-122.3035,60.0,7.25
2026-02-06T21:46:05+00:00,SAT-52700,72.09507789929717,80.9535421887152,552.6550788391821,1.0902870391659993,-38186.46402119627,10.5,10499961813.535978,47.655,-122.3035,60.0,7.266666666666667
2026-02-06T21:46:06+00:00,SAT-52700,71.23175644684376,80.21992105065564,553.7424429692558,1.1767250939883889,-41213.89033368572,10.5,10499958786.109667,47.655,-122.3035,60.0,7.283333333333333
2026-02-06T21:46:07+00:00,SAT-52700,70.49124208475378,79.48728637959003,554.9160134256551,1.2626142880840634,-44222.09322184705,10.5,10499955777.906778,47.655,-122.3035,60.0,7.3
2026-02-06T21:46:08+00:00,SAT-52700,69.84935701196207,78.75622510501273,556.1752428190737,1.3479197204085798,-47209.850303472565,10.5,10499952790.149696,47.655,-122.3035,60.0,7.316666666666666
2026-02-06T21:46:09+00:00,SAT-52700,69.28783391729664,78.02722345378429,557.5195489527249,1.4326077816339498,-50175.984437728825,10.5,10499949824.015562,47.655,-122.3035,60.0,7.333333333333333
2026-02-06T21:46:10+00:00,SAT-52700,68.7926258680254,77.3006942064809,558.948316110596,1.5166461942479448,-53119.36512960383,10.5,10499946880.63487,47.655,-122.3035,60.0,7.35
2026-02-06T21:46:11+00:00,SAT-52700,68.35276116952716,76.57699498595194,560.4608963856944,1.6000040662736865,-56038.91041139436,10.5,10499943961.089588,47.655,-122.3035,60.0,7.366666666666666
2026-02-06T21:46:12+00:00,SAT-52700,67.95954984849772,75.85644080813609,562.0566110618669,1.682651920087296,-58933.58785202198,10.5,10499941066.412148,47.655,-122.3035,60.0,7.383333333333334
2026-02-06T21:46:13+00:00,SAT-52700,67.60602258615707,75.13931288195269,563.7347520243624,1.7645617462794703,-61802.41644349317,10.5,10499938197.583557,47.655,-122.3035,60.0,7.4
2026-02-06T21:46:14+00:00,SAT-52700,67.28652672149047,74.42586488454874,565.4945832241095,1.845707013408662,-64644.4669424971,10.5,10499935355.533058,47.655,-122.3035,60.0,7.416666666666667
2026-02-06T21:46:15+00:00,SAT-52700,66.99643052791909,73.71632752662461,567.3353421517228,1.9260626676594959,-67458.86185844177,10.5,10499932541.138142,47.655,-122.3035,60.0,7.433333333333334
2026-02-06T21:46:16+00:00,SAT-52700,66.73190348422241,73.01091193091172,569.2562413111668,2.00560521804797,-70244.77843770068,10.5,10499929755.221561,47.655,-122.3035,60.0,7.45
2026-02-06T21:46:17+00:00,SAT-52700,66.48975075949792,72.30981214196017,571.2564697783988,2.084312656184482,-73001.44585337455,10.5,10499926998.554146,47.655,-122.3035,60.0,7.466666666666667
2026-02-06T21:46:18+00:00,SAT-52700,66.26728698654415,71.61320706758956,573.3351946799871,2.162164525751791,-75728.14763870346,10.5,10499924271.852362,47.655,-122.3035,60.0,7.483333333333333
2026-02-06T21:46:19+00:00,SAT-52700,66.06223887482619,70.92126196033773,575.491562741024,2.2391418807479035,-78424.2202245561,10.5,10499921575.779776,47.655,-122.3035,60.0,7.5
2026-02-06T21:46:20+00:00,SAT-52700,65.87266928630488,70.23412959508495,577.7247017913913,2.315227294087501,-81089.05324068815,10.5,10499918910.94676,47.655,-122.3035,60.0,7.516666666666667
2026-02-06T21:46:21+00:00,SAT-52700,65.69691746035295,69.5519512069104,580.0337222806047,2.3904048557953486,-83722.08945246767,10.5,10499916277.910547,47.655,-122.3035,60.0,7.533333333333333
2026-02-06T21:46:22+00:00,SAT-52700,65.53355152731842,68.8748572527577,582.4177187908574,2.464660119476517,-86322.82288603614,10.5,10499913677.177114,47.655,-122.3035,60.0,7.55
2026-02-06T21:46:23+00:00,SAT-52700,65.38133046948322,68.20296805441433,584.8757714966769,2.537980105959311,-88890.7989558989,10.5,10499911109.201044,47.655,-122.3035,60.0,7.566666666666666
2026-02-06T21:46:24+00:00,SAT-52700,65.23917340785395,67.53639433680554,587.4069476282132,2.6103532865730514,-91425.61387924255,10.5,10499908574.38612,47.655,-122.3035,60.0,7.583333333333333
2026-02-06T21:46:25+00:00,SAT-52700,65.10613462466557,66.87523769166673,590.0103029178539,2.6817695379242723,-93926.913092006,10.5,10499906073.086908,47.655,-122.3035,60.0,7.6
2026-02-06T21:46:26+00:00,SAT-52700,64.98138311186536,66.21959099099992,592.684883001731,2.752220082607927,-96394.38917233613,10.5,10499903605.610828,47.655,-122.3035,60.0,7.616666666666666
2026-02-06T21:46:27+00:00,SAT-52700,64.86418571904777,65.56953876519938,595.4297247621039,2.8216975199058947,-98827.78291577933,10.5,10499901172.217085,47.655,-122.3035,60.0,7.633333333333334
2026-02-06T21:46:28+00:00,SAT-52700,64.75389318104712,64.92515753367782,598.243857700353,2.8901957152349524,-101226.87946328189,10.5,10499898773.120537,47.655,-122.3035,60.0,7.65
2026-02-06T21:46:29+00:00,SAT-52700,64.64992847175724,64.28651612929445,601.1263051997227,2.9577098235199277,-103591.50911981662,10.5,10499896408.490881,47.655,-122.3035,60.0,7.666666666666667
2026-02-06T21:46:30+00:00,SAT-52700,64.55177704156115,63.65367598979307,604.0760858113695,3.0242361768449864,-105921.54341945572,10.5,10499894078.456581,47.655,-122.3035,60.0,7.683333333333334
2026-02-06T21:46:31+00:00,SAT-52700,64.4589785958518,63.02669145094573,607.0922144283691,3.089772318454422,-108216.89631622232,10.5,10499891783.103683,47.655,-122.3035,60.0,7.7
2026-02-06T21:46:32+00:00,SAT-52700,64.3711201354393,62.405610012038096,610.1737034936261,3.1543168714813996,-110477.51958641567,10.5,10499889522.480413,47.655,-122.3035,60.0,7.716666666666667
2026-02-06T21:46:33+00:00,SAT-52700,64.28783004184831,61.79047261092687,613.3195640768707,3.2178695863219104,-112703.40448784758,10.5,10499887296.595512,47.655,-122.3035,60.0,7.733333333333333
2026-02-06T21:46:34+00:00,SAT-52700,64.20877302584714,61.18131387322616,616.5288069988978,3.280431196959141,-114894.57672771403,10.5,10499885105.423273,47.655,-122.3035,60.0,7.75
2026-02-06T21:46:35+00:00,SAT-52700,64.13364579921983,60.57816237505351,619.8004438125173,3.342003443034441,-117051.09723561369,10.5,10499882948.902765,47.655,-122.3035,60.0,7.766666666666667
2026-02-06T21:46:36+00:00,SAT-52700,64.0621733493356,59.981040887120884,623.1334878055176,3.4025889901345767,-119173.05937167056,10.5,10499880826.940628,47.655,-122.3035,60.0,7.783333333333333
2026-02-06T21:46:37+00:00,SAT-52700,63.99410572201673,59.38996662071867,626.5269549241267,3.462191388344375,-121260.58747487215,10.5,10499878739.412525,47.655,-122.3035,60.0,7.8
2026-02-06T21:46:38+00:00,SAT-52700,63.92921523370057,58.80495146833842,629.9798646551412,3.5208150221971146,-123313.83511012043,10.5,10499876686.16489,47.655,-122.3035,60.0,7.816666666666666
2026-02-06T21:46:39+00:00,SAT-52700,63.86729404714191,58.22600224074448,633.4912408581363,3.5784650541682392,-125332.98308914265,10.5,10499874667.01691,47.655,-122.3035,60.0,7.833333333333333
2026-02-06T21:46:40+00:00,SAT-52700,63.80815205700201,57.65312090153414,637.0601125413225,3.635147429569764,-127318.23964191429,10.5,10499872681.760359,47.655,-122.3035,60.0,7.85
2026-02-06T21:46:41+00:00,SAT-52700,63.75161503937931,57.086304789479584,640.685514642284,3.6908686957136196,-129269.8340829942,10.5,10499870730.165916,47.655,-122.3035,60.0,7.866666666666666
2026-02-06T21:46:42+00:00,SAT-52700,63.697523029324834,56.52554685797702,644.3664886283643,3.7456361629390424,-131188.02245138516,10.5,10499868811.977549,47.655,-122.3035,60.0,7.883333333333334
2026-02-06T21:46:43+00:00,SAT-52700,63.64572889147179,55.970835877870094,648.1020832576482,3.799457631901221,-133073.07795902865,10.5,10499866926.92204,47.655,-122.3035,60.0,7.9
2026-02-06T21:46:44+00:00,SAT-52700,63.59609706085504,55.422156670985274,651.8913550679633,3.852341553901159,-134925.29660623474,10.5,10499865074.703394,47.655,-122.3035,60.0,7.916666666666667
2026-02-06T21:46:45+00:00,SAT-52700,63.548502427538104,54.87949030817063,655.7333690257817,3.904296813909126,-136744.98958224567,10.5,10499863255.010418,47.655,-122.3035,60.0,7.933333333333334
2026-02-06T21:46:46+00:00,SAT-52700,63.50282934906718,54.34281432814413,659.6271989587256,3.9553328456780843,-138532.48729699492,10.5,10499861467.512703,47.655,-122.3035,60.0,7.95
2026-02-06T21:46:47+00:00,SAT-52700,63.45897077151769,53.81210292891056,663.5719281028803,4.0054594497716645,-140288.13300767718,10.5,10499859711.866993,47.655,-122.3035,60.0,7.966666666666667
2026-02-06T21:46:48+00:00,SAT-52700,63.41682744766363,53.28732717381815,667.5666494686204,4.054686882230725,-142012.28592422634,10.5,10499857987.714075,47.655,-122.3035,60.0,7.983333333333333
2026-02-06T21:46:49+00:00,SAT-52700,63.376307238141074,52.7684551748653,671.6104662948668,4.103025686769861,-143705.31533212733,10.5,10499856294.684668,47.655,-122.3035,60.0,8.0
2026-02-06T21:46:50+00:00,SAT-52700,63.33732448701895,52.25545228774433,675.702492335988,4.150486798620672,-145367.60422944682,10.5,10499854632.395771,47.655,-122.3035,60.0,8.016666666666667
2026-02-06T21:46:51+00:00,SAT-52700,63.29979946140326,51.74828128316048,679.8418522522687,4.197081401468289,-146999.54431614495,10.5,10499853000.455685,47.655,-122.3035,60.0,8.033333333333333
2026-02-06T21:46:52+00:00,SAT-52700,63.263657848597546,51.24690252644152,684.027681857697,4.242820932631897,-148601.53617551955,10.5,10499851398.463825,47.655,-122.3035,60.0,8.05
2026-02-06T21:46:53+00:00,SAT-52700,63.228830303442095,50.75127414631179,688.2591283729178,4.2877170624229,-150173.98855124117,10.5,10499849826.011448,47.655,-122.3035,60.0,8.066666666666666
2026-02-06T21:46:54+00:00,SAT-52700,63.19525204017622,50.261352196584646,692.535350657601,4.331781643959983,-151717.31658966493,10.5,10499848282.68341,47.655,-122.3035,60.0,8.083333333333334
2026-02-06T21:46:55+00:00,SAT-52700,63.16286246407415,49.7770908143709,696.8555193927596,4.375026731564643,-153231.94248411927,10.5,10499846768.057516,47.655,-122.3035,60.0,8.1
2026-02-06T21:46:56+00:00,SAT-52700,63.131604837895146,49.2984423671824,701.2188172814105,4.417464438584919,-154718.2904952921,10.5,10499845281.709505,47.655,-122.3035,60.0,8.116666666666667
2026-02-06T21:46:57+00:00,SAT-52700,63.101425980148676,48.825357606854354,705.6244391074455,4.4591070772261086,-156176.7918486933,10.5,10499843823.20815,47.655,-122.3035,60.0,8.133333333333333
2026-02-06T21:46:58+00:00,SAT-52700,63.07227599069504,48.357785799394364,710.0715919339544,4.499966998712454,-157607.87913644165,10.5,10499842392.120863,47.655,-122.3035,60.0,8.15
2026-02-06T21:46:59+00:00,SAT-52700,63.0441080017422,47.89567486397308,714.5594951421388,4.540056639006097,-159011.98791853533,10.5,10499840988.012081,47.655,-122.3035,60.0,8.166666666666666
2026-02-06T21:47:00+00:00,SAT-52700,63.016877950993845,47.43897149870494,719.0873805158234,4.579388443061746,-160389.5540699304,10.5,10499839610.44593,47.655,-122.3035,60.0,8.183333333333334
2026-02-06T21:47:01+00:00,SAT-52700,62.99054437502018,46.987621306317386,723.6544922504248,4.61797494810065,-161741.01669714728,10.5,10499838258.983303,47.655,-122.3035,60.0,8.2
2026-02-06T21:47:02+00:00,SAT-52700,62.96506822029208,46.54156890393453,728.2600870449702,4.65582862048907,-163066.8124250652,10.5,10499836933.187574,47.655,-122.3035,60.0,8.216666666666667
2026-02-06T21:47:03+00:00,SAT-52700,62.940412670916196,46.10075804171981,732.9034340314321,4.692961983778663,-164367.37988143772,10.5,10499835632.62012,47.655,-122.3035,60.0,8.233333333333333
2026-02-06T21:47:04+00:00,SAT-52700,62.91654299049137,45.66513170189835,737.5838148317608,4.72938747333289,-165643.1546052948,10.5,10499834356.845394,47.655,-122.3035,60.0,8.25
2026-02-06T21:47:05+00:00,SAT-52700,62.89342637751875,45.23463220494033,742.3005234699332,4.765117530034731,-166894.57232898325,10.5,10499833105.427671,47.655,-122.3035,60.0,8.266666666666667
2026-02-06T21:47:06+00:00,SAT-52700,62.871031832475865,44.80920130035233,747.052866377456,4.800164497455401,-168122.0653765803,10.5,10499831877.934624,47.655,-122.3035,60.0,8.283333333333333
2026-02-06T21:47:07+00:00,SAT-52700,62.84933003587591,44.38878026071389,751.8401622963166,4.834540694919337,-169326.06522293843,10.5,10499830673.934776,47.655,-122.3035,60.0,8.3
2026-02-06T21:47:08+00:00,SAT-52700,62.82829323594115,43.97330996313578,756.6617422547996,4.868258318640451,-170506.9990310588,10.5,10499829493.000969,47.655,-122.3035,60.0,8.316666666666666
2026-02-06T21:47:09+00:00,SAT-52700,62.80789514527652,43.562730973746454,761.5169494447072,4.901329489168898,-171665.29131387762,10.5,10499828334.708687,47.655,-122.3035,60.0,8.333333333333334
2026-02-06T21:47:10+00:00,SAT-52700,62.788110845558194,43.156983622439455,766.405139145899,4.93376624220665,-172801.36361258902,10.5,10499827198.636387,47.655,-122.3035,60.0,8.35
2026-02-06T21:47:11+00:00,SAT-52700,62.768916699574085,42.75600807333412,771.3256786416699,4.965580458909988,-173915.63205554316,10.5,10499826084.367945,47.655,-122.3035,60.0,8.366666666666667
2026-02-06T21:47:12+00:00,SAT-52700,62.75029026997363,42.359744395934854,776.2779470646199,4.996783943581058,-175008.51007933333,10.5,10499824991.489922,47.655,-122.3035,60.0,8.383333333333333
2026-02-06T21:47:13+00:00,SAT-52700,62.73221024407386,41.96813262515341,781.2613353200045,5.027388343854621,-176080.40563339833,10.5,10499823919.594366,47.655,-122.3035,60.0,8.4
2026-02-06T21:47:14+00:00,SAT-52700,62.71465636433434,41.58111282329528,786.2752459294887,5.057405216481768,-177131.7234840463,10.5,10499822868.276516,47.655,-122.3035,60.0,8.416666666666666
2026-02-06T21:47:15+00:00,SAT-52700,62.69760936380742,41.19862513257642,791.3190929405068,5.086845909132736,-178162.86107468963,10.5,10499821837.138926,47.655,-122.3035,60.0,8.433333333333334
2026-02-06T21:47:16+00:00,SAT-52700,62.681050906412615,40.82060983262841,796.392301717742,5.115721680885532,-179174.21274586595,10.5,10499820825.787254,47.655,-122.3035,60.0,8.45
2026-02-06T21:47:17+00:00,SAT-52700,62.664963531356165,40.44700738487479,801.4943088547706,5.144043623606742,-180166.1669816617,10.5,10499819833.83302,47.655,-122.3035,60.0,8.466666666666667
2026-02-06T21:47:18+00:00,SAT-52700,62.649330601542665,40.077758479277705,806.6245620073004,5.171822697490073,-181139.10765442197,10.5,10499818860.892345,47.655,-122.3035,60.0,8.483333333333333
