DopplerPredictor/satellites_20260211_205621/SAT-59006.csv

timestamp,satellite,azimuth_deg,elevation_deg,distance_km,relative_velocity_kms,doppler_shift_hz,tx_freq_ghz,rx_freq_hz,ue_lat,ue_lon,ue_alt_m,time_minutes
2026-02-06T21:43:29+00:00,SAT-59006,312.7836127593089,40.0723533765141,708.8505059476685,-4.953966888978483,173508.87571118976,10.5,10500173508.875711,47.655,-122.3035,60.0,9.9
2026-02-06T21:43:30+00:00,SAT-59006,313.0308603478862,40.469469126576755,703.9098199602718,-4.917614749936093,172235.67003252957,10.5,10500172235.670033,47.655,-122.3035,60.0,9.916666666666666
2026-02-06T21:43:31+00:00,SAT-59006,313.28450564478703,40.87119379036958,699.0053886568494,-4.880486074660418,170935.26677023474,10.5,10500170935.26677,47.655,-122.3035,60.0,9.933333333333334
2026-02-06T21:43:32+00:00,SAT-59006,313.5447943011993,41.27755957226485,694.1379864918482,-4.842564930203926,169607.10788508636,10.5,10500169607.107885,47.655,-122.3035,60.0,9.95
2026-02-06T21:43:33+00:00,SAT-59006,313.8119841394865,41.68859596687885,689.3084038099481,-4.803835225695253,168250.629806705,10.5,10500168250.629807,47.655,-122.3035,60.0,9.966666666666667
2026-02-06T21:43:34+00:00,SAT-59006,314.0863458734466,42.10432948652318,684.5174470035636,-4.764280781409833,166865.26585269617,10.5,10500166865.265852,47.655,-122.3035,60.0,9.983333333333333
