DopplerPredictor/satellites_20260211_205621/SAT-56832.csv

timestamp,satellite,azimuth_deg,elevation_deg,distance_km,relative_velocity_kms,doppler_shift_hz,tx_freq_ghz,rx_freq_hz,ue_lat,ue_lon,ue_alt_m,time_minutes
2026-02-06T21:37:07+00:00,SAT-56832,211.7552634505785,40.014460508894516,831.3509525924893,-2.6375851409025466,92379.38860849109,10.5,10500092379.388609,47.655,-122.3035,60.0,3.533333333333333
2026-02-06T21:37:08+00:00,SAT-56832,211.19858037921676,40.19837569177244,828.7204384533628,-2.587730089590449,90633.25382488346,10.5,10500090633.253824,47.655,-122.3035,60.0,3.55
2026-02-06T21:37:09+00:00,SAT-56832,210.63532070613974,40.38034869109108,826.1396457110358,-2.537403562812082,88870.60597610785,10.5,10500088870.605976,47.655,-122.3035,60.0,3.566666666666667
2026-02-06T21:37:10+00:00,SAT-56832,210.0654790473464,40.56028145707401,823.6090445770141,-2.486608987778965,87091.56509760873,10.5,10500087091.565098,47.655,-122.3035,60.0,3.5833333333333335
2026-02-06T21:37:11+00:00,SAT-56832,209.4890551236201,40.73807461056422,821.1291018447791,-2.4353501158240918,85296.2625769357,10.5,10500085296.262577,47.655,-122.3035,60.0,3.6
2026-02-06T21:37:12+00:00,SAT-56832,208.9060540057835,40.91362753567598,818.7002805665373,-2.383631068864783,83484.84278106898,10.5,10500083484.842781,47.655,-122.3035,60.0,3.6166666666666667
2026-02-06T21:37:13+00:00,SAT-56832,208.31648634995815,41.08683848289604,816.323039683627,-2.3314563129761474,81657.46213085036,10.5,10500081657.462132,47.655,-122.3035,60.0,3.6333333333333333
2026-02-06T21:37:14+00:00,SAT-56832,207.72036863838747,41.25760467756777,813.997833683285,-2.278830654852345,79814.28897704167,10.5,10500079814.288977,47.655,-122.3035,60.0,3.65
2026-02-06T21:37:15+00:00,SAT-56832,207.117723420188,41.42582243540404,811.7251122589398,-2.225759281161859,77955.50497871272,10.5,10500077955.504978,47.655,-122.3035,60.0,3.6666666666666665
2026-02-06T21:37:16+00:00,SAT-56832,206.50857953933436,41.59138728827662,809.5053199312558,-2.1722477312172135,76081.30414601938,10.5,10500076081.304146,47.655,-122.3035,60.0,3.683333333333333
2026-02-06T21:37:17+00:00,SAT-56832,205.89297236544542,41.7541941154171,807.3388956964358,-2.1183019200158784,74191.8936471935,10.5,10500074191.893646,47.655,-122.3035,60.0,3.7
2026-02-06T21:37:18+00:00,SAT-56832,205.2709440128903,41.91413728372123,805.2262726515421,-2.063928123123273,72287.49327908165,10.5,10500072287.493279,47.655,-122.3035,60.0,3.716666666666667
2026-02-06T21:37:19+00:00,SAT-56832,204.64254355702423,42.07111079427437,803.1678776348948,-2.0091329854579816,70368.33577484064,10.5,10500070368.335775,47.655,-122.3035,60.0,3.7333333333333334
2026-02-06T21:37:20+00:00,SAT-56832,204.0078272396378,42.22500843675629,801.1641308577105,-1.9539235394312586,68434.66743925965,10.5,10500068434.667439,47.655,-122.3035,60.0,3.75
2026-02-06T21:37:21+00:00,SAT-56832,203.3668586581788,42.37572395235722,799.2154455176469,-1.8983071790193067,66486.7472406618,10.5,10500066486.74724,47.655,-122.3035,60.0,3.7666666666666666
2026-02-06T21:37:22+00:00,SAT-56832,202.71970895093003,42.5231512016319,797.322227438208,-1.8422916692462794,64524.84714303898,10.5,10500064524.847143,47.655,-122.3035,60.0,3.783333333333333
2026-02-06T21:37:23+00:00,SAT-56832,202.06645696578875,42.66718433973604,795.4848746986908,-1.7858851570309602,62549.252485948404,10.5,10500062549.252485,47.655,-122.3035,60.0,3.8
2026-02-06T21:37:24+00:00,SAT-56832,201.40718940951842,42.807717998905204,793.7037772533135,-1.7290961527401632,60560.26133843472,10.5,10500060560.26134,47.655,-122.3035,60.0,3.816666666666667
2026-02-06T21:37:25+00:00,SAT-56832,200.7420009858635,42.94464747554092,791.9793165687439,-1.671933544864723,58558.18501304523,10.5,10500058558.185013,47.655,-122.3035,60.0,3.8333333333333335
2026-02-06T21:37:26+00:00,SAT-56832,200.0709945088758,43.07786892409884,790.3118652469863,-1.6144065744986031,56543.34717198033,10.5,10500056543.347172,47.655,-122.3035,60.0,3.85
2026-02-06T21:37:27+00:00,SAT-56832,199.39428100482112,43.20727955416208,788.7017866737255,-1.556524855081456,54516.08451856147,10.5,10500054516.084518,47.655,-122.3035,60.0,3.8666666666666667
2026-02-06T21:37:28+00:00,SAT-56832,198.71197978334337,43.33277783376195,787.1494346469802,-1.4982983600899216,52476.74636612832,10.5,10500052476.746367,47.655,-122.3035,60.0,3.8833333333333333
2026-02-06T21:37:29+00:00,SAT-56832,198.024218488029,43.45426369588016,785.6551530180286,-1.4397374062086905,50425.6940486183,10.5,10500050425.694048,47.655,-122.3035,60.0,3.9
2026-02-06T21:37:30+00:00,SAT-56832,197.33113312774964,43.57163874711029,784.2192753491222,-1.3808526700062131,48363.301504620365,10.5,10500048363.301504,47.655,-122.3035,60.0,3.9166666666666665
2026-02-06T21:37:31+00:00,SAT-56832,196.63286807164073,43.68480648053793,782.8421245545666,-1.3216551598293824,46289.954293007984,10.5,10500046289.954292,47.655,-122.3035,60.0,3.933333333333333
2026-02-06T21:37:32+00:00,SAT-56832,195.9295760265813,43.7936724885032,781.5240125698323,-1.262156221851477,44206.049804763636,10.5,10500044206.049805,47.655,-122.3035,60.0,3.95
2026-02-06T21:37:33+00:00,SAT-56832,195.22141797982115,43.89814467725045,780.2652400146341,-1.2023675187167666,42111.99651502257,10.5,10500042111.996515,47.655,-122.3035,60.0,3.966666666666667
2026-02-06T21:37:34+00:00,SAT-56832,194.50856311929704,43.99813348043428,779.0660958773082,-1.1423010428507874,40008.214449254985,10.5,10500040008.214449,47.655,-122.3035,60.0,3.9833333333333334
2026-02-06T21:37:35+00:00,SAT-56832,193.79118871102793,44.09355207348935,777.9268571859157,-1.0819690803622537,37895.13391895824,10.5,10500037895.133919,47.655,-122.3035,60.0,4.0
2026-02-06T21:37:36+00:00,SAT-56832,193.069479960572,44.184316583926105,776.8477887153464,-1.0213842219082898,35773.19590220326,10.5,10500035773.195902,47.655,-122.3035,60.0,4.016666666666667
2026-02-06T21:37:37+00:00,SAT-56832,192.34362983031514,44.27034630052942,775.8291426835857,-0.9605593343477097,33642.85105081246,10.5,10500033642.851051,47.655,-122.3035,60.0,4.033333333333333
2026-02-06T21:37:38+00:00,SAT-56832,191.61383883610537,44.351563877280014,774.8711584762566,-0.8995075664968578,31504.55989195368,10.5,10500031504.559893,47.655,-122.3035,60.0,4.05
2026-02-06T21:37:39+00:00,SAT-56832,190.8803147995832,44.42789553393269,773.9740623654133,-0.8382423191113585,29358.791776773996,10.5,10500029358.791777,47.655,-122.3035,60.0,4.066666666666666
2026-02-06T21:37:40+00:00,SAT-56832,190.14327258143928,44.499271249279,773.138067258282,-0.7767772408170501,27206.02473788392,10.5,10500027206.024738,47.655,-122.3035,60.0,4.083333333333333
2026-02-06T21:37:41+00:00,SAT-56832,189.4029337771279,44.56562494835902,772.3633724500522,-0.715126216577084,25046.745085426333,10.5,10500025046.745085,47.655,-122.3035,60.0,4.1
2026-02-06T21:37:42+00:00,SAT-56832,188.6595263789122,44.6268946820575,771.6501633881744,-0.6533033435108262,22881.446560152206,10.5,10500022881.44656,47.655,-122.3035,60.0,4.116666666666666
2026-02-06T21:37:43+00:00,SAT-56832,187.91328441739162,44.68302279708401,770.9986114607716,-0.5913229281818706,20710.630238435286,10.5,10500020710.630238,47.655,-122.3035,60.0,4.133333333333334
2026-02-06T21:37:44+00:00,SAT-56832,187.1644475614998,44.73395609728659,770.408873787758,-0.5291994558884776,18534.80345669341,10.5,10500018534.803457,47.655,-122.3035,60.0,4.15
2026-02-06T21:37:45+00:00,SAT-56832,186.41326070811937,44.779645993041306,769.8810930425808,-0.46694758983555756,16354.479782387836,10.5,10500016354.479782,47.655,-122.3035,60.0,4.166666666666667
2026-02-06T21:37:46+00:00,SAT-56832,185.65997352770984,44.820048640459746,769.4153972747949,-0.40458214287066363,14170.178024098152,10.5,10500014170.178024,47.655,-122.3035,60.0,4.183333333333334
2026-02-06T21:37:47+00:00,SAT-56832,184.904840000234,44.85512506730455,769.0118997608171,-0.34211806588196914,11982.421825170384,10.5,10500011982.421825,47.655,-122.3035,60.0,4.2
2026-02-06T21:37:48+00:00,SAT-56832,184.1481179222738,44.88484128631888,768.6706988662573,-0.2795704277993122,9791.738963268977,10.5,10500009791.738964,47.655,-122.3035,60.0,4.216666666666667
2026-02-06T21:37:49+00:00,SAT-56832,183.3900683991601,44.90916839461497,768.3918779281944,-0.2169544007230497,7598.660829526345,10.5,10500007598.66083,47.655,-122.3035,60.0,4.233333333333333
2026-02-06T21:37:50+00:00,SAT-56832,182.6309553129285,44.92808265899141,768.1755051522799,-0.15428523795511442,5403.7216590975795,10.5,10500005403.721659,47.655,-122.3035,60.0,4.25
2026-02-06T21:37:51+00:00,SAT-56832,181.87104478558618,44.941565586060136,768.0216335317566,-0.09157825904477512,3207.4580073997017,10.5,10500003207.458008,47.655,-122.3035,60.0,4.266666666666667
2026-02-06T21:37:52+00:00,SAT-56832,181.11060461958328,44.94960397739152,767.9303007813863,-0.02884882836069387,1010.4079996144721,10.5,10500001010.407999,47.655,-122.3035,60.0,4.283333333333333
2026-02-06T21:37:53+00:00,SAT-56832,180.34990374379393,44.9521899687786,767.9015292927533,0.03388766109905016,-1186.8892363530597,10.5,10499998813.110764,47.655,-122.3035,60.0,4.3
2026-02-06T21:37:54+00:00,SAT-56832,179.58921163389957,44.94932105385428,767.9353261057097,0.09661580860254347,-3383.894301726251,10.5,10499996616.105698,47.655,-122.3035,60.0,4.316666666666666
2026-02-06T21:37:55+00:00,SAT-56832,178.82879775035155,44.9410000915017,768.0316829006622,0.1593202232244812,-5580.0681411973765,10.5,10499994419.931858,47.655,-122.3035,60.0,4.333333333333333
2026-02-06T21:37:56+00:00,SAT-56832,178.06893096289096,44.92723529731232,768.1905760083547,0.22198554284075392,-7774.872708198403,10.5,10499992225.127293,47.655,-122.3035,60.0,4.35
2026-02-06T21:37:57+00:00,SAT-56832,177.3098789840225,44.90804021901432,768.4119664385888,0.2845964541007222,-9967.77166441453,10.5,10499990032.228336,47.655,-122.3035,60.0,4.366666666666666
2026-02-06T21:37:58+00:00,SAT-56832,176.55190780344964,44.88343369592965,768.6957999288704,0.34713770767711316,-12158.230913900068,10.5,10499987841.769087,47.655,-122.3035,60.0,4.383333333333334
2026-02-06T21:37:59+00:00,SAT-56832,175.7952811417985,44.85343980310932,769.0420070082582,0.40959414069172584,-14345.719388521513,10.5,10499985654.280611,47.655,-122.3035,60.0,4.4
2026-02-06T21:38:00+00:00,SAT-56832,175.04025990358093,44.818087779866396,769.4505030835827,0.47195069293361347,-16529.709615986874,10.5,10499983470.290384,47.655,-122.3035,60.0,4.416666666666667
2026-02-06T21:38:01+00:00,SAT-56832,174.28710165207463,44.77741194364587,769.9211885418379,0.534192424114542,-18709.678324204844,10.5,10499981290.321676,47.655,-122.3035,60.0,4.433333333333334
2026-02-06T21:38:02+00:00,SAT-56832,173.53606010132052,44.73145158965113,770.4539488697819,0.5963045328424865,-20885.107105816878,10.5,10499979114.892895,47.655,-122.3035,60.0,4.45
2026-02-06T21:38:03+00:00,SAT-56832,172.78738462528878,44.68025087665791,771.0486547924618,0.6582723714823573,-23055.482938682704,10.5,10499976944.517061,47.655,-122.3035,60.0,4.466666666666667
2026-02-06T21:38:04+00:00,SAT-56832,172.04131979202754,44.62385870001499,771.7051624265581,0.7200814650813423,-25220.298848725855,10.5,10499974779.70115,47.655,-122.3035,60.0,4.483333333333333
2026-02-06T21:38:05+00:00,SAT-56832,171.29810491855218,44.56232855219471,772.4233134526028,0.7817175289497541,-27379.054525689295,10.5,10499972620.945475,47.655,-122.3035,60.0,4.5
2026-02-06T21:38:06+00:00,SAT-56832,170.55797365084223,44.49571837178505,773.2029353047344,0.8431664777403746,-29531.25664113249,10.5,10499970468.743359,47.655,-122.3035,60.0,4.516666666666667
2026-02-06T21:38:07+00:00,SAT-56832,169.82115357760634,44.424090382461785,774.0438413695048,0.9044144498400833,-31676.419702729396,10.5,10499968323.580297,47.655,-122.3035,60.0,4.533333333333333
2026-02-06T21:38:08+00:00,SAT-56832,169.08786586361043,44.347510921504615,774.945831209014,0.9654478135313862,-33814.06627007126,10.5,10499966185.93373,47.655,-122.3035,60.0,4.55
2026-02-06T21:38:09+00:00,SAT-56832,168.3583249207385,44.266050260287216,775.9086907901892,1.0262531897630736,-35943.72775219139,10.5,10499964056.272247,47.655,-122.3035,60.0,4.566666666666666
2026-02-06T21:38:10+00:00,SAT-56832,167.63273810242893,44.1797824162715,776.9321927367736,1.0868174506169246,-38064.94435386266,10.5,10499961935.055647,47.655,-122.3035,60.0,4.583333333333333
2026-02-06T21:38:11+00:00,SAT-56832,166.91130544034553,44.08878495946657,778.0160965797862,1.1471277531231228,-40177.26625995638,10.5,10499959822.73374,47.655,-122.3035,60.0,4.6
2026-02-06T21:38:12+00:00,SAT-56832,166.19421939740658,43.99313881133387,779.1601490417067,1.2071715337141826,-42280.25344119537,10.5,10499957719.74656,47.655,-122.3035,60.0,4.616666666666666
2026-02-06T21:38:13+00:00,SAT-56832,165.48166466540198,43.89292804039672,780.3640843151287,1.266936525042322,-44373.47624316946,10.5,10499955626.523756,47.655,-122.3035,60.0,4.633333333333334
2026-02-06T21:38:14+00:00,SAT-56832,164.7738179898141,43.78823965357628,781.6276243581847,1.326410764324558,-46456.515678616095,10.5,10499953543.484322,47.655,-122.3035,60.0,4.65
2026-02-06T21:38:15+00:00,SAT-56832,164.07084802722514,43.67916338491866,782.950479198295,1.3855826156834126,-48528.96420988627,10.5,10499951471.03579,47.655,-122.3035,60.0,4.666666666666667
2026-02-06T21:38:16+00:00,SAT-56832,163.37291522703705,43.56579148142509,784.3323472581963,1.4444407562845838,-50590.425263427176,10.5,10499949409.574736,47.655,-122.3035,60.0,4.683333333333334
2026-02-06T21:38:17+00:00,SAT-56832,162.680171755734,43.448218489863265,785.7729156681459,1.5029742081212631,-52640.514343003466,10.5,10499947359.485657,47.655,-122.3035,60.0,4.7
2026-02-06T21:38:18+00:00,SAT-56832,161.99276143808999,43.32654104162524,787.2718606098255,1.5611723211528024,-54678.85843914201,10.5,10499945321.141562,47.655,-122.3035,60.0,4.716666666666667
2026-02-06T21:38:19+00:00,SAT-56832,161.3108197386503,43.20085764040907,788.8288476434273,1.6190248137708223,-56705.097446426196,10.5,10499943294.902554,47.655,-122.3035,60.0,4.733333333333333
2026-02-06T21:38:20+00:00,SAT-56832,160.63447375499032,43.07126844884119,790.4435320750978,1.6765217374440153,-58718.882925207414,10.5,10499941281.117075,47.655,-122.3035,60.0,4.75
2026-02-06T21:38:21+00:00,SAT-56832,159.96384225539552,42.93787508085403,792.1155592891237,1.7336535101370252,-60719.8792720755,10.5,10499939280.120728,47.655,-122.3035,60.0,4.766666666666667
2026-02-06T21:38:22+00:00,SAT-56832,159.29903572832546,42.80078039494512,793.8445651134441,1.7904109116457554,-62707.763556481565,10.5,10499937292.236443,47.655,-122.3035,60.0,4.783333333333333
2026-02-06T21:38:23+00:00,SAT-56832,158.6401564590752,42.66008829199011,795.6301761805126,1.8467850955988452,-64682.22594108046,10.5,10499935317.77406,47.655,-122.3035,60.0,4.8
2026-02-06T21:38:24+00:00,SAT-56832,157.9872986251005,42.51590351684001,797.4720103001265,1.902767576492863,-66642.96922764835,10.5,10499933357.030773,47.655,-122.3035,60.0,4.816666666666666
2026-02-06T21:38:25+00:00,SAT-56832,157.3405484172788,42.3683314661762,799.3696768193287,1.9583502459999311,-68589.70942824478,10.5,10499931410.290571,47.655,-122.3035,60.0,4.833333333333333
2026-02-06T21:38:26+00:00,SAT-56832,156.6999841744381,42.21747800075758,801.3227769985714,2.01352535507115,-70522.17513839883,10.5,10499929477.824862,47.655,-122.3035,60.0,4.85
2026-02-06T21:38:27+00:00,SAT-56832,156.0656765411785,42.063449265119786,803.3309043700322,2.068285550062763,-72440.10880240027,10.5,10499927559.891197,47.655,-122.3035,60.0,4.866666666666666
2026-02-06T21:38:28+00:00,SAT-56832,155.43768862945126,41.906351510904805,805.3936451319585,2.122623833671084,-74343.26534507543,10.5,10499925656.734655,47.655,-122.3035,60.0,4.883333333333334
2026-02-06T21:38:29+00:00,SAT-56832,154.81607620661902,41.74629092988858,807.5105785040539,2.17653358035417,-76231.41271191949,10.5,10499923768.587288,47.655,-122.3035,60.0,4.9
2026-02-06T21:38:30+00:00,SAT-56832,154.20088789003194,41.5833734927388,809.6812770982408,2.230008550847088,-78104.3323774824,10.5,10499921895.667622,47.655,-122.3035,60.0,4.916666666666667
2026-02-06T21:38:31+00:00,SAT-56832,153.5921653479214,41.4177047938105,811.9053073039041,2.2830428621375605,-79961.81829378904,10.5,10499920038.181705,47.655,-122.3035,60.0,4.933333333333334
2026-02-06T21:38:32+00:00,SAT-56832,152.98994351757892,41.249389905458166,814.1822296431884,2.3356310013575157,-81803.67737688022,10.5,10499918196.322622,47.655,-122.3035,60.0,4.95
2026-02-06T21:38:33+00:00,SAT-56832,152.39425082631405,41.07853323864191,816.5115991401481,2.3877678218961,-83629.72937067367,10.5,10499916370.27063,47.655,-122.3035,60.0,4.966666666666667
2026-02-06T21:38:34+00:00,SAT-56832,151.80510941904728,40.90523841123122,818.8929656860258,2.4394485258733347,-85439.8062331175,10.5,10499914560.193768,47.655,-122.3035,60.0,4.983333333333333
2026-02-06T21:38:35+00:00,SAT-56832,151.22253539432498,40.72960812500128,821.325874387045,2.4906686907863334,-87233.75306945347,10.5,10499912766.246931,47.655,-122.3035,60.0,5.0
2026-02-06T21:38:36+00:00,SAT-56832,150.6465390364025,40.551744048078525,823.8098659387836,2.541424237008902,-89011.42699391546,10.5,10499910988.573006,47.655,-122.3035,60.0,5.016666666666667
2026-02-06T21:38:37+00:00,SAT-56832,150.077125056965,40.371746707088505,826.3444769681298,2.59171140880483,-90772.69646473466,10.5,10499909227.303535,47.655,-122.3035,60.0,5.033333333333333
2026-02-06T21:38:38+00:00,SAT-56832,149.51429284084765,40.18971538785095,828.9292403563038,2.6415268331144333,-92517.44334309288,10.5,10499907482.556658,47.655,-122.3035,60.0,5.05
2026-02-06T21:38:39+00:00,SAT-56832,148.95803667785867,40.00574803904051,831.5636856205092,2.6908674386358014,-94245.56005900558,10.5,10499905754.439941,47.655,-122.3035,60.0,5.066666666666666
