DopplerPredictor/satellites_20260211_205621/SAT-52995.csv

timestamp,satellite,azimuth_deg,elevation_deg,distance_km,relative_velocity_kms,doppler_shift_hz,tx_freq_ghz,rx_freq_hz,ue_lat,ue_lon,ue_alt_m,time_minutes
2026-02-06T21:43:32+00:00,SAT-52995,338.6190679091586,40.21339532559975,804.2145088884245,-3.0372619919030375,106377.76256193174,10.5,10500106377.762562,47.655,-122.3035,60.0,9.95
2026-02-06T21:43:33+00:00,SAT-52995,339.1698152663811,40.43231143264682,801.1853893767795,-2.9879754755126866,104651.54027618402,10.5,10500104651.540276,47.655,-122.3035,60.0,9.966666666666667
2026-02-06T21:43:34+00:00,SAT-52995,339.72827534621854,40.64986379756394,798.2054242511759,-2.938131359754528,102905.78850193272,10.5,10500102905.788502,47.655,-122.3035,60.0,9.983333333333333
