DopplerPredictor/satellites_20260211_205621/SAT-47397.csv

timestamp,satellite,azimuth_deg,elevation_deg,distance_km,relative_velocity_kms,doppler_shift_hz,tx_freq_ghz,rx_freq_hz,ue_lat,ue_lon,ue_alt_m,time_minutes
2026-02-06T21:33:35+00:00,SAT-47397,203.52090659281453,40.61501807855543,803.9841799832462,1.3521807046446597,-47359.08799536554,10.5,10499952640.912004,47.655,-122.3035,60.0,0.0
2026-02-06T21:33:36+00:00,SAT-47397,202.8620353848641,40.51599136231506,805.332735678023,1.4109984052373112,-49419.13266874702,10.5,10499950580.86733,47.655,-122.3035,60.0,0.016666666666666666
2026-02-06T21:33:37+00:00,SAT-47397,202.2074068582553,40.41317407538663,806.7399513912534,1.4695072401032365,-51468.35955787781,10.5,10499948531.640442,47.655,-122.3035,60.0,0.03333333333333333
2026-02-06T21:33:38+00:00,SAT-47397,201.5571503367319,40.30664466136881,808.2055190852378,1.5276966774508047,-53506.39979486559,10.5,10499946493.600204,47.655,-122.3035,60.0,0.05
2026-02-06T21:33:39+00:00,SAT-47397,200.91138890719043,40.196483320420846,809.7291202187188,1.5855565215497243,-55532.89628210762,10.5,10499944467.103718,47.655,-122.3035,60.0,0.06666666666666667
2026-02-06T21:33:40+00:00,SAT-47397,200.27023937662892,40.08277184553923,811.3104260820409,1.6430769010954762,-57547.50328476409,10.5,10499942452.496716,47.655,-122.3035,60.0,0.08333333333333333
