DopplerPredictor/satellites_20260211_205621/SAT-53397.csv

timestamp,satellite,azimuth_deg,elevation_deg,distance_km,relative_velocity_kms,doppler_shift_hz,tx_freq_ghz,rx_freq_hz,ue_lat,ue_lon,ue_alt_m,time_minutes
2026-02-06T21:33:35+00:00,SAT-53397,6.650323983093376,40.524705427956896,797.8830057477502,1.6337662710250032,-57221.405635769974,10.5,10499942778.594364,47.655,-122.3035,60.0,0.0
2026-02-06T21:33:36+00:00,SAT-53397,7.302323750866931,40.406108980570906,799.5123921168623,1.690977403453426,-59225.18149626357,10.5,10499940774.818504,47.655,-122.3035,60.0,0.016666666666666666
2026-02-06T21:33:37+00:00,SAT-53397,7.949333211317179,40.28403189184425,801.198836243252,1.7478259590514371,-61216.25838245767,10.5,10499938783.741617,47.655,-122.3035,60.0,0.03333333333333333
2026-02-06T21:33:38+00:00,SAT-53397,8.591250580927873,40.15856340715677,802.9419765221071,1.8043029404144193,-63194.3211671836,10.5,10499936805.678833,47.655,-122.3035,60.0,0.05
2026-02-06T21:33:39+00:00,SAT-53397,9.22798071464706,40.02979376973489,804.7414423753318,1.8603997272056938,-65159.0679297869,10.5,10499934840.93207,47.655,-122.3035,60.0,0.06666666666666667
