DopplerPredictor/satellites_20260211_205621/SAT-58633.csv

timestamp,satellite,azimuth_deg,elevation_deg,distance_km,relative_velocity_kms,doppler_shift_hz,tx_freq_ghz,rx_freq_hz,ue_lat,ue_lon,ue_alt_m,time_minutes
2026-02-06T21:43:10+00:00,SAT-58633,187.22112052762222,40.00116279037733,723.4600386549924,-0.24929502182113822,8731.366181073012,10.5,10500008731.36618,47.655,-122.3035,60.0,9.583333333333334
2026-02-06T21:43:11+00:00,SAT-58633,186.47098459460756,40.02058268859936,723.2114119587221,-0.18114655572482669,6344.518630654412,10.5,10500006344.518631,47.655,-122.3035,60.0,9.6
2026-02-06T21:43:12+00:00,SAT-58633,185.72003116368026,40.03469717125815,723.0307510319149,-0.11294682300918812,3955.8755063693943,10.5,10500003955.875505,47.655,-122.3035,60.0,9.616666666666667
2026-02-06T21:43:13+00:00,SAT-58633,184.96851850341832,40.04349157382384,722.9181070037517,-0.044715109786795604,1566.1122894604434,10.5,10500001566.11229,47.655,-122.3035,60.0,9.633333333333333
2026-02-06T21:43:14+00:00,SAT-58633,184.21670603917858,40.046956740749586,722.8735117690036,0.02352925229354063,-824.093943958312,10.5,10499999175.906055,47.655,-122.3035,60.0,9.65
2026-02-06T21:43:15+00:00,SAT-58633,183.46485381548453,40.04508905385823,722.8969779426185,0.09176691351452705,-3214.0654849380303,10.5,10499996785.934515,47.655,-122.3035,60.0,9.666666666666666
2026-02-06T21:43:16+00:00,SAT-58633,182.71322196276464,40.03789044358639,722.9884988417019,0.15997853355293137,-5603.12495354963,10.5,10499994396.875046,47.655,-122.3035,60.0,9.683333333333334
2026-02-06T21:43:17+00:00,SAT-58633,181.9620701515105,40.02536838300764,723.1480484948834,0.22814480963254366,-7990.596284919578,10.5,10499992009.403715,47.655,-122.3035,60.0,9.7
2026-02-06T21:43:18+00:00,SAT-58633,181.21165705785833,40.00753586462053,723.3755816797654,0.2962465015607339,-10375.805606116035,10.5,10499989624.194393,47.655,-122.3035,60.0,9.716666666666667
