DopplerPredictor/satellites_20260211_205621/SAT-56910.csv

timestamp,satellite,azimuth_deg,elevation_deg,distance_km,relative_velocity_kms,doppler_shift_hz,tx_freq_ghz,rx_freq_hz,ue_lat,ue_lon,ue_alt_m,time_minutes
2026-02-06T21:35:55+00:00,SAT-56910,201.2084449306936,40.03636466995873,829.0062028604985,-1.0513972275708816,36824.3783153953,10.5,10500036824.378315,47.655,-122.3035,60.0,2.3333333333333335
2026-02-06T21:35:56+00:00,SAT-56910,200.57030305429214,40.10956566893556,827.9576242838018,-0.9944502076294766,34829.852791391786,10.5,10500034829.85279,47.655,-122.3035,60.0,2.35
2026-02-06T21:35:57+00:00,SAT-56910,199.92923043913376,40.179024555971786,826.965840059945,-0.9372970243089839,32828.10655378238,10.5,10500032828.106554,47.655,-122.3035,60.0,2.3666666666666667
2026-02-06T21:35:58+00:00,SAT-56910,199.2853692702452,40.24468973066312,826.031055799611,-0.8799486159688436,30819.522710183915,10.5,10500030819.52271,47.655,-122.3035,60.0,2.3833333333333333
2026-02-06T21:35:59+00:00,SAT-56910,198.63886579949047,40.30651198359522,825.1534662044487,-0.8224161341172652,28804.4918335847,10.5,10500028804.491833,47.655,-122.3035,60.0,2.4
2026-02-06T21:36:00+00:00,SAT-56910,197.9898701718173,40.36444460361549,824.3332548544936,-0.7647109004873657,26783.41045896938,10.5,10500026783.41046,47.655,-122.3035,60.0,2.4166666666666665
2026-02-06T21:36:01+00:00,SAT-56910,197.33853626053977,40.41844347874158,823.5705940384004,-0.7068444260365848,24756.6817487588,10.5,10500024756.68175,47.655,-122.3035,60.0,2.433333333333333
2026-02-06T21:36:02+00:00,SAT-56910,196.6850214687093,40.468467194655474,822.8656445647254,-0.6488283832695452,22724.714523439496,10.5,10500022724.714523,47.655,-122.3035,60.0,2.45
2026-02-06T21:36:03+00:00,SAT-56910,196.0294865296779,40.51447712709463,822.218555600813,-0.5906746002720598,20687.92305260937,10.5,10500020687.923052,47.655,-122.3035,60.0,2.466666666666667
2026-02-06T21:36:04+00:00,SAT-56910,195.37209529184844,40.556437529293014,821.6294645176312,-0.5323950509919372,18646.726714570454,10.5,10500018646.726715,47.655,-122.3035,60.0,2.4833333333333334
2026-02-06T21:36:05+00:00,SAT-56910,194.71301448948526,40.59431561382958,821.0984967443005,-0.47400183723656775,16601.549365808132,10.5,10500016601.549366,47.655,-122.3035,60.0,2.5
2026-02-06T21:36:06+00:00,SAT-56910,194.05241350938212,40.62808162795612,820.6257656405771,-0.4155071866098037,14552.819268732032,10.5,10500014552.81927,47.655,-122.3035,60.0,2.5166666666666666
2026-02-06T21:36:07+00:00,SAT-56910,193.39046413528214,40.6577089231983,820.2113723713951,-0.3569234260663642,12500.968165439384,10.5,10500012500.968166,47.655,-122.3035,60.0,2.533333333333333
2026-02-06T21:36:08+00:00,SAT-56910,192.7273403013571,40.683174017197665,819.8554058077781,-0.2982629861384437,10446.431425748739,10.5,10500010446.431425,47.655,-122.3035,60.0,2.55
2026-02-06T21:36:09+00:00,SAT-56910,192.06321781297225,40.70445664970256,819.5579424235457,-0.2395383709675175,8389.646997587024,10.5,10500008389.646997,47.655,-122.3035,60.0,2.566666666666667
2026-02-06T21:36:10+00:00,SAT-56910,191.39827408675364,40.72153983001071,819.3190462218945,-0.18076215939269433,6331.0554451082635,10.5,10500006331.055445,47.655,-122.3035,60.0,2.5833333333333335
2026-02-06T21:36:11+00:00,SAT-56910,190.73268785963396,40.73440987787808,819.138768660906,-0.12194698165443003,4271.099132759088,10.5,10500004271.099133,47.655,-122.3035,60.0,2.6
2026-02-06T21:36:12+00:00,SAT-56910,190.06663891158098,40.74305645595433,819.0171486022804,-0.06310551200183633,2210.221966355409,10.5,10500002210.221966,47.655,-122.3035,60.0,2.6166666666666667
2026-02-06T21:36:13+00:00,SAT-56910,189.40030777078732,40.74747259473979,818.9542122674475,-0.004250451496047955,148.86879078360113,10.5,10500000148.868792,47.655,-122.3035,60.0,2.6333333333333333
2026-02-06T21:36:14+00:00,SAT-56910,188.7338754257293,40.74765470923888,818.9499732108256,0.05460548332040965,-1912.5150068461742,10.5,10499998087.484993,47.655,-122.3035,60.0,2.65
2026-02-06T21:36:15+00:00,SAT-56910,188.06752302838265,40.74360260767094,819.0044323043807,0.11344957515538692,-3973.484013168746,10.5,10499996026.515987,47.655,-122.3035,60.0,2.6666666666666665
2026-02-06T21:36:16+00:00,SAT-56910,187.40143160072233,40.735319491925495,819.1175777368811,0.17226911956211596,-6033.593264718546,10.5,10499993966.406734,47.655,-122.3035,60.0,2.683333333333333
2026-02-06T21:36:17+00:00,SAT-56910,186.73578173856006,40.72281194987545,819.2893850267068,0.23105143837959063,-8092.398718668572,10.5,10499991907.601282,47.655,-122.3035,60.0,2.7
2026-02-06T21:36:18+00:00,SAT-56910,186.07075332074297,40.70608993956542,819.5198170480653,0.289783893812414,-10149.4577459662,10.5,10499989850.542253,47.655,-122.3035,60.0,2.716666666666667
2026-02-06T21:36:19+00:00,SAT-56910,185.40652521770545,40.68516676531903,819.8088240712486,0.34845389963259715,-12204.32952366757,10.5,10499987795.670477,47.655,-122.3035,60.0,2.7333333333333334
2026-02-06T21:36:20+00:00,SAT-56910,184.74327501054117,40.66005904608167,820.1563438140628,0.4070489388869527,-14256.575655125398,10.5,10499985743.424345,47.655,-122.3035,60.0,2.75
2026-02-06T21:36:21+00:00,SAT-56910,184.081178703536,40.6307866756626,820.5623015109172,0.4655565729287952,-16305.760486317336,10.5,10499983694.239513,47.655,-122.3035,60.0,2.7666666666666666
2026-02-06T21:36:22+00:00,SAT-56910,183.42041045477123,40.59737277570398,821.0266099909211,0.5239644571938449,-18351.451658384853,10.5,10499981648.548342,47.655,-122.3035,60.0,2.783333333333333
2026-02-06T21:36:23+00:00,SAT-56910,182.76114230694435,40.55984364108411,821.5491697717122,0.5822603492177759,-20393.220388441685,10.5,10499979606.779612,47.655,-122.3035,60.0,2.8
2026-02-06T21:36:24+00:00,SAT-56910,182.10354393348499,40.518228678568136,822.1298691612859,0.6404321297373742,-22430.642208625643,10.5,10499977569.357792,47.655,-122.3035,60.0,2.816666666666667
2026-02-06T21:36:25+00:00,SAT-56910,181.44778238252454,40.472560338040076,822.7685843808629,0.6984678064357354,-24463.29709727128,10.5,10499975536.702902,47.655,-122.3035,60.0,2.8333333333333335
2026-02-06T21:36:26+00:00,SAT-56910,180.7940218422655,40.42287403786365,823.4651796914983,0.756355530590783,-26490.770062011437,10.5,10499973509.229939,47.655,-122.3035,60.0,2.85
2026-02-06T21:36:27+00:00,SAT-56910,180.14242341111932,40.369208083765635,824.2195075372885,0.8140836052967386,-28512.651427727895,10.5,10499971487.348572,47.655,-122.3035,60.0,2.8666666666666667
2026-02-06T21:36:28+00:00,SAT-56910,179.49314488278767,40.311603582202125,825.0314086967829,0.8716404987693164,-30528.537302555564,10.5,10499969471.462698,47.655,-122.3035,60.0,2.8833333333333333
2026-02-06T21:36:29+00:00,SAT-56910,178.84634054142273,40.250104348204786,825.9007124476616,0.9290148609881412,-32538.030160770362,10.5,10499967461.96984,47.655,-122.3035,60.0,2.9
2026-02-06T21:36:30+00:00,SAT-56910,178.20216096547264,40.18475680785657,826.8272367480115,0.9861955143329257,-34540.738514828554,10.5,10499965459.261486,47.655,-122.3035,60.0,2.9166666666666665
2026-02-06T21:36:31+00:00,SAT-56910,177.5607528597706,40.11560989763474,827.8107884082655,1.0431714933096143,-36536.2783067443,10.5,10499963463.721693,47.655,-122.3035,60.0,2.933333333333333
2026-02-06T21:36:32+00:00,SAT-56910,176.92225887898715,40.04271495755994,828.8511633027592,1.0999320269654687,-38524.27229219162,10.5,10499961475.727707,47.655,-122.3035,60.0,2.95
