DopplerPredictor/satellites_20260211_205621/SAT-49756.csv

timestamp,satellite,azimuth_deg,elevation_deg,distance_km,relative_velocity_kms,doppler_shift_hz,tx_freq_ghz,rx_freq_hz,ue_lat,ue_lon,ue_alt_m,time_minutes
2026-02-06T21:33:35+00:00,SAT-49756,26.475749919625773,58.40004388035424,631.9123621762294,2.756340121575461,-96538.69036472673,10.5,10499903461.309635,47.655,-122.3035,60.0,0.0
2026-02-06T21:33:36+00:00,SAT-49756,27.26760820973429,57.95364004358771,634.6613129303139,2.8211865350996637,-98809.88606640154,10.5,10499901190.113934,47.655,-122.3035,60.0,0.016666666666666666
2026-02-06T21:33:37+00:00,SAT-49756,28.033338586110712,57.50609516909592,637.4749362536365,2.885174671685577,-101051.02127918962,10.5,10499898948.978722,47.655,-122.3035,60.0,0.03333333333333333
2026-02-06T21:33:38+00:00,SAT-49756,28.77396290647783,57.05776172728052,640.3523761701814,2.948300583204933,-103261.95772293843,10.5,10499896738.042276,47.655,-122.3035,60.0,0.05
2026-02-06T21:33:39+00:00,SAT-49756,29.49047004885886,56.60897069554149,643.2927727663881,3.010561280844717,-105442.59071677356,10.5,10499894557.409283,47.655,-122.3035,60.0,0.06666666666666667
2026-02-06T21:33:40+00:00,SAT-49756,30.1838151069751,56.16003251691052,646.2952631478963,3.0719546462608256,-107592.8460673239,10.5,10499892407.153933,47.655,-122.3035,60.0,0.08333333333333333
2026-02-06T21:33:41+00:00,SAT-49756,30.854918967655813,55.71123805233258,649.3589823076804,3.132479415511076,-109712.67950598776,10.5,10499890287.320494,47.655,-122.3035,60.0,0.1
2026-02-06T21:33:42+00:00,SAT-49756,31.5046682234516,55.262859509800975,652.4830639781605,3.192135228099049,-111802.07840665564,10.5,10499888197.921593,47.655,-122.3035,60.0,0.11666666666666667
2026-02-06T21:33:43+00:00,SAT-49756,32.13391537404126,54.81515133768151,655.6666415322278,3.2509224435982373,-113861.05536311222,10.5,10499886138.944637,47.655,-122.3035,60.0,0.13333333333333333
2026-02-06T21:33:44+00:00,SAT-49756,32.74347921624882,54.36835111248328,658.908848701382,3.3088422209266986,-115889.65096557011,10.5,10499884110.349035,47.655,-122.3035,60.0,0.15
2026-02-06T21:33:45+00:00,SAT-49756,33.334145437267715,53.92268038104008,662.2088203729346,3.3658964778688825,-117887.93238295296,10.5,10499882112.067617,47.655,-122.3035,60.0,0.16666666666666666
2026-02-06T21:33:46+00:00,SAT-49756,33.90666734534468,53.47834547355798,665.5656933468399,3.4220877770201814,-119855.98936819119,10.5,10499880144.010632,47.655,-122.3035,60.0,0.18333333333333332
2026-02-06T21:33:47+00:00,SAT-49756,34.46176669520551,53.03553829601185,668.978606978778,3.4774193781227756,-121793.93609124463,10.5,10499878206.06391,47.655,-122.3035,60.0,0.2
2026-02-06T21:33:48+00:00,SAT-49756,35.0001346116024,52.59443707921861,672.4467038754319,3.5318951219412167,-123701.90707193433,10.5,10499876298.092928,47.655,-122.3035,60.0,0.21666666666666667
2026-02-06T21:33:49+00:00,SAT-49756,35.52243255846808,52.155207106915746,675.9691304739525,3.585519508552676,-125580.05992199811,10.5,10499874419.940079,47.655,-122.3035,60.0,0.23333333333333334
2026-02-06T21:33:50+00:00,SAT-49756,36.029293366432185,51.71800139831321,679.5450376995045,3.6382975259698984,-127428.56934274154,10.5,10499872571.430656,47.655,-122.3035,60.0,0.25
2026-02-06T21:33:51+00:00,SAT-49756,36.52132226361055,51.28296137712838,683.1735814518922,3.6902347405777656,-129247.63029250903,10.5,10499870752.369707,47.655,-122.3035,60.0,0.26666666666666666
2026-02-06T21:33:52+00:00,SAT-49756,36.99909793693011,50.850217495168835,686.853923182383,3.7413371650256355,-131037.4533597145,10.5,10499868962.54664,47.655,-122.3035,60.0,0.2833333333333333
2026-02-06T21:33:53+00:00,SAT-49756,37.46317357983186,50.41988983870796,690.5852303387737,3.791611292031706,-132798.26594681348,10.5,10499867201.734053,47.655,-122.3035,60.0,0.3
2026-02-06T21:33:54+00:00,SAT-49756,37.914077941889914,49.99208869851201,694.3666768441739,3.8410640470762676,-134530.31061342047,10.5,10499865469.689386,47.655,-122.3035,60.0,0.31666666666666665
2026-02-06T21:33:55+00:00,SAT-49756,38.352316361045155,49.56691511447692,698.1974435286066,3.8897027321307203,-136233.8431054612,10.5,10499863766.156895,47.655,-122.3035,60.0,0.3333333333333333
2026-02-06T21:33:56+00:00,SAT-49756,38.77837177271385,49.14446139667762,702.0767185044915,3.9375350240378792,-137909.13229844405,10.5,10499862090.867702,47.655,-122.3035,60.0,0.35
2026-02-06T21:33:57+00:00,SAT-49756,39.19270569786223,48.72481161779775,706.0036975405096,3.9845689437275738,-139556.45911926017,10.5,10499860443.54088,47.655,-122.3035,60.0,0.36666666666666664
2026-02-06T21:33:58+00:00,SAT-49756,39.59575920298023,48.30804208148594,709.9775844047696,4.030812813519335,-141176.11505074293,10.5,10499858823.884949,47.655,-122.3035,60.0,0.38333333333333336
2026-02-06T21:33:59+00:00,SAT-49756,39.98795382810886,47.8942217689372,713.9975911653879,4.076275227457725,-142768.40109268564,10.5,10499857231.598907,47.655,-122.3035,60.0,0.4
2026-02-06T21:34:00+00:00,SAT-49756,40.36969248313014,47.48341276329322,718.062938461487,4.120965055008245,-144333.62789128794,10.5,10499855666.372108,47.655,-122.3035,60.0,0.4166666666666667
2026-02-06T21:34:01+00:00,SAT-49756,40.74136031388853,47.075670649653894,722.1728557778757,4.164891390173352,-145872.11395698352,10.5,10499854127.886044,47.655,-122.3035,60.0,0.43333333333333335
2026-02-06T21:34:02+00:00,SAT-49756,41.10332553223881,46.671044897386054,726.326581668987,4.208063506935817,-147384.1841038779,10.5,10499852615.815897,47.655,-122.3035,60.0,0.45
2026-02-06T21:34:03+00:00,SAT-49756,41.45594021054748,46.26957922483293,730.5233639383737,4.25049090272079,-148870.17097197386,10.5,10499851129.829027,47.655,-122.3035,60.0,0.4666666666666667
2026-02-06T21:34:04+00:00,SAT-49756,41.79954104878307,45.8713119390017,734.7624598615516,4.292183228490551,-150330.41257879403,10.5,10499849669.587421,47.655,-122.3035,60.0,0.48333333333333334
2026-02-06T21:34:05+00:00,SAT-49756,42.134450103612245,45.47627626233442,739.0431363391283,4.333150227701344,-151765.25018139087,10.5,10499848234.749819,47.655,-122.3035,60.0,0.5
2026-02-06T21:34:06+00:00,SAT-49756,42.46097548210752,45.08450064610942,743.3646699890438,4.373401844928623,-153175.03208086223,10.5,10499846824.967918,47.655,-122.3035,60.0,0.5166666666666667
2026-02-06T21:34:07+00:00,SAT-49756,42.77941201386099,44.69600905600251,747.7263473471554,4.412948039899015,-154560.10710896418,10.5,10499845439.89289,47.655,-122.3035,60.0,0.5333333333333333
2026-02-06T21:34:08+00:00,SAT-49756,43.09004187879297,44.31082125756015,752.1274648823465,4.4517989265447095,-155920.82949838403,10.5,10499844079.170502,47.655,-122.3035,60.0,0.55
2026-02-06T21:34:09+00:00,SAT-49756,43.39313521721203,43.92895307296919,756.5673291503172,4.489964631244587,-157257.55391774452,10.5,10499842742.446083,47.655,-122.3035,60.0,0.5666666666666667
2026-02-06T21:34:10+00:00,SAT-49756,43.68895070138521,43.55041663503659,761.0452568060005,4.527455383851194,-158570.6386597542,10.5,10499841429.36134,47.655,-122.3035,60.0,0.5833333333333334
2026-02-06T21:34:11+00:00,SAT-49756,43.97773608697864,43.17522061871154,765.5605747067564,4.564281378358617,-159860.44076120647,10.5,10499840139.559238,47.655,-122.3035,60.0,0.6
2026-02-06T21:34:12+00:00,SAT-49756,44.25972872904422,42.803370470561674,770.1126198766103,4.600452891300535,-161127.32014978048,10.5,10499838872.67985,47.655,-122.3035,60.0,0.6166666666666667
2026-02-06T21:34:13+00:00,SAT-49756,44.53515608140911,42.43486861519908,774.700739588572,4.635980197366169,-162371.63668855463,10.5,10499837628.363312,47.655,-122.3035,60.0,0.6333333333333333
2026-02-06T21:34:14+00:00,SAT-49756,44.804236166346534,42.06971465641879,779.324291362794,4.670873494237882,-163593.74754350146,10.5,10499836406.252457,47.655,-122.3035,60.0,0.65
2026-02-06T21:34:15+00:00,SAT-49756,45.06717801739892,41.70790557229616,783.9826428897745,4.705143083698601,-164794.01352663554,10.5,10499835205.986473,47.655,-122.3035,60.0,0.6666666666666666
2026-02-06T21:34:16+00:00,SAT-49756,45.32418211116553,41.34943588491447,788.6751721341756,4.738799127845776,-165972.79055759517,10.5,10499834027.209442,47.655,-122.3035,60.0,0.6833333333333333
2026-02-06T21:34:17+00:00,SAT-49756,45.57544076395639,40.99429783858446,793.4012671955137,4.7718517997509755,-167130.4349403788,10.5,10499832869.56506,47.655,-122.3035,60.0,0.7
2026-02-06T21:34:18+00:00,SAT-49756,45.821138517544895,40.64248155621944,798.1603263191051,4.804311224470561,-168267.30129728912,10.5,10499831732.698702,47.655,-122.3035,60.0,0.7166666666666667
2026-02-06T21:34:19+00:00,SAT-49756,46.061452502665276,40.29397519084356,802.9517578481779,4.836187460528699,-169383.74192038996,10.5,10499830616.25808,47.655,-122.3035,60.0,0.7333333333333333
