DopplerPredictor/satellites_20260211_205621/SAT-64441.csv

timestamp,satellite,azimuth_deg,elevation_deg,distance_km,relative_velocity_kms,doppler_shift_hz,tx_freq_ghz,rx_freq_hz,ue_lat,ue_lon,ue_alt_m,time_minutes
2026-02-06T21:42:05+00:00,SAT-64441,345.51099272374097,40.10449695503054,704.4148931749402,-2.6174644611055276,91674.6772916083,10.5,10500091674.677292,47.655,-122.3035,60.0,8.5
2026-02-06T21:42:06+00:00,SAT-64441,346.1887264254055,40.31468949521286,701.8044457748447,-2.5561728191632196,89527.98472740033,10.5,10500089527.984728,47.655,-122.3035,60.0,8.516666666666667
2026-02-06T21:42:07+00:00,SAT-64441,346.87565051577496,40.52199525137889,699.2551257022577,-2.4942052230576386,87357.61738911126,10.5,10500087357.61739,47.655,-122.3035,60.0,8.533333333333333
2026-02-06T21:42:08+00:00,SAT-64441,347.5717571391353,40.72624855763252,696.7676070992028,-2.431568475034293,85163.81352015225,10.5,10500085163.81352,47.655,-122.3035,60.0,8.55
2026-02-06T21:42:09+00:00,SAT-64441,348.2770275251455,40.92728147715808,694.3425573236937,-2.3682701266012516,82946.83760627874,10.5,10500082946.837606,47.655,-122.3035,60.0,8.566666666666666
2026-02-06T21:42:10+00:00,SAT-64441,348.9914314454032,41.124924057716285,691.9806362024807,-2.30431845581515,80706.97958005025,10.5,10500080706.97958,47.655,-122.3035,60.0,8.583333333333334
2026-02-06T21:42:11+00:00,SAT-64441,349.71492666822274,41.3190046055786,689.6824953064495,-2.239722493709762,78444.5557464708,10.5,10500078444.555746,47.655,-122.3035,60.0,8.6
2026-02-06T21:42:12+00:00,SAT-64441,350.44745843006723,41.509349982085126,687.4487771996636,-2.174492015467842,76159.90847378936,10.5,10500076159.908474,47.655,-122.3035,60.0,8.616666666666667
2026-02-06T21:42:13+00:00,SAT-64441,351.18895891705955,41.69578591991721,685.2801146972093,-2.1086375580447876,73853.40681075529,10.5,10500073853.40681,47.655,-122.3035,60.0,8.633333333333333
2026-02-06T21:42:14+00:00,SAT-64441,351.9393467698371,41.87813736117689,683.1771301054655,-2.042170438736702,71525.44713695023,10.5,10500071525.447138,47.655,-122.3035,60.0,8.65
2026-02-06T21:42:15+00:00,SAT-64441,352.6985266183033,42.05622881713946,681.1404344438556,-1.9751027177008416,69176.45185009569,10.5,10500069176.45185,47.655,-122.3035,60.0,8.666666666666666
2026-02-06T21:42:16+00:00,SAT-64441,353.46638863060014,42.22988474434347,679.1706267039767,-1.9074472625672423,66806.87162902558,10.5,10500066806.87163,47.655,-122.3035,60.0,8.683333333333334
2026-02-06T21:42:17+00:00,SAT-64441,354.2428081208065,42.398929945273814,677.2682930442927,-1.8392176827532236,64417.1831331022,10.5,10500064417.183132,47.655,-122.3035,60.0,8.7
2026-02-06T21:42:18+00:00,SAT-64441,355.0276451706363,42.56318998141914,675.4340060503348,-1.7704283724990566,62007.89050950739,10.5,10500062007.890509,47.655,-122.3035,60.0,8.716666666666667
2026-02-06T21:42:19+00:00,SAT-64441,355.8207443141219,42.72249160719694,673.6683239519834,-1.7010944907693955,59579.524689305734,10.5,10500059579.524689,47.655,-122.3035,60.0,8.733333333333333
2026-02-06T21:42:20+00:00,SAT-64441,356.62193426597264,42.876663217969444,671.9717898607926,-1.6312319459622164,57132.6428518868,10.5,10500057132.642853,47.655,-122.3035,60.0,8.75
2026-02-06T21:42:21+00:00,SAT-64441,357.4310277006833,43.02553531107366,670.3449310225675,-1.5608574096747132,54667.82890710509,10.5,10500054667.828907,47.655,-122.3035,60.0,8.766666666666667
2026-02-06T21:42:22+00:00,SAT-64441,358.2478211023955,43.1689409608504,668.7882580562098,-1.4899882859952587,52185.692419754654,10.5,10500052185.69242,47.655,-122.3035,60.0,8.783333333333333
2026-02-06T21:42:23+00:00,SAT-64441,359.0720946703049,43.30671630177915,667.302264223191,-1.4186427081039248,49686.868490504894,10.5,10500049686.86849,47.655,-122.3035,60.0,8.8
2026-02-06T21:42:24+00:00,SAT-64441,359.9036122981269,43.43870102011385,665.8874247004146,-1.3468395167702125,47172.01700280009,10.5,10500047172.017002,47.655,-122.3035,60.0,8.816666666666666
2026-02-06T21:42:25+00:00,SAT-64441,0.7421216237427122,43.56473885010486,664.5441958745249,-1.2745982518343972,44641.822324500135,10.5,10500044641.822325,47.655,-122.3035,60.0,8.833333333333334
2026-02-06T21:42:26+00:00,SAT-64441,1.5873541616429592,43.68467807356172,663.2730146447092,-1.2019391180153942,42096.99211032734,10.5,10500042096.992111,47.655,-122.3035,60.0,8.85
2026-02-06T21:42:27+00:00,SAT-64441,2.439025506681757,43.798372017761274,662.0742977596017,-1.1288829806626755,39538.25715308052,10.5,10500039538.257153,47.655,-122.3035,60.0,8.866666666666667
2026-02-06T21:42:28+00:00,SAT-64441,3.2968356329272255,43.905679551741095,660.9484411584242,-1.0554513271170833,36966.370030327365,10.5,10500036966.37003,47.655,-122.3035,60.0,8.883333333333333
2026-02-06T21:42:29+00:00,SAT-64441,4.160469268337997,44.0064655748865,659.8958193506628,-0.9816662423264461,34382.10425036004,10.5,10500034382.10425,47.655,-122.3035,60.0,8.9
2026-02-06T21:42:30+00:00,SAT-64441,5.029596355991263,44.10060149615894,658.9167848200622,-0.907550387915309,31786.253519128702,10.5,10500031786.25352,47.655,-122.3035,60.0,8.916666666666666
2026-02-06T21:42:31+00:00,SAT-64441,5.9038726094379514,44.187965701281335,658.0116674494948,-0.8331269603353235,29179.630274491083,10.5,10500029179.630274,47.655,-122.3035,60.0,8.933333333333334
2026-02-06T21:42:32+00:00,SAT-64441,6.782940144506126,44.26844400280585,657.1807739875686,-0.7584196643166087,26563.064756366854,10.5,10500026563.064756,47.655,-122.3035,60.0,8.95
2026-02-06T21:42:33+00:00,SAT-64441,7.666428200658761,44.341930071457064,656.4243875417101,-0.683452678863783,23937.40381577485,10.5,10500023937.403816,47.655,-122.3035,60.0,8.966666666666667
2026-02-06T21:42:34+00:00,SAT-64441,8.553953947420627,44.408325845012975,655.7427671051619,-0.6082506130856953,21303.509367803374,10.5,10500021303.509367,47.655,-122.3035,60.0,8.983333333333333
2026-02-06T21:42:35+00:00,SAT-64441,9.445123359155836,44.46754191078493,655.1361471280312,-0.532838481310316,18662.257520028463,10.5,10500018662.25752,47.655,-122.3035,60.0,9.0
2026-02-06T21:42:36+00:00,SAT-64441,10.339532184615019,44.519497860725004,654.6047371131574,-0.45724164808049345,16014.536646032575,10.5,10500016014.536646,47.655,-122.3035,60.0,9.016666666666667
2026-02-06T21:42:37+00:00,SAT-64441,11.236766964582978,44.56412261355034,654.1487212668361,-0.3814857963850089,13361.246272721755,10.5,10500013361.246273,47.655,-122.3035,60.0,9.033333333333333
2026-02-06T21:42:38+00:00,SAT-64441,12.136406128010481,44.60135470363562,653.7682581812261,-0.30559688024357773,10703.295419651839,10.5,10500010703.29542,47.655,-122.3035,60.0,9.05
2026-02-06T21:42:39+00:00,SAT-64441,13.038021132998265,44.63114253289913,653.4634805640461,-0.2296010875721205,8041.601298413135,10.5,10500008041.6013,47.655,-122.3035,60.0,9.066666666666666
2026-02-06T21:42:40+00:00,SAT-64441,13.941177678694192,44.65344458463887,653.2344950053048,-0.15352478809519213,5377.087488303383,10.5,10500005377.087488,47.655,-122.3035,60.0,9.083333333333334
2026-02-06T21:42:41+00:00,SAT-64441,14.845436937131515,44.66822959615576,653.0813817959802,-0.07739449156243912,2710.6824728913316,10.5,10500002710.682472,47.655,-122.3035,60.0,9.1
2026-02-06T21:42:42+00:00,SAT-64441,15.750356827647416,44.675476689740265,653.0041947883691,-0.0012368023946864063,43.31805153086029,10.5,10500000043.318052,47.655,-122.3035,60.0,9.116666666666667
2026-02-06T21:42:43+00:00,SAT-64441,16.655493313172812,44.67517546059856,653.002961301671,0.0749216284552743,-2624.0723466778472,10.5,10499997375.927654,47.655,-122.3035,60.0,9.133333333333333
2026-02-06T21:42:44+00:00,SAT-64441,17.56040171843267,44.667326020712935,653.0776820755796,0.15105414722622887,-5290.555194271777,10.5,10499994709.444805,47.655,-122.3035,60.0,9.15
2026-02-06T21:42:45+00:00,SAT-64441,18.46463803464813,44.651938998717085,653.2283312674825,0.22713414756560898,-7955.198624239221,10.5,10499992044.801376,47.655,-122.3035,60.0,9.166666666666666
2026-02-06T21:42:46+00:00,SAT-64441,19.36776024429226,44.62903549512334,653.4548564997427,0.303135112730156,-10617.073908065551,10.5,10499989382.926092,47.655,-122.3035,60.0,9.183333333333334
2026-02-06T21:42:47+00:00,SAT-64441,20.26932960789823,44.598646994096114,653.7571789490686,0.37903066606904184,-13275.25722386565,10.5,10499986724.742777,47.655,-122.3035,60.0,9.2
2026-02-06T21:42:48+00:00,SAT-64441,21.16891194456095,44.56081523166129,654.1351934862279,0.454794611181871,-15928.831062886997,10.5,10499984071.168938,47.655,-122.3035,60.0,9.216666666666667
2026-02-06T21:42:49+00:00,SAT-64441,22.066078864596303,44.51559202247495,654.5887688558189,0.5304009797823097,-18576.885905896444,10.5,10499981423.114094,47.655,-122.3035,60.0,9.233333333333333
2026-02-06T21:42:50+00:00,SAT-64441,22.960408970145846,44.46303904579697,655.1177479037698,0.6058240752086864,-21218.521747105482,10.5,10499978781.478252,47.655,-122.3035,60.0,9.25
2026-02-06T21:42:51+00:00,SAT-64441,23.85148900295801,44.403227592838434,655.7219478482364,0.68103851590575,-23852.849617085347,10.5,10499976147.150383,47.655,-122.3035,60.0,9.266666666666667
2026-02-06T21:42:52+00:00,SAT-64441,24.73891493646802,44.33623827750478,656.4011605938645,0.756019273526923,-26478.99291726909,10.5,10499973521.007082,47.655,-122.3035,60.0,9.283333333333333
2026-02-06T21:42:53+00:00,SAT-64441,25.622292998162425,44.26216071334358,657.1551530840496,0.8307417127150762,-29096.088813242597,10.5,10499970903.911186,47.655,-122.3035,60.0,9.3
2026-02-06T21:42:54+00:00,SAT-64441,26.50124062439095,44.181093159017465,657.9836676928753,0.9051816399780243,-31703.28994657115,10.5,10499968296.710052,47.655,-122.3035,60.0,9.316666666666666
2026-02-06T21:42:55+00:00,SAT-64441,27.375387348664788,44.09314213412646,658.8864226657917,0.9793153225779107,-34299.76509638566,10.5,10499965700.234903,47.655,-122.3035,60.0,9.333333333333334
2026-02-06T21:42:56+00:00,SAT-64441,28.244375593812947,43.99842201112393,659.8631125791351,1.0531195362862054,-36884.70085196458,10.5,10499963115.299149,47.655,-122.3035,60.0,9.35
2026-02-06T21:42:57+00:00,SAT-64441,29.10786139417412,43.89705458348162,660.913408847275,1.1265715993301175,-39457.302801681006,10.5,10499960542.697199,47.655,-122.3035,60.0,9.366666666666667
2026-02-06T21:42:58+00:00,SAT-64441,29.96551503316304,43.78916861447148,662.0369602636141,1.1996493934618626,-42016.796270937404,10.5,10499957983.20373,47.655,-122.3035,60.0,9.383333333333333
2026-02-06T21:42:59+00:00,SAT-64441,30.817021586402742,43.67489937087995,663.2333935626037,1.2723314034947282,-44562.42770688597,10.5,10499955437.572292,47.655,-122.3035,60.0,9.4
2026-02-06T21:43:00+00:00,SAT-64441,31.662081386865758,43.55438814293319,664.5023140211874,1.3445967340833498,-47093.46526614479,10.5,10499952906.534735,47.655,-122.3035,60.0,9.416666666666666
2026-02-06T21:43:01+00:00,SAT-64441,32.500410396732356,43.42778175565658,665.8433060769812,1.416425148054787,-49609.20015731437,10.5,10499950390.799843,47.655,-122.3035,60.0,9.433333333333334
2026-02-06T21:43:02+00:00,SAT-64441,33.33174050293944,43.29523207258368,667.2559339846806,1.4877970708558286,-52108.946796740966,10.5,10499947891.053204,47.655,-122.3035,60.0,9.45
2026-02-06T21:43:03+00:00,SAT-64441,34.15581971897733,43.156895497893586,668.7397424769055,1.5586936319335178,-54592.04425783765,10.5,10499945407.955742,47.655,-122.3035,60.0,9.466666666666667
2026-02-06T21:43:04+00:00,SAT-64441,34.97241231835201,43.012932476255585,670.2942574663115,1.6290966576946546,-57057.85602449637,10.5,10499942942.143976,47.655,-122.3035,60.0,9.483333333333333
2026-02-06T21:43:05+00:00,SAT-64441,35.781298877531846,42.863506997512566,671.918986740682,1.6989887082622832,-59505.77127845549,10.5,10499940494.228722,47.655,-122.3035,60.0,9.5
2026-02-06T21:43:06+00:00,SAT-64441,36.5822762567,42.70878610455917,673.6134206946781,1.768353087539969,-61935.205251793464,10.5,10499938064.794748,47.655,-122.3035,60.0,9.516666666666667
2026-02-06T21:43:07+00:00,SAT-64441,37.375157508824344,42.548939409189735,675.3770330716231,1.8371738377869316,-64345.59903692701,10.5,10499935654.400963,47.655,-122.3035,60.0,9.533333333333333
2026-02-06T21:43:08+00:00,SAT-64441,38.159771716701805,42.384138619349585,677.2092816998809,1.9054357631603118,-66736.42041116083,10.5,10499933263.579588,47.655,-122.3035,60.0,9.55
2026-02-06T21:43:09+00:00,SAT-64441,38.93596377728728,42.21455707702556,679.1096092527105,1.9731244426799828,-69107.16429077019,10.5,10499930892.835709,47.655,-122.3035,60.0,9.566666666666666
2026-02-06T21:43:10+00:00,SAT-64441,39.7035941325185,42.04036930942693,681.0774440210506,2.040226212128559,-71457.35209706266,10.5,10499928542.647903,47.655,-122.3035,60.0,9.583333333333334
2026-02-06T21:43:11+00:00,SAT-64441,40.46253844190693,41.86175059766408,683.1122006682556,2.1067281864849754,-73786.53254209697,10.5,10499926213.467459,47.655,-122.3035,60.0,9.6
2026-02-06T21:43:12+00:00,SAT-64441,41.21268721798526,41.678876560538036,685.2132810072011,2.172618250684804,-76094.2813050702,10.5,10499923905.718695,47.655,-122.3035,60.0,9.616666666666667
2026-02-06T21:43:13+00:00,SAT-64441,41.953945418646995,41.49192275730709,687.3800747681771,2.2378850622809066,-78380.20112550502,10.5,10499921619.798874,47.655,-122.3035,60.0,9.633333333333333
2026-02-06T21:43:14+00:00,SAT-64441,42.68623200638434,41.301064309190124,689.6119603694343,2.3025180413860196,-80643.92145099663,10.5,10499919356.078548,47.655,-122.3035,60.0,9.65
2026-02-06T21:43:15+00:00,SAT-64441,43.40947947602233,41.10647554135439,691.9083056776986,2.3665073674219292,-82885.09832335495,10.5,10499917114.901676,47.655,-122.3035,60.0,9.666666666666666
2026-02-06T21:43:16+00:00,SAT-64441,44.12363335854299,40.90832964522877,694.2684687654468,2.4298439863154817,-85103.41463063944,10.5,10499914896.58537,47.655,-122.3035,60.0,9.683333333333334
2026-02-06T21:43:17+00:00,SAT-64441,44.828651708927666,40.70679836058101,696.6917986753532,2.492519575117972,-87298.57886798042,10.5,10499912701.421131,47.655,-122.3035,60.0,9.7
2026-02-06T21:43:18+00:00,SAT-64441,45.52450457045287,40.50205168102699,699.1776361494581,2.5545265572265827,-89470.32567069822,10.5,10499910529.67433,47.655,-122.3035,60.0,9.716666666666667
2026-02-06T21:43:19+00:00,SAT-64441,46.21117343474281,40.29425757870172,701.7253143735094,2.6158580686260113,-91618.4146319422,10.5,10499908381.585367,47.655,-122.3035,60.0,9.733333333333333
2026-02-06T21:43:20+00:00,SAT-64441,46.88865068814413,40.0835817519856,704.3341596876419,2.6765079724085648,-93742.63081124586,10.5,10499906257.369188,47.655,-122.3035,60.0,9.75
