DopplerPredictor/satellites_20260211_205621/SAT-48119.csv

timestamp,satellite,azimuth_deg,elevation_deg,distance_km,relative_velocity_kms,doppler_shift_hz,tx_freq_ghz,rx_freq_hz,ue_lat,ue_lon,ue_alt_m,time_minutes
2026-02-06T21:34:41+00:00,SAT-48119,212.93033341374885,40.14894089099365,814.3411559987404,-4.68980845268246,164256.92988302538,10.5,10500164256.929884,47.655,-122.3035,60.0,1.1
2026-02-06T21:34:42+00:00,SAT-48119,212.6592360689991,40.4850092489691,809.663920275326,-4.656181173047673,163079.1603069633,10.5,10500163079.160307,47.655,-122.3035,60.0,1.1166666666666667
2026-02-06T21:34:43+00:00,SAT-48119,212.38216511902655,40.823920360498725,805.0202216814503,-4.621963543444219,161880.71417782063,10.5,10500161880.714178,47.655,-122.3035,60.0,1.1333333333333333
2026-02-06T21:34:44+00:00,SAT-48119,212.09893618049227,41.16567013649533,800.4106489844352,-4.587146307136272,160661.26728555278,10.5,10500160661.267286,47.655,-122.3035,60.0,1.15
2026-02-06T21:34:45+00:00,SAT-48119,211.8093578702315,41.51025203180862,795.8358001835221,-4.551720197999792,159420.49509130017,10.5,10500159420.49509,47.655,-122.3035,60.0,1.1666666666666667
2026-02-06T21:34:46+00:00,SAT-48119,211.51323151188407,41.857656885027176,791.2962825192358,-4.515675948200067,158158.07299628833,10.5,10500158158.072996,47.655,-122.3035,60.0,1.1833333333333333
2026-02-06T21:34:47+00:00,SAT-48119,211.2103508309933,42.20787274986216,786.7927124750894,-4.4790043139587175,156873.67724429726,10.5,10500156873.677244,47.655,-122.3035,60.0,1.2
2026-02-06T21:34:48+00:00,SAT-48119,210.90050163742168,42.56088471911997,782.325715753594,-4.4416960763269495,155566.98494874404,10.5,10500155566.98495,47.655,-122.3035,60.0,1.2166666666666666
2026-02-06T21:34:49+00:00,SAT-48119,210.58346149643626,42.91667473896626,777.8959272514938,-4.403742007903254,154237.67292699596,10.5,10500154237.672928,47.655,-122.3035,60.0,1.2333333333333334
2026-02-06T21:34:50+00:00,SAT-48119,210.25899939166354,43.27522141015819,773.503991068197,-4.365133019100588,152885.4228232659,10.5,10500152885.422823,47.655,-122.3035,60.0,1.25
2026-02-06T21:34:51+00:00,SAT-48119,209.92687536554052,43.63649979036935,769.1505603683324,-4.325859998062606,151509.91550180144,10.5,10500151509.915503,47.655,-122.3035,60.0,1.2666666666666666
2026-02-06T21:34:52+00:00,SAT-48119,209.58684016155044,44.000481172422866,764.836297403956,-4.285913983171621,150110.83708884372,10.5,10500150110.83709,47.655,-122.3035,60.0,1.2833333333333334
2026-02-06T21:34:53+00:00,SAT-48119,209.23863484206674,44.36713286501199,760.5618733647173,-4.245286037994776,148687.8745927129,10.5,10500148687.874592,47.655,-122.3035,60.0,1.3
2026-02-06T21:34:54+00:00,SAT-48119,208.8819904064301,44.73641795087964,756.3279683527408,-4.203967396213963,147240.72097986742,10.5,10500147240.72098,47.655,-122.3035,60.0,1.3166666666666667
2026-02-06T21:34:55+00:00,SAT-48119,208.51662738712463,45.108295044671586,752.1352712129686,-4.161949404902662,145769.0731882186,10.5,10500145769.073189,47.655,-122.3035,60.0,1.3333333333333333
2026-02-06T21:34:56+00:00,SAT-48119,208.14225544170503,45.48271803302877,747.9844794200715,-4.119223536617236,144272.63255061934,10.5,10500144272.632551,47.655,-122.3035,60.0,1.35
2026-02-06T21:34:57+00:00,SAT-48119,207.7585729359493,45.85963580202557,743.8762989533033,-4.075781433761734,142751.1063487068,10.5,10500142751.106348,47.655,-122.3035,60.0,1.3666666666666667
2026-02-06T21:34:58+00:00,SAT-48119,207.36526651618476,46.23899195446145,739.8114441271074,-4.031614961884893,141204.209679589,10.5,10500141204.209679,47.655,-122.3035,60.0,1.3833333333333333
2026-02-06T21:34:59+00:00,SAT-48119,206.96201067068614,46.620724517675555,735.7906373685724,-3.986716147207224,139631.66326777925,10.5,10500139631.663267,47.655,-122.3035,60.0,1.4
2026-02-06T21:35:00+00:00,SAT-48119,206.54846729371894,47.00476563059111,731.8146090571893,-3.941077263760754,138033.19651719832,10.5,10500138033.196518,47.655,-122.3035,60.0,1.4166666666666667
2026-02-06T21:35:01+00:00,SAT-48119,206.1242852393393,47.39104122340405,727.8840972777041,-3.894690831763108,136408.54745422793,10.5,10500136408.547455,47.655,-122.3035,60.0,1.4333333333333333
2026-02-06T21:35:02+00:00,SAT-48119,205.68909987599685,47.77947068135303,723.9998475745936,-3.847549643271418,134757.4636262193,10.5,10500134757.463627,47.655,-122.3035,60.0,1.45
2026-02-06T21:35:03+00:00,SAT-48119,205.24253264251436,48.16996649472356,720.162612680954,-3.79964678672045,133079.70296092215,10.5,10500133079.702961,47.655,-122.3035,60.0,1.4666666666666666
2026-02-06T21:35:04+00:00,SAT-48119,204.7841906084996,48.56243389467992,716.3731522229173,-3.7509756739728575,131375.03471389864,10.5,10500131375.034714,47.655,-122.3035,60.0,1.4833333333333334
2026-02-06T21:35:05+00:00,SAT-48119,204.31366604328903,48.956770474935595,712.6322323970917,-3.701530043838216,129643.2395917754,10.5,10500129643.239592,47.655,-122.3035,60.0,1.5
2026-02-06T21:35:06+00:00,SAT-48119,203.83053600110523,49.35286579655346,708.9406256444898,-3.651304050818236,127884.11286047589,10.5,10500127884.11286,47.655,-122.3035,60.0,1.5166666666666666
2026-02-06T21:35:07+00:00,SAT-48119,203.33436191647175,49.7506009848233,705.2991102359521,-3.6002921975045106,126097.46197750366,10.5,10500126097.461977,47.655,-122.3035,60.0,1.5333333333333334
2026-02-06T21:35:08+00:00,SAT-48119,202.8246892374386,50.14984830155815,701.7084699249887,-3.548489440074015,124283.11028684102,10.5,10500124283.110287,47.655,-122.3035,60.0,1.55
2026-02-06T21:35:09+00:00,SAT-48119,202.30104708068214,50.55047071132351,698.1694934954122,-3.495891178762778,122440.89668529677,10.5,10500122440.896685,47.655,-122.3035,60.0,1.5666666666666667
2026-02-06T21:35:10+00:00,SAT-48119,201.7629479324506,50.95232142956611,694.6829743184666,-3.4424933071970023,120570.67735029053,10.5,10500120570.677351,47.655,-122.3035,60.0,1.5833333333333333
2026-02-06T21:35:11+00:00,SAT-48119,201.20988739659813,51.35524345947826,691.2497098607623,-3.388292211200009,118672.32569806707,10.5,10500118672.325699,47.655,-122.3035,60.0,1.6
2026-02-06T21:35:12+00:00,SAT-48119,200.64134400914426,51.75906911240625,687.870501193396,-3.333284827873811,116745.73445298286,10.5,10500116745.734453,47.655,-122.3035,60.0,1.6166666666666667
2026-02-06T21:35:13+00:00,SAT-48119,200.05677912188685,52.16361951955977,684.5461524421524,-3.2774686514149214,114790.81585120021,10.5,10500114790.815851,47.655,-122.3035,60.0,1.6333333333333333
2026-02-06T21:35:14+00:00,SAT-48119,199.45563687857413,52.56870412992226,681.2774702319014,-3.2208418126482057,112807.50442629935,10.5,10500112807.504427,47.655,-122.3035,60.0,1.65
2026-02-06T21:35:15+00:00,SAT-48119,198.8373442857685,52.97412020474344,678.0652630516767,-3.16340299287347,110795.75399182136,10.5,10500110795.753992,47.655,-122.3035,60.0,1.6666666666666667
2026-02-06T21:35:16+00:00,SAT-48119,198.20131142941094,53.379652289759804,674.9103407056775,-3.1051516153521224,108755.54434794115,10.5,10500108755.544348,47.655,-122.3035,60.0,1.6833333333333333
2026-02-06T21:35:17+00:00,SAT-48119,197.5469318020384,53.78507170198963,671.8135135732952,-3.046087732734968,106686.87733871264,10.5,10500106686.877338,47.655,-122.3035,60.0,1.7
2026-02-06T21:35:18+00:00,SAT-48119,196.87358282459635,54.19013599562838,668.7755919814118,-2.986212147502163,104589.78107038542,10.5,10500104589.78107,47.655,-122.3035,60.0,1.7166666666666666
2026-02-06T21:35:19+00:00,SAT-48119,196.18062653994522,54.594588439723005,665.7973854565796,-2.9255263656242487,102464.30828841802,10.5,10500102464.308289,47.655,-122.3035,60.0,1.7333333333333334
2026-02-06T21:35:20+00:00,SAT-48119,195.46741054288208,54.99815748975064,662.8797020234192,-2.8640327187149275,100310.54065578507,10.5,10500100310.540655,47.655,-122.3035,60.0,1.75
2026-02-06T21:35:21+00:00,SAT-48119,194.73326913624436,55.400556280215696,660.0233473811863,-2.8017342884417595,98128.58610551995,10.5,10500098128.586105,47.655,-122.3035,60.0,1.7666666666666666
2026-02-06T21:35:22+00:00,SAT-48119,193.9775247960891,55.801482116689236,657.2291241557328,-2.7386350246086133,95918.5829764618,10.5,10500095918.582977,47.655,-122.3035,60.0,1.7833333333333334
2026-02-06T21:35:23+00:00,SAT-48119,193.1994899313497,56.200616000079854,654.4978310336936,-2.6747396939206305,93680.69821878782,10.5,10500093680.69822,47.655,-122.3035,60.0,1.8
2026-02-06T21:35:24+00:00,SAT-48119,192.39846902203706,56.59762216665263,651.8302619477782,-2.6100539637181384,91415.13032672908,10.5,10500091415.130327,47.655,-122.3035,60.0,1.8166666666666667
2026-02-06T21:35:25+00:00,SAT-48119,191.57376113903857,56.99214767116805,649.2272051785494,-2.5445844009820573,89122.1093037357,10.5,10500089122.109304,47.655,-122.3035,60.0,1.8333333333333333
2026-02-06T21:35:26+00:00,SAT-48119,190.72466291116567,57.383822010533784,646.6894424571938,-2.4783384754790245,86801.89677263248,10.5,10500086801.896772,47.655,-122.3035,60.0,1.85
2026-02-06T21:35:27+00:00,SAT-48119,189.8504719848028,57.77225679889374,644.2177480651567,-2.4113246190710202,84454.78805289262,10.5,10500084454.788054,47.655,-122.3035,60.0,1.8666666666666667
2026-02-06T21:35:28+00:00,SAT-48119,188.95049100038383,58.15704551485527,641.8128878746267,-2.3435522196365492,82081.11194773208,10.5,10500082081.111948,47.655,-122.3035,60.0,1.8833333333333333
2026-02-06T21:35:29+00:00,SAT-48119,188.0240321518457,58.5377633244271,639.4756183950806,-2.275031641986809,79681.2314766821,10.5,10500079681.231476,47.655,-122.3035,60.0,1.9
2026-02-06T21:35:30+00:00,SAT-48119,187.07042236194818,58.91396699869126,637.2066857989718,-2.2057742292451246,77255.54392390286,10.5,10500077255.543924,47.655,-122.3035,60.0,1.9166666666666667
2026-02-06T21:35:31+00:00,SAT-48119,186.0890091215509,59.285194939430056,635.0068249460384,-2.1357923526425746,74804.48258223706,10.5,10500074804.482582,47.655,-122.3035,60.0,1.9333333333333333
2026-02-06T21:35:32+00:00,SAT-48119,185.07916700264207,59.65096733881144,632.8767583579538,-2.0650993736958974,72328.51542851995,10.5,10500072328.515429,47.655,-122.3035,60.0,1.95
2026-02-06T21:35:33+00:00,SAT-48119,184.04030491124675,60.01078647786877,630.8171952306952,-1.993709691443719,69828.14677799215,10.5,10500069828.146778,47.655,-122.3035,60.0,1.9666666666666666
2026-02-06T21:35:34+00:00,SAT-48119,182.97187405464962,60.3641371986476,628.8288303998024,-1.9216387066376475,67303.91603012006,10.5,10500067303.91603,47.655,-122.3035,60.0,1.9833333333333334
2026-02-06T21:35:35+00:00,SAT-48119,181.87337666616526,60.71048755742014,626.9123433413512,-1.8489028745161904,64756.39951696183,10.5,10500064756.399517,47.655,-122.3035,60.0,2.0
2026-02-06T21:35:36+00:00,SAT-48119,180.74437542151642,61.0492896968724,625.068397120293,-1.7755196425853186,62186.208323979394,10.5,10500062186.208324,47.655,-122.3035,60.0,2.0166666666666666
2026-02-06T21:35:37+00:00,SAT-48119,179.58450357664955,61.3799809394041,623.2976374008476,-1.7015075051846207,59593.99020117616,10.5,10500059593.990202,47.655,-122.3035,60.0,2.033333333333333
2026-02-06T21:35:38+00:00,SAT-48119,178.39347569158537,61.70198514488859,621.6006914024764,-1.6268859313268322,56980.42703573196,10.5,10500056980.427036,47.655,-122.3035,60.0,2.05
2026-02-06T21:35:39+00:00,SAT-48119,177.17109893200524,62.01471433090898,619.9781669278211,-1.5516754259277739,54346.236996534535,10.5,10500054346.236996,47.655,-122.3035,60.0,2.066666666666667
2026-02-06T21:35:40+00:00,SAT-48119,175.91728472899487,62.31757059987115,618.4306513295792,-1.4758974509045935,51692.17177070622,10.5,10500051692.17177,47.655,-122.3035,60.0,2.0833333333333335
2026-02-06T21:35:41+00:00,SAT-48119,174.63206073658398,62.60994836314315,616.9587105560665,-1.3995744370082681,49019.01697802824,10.5,10500049019.016977,47.655,-122.3035,60.0,2.1
2026-02-06T21:35:42+00:00,SAT-48119,173.31558282113525,62.89123689193924,615.5628881849826,-1.3227297615301628,46327.59139013,10.5,10500046327.59139,47.655,-122.3035,60.0,2.1166666666666667
2026-02-06T21:35:43+00:00,SAT-48119,171.96814686477384,63.160823196014405,614.2437044794066,-1.2453877181267343,43618.74587362271,10.5,10500043618.745874,47.655,-122.3035,60.0,2.1333333333333333
2026-02-06T21:35:44+00:00,SAT-48119,170.5902001108111,63.41809522945939,613.0016554738887,-1.1675734779550777,40893.36202890173,10.5,10500040893.362028,47.655,-122.3035,60.0,2.15
2026-02-06T21:35:45+00:00,SAT-48119,169.1823517467323,63.66244541479548,611.837212099303,-1.0893130776271007,38152.35176825081,10.5,10500038152.351768,47.655,-122.3035,60.0,2.1666666666666665
2026-02-06T21:35:46+00:00,SAT-48119,167.74538234468665,63.89327447494789,610.7508193197116,-1.0106333614180747,35396.65529174114,10.5,10500035396.655293,47.655,-122.3035,60.0,2.183333333333333
2026-02-06T21:35:47+00:00,SAT-48119,166.28025184240698,64.10999553745783,609.742895326868,-0.9315619648585064,32627.24051254924,10.5,10500032627.240513,47.655,-122.3035,60.0,2.2
2026-02-06T21:35:48+00:00,SAT-48119,164.7881056270165,64.31203848237567,608.8138307510819,-0.852127246339572,29845.100661489974,10.5,10500029845.100662,47.655,-122.3035,60.0,2.216666666666667
2026-02-06T21:35:49+00:00,SAT-48119,163.27027841458306,64.49885447397394,607.9639879402963,-0.7723582586623404,27051.253290550005,10.5,10500027051.25329,47.655,-122.3035,60.0,2.2333333333333334
2026-02-06T21:35:50+00:00,SAT-48119,161.72829550858833,64.66992062440276,607.1937002675401,-0.6922847001916269,24246.738562089122,10.5,10500024246.738562,47.655,-122.3035,60.0,2.25
2026-02-06T21:35:51+00:00,SAT-48119,160.16387113486422,64.82474471351858,606.5032714870943,-0.6119368522872792,21432.617057419207,10.5,10500021432.617058,47.655,-122.3035,60.0,2.2666666666666666
2026-02-06T21:35:52+00:00,SAT-48119,158.5789036246068,64.96286988034761,605.8929751530607,-0.5313455350254026,18609.968225974273,10.5,10500018609.968225,47.655,-122.3035,60.0,2.283333333333333
2026-02-06T21:35:53+00:00,SAT-48119,156.97546721852467,65.08387920077806,605.363054082089,-0.4505420443137874,15779.888182826693,10.5,10500015779.888184,47.655,-122.3035,60.0,2.3
2026-02-06T21:35:54+00:00,SAT-48119,155.35580044526378,65.18740005223813,604.9137198788213,-0.3695580989638693,12943.487854923382,10.5,10500012943.487854,47.655,-122.3035,60.0,2.316666666666667
2026-02-06T21:35:55+00:00,SAT-48119,153.72229106657392,65.27310817008426,604.5451525141216,-0.28842577490345905,10101.890676937312,10.5,10500010101.890676,47.655,-122.3035,60.0,2.3333333333333335
2026-02-06T21:35:56+00:00,SAT-48119,152.07745777006357,65.34073129640686,604.2574999689181,-0.20717744253027018,7256.230397123056,10.5,10500007256.230396,47.655,-122.3035,60.0,2.35
2026-02-06T21:35:57+00:00,SAT-48119,150.42392888945207,65.39005233059744,604.0508779405209,-0.12584570811163887,4407.649024887104,10.5,10500004407.649025,47.655,-122.3035,60.0,2.3666666666666667
2026-02-06T21:35:58+00:00,SAT-48119,148.76441849377628,65.42091190041877,603.9253696073858,-0.044463343766832336,1557.2943784721215,10.5,10500001557.294378,47.655,-122.3035,60.0,2.3833333333333333
2026-02-06T21:35:59+00:00,SAT-48119,147.1017004310667,65.43321028149896,603.8810254637077,0.036936776147963125,-1293.6821431098604,10.5,10499998706.317858,47.655,-122.3035,60.0,2.4
2026-02-06T21:36:00+00:00,SAT-48119,145.438580875345,65.42690861358857,603.9178632174561,0.11832174063594883,-4144.127857537573,10.5,10499995855.872143,47.655,-122.3035,60.0,2.4166666666666665
2026-02-06T21:36:01+00:00,SAT-48119,143.77787007443197,65.40202937881668,604.0358677538336,0.19965867016306843,-6992.891184448071,10.5,10499993007.108816,47.655,-122.3035,60.0,2.433333333333333
2026-02-06T21:36:02+00:00,SAT-48119,142.1223539790307,65.35865612777722,604.2349911666549,0.28091477967878387,-9838.823852690886,10.5,10499990161.176147,47.655,-122.3035,60.0,2.45
2026-02-06T21:36:03+00:00,SAT-48119,140.47476650619186,65.29693246228216,604.5151528525757,0.3620574516872785,-12680.78345959065,10.5,10499987319.216541,47.655,-122.3035,60.0,2.466666666666667
2026-02-06T21:36:04+00:00,SAT-48119,138.83776305599284,65.21706030121673,604.876239678199,0.44305428622705956,-15517.63522144418,10.5,10499984482.364779,47.655,-122.3035,60.0,2.4833333333333334
2026-02-06T21:36:05+00:00,SAT-48119,137.21389601256223,65.11929748278305,605.3181061970262,0.5238731849860305,-18348.254919586136,10.5,10499981651.74508,47.655,-122.3035,60.0,2.5
2026-02-06T21:36:06+00:00,SAT-48119,135.6055926171246,65.00395476077716,605.8405749502978,0.6044823984931279,-21171.530553239743,10.5,10499978828.469446,47.655,-122.3035,60.0,2.5166666666666666
2026-02-06T21:36:07+00:00,SAT-48119,134.0151357919926,64.87139228215563,606.4434368148991,0.6848505891929678,-23986.364548657733,10.5,10499976013.635452,47.655,-122.3035,60.0,2.533333333333333
2026-02-06T21:36:08+00:00,SAT-48119,132.44464814538566,64.72201563161012,607.1264514141717,0.7649468974858287,-26791.67607212187,10.5,10499973208.323927,47.655,-122.3035,60.0,2.55
2026-02-06T21:36:09+00:00,SAT-48119,130.8960793453623,64.55627153790743,607.8893475945881,0.8447409950179243,-29586.40289639376,10.5,10499970413.597103,47.655,-122.3035,60.0,2.566666666666667
2026-02-06T21:36:10+00:00,SAT-48119,129.3711969511109,64.37464334248092,608.7318239555726,0.9242031318759626,-32369.503053667904,10.5,10499967630.496946,47.655,-122.3035,60.0,2.5833333333333335
2026-02-06T21:36:11+00:00,SAT-48119,127.87158064768961,64.17764632767197,609.6535494263923,1.0033042017545137,-35139.9571180086,10.5,10499964860.042883,47.655,-122.3035,60.0,2.6
2026-02-06T21:36:12+00:00,SAT-48119,126.39861969351693,63.965822992163986,610.6541639080377,1.082015780349601,-37896.76955005589,10.5,10499962103.23045,47.655,-122.3035,60.0,2.6166666666666667
2026-02-06T21:36:13+00:00,SAT-48119,124.95351338600757,63.73973836327909,611.7332789533982,1.160310178135925,-40638.970545507225,10.5,10499959361.029455,47.655,-122.3035,60.0,2.6333333333333333
2026-02-06T21:36:14+00:00,SAT-48119,123.5372742093904,63.49997541750137,612.8904785000697,1.2381604810396922,-43365.617459651934,10.5,10499956634.38254,47.655,-122.3035,60.0,2.65
2026-02-06T21:36:15+00:00,SAT-48119,122.15073333461363,63.24713067541162,614.1253196437257,1.315540582138823,-46075.79591764661,10.5,10499953924.204082,47.655,-122.3035,60.0,2.6666666666666665
2026-02-06T21:36:16+00:00,SAT-48119,120.79454809915711,62.98181002488996,615.4373334431084,1.3924252335053067,-48768.62163025369,10.5,10499951231.37837,47.655,-122.3035,60.0,2.683333333333333
2026-02-06T21:36:17+00:00,SAT-48119,119.46921106486609,62.70462480893217,616.8260257767173,1.4687900759608334,-51443.24143600955,10.5,10499948556.758564,47.655,-122.3035,60.0,2.7
2026-02-06T21:36:18+00:00,SAT-48119,118.17506030347849,62.416188211867684,618.2908782291777,1.544611651591579,-54098.83373954518,10.5,10499945901.16626,47.655,-122.3035,60.0,2.716666666666667
2026-02-06T21:36:19+00:00,SAT-48119,116.91229056650532,62.11711196604675,619.8313489900878,1.619867443371179,-56734.60989935037,10.5,10499943265.3901,47.655,-122.3035,60.0,2.7333333333333334
2026-02-06T21:36:20+00:00,SAT-48119,115.6809649883969,61.80800338283014,621.4468737923848,1.6945359128389974,-59349.81554742606,10.5,10499940650.184452,47.655,-122.3035,60.0,2.75
2026-02-06T21:36:21+00:00,SAT-48119,114.4810270405001,61.48946270968353,623.1368668882874,1.7685964855217158,-61943.73007868669,10.5,10499938056.269922,47.655,-122.3035,60.0,2.7666666666666666
2026-02-06T21:36:22+00:00,SAT-48119,113.31231252014285,61.16208081756557,624.9007220106978,1.8420295875384978,-64515.667933027944,10.5,10499935484.332067,47.655,-122.3035,60.0,2.783333333333333
2026-02-06T21:36:23+00:00,SAT-48119,112.17456132463712,60.82643719739655,626.7378133711122,1.9148166533686213,-67064.97886738206,10.5,10499932935.021133,47.655,-122.3035,60.0,2.8
2026-02-06T21:36:24+00:00,SAT-48119,111.06742885973563,60.48309825554737,628.647496665278,1.9869401429227043,-69591.04855362437,10.5,10499930408.951447,47.655,-122.3035,60.0,2.816666666666667
2026-02-06T21:36:25+00:00,SAT-48119,109.99049694159933,60.13261588790835,630.6291100958751,2.0583835368373546,-72093.29841377206,10.5,10499927906.701586,47.655,-122.3035,60.0,2.8333333333333335
2026-02-06T21:36:26+00:00,SAT-48119,108.94328410405555,59.77552631557031,632.6819753905071,2.1291313119642394,-74571.18476150763,10.5,10499925428.815239,47.655,-122.3035,60.0,2.85
2026-02-06T21:36:27+00:00,SAT-48119,107.92525524630075,59.41234916316333,634.805398795244,2.1991690249380573,-77024.20172908287,10.5,10499922975.798271,47.655,-122.3035,60.0,2.8666666666666667
2026-02-06T21:36:28+00:00,SAT-48119,106.93583052779367,59.043586738759835,636.9986721515116,2.268483195963448,-79451.87719704477,10.5,10499920548.122803,47.655,-122.3035,60.0,2.8833333333333333
2026-02-06T21:36:29+00:00,SAT-48119,105.97439358194816,58.66972352722206,639.2610738570772,2.337061403851584,-81853.77612281905,10.5,10499918146.223877,47.655,-122.3035,60.0,2.9
2026-02-06T21:36:30+00:00,SAT-48119,105.0402989478898,58.29122583895012,641.5918699218196,2.4048921907374736,-84229.49720350695,10.5,10499915770.502796,47.655,-122.3035,60.0,2.9166666666666665
2026-02-06T21:36:31+00:00,SAT-48119,104.132878814442,57.90854162516149,643.9903149284688,2.4719651245255614,-86578.6750629944,10.5,10499913421.324938,47.655,-122.3035,60.0,2.933333333333333
2026-02-06T21:36:32+00:00,SAT-48119,103.25144903480628,57.52210041384841,646.4556530556266,2.5382707415258174,-88900.97824282518,10.5,10499911099.021757,47.655,-122.3035,60.0,2.95
2026-02-06T21:36:33+00:00,SAT-48119,102.3953144908219,57.13231336775797,648.9871190435758,2.6038005293052597,-91196.10860158873,10.5,10499908803.891397,47.655,-122.3035,60.0,2.966666666666667
2026-02-06T21:36:34+00:00,SAT-48119,101.56377382700852,56.73957344065463,651.5839391429865,2.6685469371649058,-93463.80168186722,10.5,10499906536.198318,47.655,-122.3035,60.0,2.9833333333333334
2026-02-06T21:36:35+00:00,SAT-48119,100.75612358797895,56.344255612441664,654.2453320740724,2.7325033176330025,-95703.82466108112,10.5,10499904296.175339,47.655,-122.3035,60.0,3.0
2026-02-06T21:36:36+00:00,SAT-48119,99.97166182473426,55.94671719971572,656.9705099273964,2.795663956748574,-97915.977412147,10.5,10499902084.022589,47.655,-122.3035,60.0,3.0166666666666666
2026-02-06T21:36:37+00:00,SAT-48119,99.2096911877735,55.54729821605478,659.7586790948785,2.85802397842132,-100100.0891537567,10.5,10499899899.910847,47.655,-122.3035,60.0,3.033333333333333
2026-02-06T21:36:38+00:00,SAT-48119,98.46952158649049,55.146321789439796,662.6090411054208,2.919579392410358,-102256.02013079582,10.5,10499897743.97987,47.655,-122.3035,60.0,3.05
2026-02-06T21:36:39+00:00,SAT-48119,97.75047241849751,54.74409460613927,665.5207935083822,2.9803270335463496,-104383.65948564548,10.5,10499895616.340515,47.655,-122.3035,60.0,3.066666666666667
2026-02-06T21:36:40+00:00,SAT-48119,97.05187444025105,54.34090738838476,668.4931306964365,3.040264528542588,-106482.92409576618,10.5,10499893517.075905,47.655,-122.3035,60.0,3.0833333333333335
2026-02-06T21:36:41+00:00,SAT-48119,96.37307130910827,53.93703539414564,671.5252446953348,3.099390272697313,-108553.75775771445,10.5,10499891446.242243,47.655,-122.3035,60.0,3.1
2026-02-06T21:36:42+00:00,SAT-48119,95.71342083113845,53.532738931177455,674.6163259304268,3.1577034415128895,-110596.13159409547,10.5,10499889403.868406,47.655,-122.3035,60.0,3.1166666666666667
2026-02-06T21:36:43+00:00,SAT-48119,95.072295942589,53.128263875467304,677.765564004776,3.2152038951159296,-112610.04070595153,10.5,10499887389.959293,47.655,-122.3035,60.0,3.1333333333333333
2026-02-06T21:36:44+00:00,SAT-48119,94.44908547759056,52.72384220336118,680.9721483819474,3.271892191211689,-114595.50462647974,10.5,10499885404.495373,47.655,-122.3035,60.0,3.15
2026-02-06T21:36:45+00:00,SAT-48119,93.84319472840309,52.319692519040224,684.2352690817155,3.327769546346789,-116552.56596428882,10.5,10499883447.434036,47.655,-122.3035,60.0,3.1666666666666665
2026-02-06T21:36:46+00:00,SAT-48119,93.25404583469721,51.9160205808626,687.5541173371408,3.3828378278051505,-118481.29011956025,10.5,10499881518.70988,47.655,-122.3035,60.0,3.183333333333333
2026-02-06T21:36:47+00:00,SAT-48119,92.68107802016785,51.51301982004078,690.927886243561,3.4370994653401286,-120381.76219253438,10.5,10499879618.237808,47.655,-122.3035,60.0,3.2
2026-02-06T21:36:48+00:00,SAT-48119,92.12374771060959,51.110871858978435,694.3557713195545,3.490557495627984,-122254.08854045898,10.5,10499877745.911459,47.655,-122.3035,60.0,3.216666666666667
2026-02-06T21:36:49+00:00,SAT-48119,91.58152853025098,50.70974701140822,697.8369711122336,3.543215465438301,-124098.39338620772,10.5,10499875901.606613,47.655,-122.3035,60.0,3.2333333333333334
2026-02-06T21:36:50+00:00,SAT-48119,91.05391121585014,50.309804779749534,701.3706877059726,3.595077466416415,-125914.82003650792,10.5,10499874085.179964,47.655,-122.3035,60.0,3.25
2026-02-06T21:36:51+00:00,SAT-48119,90.54040344351468,49.91119433308708,704.9561272658224,3.6461480575354344,-127703.52816588222,10.5,10499872296.471834,47.655,-122.3035,60.0,3.2666666666666666
2026-02-06T21:36:52+00:00,SAT-48119,90.0405295975599,49.514054977898624,708.5925005035838,3.696432238572884,-129464.6928876886,10.5,10499870535.307112,47.655,-122.3035,60.0,3.283333333333333
2026-02-06T21:36:53+00:00,SAT-48119,89.55383048548586,49.118516614810076,712.2790231174329,3.7459354610614413,-131198.50513766138,10.5,10499868801.494862,47.655,-122.3035,60.0,3.3
2026-02-06T21:36:54+00:00,SAT-48119,89.07986300420862,48.7247001770589,716.0149162424622,3.794663571734751,-132905.16969314445,10.5,10499867094.830307,47.655,-122.3035,60.0,3.316666666666667
2026-02-06T21:36:55+00:00,SAT-48119,88.61819977590338,48.33271805779796,719.7994068448248,3.8426227952536705,-134584.90456809136,10.5,10499865415.095432,47.655,-122.3035,60.0,3.3333333333333335
2026-02-06T21:36:56+00:00,SAT-48119,88.16842875557202,47.94267452180332,723.6317280986462,3.88981966570968,-136237.9386140249,10.5,10499863762.061386,47.655,-122.3035,60.0,3.35
2026-02-06T21:36:57+00:00,SAT-48119,87.73015282251279,47.55466610673559,727.5111196946274,3.9362611015321565,-137864.51414360676,10.5,10499862135.485857,47.655,-122.3035,60.0,3.3666666666666667
2026-02-06T21:36:58+00:00,SAT-48119,87.3029893461511,47.16878199961851,731.4368282233504,3.981954281257986,-139464.88257956394,10.5,10499860535.11742,47.655,-122.3035,60.0,3.3833333333333333
2026-02-06T21:36:59+00:00,SAT-48119,86.88656975285866,46.78510440893139,735.4081074346899,4.026906658555946,-141039.30498090596,10.5,10499858960.695019,47.655,-122.3035,60.0,3.4
2026-02-06T21:37:00+00:00,SAT-48119,86.48053908264788,46.40370891829567,739.4242185122072,4.071125943850109,-142588.05139929886,10.5,10499857411.9486,47.655,-122.3035,60.0,3.4166666666666665
2026-02-06T21:37:01+00:00,SAT-48119,86.08455554293748,46.02466482561699,743.4844303292173,4.114620085076731,-144111.40020509012,10.5,10499855888.599794,47.655,-122.3035,60.0,3.433333333333333
2026-02-06T21:37:02+00:00,SAT-48119,85.6982900630495,45.648035468149544,747.5880196856635,4.157397229053715,-145609.63673430373,10.5,10499854390.363266,47.655,-122.3035,60.0,3.45
2026-02-06T21:37:03+00:00,SAT-48119,85.32142585318472,45.273878535621336,751.7342715064668,4.199465704018428,-147083.05267704063,10.5,10499852916.947323,47.655,-122.3035,60.0,3.466666666666667
2026-02-06T21:37:04+00:00,SAT-48119,84.95365796846393,44.90224636979944,755.9224790224591,4.240834007016989,-148531.94563579842,10.5,10499851468.054363,47.655,-122.3035,60.0,3.4833333333333334
2026-02-06T21:37:05+00:00,SAT-48119,84.59469287888912,44.53318625052892,760.1519439387384,4.281510811123406,-149956.6193783159,10.5,10499850043.380621,47.655,-122.3035,60.0,3.5
2026-02-06T21:37:06+00:00,SAT-48119,84.24424804586553,44.166740667089805,764.4219766102257,4.32150486956506,-151357.38047964213,10.5,10499848642.61952,47.655,-122.3035,60.0,3.5166666666666666
2026-02-06T21:37:07+00:00,SAT-48119,83.90205151396576,43.80294758418469,768.7318961216031,4.360825094952135,-152734.54109708598,10.5,10499847265.458902,47.655,-122.3035,60.0,3.533333333333333
2026-02-06T21:37:08+00:00,SAT-48119,83.56784150552885,43.441840687874816,773.0810304462693,4.399480460686536,-154088.4155171396,10.5,10499845911.584482,47.655,-122.3035,60.0,3.55
2026-02-06T21:37:09+00:00,SAT-48119,83.24136603219783,43.08344962722001,777.4687165069691,4.43748004842606,-155419.32181787453,10.5,10499844580.678183,47.655,-122.3035,60.0,3.566666666666667
2026-02-06T21:37:10+00:00,SAT-48119,82.92238251328673,42.72780023969672,781.8943002837577,4.4748329937839175,-156727.57996710888,10.5,10499843272.420033,47.655,-122.3035,60.0,3.5833333333333335
2026-02-06T21:37:11+00:00,SAT-48119,82.61065740862828,42.37491476938641,786.3571368678123,4.5115484686153495,-158013.5112020102,10.5,10499841986.488798,47.655,-122.3035,60.0,3.6
2026-02-06T21:37:12+00:00,SAT-48119,82.30596586343805,42.024812075216964,790.8565904975769,4.547635718296328,-159277.43933475282,10.5,10499840722.560665,47.655,-122.3035,60.0,3.6166666666666667
2026-02-06T21:37:13+00:00,SAT-48119,82.0080913618643,41.677507825496775,795.392034632086,4.583103994051795,-160519.688382367,10.5,10499839480.311617,47.655,-122.3035,60.0,3.6333333333333333
2026-02-06T21:37:14+00:00,SAT-48119,81.71682539615377,41.33301468743687,799.9628519567981,4.617962545898786,-161740.58231957673,10.5,10499838259.41768,47.655,-122.3035,60.0,3.65
2026-02-06T21:37:15+00:00,SAT-48119,81.43196714735517,40.991342507166564,804.5684343823903,4.652220640401331,-162940.4457006519,10.5,10499837059.554298,47.655,-122.3035,60.0,3.6666666666666665
2026-02-06T21:37:16+00:00,SAT-48119,81.15332317585639,40.65249847890592,809.208183061261,4.68588755866109,-164119.60358903173,10.5,10499835880.396412,47.655,-122.3035,60.0,3.683333333333333
2026-02-06T21:37:17+00:00,SAT-48119,80.88070712347347,40.31648730534091,813.8815084020299,4.7189725216260685,-165278.37894131985,10.5,10499834721.62106,47.655,-122.3035,60.0,3.7
