DopplerPredictor/satellites_20260211_205621/SAT-45414.csv

timestamp,satellite,azimuth_deg,elevation_deg,distance_km,relative_velocity_kms,doppler_shift_hz,tx_freq_ghz,rx_freq_hz,ue_lat,ue_lon,ue_alt_m,time_minutes
2026-02-06T21:43:21+00:00,SAT-45414,286.61030146573995,40.188757903421646,805.1722255045385,-4.112203183684854,144026.75009486382,10.5,10500144026.750095,47.655,-122.3035,60.0,9.766666666666667
2026-02-06T21:43:22+00:00,SAT-45414,287.018132109124,40.486109281629744,801.071046570105,-4.072326442490603,142630.09793979317,10.5,10500142630.09794,47.655,-122.3035,60.0,9.783333333333333
2026-02-06T21:43:23+00:00,SAT-45414,287.43375290773287,40.78467529647791,797.0096374728256,-4.031832779957534,141211.8385898624,10.5,10500141211.83859,47.655,-122.3035,60.0,9.8
2026-02-06T21:43:24+00:00,SAT-45414,287.85734792098566,41.084394804215094,792.9886134801583,-3.990715825974578,139771.7489368364,10.5,10500139771.748938,47.655,-122.3035,60.0,9.816666666666666
2026-02-06T21:43:25+00:00,SAT-45414,288.28910499273996,41.3852027119054,789.0085962125944,-3.948969408892013,138309.6128234358,10.5,10500138309.612823,47.655,-122.3035,60.0,9.833333333333334
2026-02-06T21:43:26+00:00,SAT-45414,288.7292157157607,41.68702982865713,785.0702134457297,-3.9065874875585007,136825.2186629867,10.5,10500136825.218662,47.655,-122.3035,60.0,9.85
2026-02-06T21:43:27+00:00,SAT-45414,289.1778753719428,41.98980270841464,781.1740989801162,-3.8635642625033078,135318.3633334923,10.5,10500135318.363333,47.655,-122.3035,60.0,9.866666666666667
2026-02-06T21:43:28+00:00,SAT-45414,289.6352828655769,42.293443498169594,777.3208924002289,-3.819894090054031,133788.84916967232,10.5,10500133788.849169,47.655,-122.3035,60.0,9.883333333333333
2026-02-06T21:43:29+00:00,SAT-45414,290.10164062640376,42.59786977683554,773.5112389190849,-3.775571585891836,132236.48758990556,10.5,10500132236.48759,47.655,-122.3035,60.0,9.9
2026-02-06T21:43:30+00:00,SAT-45414,290.57715450152136,42.902994399803866,769.745789119586,-3.7305915951339563,130661.09804839233,10.5,10500130661.09805,47.655,-122.3035,60.0,9.916666666666666
2026-02-06T21:43:31+00:00,SAT-45414,291.0620336191036,43.208725339300976,766.0251987256968,-3.684949200097131,129062.50830706314,10.5,10500129062.508307,47.655,-122.3035,60.0,9.933333333333334
2026-02-06T21:43:32+00:00,SAT-45414,291.55649022555525,43.5149655238311,762.3501283658821,-3.6386397866262583,127440.55675868841,10.5,10500127440.556759,47.655,-122.3035,60.0,9.95
2026-02-06T21:43:33+00:00,SAT-45414,292.0607395013627,43.821612682169544,758.7212432703915,-3.5916590173753766,125795.09149106564,10.5,10500125795.091492,47.655,-122.3035,60.0,9.966666666666667
2026-02-06T21:43:34+00:00,SAT-45414,292.5749993414191,44.12855918494494,755.139212995193,-3.54400287147129,124125.97167620723,10.5,10500124125.971676,47.655,-122.3035,60.0,9.983333333333333
