DopplerPredictor/satellites_20260211_205621/SAT-56904.csv

timestamp,satellite,azimuth_deg,elevation_deg,distance_km,relative_velocity_kms,doppler_shift_hz,tx_freq_ghz,rx_freq_hz,ue_lat,ue_lon,ue_alt_m,time_minutes
2026-02-06T21:33:35+00:00,SAT-56904,175.9123422425215,40.43059382096213,823.3277010687955,1.1364491463183084,-39803.25627918977,10.5,10499960196.743721,47.655,-122.3035,60.0,0.0
2026-02-06T21:33:36+00:00,SAT-56904,175.27026291431784,40.350043993302016,824.4611035517828,1.193257365194701,-41792.920402768636,10.5,10499958207.079597,47.655,-122.3035,60.0,0.016666666666666666
2026-02-06T21:33:37+00:00,SAT-56904,174.63156802061803,40.2657947867273,825.6511619586508,1.2498189728359377,-43773.94715772785,10.5,10499956226.052843,47.655,-122.3035,60.0,0.03333333333333333
2026-02-06T21:33:38+00:00,SAT-56904,173.99638915948265,40.1779078911355,826.8976303392956,1.306123798127986,-45745.98030863023,10.5,10499954254.019691,47.655,-122.3035,60.0,0.05
2026-02-06T21:33:39+00:00,SAT-56904,173.36485301928724,40.086446953743774,828.200252599766,1.362161921375293,-47708.67242577722,10.5,10499952291.327574,47.655,-122.3035,60.0,0.06666666666666667
