DopplerPredictor/satellites_20260211_205621/SAT-55439.csv

timestamp,satellite,azimuth_deg,elevation_deg,distance_km,relative_velocity_kms,doppler_shift_hz,tx_freq_ghz,rx_freq_hz,ue_lat,ue_lon,ue_alt_m,time_minutes
2026-02-06T21:42:22+00:00,SAT-55439,321.10507239478784,40.00956874888763,849.5224487533173,-5.1057424983724955,178824.69956235925,10.5,10500178824.699562,47.655,-122.3035,60.0,8.783333333333333
2026-02-06T21:42:23+00:00,SAT-55439,320.97120273606026,40.35909499458052,844.4303940459907,-5.076700774756573,177807.53555496054,10.5,10500177807.535555,47.655,-122.3035,60.0,8.8
2026-02-06T21:42:24+00:00,SAT-55439,320.8342187013244,40.71230601475664,839.3673032054267,-5.0471240996344156,176771.63528297088,10.5,10500176771.635283,47.655,-122.3035,60.0,8.816666666666666
2026-02-06T21:42:25+00:00,SAT-55439,320.6940144781818,41.06923911085901,834.3337097490001,-5.017002682020812,175716.6558246723,10.5,10500175716.655825,47.655,-122.3035,60.0,8.833333333333334
2026-02-06T21:42:26+00:00,SAT-55439,320.5504794862703,41.42993104448603,829.3301569588235,-4.986326624365885,174642.25052600156,10.5,10500174642.250526,47.655,-122.3035,60.0,8.85
2026-02-06T21:42:27+00:00,SAT-55439,320.40349811091755,41.79441796136915,824.3571979880245,-4.955085901768653,173548.0682725209,10.5,10500173548.068272,47.655,-122.3035,60.0,8.866666666666667
2026-02-06T21:42:28+00:00,SAT-55439,320.2529494196777,42.162735308431266,819.4153959877564,-4.923270450105253,172433.75657604155,10.5,10500172433.756577,47.655,-122.3035,60.0,8.883333333333333
2026-02-06T21:42:29+00:00,SAT-55439,320.0987068579209,42.53491775167053,814.5053241463169,-4.890870094012174,171298.9590522915,10.5,10500171298.959053,47.655,-122.3035,60.0,8.9
2026-02-06T21:42:30+00:00,SAT-55439,319.94063792564634,42.910999082848356,809.6275658000866,-4.85787456424958,170143.31602905298,10.5,10500170143.316029,47.655,-122.3035,60.0,8.916666666666666
2026-02-06T21:42:31+00:00,SAT-55439,319.7786038321797,43.2910121209595,804.782714527157,-4.824273539026825,168966.4659935563,10.5,10500168966.465994,47.655,-122.3035,60.0,8.933333333333334
2026-02-06T21:42:32+00:00,SAT-55439,319.6124591261427,43.67498861012486,799.9713741997384,-4.7900566547990655,167768.0459706234,10.5,10500167768.04597,47.655,-122.3035,60.0,8.95
2026-02-06T21:42:33+00:00,SAT-55439,319.4420512993311,44.06295911130134,795.1941590258032,-4.755213454728703,166547.68971756916,10.5,10500166547.689718,47.655,-122.3035,60.0,8.966666666666667
2026-02-06T21:42:34+00:00,SAT-55439,319.2672203648752,44.45495288225276,790.4516936421272,-4.7197334841684375,165305.031068422,10.5,10500165305.031069,47.655,-122.3035,60.0,8.983333333333333
2026-02-06T21:42:35+00:00,SAT-55439,319.08779840267584,44.85099775713842,785.7446131121065,-4.68360618708824,164039.70030635834,10.5,10500164039.700306,47.655,-122.3035,60.0,9.0
2026-02-06T21:42:36+00:00,SAT-55439,318.903609076018,45.25112000896069,781.0735630268681,-4.646821088036326,162751.3305367456,10.5,10500162751.330536,47.655,-122.3035,60.0,9.016666666666667
2026-02-06T21:42:37+00:00,SAT-55439,318.7144671076348,45.655344218189214,776.4391994249075,-4.6093676020409475,161439.55102909874,10.5,10500161439.55103,47.655,-122.3035,60.0,9.033333333333333
2026-02-06T21:42:38+00:00,SAT-55439,318.52017772445316,46.06369311561702,771.8421889013149,-4.571235212145538,160103.9934351122,10.5,10500160103.993435,47.655,-122.3035,60.0,9.05
2026-02-06T21:42:39+00:00,SAT-55439,318.32053605554165,46.4761874300666,767.2832085399427,-4.532413399789586,158744.28935030333,10.5,10500158744.28935,47.655,-122.3035,60.0,9.066666666666666
2026-02-06T21:42:40+00:00,SAT-55439,318.1153264885641,46.892845719245656,762.7629459150049,-4.492891667031695,157360.07109235815,10.5,10500157360.071093,47.655,-122.3035,60.0,9.083333333333334
2026-02-06T21:42:41+00:00,SAT-55439,317.9043219774648,47.31368419079041,758.2820990705137,-4.452659592337239,155950.97365505112,10.5,10500155950.973656,47.655,-122.3035,60.0,9.1
2026-02-06T21:42:42+00:00,SAT-55439,317.68728329645256,47.73871651606196,753.8413764440762,-4.411706790956548,154516.63332052118,10.5,10500154516.63332,47.655,-122.3035,60.0,9.116666666666667
2026-02-06T21:42:43+00:00,SAT-55439,317.46395823885797,48.16795362704465,749.4414968302107,-4.370022973654257,153056.6897162226,10.5,10500153056.689716,47.655,-122.3035,60.0,9.133333333333333
2026-02-06T21:42:44+00:00,SAT-55439,317.2340807530405,48.601403504613515,745.0831892850857,-4.327597958695812,151570.78623474255,10.5,10500151570.786234,47.655,-122.3035,60.0,9.15
2026-02-06T21:42:45+00:00,SAT-55439,316.9973700107845,49.03907095300479,740.7671930193087,-4.2844216815519225,150058.57037369226,10.5,10500150058.570374,47.655,-122.3035,60.0,9.166666666666666
2026-02-06T21:42:46+00:00,SAT-55439,316.7535294034024,49.480957359180856,736.4942572810348,-4.240484193104918,148519.69367288635,10.5,10500148519.693672,47.655,-122.3035,60.0,9.183333333333334
2026-02-06T21:42:47+00:00,SAT-55439,316.5022454593406,49.92706043463545,732.2651412408649,-4.195775751626885,146953.81493580568,10.5,10500146953.814936,47.655,-122.3035,60.0,9.2
2026-02-06T21:42:48+00:00,SAT-55439,316.2431866718909,50.37737394828536,728.080613785011,-4.150286774996199,145360.59855601867,10.5,10500145360.598557,47.655,-122.3035,60.0,9.216666666666667
2026-02-06T21:42:49+00:00,SAT-55439,315.97600223603996,50.83188743476294,723.941453356119,-4.1040078902826185,143739.71625386082,10.5,10500143739.716253,47.655,-122.3035,60.0,9.233333333333333
2026-02-06T21:42:50+00:00,SAT-55439,315.700320681414,51.2905858866175,719.848447744637,-4.0569299491448305,142090.84761572193,10.5,10500142090.847616,47.655,-122.3035,60.0,9.25
2026-02-06T21:42:51+00:00,SAT-55439,315.4157483942551,51.75344942535587,715.8023938648296,-4.009044111269074,140413.68301641959,10.5,10500140413.683016,47.655,-122.3035,60.0,9.266666666666667
2026-02-06T21:42:52+00:00,SAT-55439,315.1218680134311,52.22045295747242,711.8040974475749,-3.960341754272706,138707.92046364094,10.5,10500138707.920464,47.655,-122.3035,60.0,9.283333333333333
2026-02-06T21:42:53+00:00,SAT-55439,314.81823670126613,52.69156579375403,707.854372823018,-3.910814622024835,136973.2707927588,10.5,10500136973.270792,47.655,-122.3035,60.0,9.3
2026-02-06T21:42:54+00:00,SAT-55439,314.5043842614799,53.166751257062856,703.9540425553025,-3.8604547854870983,135209.4562953099,10.5,10500135209.456295,47.655,-122.3035,60.0,9.316666666666666
2026-02-06T21:42:55+00:00,SAT-55439,314.1798111037865,53.64596625495669,700.1039371163525,-3.8092546784731516,133416.21197144358,10.5,10500133416.211971,47.655,-122.3035,60.0,9.333333333333334
2026-02-06T21:42:56+00:00,SAT-55439,313.8439860354533,54.12916082303588,696.3048945239952,-3.7572071571207974,131593.2876128871,10.5,10500131593.287613,47.655,-122.3035,60.0,9.35
2026-02-06T21:42:57+00:00,SAT-55439,313.4963438634514,54.616277639477836,692.5577599207679,-3.704305515517711,129740.44835022488,10.5,10500129740.44835,47.655,-122.3035,60.0,9.366666666666667
2026-02-06T21:42:58+00:00,SAT-55439,313.1362827921927,55.10725150238033,688.8633851371432,-3.6505434883922083,127857.47474714053,10.5,10500127857.474747,47.655,-122.3035,60.0,9.383333333333333
2026-02-06T21:42:59+00:00,SAT-55439,312.7631616013893,55.6020087644481,685.2226282520685,-3.595915344394067,125944.16606750562,10.5,10500125944.166067,47.655,-122.3035,60.0,9.4
2026-02-06T21:43:00+00:00,SAT-55439,312.3762965756798,56.10046673330255,681.6363530604764,-3.5404158785412316,124000.34001083153,10.5,10500124000.340012,47.655,-122.3035,60.0,9.416666666666666
2026-02-06T21:43:01+00:00,SAT-55439,311.974958173622,56.60253302004204,678.1054285483281,-3.484040432619884,122025.83342676613,10.5,10500122025.833427,47.655,-122.3035,60.0,9.433333333333334
2026-02-06T21:43:02+00:00,SAT-55439,311.5583674115898,57.108104834563186,674.6307283473104,-3.4267850061285676,120020.5062008263,10.5,10500120020.5062,47.655,-122.3035,60.0,9.45
2026-02-06T21:43:03+00:00,SAT-55439,311.1256919284878,57.617068235660604,671.213130078887,-3.368646188843264,117984.2388925417,10.5,10500117984.238892,47.655,-122.3035,60.0,9.466666666666667
2026-02-06T21:43:04+00:00,SAT-55439,310.6760417242802,58.12929730445272,667.8535147656028,-3.3096212726202823,115916.9366512648,10.5,10500115916.936651,47.655,-122.3035,60.0,9.483333333333333
2026-02-06T21:43:05+00:00,SAT-55439,310.2084645267932,58.64465326032735,664.5527661308865,-3.2497082689598225,113818.5298313213,10.5,10500113818.52983,47.655,-122.3035,60.0,9.5
2026-02-06T21:43:06+00:00,SAT-55439,309.72194076852696,59.16298349881004,661.3117698813362,-3.1889059248024676,111688.97454526994,10.5,10500111688.974545,47.655,-122.3035,60.0,9.516666666666667
2026-02-06T21:43:07+00:00,SAT-55439,309.21537814581416,59.684120542502214,658.1314129732491,-3.1272137664477504,109528.25420211664,10.5,10500109528.254202,47.655,-122.3035,60.0,9.533333333333333
2026-02-06T21:43:08+00:00,SAT-55439,308.68760572937634,60.20788090022784,655.0125828353538,-3.0646321933021583,107336.38279076607,10.5,10500107336.382792,47.655,-122.3035,60.0,9.55
2026-02-06T21:43:09+00:00,SAT-55439,308.13736758953024,60.73406383318195,651.9561664980425,-3.0011623827480087,105113.40154812732,10.5,10500105113.401548,47.655,-122.3035,60.0,9.566666666666666
2026-02-06T21:43:10+00:00,SAT-55439,307.56331594128676,61.2624499849709,648.9630498174822,-2.9368064690871276,102859.38522647838,10.5,10500102859.385227,47.655,-122.3035,60.0,9.583333333333334
2026-02-06T21:43:11+00:00,SAT-55439,306.96400374420284,61.7927999092711,646.0341165212593,-2.8715674976303025,100574.44048548471,10.5,10500100574.440485,47.655,-122.3035,60.0,9.6
2026-02-06T21:43:12+00:00,SAT-55439,306.3378767773519,62.32485244376024,643.170247299814,-2.805449454146972,98258.70692365184,10.5,10500098258.706924,47.655,-122.3035,60.0,9.616666666666667
2026-02-06T21:43:13+00:00,SAT-55439,305.68326517190565,62.858322927290914,640.3723188685013,-2.7384573427885246,95912.35980752895,10.5,10500095912.359808,47.655,-122.3035,60.0,9.633333333333333
2026-02-06T21:43:14+00:00,SAT-55439,304.9983743978327,63.392901253359135,637.6412029519419,-2.6705971784751728,93535.60980506492,10.5,10500093535.609804,47.655,-122.3035,60.0,9.65
2026-02-06T21:43:15+00:00,SAT-55439,304.281275744824,63.92824972640681,634.9777652759598,-2.601876034140438,91128.70464031018,10.5,10500091128.70464,47.655,-122.3035,60.0,9.666666666666666
2026-02-06T21:43:16+00:00,SAT-55439,303.52989633600276,64.46400071212582,632.382864512408,-2.5323020540230057,88691.92955895362,10.5,10500088691.92956,47.655,-122.3035,60.0,9.683333333333334
2026-02-06T21:43:17+00:00,SAT-55439,302.7420087630467,64.99975405518717,629.8573512107341,-2.461884501795266,86225.60901398759,10.5,10500086225.609015,47.655,-122.3035,60.0,9.7
2026-02-06T21:43:18+00:00,SAT-55439,301.91522045888587,65.53507425090281,627.402066681548,-2.390633759323128,83730.10662227149,10.5,10500083730.106623,47.655,-122.3035,60.0,9.716666666666667
2026-02-06T21:43:19+00:00,SAT-55439,301.046963003669,66.0694873398787,625.0178418814262,-2.318561372766256,81205.82677915695,10.5,10500081205.826778,47.655,-122.3035,60.0,9.733333333333333
2026-02-06T21:43:20+00:00,SAT-55439,300.13448160650046,66.60247751567879,622.705496251739,-2.245680027839071,78653.21379202357,10.5,10500078653.213793,47.655,-122.3035,60.0,9.75
2026-02-06T21:43:21+00:00,SAT-55439,299.17482513926666,67.13348341173143,620.4658365821506,-2.172003625871434,76072.7545442456,10.5,10500076072.754543,47.655,-122.3035,60.0,9.766666666666667
2026-02-06T21:43:22+00:00,SAT-55439,298.16483716060856,67.6618940761147,618.2996557982635,-2.0975472456015707,73464.9771570187,10.5,10500073464.977158,47.655,-122.3035,60.0,9.783333333333333
2026-02-06T21:43:23+00:00,SAT-55439,297.1011485979532,68.18704460009818,616.2077317873659,-2.022327174827871,70830.45209793987,10.5,10500070830.452099,47.655,-122.3035,60.0,9.8
2026-02-06T21:43:24+00:00,SAT-55439,295.9801728784892,68.70821141763703,614.1908261926126,-1.9463609056445854,68169.79201414116,10.5,10500068169.792015,47.655,-122.3035,60.0,9.816666666666666
2026-02-06T21:43:25+00:00,SAT-55439,294.7981045752266,69.22460728236454,612.2496832119582,-1.869667144323394,65483.65207838429,10.5,10500065483.652079,47.655,-122.3035,60.0,9.833333333333334
2026-02-06T21:43:26+00:00,SAT-55439,293.55092289014266,69.73537596028277,610.3850283872348,-1.7922658117917678,62772.73000581477,10.5,10500062772.730005,47.655,-122.3035,60.0,9.85
2026-02-06T21:43:27+00:00,SAT-55439,292.23440163889165,70.23958669740182,608.5975673927518,-1.7141780142192429,60037.76502376871,10.5,10500060037.765024,47.655,-122.3035,60.0,9.866666666666667
2026-02-06T21:43:28+00:00,SAT-55439,290.84412779571244,70.73622855117246,606.887984853232,-1.6354260654280073,57279.53865668654,10.5,10500057279.538656,47.655,-122.3035,60.0,9.883333333333333
2026-02-06T21:43:29+00:00,SAT-55439,289.37553102209665,71.22420474462852,605.2569431393966,-1.5560334441730868,54498.87322988429,10.5,10500054498.87323,47.655,-122.3035,60.0,9.9
2026-02-06T21:43:30+00:00,SAT-55439,287.8239271124144,71.70232723002681,603.7050812061547,-1.4760248000664136,51696.63207703958,10.5,10500051696.632076,47.655,-122.3035,60.0,9.916666666666666
2026-02-06T21:43:31+00:00,SAT-55439,286.1845786277252,72.16931175649913,602.2330134248857,-1.395425894034811,48873.71745477838,10.5,10500048873.717455,47.655,-122.3035,60.0,9.933333333333334
2026-02-06T21:43:32+00:00,SAT-55439,284.4527764138975,72.62377379387331,600.841328475104,-1.3142636106369554,46031.07097406711,10.5,10500046031.070974,47.655,-122.3035,60.0,9.95
2026-02-06T21:43:33+00:00,SAT-55439,282.6239457298897,73.06422581409231,599.5305882238388,-1.2325658997635804,43169.671558307164,10.5,10500043169.671558,47.655,-122.3035,60.0,9.966666666666667
2026-02-06T21:43:34+00:00,SAT-55439,280.69378069427177,73.48907650688483,598.3013266631585,-1.1503617437292308,40290.534290748976,10.5,10500040290.53429,47.655,-122.3035,60.0,9.983333333333333
