DopplerPredictor/satellites_20260211_205621/SAT-52553.csv

timestamp,satellite,azimuth_deg,elevation_deg,distance_km,relative_velocity_kms,doppler_shift_hz,tx_freq_ghz,rx_freq_hz,ue_lat,ue_lon,ue_alt_m,time_minutes
2026-02-06T21:43:33+00:00,SAT-52553,318.65887606069003,40.13465237097129,803.7007951440538,-2.3566977153049575,82541.52281143128,10.5,10500082541.522812,47.655,-122.3035,60.0,9.966666666666667
2026-02-06T21:43:34+00:00,SAT-52553,319.26489108641084,40.3046309978018,801.3504154100993,-2.302897114939394,80657.19821031536,10.5,10500080657.19821,47.655,-122.3035,60.0,9.983333333333333
