DopplerPredictor/satellites_20260211_205621/SAT-58041.csv

timestamp,satellite,azimuth_deg,elevation_deg,distance_km,relative_velocity_kms,doppler_shift_hz,tx_freq_ghz,rx_freq_hz,ue_lat,ue_lon,ue_alt_m,time_minutes
2026-02-06T21:33:35+00:00,SAT-58041,50.706303882316035,56.64268007434837,567.6068550695842,1.8202069742826592,-63751.34770724593,10.5,10499936248.652292,47.655,-122.3035,60.0,0.0
2026-02-06T21:33:36+00:00,SAT-58041,51.877979437140915,56.33585064350735,569.4221823201576,1.9016990238651068,-66605.54399465119,10.5,10499933394.456005,47.655,-122.3035,60.0,0.016666666666666666
2026-02-06T21:33:37+00:00,SAT-58041,53.023270009897054,56.019898403983035,571.318783151374,1.9823805408009483,-69431.35200022263,10.5,10499930568.648,47.655,-122.3035,60.0,0.03333333333333333
2026-02-06T21:33:38+00:00,SAT-58041,54.14218478931548,55.69540132324358,573.2958492035136,2.0622284756724207,-72227.96443585122,10.5,10499927772.035564,47.655,-122.3035,60.0,0.05
2026-02-06T21:33:39+00:00,SAT-58041,55.234812405096974,55.36292836588629,575.3525491292303,2.14122134996144,-74994.62903297962,10.5,10499925005.370968,47.655,-122.3035,60.0,0.06666666666666667
2026-02-06T21:33:40+00:00,SAT-58041,56.30131326068877,55.023037688678,577.4880301602409,2.219339221123915,-77730.64731935687,10.5,10499922269.35268,47.655,-122.3035,60.0,0.08333333333333333
2026-02-06T21:33:41+00:00,SAT-58041,57.341912016807655,54.6762750823176,579.701419639182,2.296563694770186,-80435.37504564892,10.5,10499919564.624954,47.655,-122.3035,60.0,0.1
2026-02-06T21:33:42+00:00,SAT-58041,58.35689033827422,54.32317263989101,581.9918265636122,2.3728779135714775,-83108.22179689562,10.5,10499916891.778204,47.655,-122.3035,60.0,0.11666666666666667
2026-02-06T21:33:43+00:00,SAT-58041,59.34657995823021,53.96424764181418,584.3583431189546,2.448266534909155,-85748.65020969315,10.5,10499914251.34979,47.655,-122.3035,60.0,0.13333333333333333
2026-02-06T21:33:44+00:00,SAT-58041,60.311356106992775,53.60000164362405,586.8000461891443,2.5227156953399987,-88356.17472761768,10.5,10499911643.825272,47.655,-122.3035,60.0,0.15
2026-02-06T21:33:45+00:00,SAT-58041,61.25163133748999,53.230919752441,589.3159988318399,2.596213036664954,-90930.36251426316,10.5,10499909069.637486,47.655,-122.3035,60.0,0.16666666666666666
2026-02-06T21:33:46+00:00,SAT-58041,62.16784979308482,52.85747006676149,591.905251779631,2.668747618502883,-93470.8303912044,10.5,10499906529.16961,47.655,-122.3035,60.0,0.18333333333333332
2026-02-06T21:33:47+00:00,SAT-58041,63.06048188712836,52.48010328013972,594.5668448540557,2.7403099051901796,-95977.24437916609,10.5,10499904022.755621,47.655,-122.3035,60.0,0.2
2026-02-06T21:33:48+00:00,SAT-58041,63.93001942688975,52.09925242160454,597.2998083665528,2.8108917697944396,-98449.31983859852,10.5,10499901550.68016,47.655,-122.3035,60.0,0.21666666666666667
2026-02-06T21:33:49+00:00,SAT-58041,64.77697117895977,51.71533271553918,600.1031645234157,2.8804863714946207,-100886.81717501218,10.5,10499899113.182825,47.655,-122.3035,60.0,0.23333333333333334
2026-02-06T21:33:50+00:00,SAT-58041,65.60185882748385,51.32874156389498,602.9759287084553,2.949088227465684,-103289.54435668186,10.5,10499896710.455643,47.655,-122.3035,60.0,0.25
2026-02-06T21:33:51+00:00,SAT-58041,66.40521336731898,50.93985861021554,605.9171108373574,3.016693059704837,-105657.35154985383,10.5,10499894342.64845,47.655,-122.3035,60.0,0.26666666666666666
2026-02-06T21:33:52+00:00,SAT-58041,67.18757184786315,50.54904590337115,608.9257165592728,3.083297809548324,-107990.13162718524,10.5,10499892009.868372,47.655,-122.3035,60.0,0.2833333333333333
2026-02-06T21:33:53+00:00,SAT-58041,67.94947449498878,50.15664812622541,612.0007484728887,3.148900600692086,-110287.8188725712,10.5,10499889712.181128,47.655,-122.3035,60.0,0.3
2026-02-06T21:33:54+00:00,SAT-58041,68.69146217081993,49.76299288569917,615.141207305619,3.2135006587959674,-112550.38616534395,10.5,10499887449.613834,47.655,-122.3035,60.0,0.31666666666666665
2026-02-06T21:33:55+00:00,SAT-58041,69.41407413830282,49.36839105973758,618.3460930126114,3.2770982625773444,-114777.84326736504,10.5,10499885222.156733,47.655,-122.3035,60.0,0.3333333333333333
2026-02-06T21:33:56+00:00,SAT-58041,70.11784611480833,48.973137187951295,621.6144058269864,3.3396947301364595,-116970.23634408049,10.5,10499883029.763657,47.655,-122.3035,60.0,0.35
2026-02-06T21:33:57+00:00,SAT-58041,70.80330859778347,48.57750989374342,624.9451472964292,3.40129234381803,-119127.64533285661,10.5,10499880872.354668,47.655,-122.3035,60.0,0.36666666666666664
2026-02-06T21:33:58+00:00,SAT-58041,71.47098542523644,48.18177233833419,628.337321244852,3.46189430416222,-121250.18233014822,10.5,10499878749.817669,47.655,-122.3035,60.0,0.38333333333333336
2026-02-06T21:33:59+00:00,SAT-58041,72.12139255582423,47.78617269662171,631.7899346881261,3.521504667464633,-123337.98940458552,10.5,10499876662.010595,47.655,-122.3035,60.0,0.4
2026-02-06T21:34:00+00:00,SAT-58041,72.75503704362434,47.39094465110903,635.3019986875449,3.580128320835553,-125391.23772344302,10.5,10499874608.762276,47.655,-122.3035,60.0,0.4166666666666667
2026-02-06T21:34:01+00:00,SAT-58041,73.372416194736,46.99630789467189,638.8725291784102,3.6377709404811984,-127410.12609147288,10.5,10499872589.873909,47.655,-122.3035,60.0,0.43333333333333335
2026-02-06T21:34:02+00:00,SAT-58041,73.97401688238993,46.60246863999814,642.5005477570121,3.694438897133175,-129394.87763864406,10.5,10499870605.122362,47.655,-122.3035,60.0,0.45
2026-02-06T21:34:03+00:00,SAT-58041,74.56031499557243,46.20962013761039,646.1850823732948,3.7501392553523356,-131345.73979576072,10.5,10499868654.260204,47.655,-122.3035,60.0,0.4666666666666667
2026-02-06T21:34:04+00:00,SAT-58041,75.13177501975497,45.8179431889314,649.9251680228226,3.804879705576121,-133262.98191447256,10.5,10499866737.018085,47.655,-122.3035,60.0,0.48333333333333334
2026-02-06T21:34:05+00:00,SAT-58041,75.68884972431741,45.42760665909995,653.7198473709815,3.858668530910712,-135146.8941041955,10.5,10499864853.105896,47.655,-122.3035,60.0,0.5
2026-02-06T21:34:06+00:00,SAT-58041,76.2319799479487,45.038767983472006,657.5681713440571,3.911514525731248,-136997.78438114712,10.5,10499863002.215618,47.655,-122.3035,60.0,0.5166666666666667
2026-02-06T21:34:07+00:00,SAT-58041,76.76159446340782,44.651573670751176,661.469199639134,3.963427035915936,-138815.98007751524,10.5,10499861184.019922,47.655,-122.3035,60.0,0.5333333333333333
2026-02-06T21:34:08+00:00,SAT-58041,77.27810992660551,44.26615978896451,665.4220012741195,4.014415818180349,-140601.8229147501,10.5,10499859398.177086,47.655,-122.3035,60.0,0.55
2026-02-06T21:34:09+00:00,SAT-58041,77.78193087558213,43.88265245112839,669.4256549974806,4.06449106584607,-142355.6699060913,10.5,10499857644.330093,47.655,-122.3035,60.0,0.5666666666666667
2026-02-06T21:34:10+00:00,SAT-58041,78.27344979268389,43.501168282884,673.479249723679,4.113663355039282,-144077.89147221466,10.5,10499855922.108528,47.655,-122.3035,60.0,0.5833333333333334
2026-02-06T21:34:11+00:00,SAT-58041,78.75304721071574,43.12181487936406,677.5818849149489,4.161943570368579,-145768.86883815494,10.5,10499854231.131163,47.655,-122.3035,60.0,0.6
2026-02-06T21:34:12+00:00,SAT-58041,79.22109185438028,42.744691252346065,681.7326708889535,4.209342960475545,-147428.99597892226,10.5,10499852571.00402,47.655,-122.3035,60.0,0.6166666666666667
2026-02-06T21:34:13+00:00,SAT-58041,79.67794082439613,42.36988825539612,685.9307291818416,4.255872994326343,-149058.67458622524,10.5,10499850941.325415,47.655,-122.3035,60.0,0.6333333333333333
2026-02-06T21:34:14+00:00,SAT-58041,80.1239397969887,41.9974890050235,690.1751927679803,4.301545406814656,-150658.31566567923,10.5,10499849341.684334,47.655,-122.3035,60.0,0.65
2026-02-06T21:34:15+00:00,SAT-58041,80.55942325391737,41.62756928037165,694.4652063251727,4.346372117148065,-152228.33667835192,10.5,10499847771.663322,47.655,-122.3035,60.0,0.6666666666666666
2026-02-06T21:34:16+00:00,SAT-58041,80.98471472548302,41.26019791293386,698.7999264184742,4.390365266204119,-153769.16284913098,10.5,10499846230.83715,47.655,-122.3035,60.0,0.6833333333333333
2026-02-06T21:34:17+00:00,SAT-58041,81.40012705370302,40.89543715603386,703.1785217212699,4.433537099168407,-155281.22305621268,10.5,10499844718.776943,47.655,-122.3035,60.0,0.7
2026-02-06T21:34:18+00:00,SAT-58041,81.80596265806496,40.53334304743385,707.6001731193036,4.475899993581429,-156764.95081342242,10.5,10499843235.049187,47.655,-122.3035,60.0,0.7166666666666667
2026-02-06T21:34:19+00:00,SAT-58041,82.2025138142302,40.17396575283901,712.0640738426765,4.517466468126351,-158220.7845779986,10.5,10499841779.215422,47.655,-122.3035,60.0,0.7333333333333333
