DopplerPredictor/satellites_20260211_205621/SAT-48687.csv

timestamp,satellite,azimuth_deg,elevation_deg,distance_km,relative_velocity_kms,doppler_shift_hz,tx_freq_ghz,rx_freq_hz,ue_lat,ue_lon,ue_alt_m,time_minutes
2026-02-06T21:35:25+00:00,SAT-48687,266.0814261950354,40.13225280946443,811.8696055163813,-3.973877635244772,139182.00427200244,10.5,10500139182.004272,47.655,-122.3035,60.0,1.8333333333333333
2026-02-06T21:35:26+00:00,SAT-48687,265.65266296324035,40.415718487421394,807.9063812986813,-3.932354230585962,137727.67899702335,10.5,10500137727.678997,47.655,-122.3035,60.0,1.85
2026-02-06T21:35:27+00:00,SAT-48687,265.21596927514037,40.69993464194531,803.9845691671226,-3.890215757423185,136251.81142129816,10.5,10500136251.81142,47.655,-122.3035,60.0,1.8666666666666667
2026-02-06T21:35:28+00:00,SAT-48687,264.77117694425004,40.98482866928494,800.1047825412954,-3.847456876368427,134754.21453687298,10.5,10500134754.214537,47.655,-122.3035,60.0,1.8833333333333333
2026-02-06T21:35:29+00:00,SAT-48687,264.31811545825894,41.27032400110187,796.2676401658633,-3.8040725018630193,133234.71022597142,10.5,10500133234.710226,47.655,-122.3035,60.0,1.9
2026-02-06T21:35:30+00:00,SAT-48687,263.8566121034967,41.55633998387157,792.4737658574157,-3.760057729326244,131693.1267094303,10.5,10500131693.126709,47.655,-122.3035,60.0,1.9166666666666667
2026-02-06T21:35:31+00:00,SAT-48687,263.3864921179884,41.842791752274856,788.723788323974,-3.715407891013384,130129.30050308513,10.5,10500130129.300503,47.655,-122.3035,60.0,1.9333333333333333
2026-02-06T21:35:32+00:00,SAT-48687,262.90757886116245,42.129590106433355,785.0183409287899,-3.6701185918118027,128543.0776715001,10.5,10500128543.077671,47.655,-122.3035,60.0,1.95
2026-02-06T21:35:33+00:00,SAT-48687,262.4196940030427,42.41664139218891,781.3580614184465,-3.624185648728616,126934.3117085703,10.5,10500126934.311708,47.655,-122.3035,60.0,1.9666666666666666
2026-02-06T21:35:34+00:00,SAT-48687,261.92265774720966,42.7038473774553,777.7435917113045,-3.5776052230778883,125302.86816727667,10.5,10500125302.868168,47.655,-122.3035,60.0,1.9833333333333334
2026-02-06T21:35:35+00:00,SAT-48687,261.41628906484385,42.991105140269006,774.1755775541202,-3.530373722597506,123648.62123140473,10.5,10500123648.621231,47.655,-122.3035,60.0,2.0
2026-02-06T21:35:36+00:00,SAT-48687,260.9004059711554,43.27830695122684,770.6546682762814,-3.4824879021808774,121971.45724359486,10.5,10500121971.457243,47.655,-122.3035,60.0,2.0166666666666666
2026-02-06T21:35:37+00:00,SAT-48687,260.37482582006606,43.56534016667636,767.1815164435828,-3.4339448117794524,120271.27288066817,10.5,10500120271.27288,47.655,-122.3035,60.0,2.033333333333333
2026-02-06T21:35:38+00:00,SAT-48687,259.8393656401099,43.8520871212495,763.7567775639595,-3.3847418935277114,118547.97855535435,10.5,10500118547.978556,47.655,-122.3035,60.0,2.05
2026-02-06T21:35:39+00:00,SAT-48687,259.2938424921734,44.13842503278693,760.3811096963539,-3.3348769212844505,116801.4962987719,10.5,10500116801.496298,47.655,-122.3035,60.0,2.066666666666667
2026-02-06T21:35:40+00:00,SAT-48687,258.73807387364684,44.42422590762287,757.0551731198824,-3.284348071912133,115031.76225693242,10.5,10500115031.762257,47.655,-122.3035,60.0,2.0833333333333335
2026-02-06T21:35:41+00:00,SAT-48687,258.17187815208155,44.70935645815347,753.7796299319109,-3.233153907298358,113238.72606105641,10.5,10500113238.72606,47.655,-122.3035,60.0,2.1
2026-02-06T21:35:42+00:00,SAT-48687,257.59507504353576,44.99367802630091,750.5551436640627,-3.1812934412358054,111422.35316999188,10.5,10500111422.35317,47.655,-122.3035,60.0,2.1166666666666667
2026-02-06T21:35:43+00:00,SAT-48687,257.00748612371996,45.277046521373165,747.3823788315243,-3.1287660907587904,109582.6231658146,10.5,10500109582.623165,47.655,-122.3035,60.0,2.1333333333333333
2026-02-06T21:35:44+00:00,SAT-48687,256.4089353930801,45.55931236346413,744.2620005308852,-3.07557173621002,107719.53185762002,10.5,10500107719.531858,47.655,-122.3035,60.0,2.15
2026-02-06T21:35:45+00:00,SAT-48687,255.7992498796762,45.84032044318224,741.1946739780709,-3.0217107641305216,105833.09278370997,10.5,10500105833.092783,47.655,-122.3035,60.0,2.1666666666666665
2026-02-06T21:35:46+00:00,SAT-48687,255.1782602827258,46.119910097857705,738.1810640035028,-2.9671840118260864,103923.33527007511,10.5,10500103923.33527,47.655,-122.3035,60.0,2.183333333333333
2026-02-06T21:35:47+00:00,SAT-48687,254.54580167734022,46.39791509662963,735.2218346025411,-2.9119928414095497,101990.3070236686,10.5,10500101990.307024,47.655,-122.3035,60.0,2.2
2026-02-06T21:35:48+00:00,SAT-48687,253.90171425719598,46.67416364772259,732.3176484120844,-2.8561391423474816,100034.07422160218,10.5,10500100034.07422,47.655,-122.3035,60.0,2.216666666666667
2026-02-06T21:35:49+00:00,SAT-48687,253.2458441294171,46.94847842308493,729.4691661846302,-2.799625350223532,98054.72216831782,10.5,10500098054.722168,47.655,-122.3035,60.0,2.2333333333333334
2026-02-06T21:35:50+00:00,SAT-48687,252.57804415837742,47.220676603514626,726.6770462436224,-2.74245445011276,96052.35541377087,10.5,10500096052.355413,47.655,-122.3035,60.0,2.25
2026-02-06T21:35:51+00:00,SAT-48687,251.89817486272068,47.49056994449102,723.9419439354317,-2.6846300183382343,94027.09921592311,10.5,10500094027.099216,47.655,-122.3035,60.0,2.2666666666666666
2026-02-06T21:35:52+00:00,SAT-48687,251.20610535586616,47.7579648682059,721.2645110396936,-2.6261561841364043,91979.09819810158,10.5,10500091979.098198,47.655,-122.3035,60.0,2.283333333333333
2026-02-06T21:35:53+00:00,SAT-48687,250.50171434817543,48.02266257567607,718.6453952178773,-2.5670377309377974,89908.51989627728,10.5,10500089908.519896,47.655,-122.3035,60.0,2.3
2026-02-06T21:35:54+00:00,SAT-48687,249.78489117531453,48.28445919461607,716.0852393608451,-2.507280015990795,87815.55194394966,10.5,10500087815.551945,47.655,-122.3035,60.0,2.316666666666667
2026-02-06T21:35:55+00:00,SAT-48687,249.055536894988,48.543145946725254,713.5846810165724,-2.4468890478778547,85700.40478709266,10.5,10500085700.404787,47.655,-122.3035,60.0,2.3333333333333335
2026-02-06T21:35:56+00:00,SAT-48687,248.31356541005607,48.79850935195945,711.1443517405611,-2.3858714690444343,83563.31107224373,10.5,10500083563.311071,47.655,-122.3035,60.0,2.35
2026-02-06T21:35:57+00:00,SAT-48687,247.55890463772525,49.0503314619539,708.764876463675,-2.3242345866945655,81404.5267285975,10.5,10500081404.526728,47.655,-122.3035,60.0,2.3666666666666667
2026-02-06T21:35:58+00:00,SAT-48687,246.79149770724362,49.29839012919788,706.446872829163,-2.2619863354914593,79224.32966162318,10.5,10500079224.329662,47.655,-122.3035,60.0,2.3833333333333333
2026-02-06T21:35:59+00:00,SAT-48687,246.01130420083913,49.54245930627045,704.190950566883,-2.1991353696252016,77023.02297766482,10.5,10500077023.022978,47.655,-122.3035,60.0,2.4
2026-02-06T21:36:00+00:00,SAT-48687,245.21830139085574,49.78230939036605,701.9977107757029,-2.135690979233218,74800.93205663229,10.5,10500074800.932056,47.655,-122.3035,60.0,2.4166666666666665
2026-02-06T21:36:01+00:00,SAT-48687,244.4124855200866,50.01770759555836,699.8677452892597,-2.0716631440924216,72558.40643252748,10.5,10500072558.406433,47.655,-122.3035,60.0,2.433333333333333
2026-02-06T21:36:02+00:00,SAT-48687,243.5938730740947,50.2484183685112,697.8016359881669,-2.0070625409455816,70295.82005004479,10.5,10500070295.82005,47.655,-122.3035,60.0,2.45
2026-02-06T21:36:03+00:00,SAT-48687,242.76250204801883,50.474203843579815,695.7999541049189,-1.9419005307361137,68013.57081747933,10.5,10500068013.570818,47.655,-122.3035,60.0,2.466666666666667
2026-02-06T21:36:04+00:00,SAT-48687,241.9184332046337,50.69482433557693,693.8632595415235,-1.8761891615590587,65712.08071008282,10.5,10500065712.08071,47.655,-122.3035,60.0,2.4833333333333334
2026-02-06T21:36:05+00:00,SAT-48687,241.06175130588747,50.91003887211386,691.9921001841923,-1.8099411667881633,63391.795704466036,10.5,10500063391.795704,47.655,-122.3035,60.0,2.5
2026-02-06T21:36:06+00:00,SAT-48687,240.19256630639552,51.119605764854,690.1870112199003,-1.7431699708439234,61053.18598061995,10.5,10500061053.18598,47.655,-122.3035,60.0,2.5166666666666666
2026-02-06T21:36:07+00:00,SAT-48687,239.31101449060253,51.323283220027676,688.4485144471909,-1.6758896766715554,58696.74548334145,10.5,10500058696.745483,47.655,-122.3035,60.0,2.533333333333333
2026-02-06T21:36:08+00:00,SAT-48687,238.41725954608606,51.5208299851684,686.7771175994694,-1.6081150718486552,56322.99213614933,10.5,10500056322.992136,47.655,-122.3035,60.0,2.55
2026-02-06T21:36:09+00:00,SAT-48687,237.51149354783482,51.71200603281722,685.1733136622087,-1.5398615861228,53932.46635407153,10.5,10500053932.466354,47.655,-122.3035,60.0,2.566666666666667
2026-02-06T21:36:10+00:00,SAT-48687,236.5939378614519,51.89657327351369,683.6375802324975,-1.4711453510370365,51525.73313198188,10.5,10500051525.733131,47.655,-122.3035,60.0,2.5833333333333335
2026-02-06T21:36:11+00:00,SAT-48687,235.66484389426492,52.07429630782538,682.1703788191286,-1.40198309448025,49103.37835130804,10.5,10500049103.378351,47.655,-122.3035,60.0,2.6
2026-02-06T21:36:12+00:00,SAT-48687,234.7244937649136,52.24494319471432,680.772154247851,-1.332392209096467,46666.011176014654,10.5,10500046666.011175,47.655,-122.3035,60.0,2.6166666666666667
2026-02-06T21:36:13+00:00,SAT-48687,233.7732007804452,52.40828625355993,679.4433339983968,-1.262390693976675,44214.26201040416,10.5,10500044214.26201,47.655,-122.3035,60.0,2.6333333333333333
2026-02-06T21:36:14+00:00,SAT-48687,232.81130977167624,52.5641028805801,678.1843275996607,-1.191997153674018,41748.78246462487,10.5,10500041748.782465,47.655,-122.3035,60.0,2.65
2026-02-06T21:36:15+00:00,SAT-48687,231.8391972399849,52.71217638197096,676.99552602586,-1.1212307532302885,39270.24377950839,10.5,10500039270.24378,47.655,-122.3035,60.0,2.6666666666666665
2026-02-06T21:36:16+00:00,SAT-48687,230.85727132880464,52.852296813240145,675.8773011375492,-1.0501112366337042,36779.33747303908,10.5,10500036779.337473,47.655,-122.3035,60.0,2.683333333333333
2026-02-06T21:36:17+00:00,SAT-48687,229.86597156087933,52.98426182702327,674.8300051042256,-0.9786588736451467,34276.77347798403,10.5,10500034276.773478,47.655,-122.3035,60.0,2.7
2026-02-06T21:36:18+00:00,SAT-48687,228.8657683799846,53.107877514495925,673.8539698799659,-0.9068944443448479,31763.279600652604,10.5,10500031763.2796,47.655,-122.3035,60.0,2.716666666666667
2026-02-06T21:36:19+00:00,SAT-48687,227.8571624610958,53.22295923864904,672.949506694475,-0.8348392068139336,29239.600388967432,10.5,10500029239.60039,47.655,-122.3035,60.0,2.7333333333333334
2026-02-06T21:36:20+00:00,SAT-48687,226.84068379517828,53.32933245063444,672.1169055763664,-0.7625148766701928,26706.496415720456,10.5,10500026706.496416,47.655,-122.3035,60.0,2.75
2026-02-06T21:36:21+00:00,SAT-48687,225.81689053312988,53.426833483772576,671.3564348968537,-0.6899436003181834,24164.74334167848,10.5,10500024164.743341,47.655,-122.3035,60.0,2.7666666666666666
2026-02-06T21:36:22+00:00,SAT-48687,224.78636758889064,53.51531031740878,670.6683409401157,-0.6171479001774984,21615.129997245407,10.5,10500021615.129997,47.655,-122.3035,60.0,2.783333333333333
2026-02-06T21:36:23+00:00,SAT-48687,223.7497250410787,53.59462329996467,670.0528475282921,-0.5441506702010304,19058.45822549285,10.5,10500019058.458225,47.655,-122.3035,60.0,2.8
2026-02-06T21:36:24+00:00,SAT-48687,222.70759627662164,53.66464583066737,669.5101556509452,-0.4709751242352687,16495.54107351934,10.5,10500016495.541073,47.655,-122.3035,60.0,2.816666666666667
2026-02-06T21:36:25+00:00,SAT-48687,221.660635940476,53.725264987165716,669.0404431460232,-0.39764476679804417,13927.201768963325,10.5,10500013927.201769,47.655,-122.3035,60.0,2.8333333333333335
2026-02-06T21:36:26+00:00,SAT-48687,220.6095176773852,53.776382095488714,668.6438644099699,-0.32418334862810333,11354.272163161238,10.5,10500011354.272163,47.655,-122.3035,60.0,2.85
2026-02-06T21:36:27+00:00,SAT-48687,219.55493170583384,53.817913234396734,668.3205501521621,-0.25061484053491423,8777.591815257072,10.5,10500008777.591816,47.655,-122.3035,60.0,2.8666666666666667
2026-02-06T21:36:28+00:00,SAT-48687,218.4975822079995,53.84978967107664,668.0706071754299,-0.1769633869364535,6198.006364899152,10.5,10500006198.006365,47.655,-122.3035,60.0,2.8833333333333333
2026-02-06T21:36:29+00:00,SAT-48687,217.43818459347602,53.87195822079508,667.8941182029128,-0.10325326792212447,3616.3662035230614,10.5,10500003616.366203,47.655,-122.3035,60.0,2.9
2026-02-06T21:36:30+00:00,SAT-48687,216.37746265058797,53.88438152762163,667.791141742753,-0.02950885964985929,1033.52508729063,10.5,10500001033.525087,47.655,-122.3035,60.0,2.9166666666666665
2026-02-06T21:36:31+00:00,SAT-48687,215.31614561461413,53.8870382628417,667.7617119922837,0.04424540256956749,-1549.661155853556,10.5,10499998450.338844,47.655,-122.3035,60.0,2.933333333333333
2026-02-06T21:36:32+00:00,SAT-48687,214.2549651615656,53.87992323915538,667.8058387790347,0.11798506976456108,-4132.3362195052,10.5,10499995867.66378,47.655,-122.3035,60.0,2.95
2026-02-06T21:36:33+00:00,SAT-48687,213.19465240269102,53.86304743826552,667.9235075471094,0.19168571593251907,-6713.6446017312755,10.5,10499993286.355398,47.655,-122.3035,60.0,2.966666666666667
2026-02-06T21:36:34+00:00,SAT-48687,212.1359348699858,53.836437952685486,668.1146793800899,0.265322979516028,-9292.73305774188,10.5,10499990707.266943,47.655,-122.3035,60.0,2.9833333333333334
2026-02-06T21:36:35+00:00,SAT-48687,211.07953354047396,53.80013784179151,668.3792910653124,0.3388726038101464,-11868.752015124202,10.5,10499988131.247984,47.655,-122.3035,60.0,3.0
2026-02-06T21:36:36+00:00,SAT-48687,210.0261599265093,53.75420590392613,668.7172551984362,0.41231047614424354,-14440.856946156255,10.5,10499985559.143053,47.655,-122.3035,60.0,3.0166666666666666
2026-02-06T21:36:37+00:00,SAT-48687,208.9765132657332,53.69871636728316,669.1284603270929,0.48561266671684994,-17008.209727967624,10.5,10499982991.790272,47.655,-122.3035,60.0,3.033333333333333
2026-02-06T21:36:38+00:00,SAT-48687,207.9312778332953,53.63375850309537,669.6127711332647,0.5587554657692662,-19569.979944516464,10.5,10499980430.020056,47.655,-122.3035,60.0,3.05
2026-02-06T21:36:39+00:00,SAT-48687,206.89112040388554,53.55943616561308,670.1700286527384,0.6317154279582301,-22125.346440708046,10.5,10499977874.653559,47.655,-122.3035,60.0,3.066666666666667
2026-02-06T21:36:40+00:00,SAT-48687,205.85668786853932,53.47586726292169,670.8000505388111,0.7044693969670949,-24673.498184382264,10.5,10499975326.501816,47.655,-122.3035,60.0,3.0833333333333335
2026-02-06T21:36:41+00:00,SAT-48687,204.82860506979532,53.38318316687415,671.5026313505415,0.7769945494524817,-27213.63580551135,10.5,10499972786.364195,47.655,-122.3035,60.0,3.1
2026-02-06T21:36:42+00:00,SAT-48687,203.80747281949334,53.281528065682046,672.2775428848322,0.8492684300890814,-29744.97282361704,10.5,10499970255.027176,47.655,-122.3035,60.0,3.1166666666666667
2026-02-06T21:36:43+00:00,SAT-48687,202.79386613593067,53.17105826692262,673.1245345434592,0.921268982012655,-32266.736714013256,10.5,10499967733.263287,47.655,-122.3035,60.0,3.1333333333333333
2026-02-06T21:36:44+00:00,SAT-48687,201.78833271449574,53.05194145840601,674.0433337304664,0.9929745727107812,-34778.16981460955,10.5,10499965221.830185,47.655,-122.3035,60.0,3.15
2026-02-06T21:36:45+00:00,SAT-48687,200.7913916341071,52.92435593446827,675.033646275378,1.0643640338287876,-37278.530720083254,10.5,10499962721.46928,47.655,-122.3035,60.0,3.1666666666666665
2026-02-06T21:36:46+00:00,SAT-48687,199.80353228591306,52.78848979294321,676.0951568961144,1.1354166827152214,-39767.09503649296,10.5,10499960232.904964,47.655,-122.3035,60.0,3.183333333333333
2026-02-06T21:36:47+00:00,SAT-48687,198.82521354363982,52.64454011218387,677.2275296833908,1.2061123546577195,-42243.15651031506,10.5,10499957756.84349,47.655,-122.3035,60.0,3.2
2026-02-06T21:36:48+00:00,SAT-48687,197.85686315673212,52.49271211358349,678.4304086172693,1.2764314186214312,-44706.02757966989,10.5,10499955293.97242,47.655,-122.3035,60.0,3.216666666666667
2026-02-06T21:36:49+00:00,SAT-48687,196.89887737380482,52.333218318294115,679.7034180994046,1.3463548085288035,-47155.04046987211,10.5,10499952844.95953,47.655,-122.3035,60.0,3.2333333333333334
2026-02-06T21:36:50+00:00,SAT-48687,195.95162077146736,52.1662777024123,681.0461635164888,1.4158640445266697,-49589.547938294134,10.5,10499950410.452063,47.655,-122.3035,60.0,3.25
2026-02-06T21:36:51+00:00,SAT-48687,195.01542628377715,51.99211485779111,682.4582318249014,1.484941245594549,-52008.923715962075,10.5,10499947991.076284,47.655,-122.3035,60.0,3.2666666666666666
2026-02-06T21:36:52+00:00,SAT-48687,194.09059542635364,51.81095916494013,683.9391921479382,1.5535691458720942,-54412.56307941205,10.5,10499945587.43692,47.655,-122.3035,60.0,3.283333333333333
2026-02-06T21:36:53+00:00,SAT-48687,193.1773986923975,51.62304398245953,685.488596389323,1.6217311203154243,-56799.883749283494,10.5,10499943200.116251,47.655,-122.3035,60.0,3.3
2026-02-06T21:36:54+00:00,SAT-48687,192.27607610116394,51.428605856270984,687.1059798723034,1.6894112021200411,-59170.326500543364,10.5,10499940829.6735,47.655,-122.3035,60.0,3.316666666666667
2026-02-06T21:36:55+00:00,SAT-48687,191.38683788675218,51.22788375356566,688.7908619961295,1.7565940632509316,-61523.354480567956,10.5,10499938476.64552,47.655,-122.3035,60.0,3.3333333333333335
2026-02-06T21:36:56+00:00,SAT-48687,190.50986533060708,51.02111832915012,690.5427468731067,1.8232650549598757,-63858.454628230495,10.5,10499936141.545372,47.655,-122.3035,60.0,3.35
2026-02-06T21:36:57+00:00,SAT-48687,189.6453116844941,50.80855121976236,692.3611240060651,1.889410208326454,-66175.13769284938,10.5,10499933824.862307,47.655,-122.3035,60.0,3.3666666666666667
2026-02-06T21:36:58+00:00,SAT-48687,188.79330319073338,50.590424373429535,694.2454689663615,1.9550162361904189,-68472.93830186815,10.5,10499931527.061699,47.655,-122.3035,60.0,3.3833333333333333
2026-02-06T21:36:59+00:00,SAT-48687,187.95394018232696,50.366979415413226,696.1952440738148,2.020070538087911,-70751.41513374251,10.5,10499929248.584866,47.655,-122.3035,60.0,3.4
2026-02-06T21:37:00+00:00,SAT-48687,187.1272982435422,50.138457051622765,698.2098990815597,2.084561192247885,-73010.15063762142,10.5,10499926989.849363,47.655,-122.3035,60.0,3.4166666666666665
2026-02-06T21:37:01+00:00,SAT-48687,186.31342942268338,49.90509651174356,700.2888718529209,2.1484769788807734,-75248.75184901456,10.5,10499924751.248152,47.655,-122.3035,60.0,3.433333333333333
2026-02-06T21:37:02+00:00,SAT-48687,185.51236346805013,49.66713502895917,702.4315890615111,2.211807368984691,-77466.84999773829,10.5,10499922533.150002,47.655,-122.3035,60.0,3.45
2026-02-06T21:37:03+00:00,SAT-48687,184.72410909118918,49.42480736020838,704.6374668801689,2.2745424967314416,-79664.09954075675,10.5,10499920335.90046,47.655,-122.3035,60.0,3.466666666666667
2026-02-06T21:37:04+00:00,SAT-48687,183.94865524817965,49.17834534834786,706.9059116423534,2.3366731946053405,-81840.17939289211,10.5,10499918159.820606,47.655,-122.3035,60.0,3.4833333333333334
2026-02-06T21:37:05+00:00,SAT-48687,183.18597240575878,48.927977518694874,709.2363205385849,2.3981909825689858,-83994.79254736405,10.5,10499916005.207453,47.655,-122.3035,60.0,3.5
2026-02-06T21:37:06+00:00,SAT-48687,182.43601380032678,48.673928714232446,711.6280823020801,2.4590880196879783,-86127.66438148278,10.5,10499913872.335619,47.655,-122.3035,60.0,3.5166666666666666
2026-02-06T21:37:07+00:00,SAT-48687,181.6987166936576,48.416419772234164,714.0805778461412,2.5193571267439063,-88238.54344865147,10.5,10499911761.45655,47.655,-122.3035,60.0,3.533333333333333
2026-02-06T21:37:08+00:00,SAT-48687,180.97400359120292,48.15566723335572,716.5931809240996,2.5789918097945264,-90327.20230354337,10.5,10499909672.797697,47.655,-122.3035,60.0,3.55
2026-02-06T21:37:09+00:00,SAT-48687,180.2617834208847,47.89188308189885,719.1652588127529,2.6379861726669542,-92393.43443724331,10.5,10499907606.565563,47.655,-122.3035,60.0,3.566666666666667
2026-02-06T21:37:10+00:00,SAT-48687,179.56195269894806,47.62527452712684,721.7961729085332,2.6963349692082508,-94437.05610728417,10.5,10499905562.943893,47.655,-122.3035,60.0,3.5833333333333335
2026-02-06T21:37:11+00:00,SAT-48687,178.87439663592315,47.35604380942857,724.4852793757832,2.7540335522583796,-96457.904550464,10.5,10499903542.09545,47.655,-122.3035,60.0,3.6
2026-02-06T21:37:12+00:00,SAT-48687,178.19899021013774,47.084388040289035,727.2319297441446,2.8110779004984394,-98455.8389231847,10.5,10499901544.161077,47.655,-122.3035,60.0,3.6166666666666667
2026-02-06T21:37:13+00:00,SAT-48687,177.5355991842459,46.81049906641671,730.0354715327204,2.8674645469240656,-100430.73779628801,10.5,10499899569.262203,47.655,-122.3035,60.0,3.6333333333333333
2026-02-06T21:37:14+00:00,SAT-48687,176.88408108879113,46.534563365996995,732.895248802904,2.9231906261796268,-102382.50081289929,10.5,10499897617.499187,47.655,-122.3035,60.0,3.65
2026-02-06T21:37:15+00:00,SAT-48687,176.24428614026027,46.25676196357669,735.8106027584156,2.9782537947419256,-104311.0458929231,10.5,10499895688.954107,47.655,-122.3035,60.0,3.6666666666666665
2026-02-06T21:37:16+00:00,SAT-48687,175.61605812544926,45.9772703741942,738.7808722657327,3.0326522926723305,-106216.31139586396,10.5,10499893783.688604,47.655,-122.3035,60.0,3.683333333333333
2026-02-06T21:37:17+00:00,SAT-48687,174.9992352170242,45.696258561442185,741.8053944361145,3.08638484327768,-108098.25260652702,10.5,10499891901.747393,47.655,-122.3035,60.0,3.7
2026-02-06T21:37:18+00:00,SAT-48687,174.39365075914455,45.41389092314888,744.8835051075483,3.139450684723074,-109956.84284223145,10.5,10499890043.157158,47.655,-122.3035,60.0,3.716666666666667
2026-02-06T21:37:19+00:00,SAT-48687,173.7991339920168,45.13032629050187,748.01453935823,3.191849561559467,-111792.0731560712,10.5,10499888207.926844,47.655,-122.3035,60.0,3.7333333333333334
2026-02-06T21:37:20+00:00,SAT-48687,173.21551072764115,44.845717942979995,751.1978320115902,3.243581673797259,-113603.95055325648,10.5,10499886396.049446,47.655,-122.3035,60.0,3.75
2026-02-06T21:37:21+00:00,SAT-48687,172.64260398500446,44.56021364136596,754.4327180905342,3.2946476764097583,-115392.49797372308,10.5,10499884607.502026,47.655,-122.3035,60.0,3.7666666666666666
2026-02-06T21:37:22+00:00,SAT-48687,172.08023457662978,44.27395567275659,757.7185332711847,3.3450486424631105,-117157.7530007865,10.5,10499882842.247,47.655,-122.3035,60.0,3.783333333333333
2026-02-06T21:37:23+00:00,SAT-48687,171.52822165412948,43.98708090944542,761.0546142998542,3.394786106048925,-118899.76936482408,10.5,10499881100.230635,47.655,-122.3035,60.0,3.8
2026-02-06T21:37:24+00:00,SAT-48687,170.98638320142518,43.69972087351288,764.4402994528332,3.443861950038985,-120618.61301197024,10.5,10499879381.386988,47.655,-122.3035,60.0,3.816666666666667
2026-02-06T21:37:25+00:00,SAT-48687,170.45453650398844,43.41200181926527,767.8749288842372,3.4922784747550137,-122314.36450922204,10.5,10499877685.63549,47.655,-122.3035,60.0,3.8333333333333335
2026-02-06T21:37:26+00:00,SAT-48687,169.9324985647079,43.12404481681036,771.3578450423356,3.5400383175157017,-123987.11622663592,10.5,10499876012.883774,47.655,-122.3035,60.0,3.85
2026-02-06T21:37:27+00:00,SAT-48687,169.42008649397133,42.835965848436686,774.8883930056475,3.5871444816089264,-125636.9733520572,10.5,10499874363.026648,47.655,-122.3035,60.0,3.8666666666666667
2026-02-06T21:37:28+00:00,SAT-48687,168.91711785740222,42.54787590758808,778.4659208479271,3.633600292268858,-127264.05234925225,10.5,10499872735.94765,47.655,-122.3035,60.0,3.8833333333333333
2026-02-06T21:37:29+00:00,SAT-48687,168.42341099577243,42.25988110560619,782.0897799592493,3.6794093671541135,-128868.47992392856,10.5,10499871131.520077,47.655,-122.3035,60.0,3.9
2026-02-06T21:37:30+00:00,SAT-48687,167.93878531530123,41.97208278406783,785.7593253376485,3.724575644517236,-130450.39401034891,10.5,10499869549.60599,47.655,-122.3035,60.0,3.9166666666666665
2026-02-06T21:37:31+00:00,SAT-48687,167.46306154317168,41.684577627421184,789.4739159088545,3.769103321324484,-132009.94160402488,10.5,10499867990.058395,47.655,-122.3035,60.0,3.933333333333333
2026-02-06T21:37:32+00:00,SAT-48687,166.99606196231656,41.39745778234119,793.2329147843107,3.812996880213848,-133547.27970590044,10.5,10499866452.720295,47.655,-122.3035,60.0,3.95
2026-02-06T21:37:33+00:00,SAT-48687,166.53761061540297,41.110810976189235,797.0356895460822,3.8562609876342124,-135062.57175475452,10.5,10499864937.428246,47.655,-122.3035,60.0,3.966666666666667
2026-02-06T21:37:34+00:00,SAT-48687,166.08753349624695,40.82472064377484,800.8816124301725,3.8989006216969293,-136555.99210510412,10.5,10499863444.007895,47.655,-122.3035,60.0,3.9833333333333334
2026-02-06T21:37:35+00:00,SAT-48687,165.64565870146956,40.539266044589176,804.770060637351,3.940920916674675,-138027.72058089628,10.5,10499861972.279419,47.655,-122.3035,60.0,4.0
2026-02-06T21:37:36+00:00,SAT-48687,165.21181657952124,40.25452239132072,808.7004164888951,3.9823272177134657,-139477.94439175448,10.5,10499860522.055609,47.655,-122.3035,60.0,4.016666666666667
