DopplerPredictor/satellites_20260211_205621/SAT-62859.csv

timestamp,satellite,azimuth_deg,elevation_deg,distance_km,relative_velocity_kms,doppler_shift_hz,tx_freq_ghz,rx_freq_hz,ue_lat,ue_lon,ue_alt_m,time_minutes
2026-02-06T21:42:43+00:00,SAT-62859,308.20994323141696,40.123977220674746,693.2262873830404,-2.9195618337061577,102255.40515070148,10.5,10500102255.405151,47.655,-122.3035,60.0,9.133333333333333
2026-02-06T21:42:44+00:00,SAT-62859,308.8706864041236,40.3629570727643,690.3145524917107,-2.8594118623604374,100148.69872004782,10.5,10500100148.69872,47.655,-122.3035,60.0,9.15
2026-02-06T21:42:45+00:00,SAT-62859,309.54163731830687,40.59968043214224,687.4628063179545,-2.7985073699666945,98015.56577067157,10.5,10500098015.565771,47.655,-122.3035,60.0,9.166666666666666
2026-02-06T21:42:46+00:00,SAT-62859,310.2228514836492,40.83397139893167,684.6718013600525,-2.7368522303557867,95856.14198051559,10.5,10500095856.141981,47.655,-122.3035,60.0,9.183333333333334
2026-02-06T21:42:47+00:00,SAT-62859,310.9143746829202,41.06564998552761,681.9422862528409,-2.6744510516039988,93670.58874390357,10.5,10500093670.588743,47.655,-122.3035,60.0,9.2
2026-02-06T21:42:48+00:00,SAT-62859,311.61624224548547,41.294532298621206,679.2750050354318,-2.6113092528874353,91459.09586330577,10.5,10500091459.095863,47.655,-122.3035,60.0,9.216666666666667
2026-02-06T21:42:49+00:00,SAT-62859,312.3284783212941,41.52043075175519,676.6706963422907,-2.547433032557941,89221.8804312228,10.5,10500089221.880432,47.655,-122.3035,60.0,9.233333333333333
2026-02-06T21:42:50+00:00,SAT-62859,313.0510951326266,41.74315430024558,674.1300926261473,-2.4828293894979874,86959.18757812402,10.5,10500086959.187578,47.655,-122.3035,60.0,9.25
2026-02-06T21:42:51+00:00,SAT-62859,313.7840922193643,41.96250870378482,671.653919359612,-2.4175061624086016,84671.2918484771,10.5,10500084671.29185,47.655,-122.3035,60.0,9.266666666666667
2026-02-06T21:42:52+00:00,SAT-62859,314.5274556885115,42.178296819176076,669.2428941976091,-2.351472046086247,82358.49777083317,10.5,10500082358.49777,47.655,-122.3035,60.0,9.283333333333333
2026-02-06T21:42:53+00:00,SAT-62859,315.2811574670271,42.39031892191092,666.8977261235751,-2.2847365710724374,80021.13914507013,10.5,10500080021.139145,47.655,-122.3035,60.0,9.3
2026-02-06T21:42:54+00:00,SAT-62859,316.04515455276515,42.59837305376628,664.6191146159559,-2.2173101537415847,77659.58079668114,10.5,10500077659.580797,47.655,-122.3035,60.0,9.316666666666666
2026-02-06T21:42:55+00:00,SAT-62859,316.81938828997676,42.80225540302596,662.4077487647479,-2.1492040863749624,75274.2182291227,10.5,10500075274.21823,47.655,-122.3035,60.0,9.333333333333334
2026-02-06T21:42:56+00:00,SAT-62859,317.60378365920803,43.00176071211115,660.2643063979383,-2.0804305450227365,72865.47789917629,10.5,10500072865.4779,47.655,-122.3035,60.0,9.35
2026-02-06T21:42:57+00:00,SAT-62859,318.39824859277223,43.19668271405122,658.1894532001072,-2.0110026059350936,70433.81779243588,10.5,10500070433.817793,47.655,-122.3035,60.0,9.366666666666667
2026-02-06T21:42:58+00:00,SAT-62859,319.20267332777445,43.3868145982645,656.1838418146403,-1.940934232476343,67979.72696498455,10.5,10500067979.726965,47.655,-122.3035,60.0,9.383333333333333
2026-02-06T21:42:59+00:00,SAT-62859,320.0169297933129,43.57194950228819,654.2481109589921,-1.8702402906568731,65503.726087389325,10.5,10500065503.726088,47.655,-122.3035,60.0,9.4
2026-02-06T21:43:00+00:00,SAT-62859,320.84087105122757,43.751881031206224,652.3828845244614,-1.798936544200248,63006.367271929856,10.5,10500063006.367271,47.655,-122.3035,60.0,9.416666666666666
2026-02-06T21:43:01+00:00,SAT-62859,321.67433079163385,43.926403801685346,650.5887706808829,-1.7270396500288154,60488.23391448548,10.5,10500060488.233915,47.655,-122.3035,60.0,9.433333333333334
2026-02-06T21:43:02+00:00,SAT-62859,322.5171228922584,44.095314009135826,648.8663609858243,-1.654567140929473,57949.940087416966,10.5,10500057949.940088,47.655,-122.3035,60.0,9.45
2026-02-06T21:43:03+00:00,SAT-62859,323.3690410443922,44.25841001489583,647.2162295110694,-1.5815374335417416,55392.13081934265,10.5,10500055392.13082,47.655,-122.3035,60.0,9.466666666666667
2026-02-06T21:43:04+00:00,SAT-62859,324.2298584661228,44.41549295375588,645.6389319611349,-1.5079698113768718,52815.4815003957,10.5,10500052815.4815,47.655,-122.3035,60.0,9.483333333333333
2026-02-06T21:43:05+00:00,SAT-62859,325.0993277013766,44.56636735694564,644.1350048087222,-1.433884397828959,50220.6969369592,10.5,10500050220.696938,47.655,-122.3035,60.0,9.5
2026-02-06T21:43:06+00:00,SAT-62859,325.97718050687223,44.71084178673761,642.7049644570881,-1.3593021422527727,47608.51086405287,10.5,10500047608.510864,47.655,-122.3035,60.0,9.516666666666667
2026-02-06T21:43:07+00:00,SAT-62859,326.8631278413712,44.84872948083616,641.3493064162948,-1.2842448213126978,44979.68599257866,10.5,10500044979.685993,47.655,-122.3035,60.0,9.533333333333333
2026-02-06T21:43:08+00:00,SAT-62859,327.75685997598737,44.97984900474892,640.0685044781222,-1.208734982717343,42335.01203866877,10.5,10500042335.01204,47.655,-122.3035,60.0,9.55
2026-02-06T21:43:09+00:00,SAT-62859,328.65804669855623,45.10402490261383,638.8630099470881,-1.132795937213047,39675.305443264326,10.5,10500039675.305443,47.655,-122.3035,60.0,9.566666666666666
2026-02-06T21:43:10+00:00,SAT-62859,329.566337645457,45.22108834744292,637.7332508794567,-1.0564517273612697,37001.4082785676,10.5,10500037001.40828,47.655,-122.3035,60.0,9.583333333333334
2026-02-06T21:43:11+00:00,SAT-62859,330.4813627547397,45.33087778430291,636.6796313533862,-0.979727091540242,34314.186987227484,10.5,10500034314.186987,47.655,-122.3035,60.0,9.6
2026-02-06T21:43:12+00:00,SAT-62859,331.402732839316,45.43323956164518,635.702530774976,-0.9026474272886,31614.53109847847,10.5,10500031614.5311,47.655,-122.3035,60.0,9.616666666666667
2026-02-06T21:43:13+00:00,SAT-62859,332.3300402827801,45.52802854627713,634.8023032208745,-0.8252387653760107,28903.35231998436,10.5,10500028903.35232,47.655,-122.3035,60.0,9.633333333333333
2026-02-06T21:43:14+00:00,SAT-62859,333.26285986993514,45.615108718623475,633.9792768067456,-0.74752771592832,26181.582650912987,10.5,10500026181.582651,47.655,-122.3035,60.0,9.65
2026-02-06T21:43:15+00:00,SAT-62859,334.20074972821345,45.69435374085018,633.2337531094646,-0.6695414306658075,23450.17305936022,10.5,10500023450.17306,47.655,-122.3035,60.0,9.666666666666666
2026-02-06T21:43:16+00:00,SAT-62859,335.1432523910987,45.76564749506639,632.5660066269778,-0.5913075654856327,20710.0921718289,10.5,10500020710.092173,47.655,-122.3035,60.0,9.683333333333334
2026-02-06T21:43:17+00:00,SAT-62859,336.08989598599464,45.828884587305524,631.9762842754749,-0.512854222469894,17962.324242105806,10.5,10500017962.324242,47.655,-122.3035,60.0,9.7
2026-02-06T21:43:18+00:00,SAT-62859,337.0401955174298,45.883970810920715,631.4648049444014,-0.4342099098649734,15207.867749569006,10.5,10500015207.86775,47.655,-122.3035,60.0,9.716666666666667
2026-02-06T21:43:19+00:00,SAT-62859,337.9936542619761,45.930823567348426,631.0317590913836,-0.35540348718973586,12447.733476644788,10.5,10500012447.733477,47.655,-122.3035,60.0,9.733333333333333
2026-02-06T21:43:20+00:00,SAT-62859,338.9497652496064,45.969372238994,630.6773083918976,-0.27646411429361284,9682.942724606284,10.5,10500009682.942724,47.655,-122.3035,60.0,9.75
2026-02-06T21:43:21+00:00,SAT-62859,339.9080128261902,45.999558511363865,630.4015854397422,-0.1974212007210146,6914.52554010099,10.5,10500006914.52554,47.655,-122.3035,60.0,9.766666666666667
2026-02-06T21:43:22+00:00,SAT-62859,340.8678742926144,46.02133664156342,630.2046934980161,-0.11830434940286727,4143.5187429902135,10.5,10500004143.518744,47.655,-122.3035,60.0,9.783333333333333
2026-02-06T21:43:23+00:00,SAT-62859,341.82882159705434,46.03467367011277,630.086706306248,-0.03914330104961965,1370.9639787569515,10.5,10500001370.963978,47.655,-122.3035,60.0,9.8
2026-02-06T21:43:24+00:00,SAT-62859,342.7903230693171,46.039549574191646,630.0476679429868,0.04003211946060612,-1402.0941592078486,10.5,10499998597.90584,47.655,-122.3035,60.0,9.816666666666666
2026-02-06T21:43:25+00:00,SAT-62859,343.7518451922024,46.03595736111039,630.0875927418593,0.11919206066433054,-4174.61014638157,10.5,10499995825.389854,47.655,-122.3035,60.0,9.833333333333334
2026-02-06T21:43:26+00:00,SAT-62859,344.7128543782071,46.0239031007007,630.2064652650575,0.19830669945165505,-6945.539451303935,10.5,10499993054.460548,47.655,-122.3035,60.0,9.85
2026-02-06T21:43:27+00:00,SAT-62859,345.6728187584044,46.00340589660544,630.4042403316143,0.2773462978422874,-9713.840524113579,10.5,10499990286.159475,47.655,-122.3035,60.0,9.866666666666667
2026-02-06T21:43:28+00:00,SAT-62859,346.6312099478407,45.97449779654556,630.6808431023057,0.3562812573889435,-12478.4767019853,10.5,10499987521.523298,47.655,-122.3035,60.0,9.883333333333333
2026-02-06T21:43:29+00:00,SAT-62859,347.58750478468244,45.93722364264525,631.0361692188104,0.4350821773190861,-15238.418245499706,10.5,10499984761.581755,47.655,-122.3035,60.0,9.9
2026-02-06T21:43:30+00:00,SAT-62859,348.5411870332007,45.891640862818804,631.4700850008535,0.5137199023676803,-17992.644013948622,10.5,10499982007.355986,47.655,-122.3035,60.0,9.916666666666666
2026-02-06T21:43:31+00:00,SAT-62859,349.49174901245914,45.83781920622825,631.9824276910564,0.5921655833888807,-20740.143588212773,10.5,10499979259.856411,47.655,-122.3035,60.0,9.933333333333334
2026-02-06T21:43:32+00:00,SAT-62859,350.4386931774211,45.775840423885796,632.5730057602349,0.6703907249976958,-23479.918939374405,10.5,10499976520.08106,47.655,-122.3035,60.0,9.95
2026-02-06T21:43:33+00:00,SAT-62859,351.3815336051616,45.70579789864422,633.2415992602125,0.7483672339844009,-26210.986124394793,10.5,10499973789.013876,47.655,-122.3035,60.0,9.966666666666667
2026-02-06T21:43:34+00:00,SAT-62859,352.3197973899046,45.6277962277806,633.9879602249175,0.8260674712890304,-28932.37710648084,10.5,10499971067.622894,47.655,-122.3035,60.0,9.983333333333333
