DopplerPredictor/satellites_20260211_205621/SAT-48577.csv

timestamp,satellite,azimuth_deg,elevation_deg,distance_km,relative_velocity_kms,doppler_shift_hz,tx_freq_ghz,rx_freq_hz,ue_lat,ue_lon,ue_alt_m,time_minutes
2026-02-06T21:41:27+00:00,SAT-48577,300.3931354720046,40.13678231651161,813.2317526592421,-3.470118584426296,121538.23141366722,10.5,10500121538.231413,47.655,-122.3035,60.0,7.866666666666666
2026-02-06T21:41:28+00:00,SAT-48577,300.88963462582075,40.38498646573475,809.7709369838643,-3.424877948183093,119953.71296472868,10.5,10500119953.712965,47.655,-122.3035,60.0,7.883333333333334
2026-02-06T21:41:29+00:00,SAT-48577,301.39401709367314,40.632789372116314,806.3552406608272,-3.3790565005447664,118348.85204390314,10.5,10500118348.852043,47.655,-122.3035,60.0,7.9
2026-02-06T21:41:30+00:00,SAT-48577,301.90639595981975,40.88009650218394,802.9852429444505,-3.3326522889571395,116723.58026448407,10.5,10500116723.580265,47.655,-122.3035,60.0,7.916666666666667
2026-02-06T21:41:31+00:00,SAT-48577,302.4268829272211,41.1268098790663,799.6615250363741,-3.2856636954772958,115077.84095926658,10.5,10500115077.84096,47.655,-122.3035,60.0,7.933333333333334
2026-02-06T21:41:32+00:00,SAT-48577,302.95558803736776,41.372828051994794,796.3846697518428,-3.238089377941932,113411.58712001449,10.5,10500113411.58712,47.655,-122.3035,60.0,7.95
2026-02-06T21:41:33+00:00,SAT-48577,303.49261936091744,41.61804606682278,793.1552612446668,-3.1899283314029954,111724.78354919607,10.5,10500111724.783548,47.655,-122.3035,60.0,7.966666666666667
2026-02-06T21:41:34+00:00,SAT-48577,304.03808267631825,41.862355447008746,789.9738846709101,-3.1411798829613766,110017.40667903813,10.5,10500110017.40668,47.655,-122.3035,60.0,7.983333333333333
2026-02-06T21:41:35+00:00,SAT-48577,304.59208112624236,42.10564418079848,786.8411258577322,-3.0918437086706803,108289.44516356761,10.5,10500108289.445164,47.655,-122.3035,60.0,8.0
2026-02-06T21:41:36+00:00,SAT-48577,305.15471485468044,42.34779671690049,783.7575709553697,-3.0419198480692606,106540.90038758493,10.5,10500106540.900387,47.655,-122.3035,60.0,8.016666666666667
2026-02-06T21:41:37+00:00,SAT-48577,305.7260806243527,42.58869396917375,780.7238060746282,-2.9914087008014505,104771.7863483251,10.5,10500104771.786348,47.655,-122.3035,60.0,8.033333333333333
2026-02-06T21:41:38+00:00,SAT-48577,306.3062714106438,42.8282133296045,777.7404169277394,-2.9403110951697995,102982.13205644718,10.5,10500102982.132057,47.655,-122.3035,60.0,8.05
2026-02-06T21:41:39+00:00,SAT-48577,306.8953759859971,43.0662286960502,774.8079884008528,-2.8886282001629957,101171.97845487979,10.5,10500101171.978455,47.655,-122.3035,60.0,8.066666666666666
2026-02-06T21:41:40+00:00,SAT-48577,307.49347846508516,43.30261050296813,771.9271042142634,-2.836361642274881,99341.38251031736,10.5,10500099341.382511,47.655,-122.3035,60.0,8.083333333333334
2026-02-06T21:41:41+00:00,SAT-48577,308.1006578499217,43.53722577227938,769.0983464661338,-2.783513457628495,97490.4155364015,10.5,10500097490.415537,47.655,-122.3035,60.0,8.1
2026-02-06T21:41:42+00:00,SAT-48577,308.71698754431276,43.7699381719474,766.3222952239603,-2.7300861404265726,95619.1648906625,10.5,10500095619.16489,47.655,-122.3035,60.0,8.116666666666667
2026-02-06T21:41:43+00:00,SAT-48577,309.34253485733643,44.00060809083701,763.5995280677243,-2.6760825782560596,93727.73170860964,10.5,10500093727.731709,47.655,-122.3035,60.0,8.133333333333333
2026-02-06T21:41:44+00:00,SAT-48577,309.97736047210054,44.22909272114056,760.9306196975613,-2.6215061836496876,91816.23551157421,10.5,10500091816.235512,47.655,-122.3035,60.0,8.15
2026-02-06T21:41:45+00:00,SAT-48577,310.6215179243648,44.45524616565276,758.316141410222,-2.5663607933195935,89884.81067744449,10.5,10500089884.810677,47.655,-122.3035,60.0,8.166666666666666
2026-02-06T21:41:46+00:00,SAT-48577,311.27505304118074,44.67891955104125,755.7566606760315,-2.510650757474147,87933.609568919,10.5,10500087933.60957,47.655,-122.3035,60.0,8.183333333333334
2026-02-06T21:41:47+00:00,SAT-48577,311.9380033838657,44.89996116393643,753.2527406267683,-2.454380889272066,85962.80076317562,10.5,10500085962.800764,47.655,-122.3035,60.0,8.2
2026-02-06T21:41:48+00:00,SAT-48577,312.6103976650661,45.11821659851631,750.8049395939559,-2.3975564962807088,83972.57015367426,10.5,10500083972.570154,47.655,-122.3035,60.0,8.216666666666667
2026-02-06T21:41:49+00:00,SAT-48577,313.2922551606417,45.33352892323766,748.4138106157787,-2.340183440245642,81963.12304353982,10.5,10500081963.123043,47.655,-122.3035,60.0,8.233333333333333
2026-02-06T21:41:50+00:00,SAT-48577,313.9835851294364,45.5457388700191,746.0799008843909,-2.2822680354009504,79934.68058395913,10.5,10500079934.680584,47.655,-122.3035,60.0,8.25
2026-02-06T21:41:51+00:00,SAT-48577,314.6843861986301,45.75468503184429,743.80375129464,-2.223817150280898,77887.48334005596,10.5,10500077887.48334,47.655,-122.3035,60.0,8.266666666666667
2026-02-06T21:41:52+00:00,SAT-48577,315.3946457739021,45.96020408745837,741.5858958912522,-2.1648381748755936,75821.79014054361,10.5,10500075821.79014,47.655,-122.3035,60.0,8.283333333333333
2026-02-06T21:41:53+00:00,SAT-48577,316.1143394415441,46.1621310414639,739.4268613487757,-2.1053390310389513,73737.8784422555,10.5,10500073737.878443,47.655,-122.3035,60.0,8.3
2026-02-06T21:41:54+00:00,SAT-48577,316.84343037838437,46.3602994839261,737.3271664411423,-2.045328165754267,71636.04409427739,10.5,10500071636.044094,47.655,-122.3035,60.0,8.316666666666666
2026-02-06T21:41:55+00:00,SAT-48577,317.5818687682465,46.554541868023925,735.2873215179451,-1.9848145698790167,69516.60199446937,10.5,10500069516.601994,47.655,-122.3035,60.0,8.333333333333334
2026-02-06T21:41:56+00:00,SAT-48577,318.32959123842386,46.74468980815077,733.3078279620233,-1.9238077714325454,67379.88585437238,10.5,10500067379.885855,47.655,-122.3035,60.0,8.35
2026-02-06T21:41:57+00:00,SAT-48577,319.08652031271197,46.93057439597622,731.3891776537405,-1.8623178386376333,65226.24830573673,10.5,10500065226.248306,47.655,-122.3035,60.0,8.366666666666667
2026-02-06T21:41:58+00:00,SAT-48577,319.8525638899218,47.112026535092625,729.5318524322284,-1.8003553711549762,63056.0605935165,10.5,10500063056.060593,47.655,-122.3035,60.0,8.383333333333333
2026-02-06T21:41:59+00:00,SAT-48577,320.6276147487689,47.28887729269313,727.7363235653745,-1.7379315171910066,60869.71317505783,10.5,10500060869.713175,47.655,-122.3035,60.0,8.4
2026-02-06T21:42:00+00:00,SAT-48577,321.4115500952848,47.46095827019261,726.0030512027465,-1.6750579457788244,58667.614749259825,10.5,10500058667.61475,47.655,-122.3035,60.0,8.416666666666666
2026-02-06T21:42:01+00:00,SAT-48577,322.20423114133104,47.628101987654695,724.3324838561622,-1.6117468589169002,56450.19268172335,10.5,10500056450.192682,47.655,-122.3035,60.0,8.433333333333334
2026-02-06T21:42:02+00:00,SAT-48577,323.0055027357191,47.79014228495154,722.7250578681529,-1.5480109911191726,54217.892988993444,10.5,10500054217.892988,47.655,-122.3035,60.0,8.45
2026-02-06T21:42:03+00:00,SAT-48577,323.81519305086977,47.94691473732718,721.1811968808755,-1.4838635761017511,51971.17917178686,10.5,10500051971.179173,47.655,-122.3035,60.0,8.466666666666667
2026-02-06T21:42:04+00:00,SAT-48577,324.6331133144006,48.09825708069183,719.701311338248,-1.4193183660692212,49710.532890479924,10.5,10500049710.53289,47.655,-122.3035,60.0,8.483333333333333
2026-02-06T21:42:05+00:00,SAT-48577,325.45905761759957,48.244009650402845,718.2857979688522,-1.354389609192123,47436.45317627468,10.5,10500047436.453176,47.655,-122.3035,60.0,8.5
2026-02-06T21:42:06+00:00,SAT-48577,326.29280278635457,48.38401582762244,716.9350392912966,-1.2890920384982836,45149.456042126236,10.5,10500045149.456041,47.655,-122.3035,60.0,8.516666666666667
2026-02-06T21:42:07+00:00,SAT-48577,327.13410832626624,48.51812249246307,715.6494031306587,-1.2234408667240408,42850.074302411005,10.5,10500042850.074303,47.655,-122.3035,60.0,8.533333333333333
2026-02-06T21:42:08+00:00,SAT-48577,327.9827164505825,48.646180482468125,714.4292421400635,-1.1574517599882093,40538.856650877446,10.5,10500040538.856651,47.655,-122.3035,60.0,8.55
2026-02-06T21:42:09+00:00,SAT-48577,328.83835218372815,48.76804505196492,713.2748933485155,-1.0911408351074041,38216.36756661752,10.5,10500038216.367567,47.655,-122.3035,60.0,8.566666666666666
2026-02-06T21:42:10+00:00,SAT-48577,329.70072355913567,48.88357633232896,712.1866777114095,-1.0245246357944624,35883.18648043459,10.5,10500035883.18648,47.655,-122.3035,60.0,8.583333333333334
2026-02-06T21:42:11+00:00,SAT-48577,330.5695219025518,48.9926397884304,711.1648996847791,-0.9576201230645212,33539.9074388238,10.5,10500033539.907438,47.655,-122.3035,60.0,8.6
2026-02-06T21:42:12+00:00,SAT-48577,331.44442221389414,49.09510667006515,710.2098468091131,-0.8904446370819447,31187.13776769,10.5,10500031187.137768,47.655,-122.3035,60.0,8.616666666666667
2026-02-06T21:42:13+00:00,SAT-48577,332.3250836271187,49.19085445259532,709.3217893312217,-0.8230159098823343,28825.498517926393,10.5,10500028825.498518,47.655,-122.3035,60.0,8.633333333333333
2026-02-06T21:42:14+00:00,SAT-48577,333.21114999283077,49.27976726939517,708.5009798134174,-0.7553520043122124,26455.62232682395,10.5,10500026455.622326,47.655,-122.3035,60.0,8.65
2026-02-06T21:42:15+00:00,SAT-48577,334.1022505196169,49.36173632535938,707.7476528035902,-0.6874713331167388,24078.154086603998,10.5,10500024078.154087,47.655,-122.3035,60.0,8.666666666666666
2026-02-06T21:42:16+00:00,SAT-48577,334.99800054897383,49.4366602972164,707.0620244862466,-0.6193925938296436,21693.748663988263,10.5,10500021693.748665,47.655,-122.3035,60.0,8.683333333333334
2026-02-06T21:42:17+00:00,SAT-48577,335.89800237690343,49.50444570873665,706.4442923984849,-0.5511347822568058,19303.071372450806,10.5,10500019303.071373,47.655,-122.3035,60.0,8.7
2026-02-06T21:42:18+00:00,SAT-48577,336.8018462065747,49.56500728658697,705.8946351325226,-0.4827171387517077,16906.79609055719,10.5,10500016906.796091,47.655,-122.3035,60.0,8.716666666666667
2026-02-06T21:42:19+00:00,SAT-48577,337.7091111492273,49.618268286872016,705.4132120918049,-0.4141591372573249,14505.604878165119,10.5,10500014505.604877,47.655,-122.3035,60.0,8.733333333333333
2026-02-06T21:42:20+00:00,SAT-48577,338.61936632246545,49.6641607944922,705.0001632580404,-0.3454804572437575,12100.18699356157,10.5,10500012100.186993,47.655,-122.3035,60.0,8.75
2026-02-06T21:42:21+00:00,SAT-48577,339.53217202137813,49.70262599111852,704.6556089862263,-0.27670094480032104,9691.237530743256,10.5,10500009691.237532,47.655,-122.3035,60.0,8.766666666666667
2026-02-06T21:42:22+00:00,SAT-48577,340.44708092984274,49.733614388428066,704.379649838474,-0.20784060262399864,7279.4570687698415,10.5,10500007279.45707,47.655,-122.3035,60.0,8.783333333333333
2026-02-06T21:42:23+00:00,SAT-48577,341.3636394273836,49.75708602790313,704.1723664278238,-0.1389195437176977,4865.550050081066,10.5,10500004865.55005,47.655,-122.3035,60.0,8.8
2026-02-06T21:42:24+00:00,SAT-48577,342.28138890187233,49.77301064153026,704.033819308232,-0.06995797467248781,2450.2241949699815,10.5,10500002450.224195,47.655,-122.3035,60.0,8.816666666666666
2026-02-06T21:42:25+00:00,SAT-48577,343.19986713461736,49.78136777534537,703.9640488812353,-0.0009761579448613173,34.189180373056054,10.5,10500000034.18918,47.655,-122.3035,60.0,8.833333333333334
2026-02-06T21:42:26+00:00,SAT-48577,344.11860967853977,49.782146872439235,703.9630753402352,0.0680056111024759,-2381.8441642584517,10.5,10499997618.155836,47.655,-122.3035,60.0,8.85
2026-02-06T21:42:27+00:00,SAT-48577,345.0371512898896,49.77534731638953,704.0308986376789,0.13696703892840464,-4797.165073272952,10.5,10499995202.834927,47.655,-122.3035,60.0,8.866666666666667
2026-02-06T21:42:28+00:00,SAT-48577,345.95502733812793,49.76097843341413,704.1674984868773,0.20588786103872542,-7211.063798364858,10.5,10499992788.936201,47.655,-122.3035,60.0,8.883333333333333
2026-02-06T21:42:29+00:00,SAT-48577,346.8717752216343,49.73905945407806,704.3728343909731,0.27474787209843377,-9622.832663233825,10.5,10499990377.167337,47.655,-122.3035,60.0,8.9
2026-02-06T21:42:30+00:00,SAT-48577,347.7869357669659,49.70961943455308,704.6468457019415,0.343526954982833,-12031.767081077625,10.5,10499987968.23292,47.655,-122.3035,60.0,8.916666666666666
2026-02-06T21:42:31+00:00,SAT-48577,348.7000546023711,49.672697138200974,704.9894517085648,0.412205112103565,-14437.166651762242,10.5,10499985562.833347,47.655,-122.3035,60.0,8.933333333333334
2026-02-06T21:42:32+00:00,SAT-48577,349.61068349992087,49.62834087825604,705.4005517556471,0.48076249087219974,-16838.33605366449,10.5,10499983161.663946,47.655,-122.3035,60.0,8.95
2026-02-06T21:42:33+00:00,SAT-48577,350.51838166048634,49.57660832351362,705.8800253886266,0.5491794128448604,-19234.586064440067,10.5,10499980765.413935,47.655,-122.3035,60.0,8.966666666666667
2026-02-06T21:42:34+00:00,SAT-48577,351.4227169514626,49.517566268262705,706.4277325272523,0.6174364040332119,-21625.23462264259,10.5,10499978374.765377,47.655,-122.3035,60.0,8.983333333333333
2026-02-06T21:42:35+00:00,SAT-48577,352.3232670842373,49.45129036819081,707.0435136694924,0.6855142189771806,-24009.607670852067,10.5,10499975990.392328,47.655,-122.3035,60.0,9.0
2026-02-06T21:42:36+00:00,SAT-48577,353.21962071492726,49.37786484506441,707.7271901194493,0.753393865818611,-26387.040033860412,10.5,10499973612.959967,47.655,-122.3035,60.0,9.016666666666667
2026-02-06T21:42:37+00:00,SAT-48577,354.1113784681606,49.29738216238443,708.4785642402819,0.8210566375603401,-28756.87651349645,10.5,10499971243.123486,47.655,-122.3035,60.0,9.033333333333333
2026-02-06T21:42:38+00:00,SAT-48577,354.99815388609414,49.209942673878025,709.2974197383027,0.8884841270506743,-31118.472413445706,10.5,10499968881.527586,47.655,-122.3035,60.0,9.05
2026-02-06T21:42:39+00:00,SAT-48577,355.8795742776786,49.11565424919388,710.1835219620197,0.9556582649458835,-33471.1948688575,10.5,10499966528.805132,47.655,-122.3035,60.0,9.066666666666666
2026-02-06T21:42:40+00:00,SAT-48577,356.7552814946918,49.01463187712424,711.136618239038,1.0225613198411938,-35814.422850932875,10.5,10499964185.577148,47.655,-122.3035,60.0,9.083333333333334
2026-02-06T21:42:41+00:00,SAT-48577,357.6249325907623,48.90699725317846,712.1564382130944,1.0891759474911087,-38147.54889082847,10.5,10499961852.451109,47.655,-122.3035,60.0,9.1
2026-02-06T21:42:42+00:00,SAT-48577,358.4882004146289,48.79287834918082,713.2426942301763,1.1554851821888603,-40469.9787777284,10.5,10499959530.021223,47.655,-122.3035,60.0,9.116666666666667
2026-02-06T21:42:43+00:00,SAT-48577,359.34477408091743,48.67240897385057,714.3950817160486,1.221472484105174,-42781.133216848066,10.5,10499957218.866783,47.655,-122.3035,60.0,9.133333333333333
2026-02-06T21:42:44+00:00,SAT-48577,0.194359372198161,48.545728321321796,715.613279600987,1.2871217262690755,-45080.44737344691,10.5,10499954919.552626,47.655,-122.3035,60.0,9.15
2026-02-06T21:42:45+00:00,SAT-48577,1.0366790231938654,48.41298051667122,716.8969507315309,1.3524172478375804,-47367.37273855833,10.5,10499952632.627262,47.655,-122.3035,60.0,9.166666666666666
2026-02-06T21:42:46+00:00,SAT-48577,1.8714729423850875,48.27431415425016,718.2457423353604,1.4173438263416873,-49641.37615692693,10.5,10499950358.623842,47.655,-122.3035,60.0,9.183333333333334
2026-02-06T21:42:47+00:00,SAT-48577,2.698498315962339,48.129881839769354,719.6592864584973,1.4818867299320047,-51901.94165687133,10.5,10499948098.058344,47.655,-122.3035,60.0,9.2
2026-02-06T21:42:48+00:00,SAT-48577,3.517529654579981,47.97983973031062,721.1372004546066,1.5460317057776163,-54148.57004396345,10.5,10499945851.429956,47.655,-122.3035,60.0,9.216666666666667
2026-02-06T21:42:49+00:00,SAT-48577,4.328358744630901,47.8243470811244,722.6790874627333,1.6097650066320022,-56380.77983147936,10.5,10499943619.22017,47.655,-122.3035,60.0,9.233333333333333
2026-02-06T21:42:50+00:00,SAT-48577,5.13079453404943,47.663565797412666,724.28453691153,1.6730733826240172,-58598.10695288465,10.5,10499941401.893047,47.655,-122.3035,60.0,9.25
2026-02-06T21:42:51+00:00,SAT-48577,5.924662938965943,47.49765999655161,725.9531250152993,1.7359441015856645,-60800.10547379906,10.5,10499939199.894526,47.655,-122.3035,60.0,9.266666666666667
2026-02-06T21:42:52+00:00,SAT-48577,6.7098065928129325,47.32679557960903,727.6844152903091,1.7983649632947019,-62986.3480908328,10.5,10499937013.651909,47.655,-122.3035,60.0,9.283333333333333
2026-02-06T21:42:53+00:00,SAT-48577,7.486084540019496,47.1511398143721,729.4779590853115,1.8603242939804048,-65156.425939155044,10.5,10499934843.57406,47.655,-122.3035,60.0,9.3
2026-02-06T21:42:54+00:00,SAT-48577,8.25337187062428,46.970860933193485,731.3332961065844,1.9218109422513274,-67309.94844986706,10.5,10499932690.05155,47.655,-122.3035,60.0,9.316666666666666
2026-02-06T21:42:55+00:00,SAT-48577,9.011559305097673,46.786127746632,733.2499549389094,1.9828143016742374,-69446.54414081188,10.5,10499930553.45586,47.655,-122.3035,60.0,9.333333333333334
2026-02-06T21:42:56+00:00,SAT-48577,9.760552745899702,46.597109271293945,735.2274535890691,2.0433243046190657,-71565.86040099844,10.5,10499928434.139599,47.655,-122.3035,60.0,9.35
2026-02-06T21:42:57+00:00,SAT-48577,10.500272789672136,46.40397437548321,737.2653000232064,2.103331426002453,-73667.56362171646,10.5,10499926332.436378,47.655,-122.3035,60.0,9.366666666666667
2026-02-06T21:42:58+00:00,SAT-48577,11.230654209759646,46.2068914423133,739.3629927079152,2.1628266672177157,-75751.33863369575,10.5,10499924248.661366,47.655,-122.3035,60.0,9.383333333333333
2026-02-06T21:42:59+00:00,SAT-48577,11.951645408406307,46.00602805258417,741.5200211353082,2.2218015711407935,-77816.88923267821,10.5,10499922183.110767,47.655,-122.3035,60.0,9.4
2026-02-06T21:43:00+00:00,SAT-48577,12.663207855114905,45.801550684773524,743.7358663630454,2.280248220575481,-79863.93812496294,10.5,10499920136.061874,47.655,-122.3035,60.0,9.416666666666666
2026-02-06T21:43:01+00:00,SAT-48577,13.365315509726555,45.5936244338892,746.0100015528158,2.3381592274416856,-81892.22654873358,10.5,10499918107.77345,47.655,-122.3035,60.0,9.433333333333334
2026-02-06T21:43:02+00:00,SAT-48577,14.057954232171607,45.3824127500282,748.3418924980346,2.395527729745169,-83901.5141679257,10.5,10499916098.485832,47.655,-122.3035,60.0,9.45
2026-02-06T21:43:03+00:00,SAT-48577,14.741121186185252,45.16807719578423,750.7309981485191,2.452347373437403,-85891.57843688226,10.5,10499914108.421562,47.655,-122.3035,60.0,9.466666666666667
2026-02-06T21:43:04+00:00,SAT-48577,15.414824236825023,44.9507772236238,753.1767711170723,2.5086123364012556,-87862.21544043373,10.5,10499912137.78456,47.655,-122.3035,60.0,9.483333333333333
2026-02-06T21:43:05+00:00,SAT-48577,16.079081357592507,44.73066996912789,755.6786582099878,2.5643172909339556,-89813.23857989293,10.5,10499910186.76142,47.655,-122.3035,60.0,9.5
2026-02-06T21:43:06+00:00,SAT-48577,16.73392003266795,44.50791006519871,758.2361009201409,2.619457420682879,-91744.4791662178,10.5,10499908255.520834,47.655,-122.3035,60.0,9.516666666666667
2026-02-06T21:43:07+00:00,SAT-48577,17.379376672801857,44.28264947186643,760.8485359369639,2.6740283771551527,-93655.78489679383,10.5,10499906344.215103,47.655,-122.3035,60.0,9.533333333333333
2026-02-06T21:43:08+00:00,SAT-48577,18.01549603162883,44.055037326423445,763.5153956130558,2.728026313797851,-95547.02104906667,10.5,10499904452.97895,47.655,-122.3035,60.0,9.55
2026-02-06T21:43:09+00:00,SAT-48577,18.642330644617992,43.82521980653099,766.236108464774,2.781447843882466,-97418.0690054781,10.5,10499902581.930994,47.655,-122.3035,60.0,9.566666666666666
2026-02-06T21:43:10+00:00,SAT-48577,19.25994027346568,43.593340012234606,769.0100996308265,2.8342900443871932,-99268.82638944015,10.5,10499900731.17361,47.655,-122.3035,60.0,9.583333333333334
2026-02-06T21:43:11+00:00,SAT-48577,19.868391369036164,43.359537862203766,771.8367913347367,2.8865504341105743,-101099.20629878232,10.5,10499898900.793701,47.655,-122.3035,60.0,9.6
2026-02-06T21:43:12+00:00,SAT-48577,20.467756548586543,43.12395000565863,774.7156033254776,2.938226970780237,-102909.13720448727,10.5,10499897090.862795,47.655,-122.3035,60.0,9.616666666666667
2026-02-06T21:43:13+00:00,SAT-48577,21.058114092565216,42.88670974763343,777.6459533152241,2.9893180579555354,-104698.5631924507,10.5,10499895301.436808,47.655,-122.3035,60.0,9.633333333333333
2026-02-06T21:43:14+00:00,SAT-48577,21.639547463613408,42.64794698610339,780.6272574239924,3.039822469074613,-106467.441303288,10.5,10499893532.558697,47.655,-122.3035,60.0,9.65
2026-02-06T21:43:15+00:00,SAT-48577,22.212144831916227,42.4077881668315,783.6589305485227,3.0897394239870906,-108215.7442128329,10.5,10499891784.255787,47.655,-122.3035,60.0,9.666666666666666
2026-02-06T21:43:16+00:00,SAT-48577,22.775998638264635,42.16635624293584,786.7403868074985,3.1390684968797644,-109943.4570073058,10.5,10499890056.542994,47.655,-122.3035,60.0,9.683333333333334
2026-02-06T21:43:17+00:00,SAT-48577,23.33120516137007,41.92377065192325,789.8710398949294,3.1878096603515864,-111650.57872700605,10.5,10499888349.421272,47.655,-122.3035,60.0,9.7
2026-02-06T21:43:18+00:00,SAT-48577,23.87786411636222,41.6801472986116,793.0503034774993,3.235963227598069,-113337.12034136539,10.5,10499886662.879658,47.655,-122.3035,60.0,9.716666666666667
2026-02-06T21:43:19+00:00,SAT-48577,24.416078265272038,41.43559855122245,796.2775915342469,3.283529884848292,-115003.10588502885,10.5,10499884996.894115,47.655,-122.3035,60.0,9.733333333333333
2026-02-06T21:43:20+00:00,SAT-48577,24.94595305562751,41.1902332429444,799.5523187286012,3.3305106205651827,-116648.5699781494,10.5,10499883351.430021,47.655,-122.3035,60.0,9.75
2026-02-06T21:43:21+00:00,SAT-48577,25.467596269162005,40.9441566861529,802.873900709803,3.3769067872531733,-118273.55999115335,10.5,10499881726.440008,47.655,-122.3035,60.0,9.766666666666667
2026-02-06T21:43:22+00:00,SAT-48577,25.98111770246638,40.697470688623476,806.2417544759727,3.422720001402815,-119878.13254037753,10.5,10499880121.86746,47.655,-122.3035,60.0,9.783333333333333
2026-02-06T21:43:23+00:00,SAT-48577,26.486628852824047,40.45027358318619,809.655298637387,3.4679522176881976,-121462.3560867768,10.5,10499878537.643913,47.655,-122.3035,60.0,9.8
2026-02-06T21:43:24+00:00,SAT-48577,26.984242636405092,40.202660257314626,813.1139537537571,3.5126056450448693,-123026.30799661786,10.5,10499876973.692003,47.655,-122.3035,60.0,9.816666666666666
